uniorb/output/strategy_4/Drop/Drop_KinoSat_110210.txt

KinoSat_110210
-------------------------
    Access    *     Start Time (UTCG)     *     Stop Time (UTCG)  *   Duration (s)        *       Station  *  Data (Mbytes)
         1   01 Jun 2027 03:14:13.261   01 Jun 2027 03:14:36.605            23.344               Magadan1          2918.000
         2   01 Jun 2027 03:14:46.626   01 Jun 2027 03:15:41.686            55.060               Magadan1          6882.500
         3   01 Jun 2027 03:15:41.686   01 Jun 2027 03:16:14.608            32.922               Magadan2          4115.250
         4   01 Jun 2027 03:16:26.047   01 Jun 2027 03:16:33.932             7.885               Magadan2           985.625
         5   01 Jun 2027 03:16:35.883   01 Jun 2027 03:17:18.269            42.386               Magadan1          5298.250
         6   01 Jun 2027 03:18:00.797   01 Jun 2027 03:18:35.848            35.051                Novosib          4381.375
         7   01 Jun 2027 03:18:42.236   01 Jun 2027 03:19:08.447            26.211                Novosib          3276.375
         8   01 Jun 2027 03:19:18.146   01 Jun 2027 03:19:25.480             7.334                Norilsk           916.750
         9   01 Jun 2027 03:19:36.527   01 Jun 2027 03:19:50.757            14.230              Murmansk1          1778.750
        10   01 Jun 2027 03:19:50.787   01 Jun 2027 03:20:05.574            14.787                Novosib          1848.375
        11   01 Jun 2027 03:20:10.098   01 Jun 2027 03:20:42.606            32.508                Novosib          4063.500
        12   01 Jun 2027 03:55:14.802   01 Jun 2027 03:56:14.464            59.662            RioGallegos          7457.750
        13   01 Jun 2027 03:57:12.160   01 Jun 2027 03:58:00.309            48.149            RioGallegos          6018.625
        14   01 Jun 2027 04:30:18.740   01 Jun 2027 04:35:09.596           290.856                Sumatra         36246.875
        15   01 Jun 2027 04:52:59.761   01 Jun 2027 04:53:09.707             9.946                Norilsk          1243.250
        16   01 Jun 2027 04:53:11.514   01 Jun 2027 04:53:18.369             6.855                Novosib           856.875
        17   01 Jun 2027 04:53:21.263   01 Jun 2027 04:53:41.814            20.551                Irkutsk          2568.875
        18   01 Jun 2027 04:53:49.048   01 Jun 2027 04:54:22.449            33.401                Norilsk          4175.125
        19   01 Jun 2027 04:54:30.903   01 Jun 2027 04:54:53.477            22.574                Norilsk          2821.750
        20   01 Jun 2027 04:55:04.582   01 Jun 2027 04:55:22.892            18.310                 Moscow          2288.750
        21   01 Jun 2027 04:55:32.250   01 Jun 2027 04:55:44.599            12.349              Murmansk2          1543.625
        22   01 Jun 2027 04:55:53.432   01 Jun 2027 04:56:03.629            10.197              Murmansk1          1274.625
        23   01 Jun 2027 04:56:06.413   01 Jun 2027 04:56:51.152            44.739                Novosib          5592.375
        24   01 Jun 2027 05:33:53.655   01 Jun 2027 05:34:35.389            41.734            RioGallegos          5216.750
        25   01 Jun 2027 06:08:15.532   01 Jun 2027 06:09:16.141            60.609                Sumatra          7576.125
        26   01 Jun 2027 06:14:19.756   01 Jun 2027 06:16:18.239           118.483                  Delhi         14810.375
        27   01 Jun 2027 06:17:32.366   01 Jun 2027 06:19:37.418           125.052                  Delhi         15631.500
        28   01 Jun 2027 06:30:56.655   01 Jun 2027 06:32:41.694           105.039                Novosib         13129.875
        29   01 Jun 2027 08:03:37.593   01 Jun 2027 08:04:05.412            27.819                 Moscow          3477.375
        30   01 Jun 2027 08:04:07.276   01 Jun 2027 08:04:41.267            33.991                 Moscow          4248.875
        31   01 Jun 2027 08:05:18.938   01 Jun 2027 08:07:28.922           129.984                Novosib         16248.000
        32   01 Jun 2027 08:07:37.826   01 Jun 2027 08:08:13.618            35.792                 Moscow          4474.000
        33   01 Jun 2027 08:08:23.157   01 Jun 2027 08:09:42.106            78.949                 Moscow          9868.625
        34   01 Jun 2027 09:14:25.169   01 Jun 2027 09:17:32.358           187.189               CapeTown         23398.625
        35   01 Jun 2027 11:28:49.834   01 Jun 2027 11:31:04.283           134.449                Anadyr2         16806.125
        36   01 Jun 2027 11:33:38.028   01 Jun 2027 11:35:00.965            82.937                Anadyr2         10367.125
        37   01 Jun 2027 13:07:10.212   01 Jun 2027 13:11:51.385           281.173               Magadan2         35146.625
        38   01 Jun 2027 15:34:54.933   01 Jun 2027 15:39:03.682           248.749            RioGallegos         31093.625
        39   01 Jun 2027 16:36:14.515   01 Jun 2027 16:40:48.173           273.658                Sumatra         34207.250
        40   01 Jun 2027 17:58:21.545   01 Jun 2027 17:59:36.009            74.464                Novosib          9308.000
        41   01 Jun 2027 18:05:58.583   01 Jun 2027 18:08:11.788           133.205                  Delhi         16650.625
        42   01 Jun 2027 19:44:31.877   01 Jun 2027 19:45:07.507            35.630                 Moscow          4453.750
        43   01 Jun 2027 21:11:50.787   01 Jun 2027 21:12:53.724            62.937                 Moscow          4274.499
        44   02 Jun 2027 03:32:38.160   02 Jun 2027 03:35:41.285           183.125              Murmansk1         22890.625
        45   02 Jun 2027 04:17:24.623   02 Jun 2027 04:17:24.806             0.183            RioGallegos            22.875
        46   02 Jun 2027 04:42:11.735   02 Jun 2027 04:45:17.277           185.542                Sumatra         23192.750
        47   02 Jun 2027 05:05:32.425   02 Jun 2027 05:07:35.189           122.764                Irkutsk         15345.500
        48   02 Jun 2027 05:08:36.177   02 Jun 2027 05:12:57.277           261.100              Murmansk2         32637.500
        49   02 Jun 2027 05:12:57.277   02 Jun 2027 05:13:54.562            57.285              Murmansk1          7160.625
        50   02 Jun 2027 05:46:44.793   02 Jun 2027 05:49:34.291           169.498            RioGallegos         21187.250
        51   02 Jun 2027 05:52:28.421   02 Jun 2027 05:53:14.340            45.919            RioGallegos          5739.875
        52   02 Jun 2027 06:21:39.746   02 Jun 2027 06:23:34.511           114.765                Sumatra         14345.625
        53   02 Jun 2027 06:31:24.251   02 Jun 2027 06:32:01.839            37.588                  Delhi          4698.500
        54   02 Jun 2027 06:33:59.452   02 Jun 2027 06:35:03.665            64.213                Novosib          8026.625
        55   02 Jun 2027 06:44:01.002   02 Jun 2027 06:46:57.518           176.516                Norilsk         22064.500
        56   02 Jun 2027 06:46:59.861   02 Jun 2027 06:47:24.958            25.097                 Moscow          3137.125
        57   02 Jun 2027 06:47:35.289   02 Jun 2027 06:49:08.511            93.222              Murmansk1         11652.750
        58   02 Jun 2027 08:21:07.919   02 Jun 2027 08:25:15.470           247.551                Norilsk         30943.875
        59   02 Jun 2027 08:25:58.514   02 Jun 2027 08:27:08.210            69.696              Murmansk2          8712.000
        60   02 Jun 2027 09:25:46.547   02 Jun 2027 09:34:58.628           552.081               CapeTown         69010.125
        61   02 Jun 2027 09:47:47.521   02 Jun 2027 09:57:42.215           594.694                 Moscow         74336.750
        62   02 Jun 2027 09:58:20.223   02 Jun 2027 09:59:59.191            98.968              Murmansk1         12371.000
        63   02 Jun 2027 10:00:41.936   02 Jun 2027 10:01:12.407            30.471              Murmansk1          3808.875
        64   02 Jun 2027 10:01:12.407   02 Jun 2027 10:01:22.121             9.714              Murmansk2          1214.250
        65   02 Jun 2027 10:05:23.476   02 Jun 2027 10:14:16.116           532.640                Anadyr1         66580.000
        66   02 Jun 2027 11:32:13.438   02 Jun 2027 11:32:56.374            42.936              Murmansk1          5367.000
        67   02 Jun 2027 11:40:49.935   02 Jun 2027 11:41:21.240            31.305                Anadyr1          3913.125
        68   02 Jun 2027 11:43:27.996   02 Jun 2027 11:45:45.396           137.400                Anadyr2         17175.000
        69   02 Jun 2027 11:47:04.298   02 Jun 2027 11:48:37.889            93.591               Magadan2         11698.875
        70   02 Jun 2027 13:19:07.855   02 Jun 2027 13:20:12.653            64.798               Magadan2          8099.750
        71   02 Jun 2027 13:21:30.856   02 Jun 2027 13:25:15.566           224.710               Magadan2         28088.750
        72   02 Jun 2027 15:05:35.895   02 Jun 2027 15:06:36.361            60.466                Irkutsk          7558.250
        73   02 Jun 2027 15:17:56.246   02 Jun 2027 15:20:14.786           138.540                Sumatra         17317.500
        74   02 Jun 2027 15:46:46.997   02 Jun 2027 15:49:42.884           175.887            RioGallegos         21985.875
        75   02 Jun 2027 16:34:29.397   02 Jun 2027 16:36:00.164            90.767                Irkutsk         11345.875
        76   02 Jun 2027 16:42:55.557   02 Jun 2027 16:43:47.280            51.723                Novosib          6465.375
        77   02 Jun 2027 16:48:19.022   02 Jun 2027 16:51:17.670           178.648                Sumatra         22331.000
        78   02 Jun 2027 18:15:06.524   02 Jun 2027 18:17:18.751           132.227                Novosib         16528.375
        79   02 Jun 2027 18:25:29.506   02 Jun 2027 18:27:17.248           107.742                  Delhi         13467.750
        80   02 Jun 2027 19:48:54.167   02 Jun 2027 19:50:14.361            80.194                 Moscow         10024.250
        81   02 Jun 2027 21:31:06.651   02 Jun 2027 21:31:55.127            48.476                 Moscow          6059.500
        82   02 Jun 2027 21:47:48.372   02 Jun 2027 21:50:50.581           182.209               CapeTown         22776.125
        83   03 Jun 2027 03:22:32.706   03 Jun 2027 03:23:54.400            81.694                Sumatra          6546.125
        84   03 Jun 2027 03:44:37.290   03 Jun 2027 03:44:38.940             1.650                Irkutsk           206.250
        85   03 Jun 2027 03:44:51.938   03 Jun 2027 03:47:54.290           182.352              Murmansk1         22794.000
        86   03 Jun 2027 04:54:10.385   03 Jun 2027 04:56:47.045           156.660                Sumatra         19582.500
        87   03 Jun 2027 05:21:03.761   03 Jun 2027 05:21:22.362            18.601              Murmansk2          2325.125
        88   03 Jun 2027 05:21:33.126   03 Jun 2027 05:22:08.792            35.666                Novosib          4458.250
        89   03 Jun 2027 05:22:15.391   03 Jun 2027 05:25:34.573           199.182                Norilsk         24897.750
        90   03 Jun 2027 05:25:41.721   03 Jun 2027 05:25:49.663             7.942              Murmansk2           992.750
        91   03 Jun 2027 05:26:53.901   03 Jun 2027 05:27:14.711            20.810              Murmansk1          2601.250
        92   03 Jun 2027 05:27:33.622   03 Jun 2027 05:27:42.816             9.194              Murmansk1          1149.250
        93   03 Jun 2027 05:59:51.493   03 Jun 2027 06:00:32.955            41.462            RioGallegos          5182.750
        94   03 Jun 2027 06:03:43.528   03 Jun 2027 06:04:33.266            49.738            RioGallegos          6217.250
        95   03 Jun 2027 06:04:45.109   03 Jun 2027 06:05:25.120            40.011            RioGallegos          5001.375
        96   03 Jun 2027 06:38:30.687   03 Jun 2027 06:43:16.546           285.859                  Delhi         35732.375
        97   03 Jun 2027 06:45:18.481   03 Jun 2027 06:46:23.147            64.666                  Delhi          8083.250
        98   03 Jun 2027 06:48:10.244   03 Jun 2027 06:50:21.579           131.335                Novosib         16416.875
        99   03 Jun 2027 06:50:44.062   03 Jun 2027 06:52:10.917            86.855                 Moscow         10856.875
       100   03 Jun 2027 06:56:11.699   03 Jun 2027 06:56:32.389            20.690                Novosib          2586.250
       101   03 Jun 2027 06:56:47.461   03 Jun 2027 06:58:29.722           102.261              Murmansk1         12782.625
       102   03 Jun 2027 06:58:43.767   03 Jun 2027 07:01:23.780           160.013                Norilsk         20001.625
       103   03 Jun 2027 07:01:25.857   03 Jun 2027 07:03:16.357           110.500              Murmansk2         13812.500
       104   03 Jun 2027 08:22:46.467   03 Jun 2027 08:24:16.640            90.173                 Moscow         11271.625
       105   03 Jun 2027 08:25:28.764   03 Jun 2027 08:26:04.874            36.110                 Moscow          4513.750
       106   03 Jun 2027 08:32:21.808   03 Jun 2027 08:35:40.570           198.762                 Moscow         24845.250
       107   03 Jun 2027 08:35:45.258   03 Jun 2027 08:37:10.783            85.525                Norilsk         10690.625
       108   03 Jun 2027 08:37:47.634   03 Jun 2027 08:39:09.778            82.144              Murmansk2         10268.000
       109   03 Jun 2027 09:37:19.297   03 Jun 2027 09:47:52.027           632.730               CapeTown         79091.250
       110   03 Jun 2027 10:00:13.267   03 Jun 2027 10:04:03.710           230.443                 Moscow         28805.375
       111   03 Jun 2027 10:04:24.101   03 Jun 2027 10:04:53.620            29.519              Murmansk2          3689.875
       112   03 Jun 2027 10:05:42.114   03 Jun 2027 10:07:22.100            99.986              Murmansk1         12498.250
       113   03 Jun 2027 10:07:24.016   03 Jun 2027 10:07:30.857             6.841              Murmansk1           855.125
       114   03 Jun 2027 10:10:45.563   03 Jun 2027 10:12:39.168           113.605              Murmansk2         14200.625
       115   03 Jun 2027 10:12:39.168   03 Jun 2027 10:13:09.748            30.580              Murmansk1          3822.500
       116   03 Jun 2027 10:17:17.261   03 Jun 2027 10:22:37.915           320.654                Anadyr1         40081.750
       117   03 Jun 2027 10:23:30.952   03 Jun 2027 10:26:51.903           200.951                Anadyr2         25118.875
       118   03 Jun 2027 11:49:10.701   03 Jun 2027 11:49:37.718            27.017              Murmansk2          3377.125
       119   03 Jun 2027 11:55:41.643   03 Jun 2027 11:57:13.388            91.745                Anadyr1         11468.125
       120   03 Jun 2027 11:57:43.571   03 Jun 2027 12:01:18.689           215.118               Magadan1         26889.750
       121   03 Jun 2027 13:31:06.338   03 Jun 2027 13:35:52.389           286.051               Magadan1         35756.375
       122   03 Jun 2027 15:17:04.425   03 Jun 2027 15:19:41.991           157.566                Irkutsk         19695.750
       123   03 Jun 2027 15:27:43.451   03 Jun 2027 15:29:43.283           119.832                Sumatra         14979.000
       124   03 Jun 2027 16:08:12.270   03 Jun 2027 16:09:53.407           101.137            RioGallegos         12642.125
       125   03 Jun 2027 16:47:20.093   03 Jun 2027 16:49:00.835           100.742                Novosib         12592.750
       126   03 Jun 2027 17:00:11.804   03 Jun 2027 17:02:21.720           129.916                Sumatra         16239.500
       127   03 Jun 2027 17:07:57.375   03 Jun 2027 17:09:51.535           114.160                Sumatra         14270.000
       128   03 Jun 2027 18:26:28.872   03 Jun 2027 18:27:08.308            39.436                Novosib          4929.500
       129   03 Jun 2027 18:29:41.733   03 Jun 2027 18:32:39.335           177.602                  Delhi         22200.250
       130   03 Jun 2027 20:00:39.920   03 Jun 2027 20:02:31.445           111.525                 Moscow         13940.625
       131   03 Jun 2027 20:07:10.866   03 Jun 2027 20:10:05.677           174.811                 Moscow         21851.375
       132   03 Jun 2027 22:01:41.972   03 Jun 2027 22:02:19.822            37.850               CapeTown          4731.250
       133   03 Jun 2027 22:11:22.578   03 Jun 2027 22:11:39.467            16.889               CapeTown          2111.125
       134   04 Jun 2027 03:33:06.512   04 Jun 2027 03:35:34.025           147.513                Sumatra          3407.125
       135   04 Jun 2027 03:56:39.462   04 Jun 2027 03:59:45.611           186.149                Norilsk         23268.625
       136   04 Jun 2027 05:06:14.636   04 Jun 2027 05:08:00.394           105.758                Sumatra         13219.750
       137   04 Jun 2027 05:15:42.978   04 Jun 2027 05:16:55.776            72.798                  Delhi          9099.750
       138   04 Jun 2027 05:31:12.290   04 Jun 2027 05:32:08.937            56.647                Irkutsk          7080.875
       139   04 Jun 2027 05:32:28.554   04 Jun 2027 05:32:36.209             7.655                Novosib           956.875
       140   04 Jun 2027 05:32:49.714   04 Jun 2027 05:33:44.567            54.853              Murmansk1          6856.625
       141   04 Jun 2027 05:33:53.475   04 Jun 2027 05:34:16.351            22.876                Norilsk          2859.500
       142   04 Jun 2027 05:34:24.513   04 Jun 2027 05:34:50.431            25.918                 Moscow          3239.750
       143   04 Jun 2027 05:35:12.056   04 Jun 2027 05:39:15.815           243.759              Murmansk1         30469.875
       144   04 Jun 2027 06:53:20.916   04 Jun 2027 06:55:14.138           113.222                  Delhi         14152.750
       145   04 Jun 2027 06:58:48.427   04 Jun 2027 07:02:03.409           194.982                Novosib         24372.750
       146   04 Jun 2027 07:02:08.479   04 Jun 2027 07:03:32.008            83.529                 Moscow         10441.125
       147   04 Jun 2027 07:08:11.916   04 Jun 2027 07:09:32.382            80.466                Novosib         10058.250
       148   04 Jun 2027 07:09:37.890   04 Jun 2027 07:13:00.492           202.602              Murmansk2         25325.250
       149   04 Jun 2027 07:13:21.354   04 Jun 2027 07:13:34.897            13.543                Norilsk          1692.875
       150   04 Jun 2027 08:34:47.788   04 Jun 2027 08:38:25.571           217.783                 Moscow         27222.875
       151   04 Jun 2027 08:38:48.835   04 Jun 2027 08:40:10.996            82.161              Murmansk1         10270.125
       152   04 Jun 2027 08:43:19.827   04 Jun 2027 08:47:41.281           261.454                 Moscow         32681.750
       153   04 Jun 2027 08:47:41.949   04 Jun 2027 08:49:03.547            81.598                Norilsk         10199.750
       154   04 Jun 2027 08:49:32.292   04 Jun 2027 08:51:10.446            98.154              Murmansk1         12269.250
       155   04 Jun 2027 09:48:59.483   04 Jun 2027 09:55:17.782           378.299               CapeTown         47287.375
       156   04 Jun 2027 10:18:22.502   04 Jun 2027 10:19:34.234            71.732              Murmansk2          8966.500
       157   04 Jun 2027 10:20:00.546   04 Jun 2027 10:20:32.971            32.425              Murmansk2          4053.125
       158   04 Jun 2027 10:22:47.000   04 Jun 2027 10:24:13.066            86.066              Murmansk2         10758.250
       159   04 Jun 2027 10:29:12.730   04 Jun 2027 10:31:16.997           124.267                Anadyr1         15533.375
       160   04 Jun 2027 10:32:20.862   04 Jun 2027 10:34:26.133           125.271                Anadyr2         15658.875
       161   04 Jun 2027 10:35:02.679   04 Jun 2027 10:38:44.573           221.894                Anadyr1         27736.750
       162   04 Jun 2027 11:58:13.935   04 Jun 2027 11:58:29.208            15.273              Murmansk2          1909.125
       163   04 Jun 2027 11:58:44.992   04 Jun 2027 11:58:51.559             6.567              Murmansk1           820.875
       164   04 Jun 2027 11:59:03.070   04 Jun 2027 11:59:15.666            12.596              Murmansk1          1574.500
       165   04 Jun 2027 11:59:36.796   04 Jun 2027 12:00:04.830            28.034              Murmansk1          3504.250
       166   04 Jun 2027 12:00:55.747   04 Jun 2027 12:01:40.265            44.518              Murmansk1          5564.750
       167   04 Jun 2027 12:08:55.569   04 Jun 2027 12:10:30.155            94.586               Magadan1         11823.250
       168   04 Jun 2027 12:11:47.286   04 Jun 2027 12:12:14.804            27.518               Magadan2          3439.750
       169   04 Jun 2027 13:43:05.525   04 Jun 2027 13:43:48.495            42.970               Magadan1          5371.250
       170   04 Jun 2027 13:43:48.495   04 Jun 2027 13:46:00.971           132.476               Magadan2         16559.500
       171   04 Jun 2027 13:46:51.630   04 Jun 2027 13:47:53.494            61.864               Magadan1          7733.000
       172   04 Jun 2027 15:23:41.073   04 Jun 2027 15:24:03.766            22.693                Irkutsk          2836.625
       173   04 Jun 2027 15:28:10.565   04 Jun 2027 15:29:30.123            79.558                Irkutsk          9944.750
       174   04 Jun 2027 15:38:36.832   04 Jun 2027 15:44:02.182           325.350                Sumatra         40668.750
       175   04 Jun 2027 17:01:17.898   04 Jun 2027 17:02:57.658            99.760                Novosib         12470.000
       176   04 Jun 2027 17:08:32.943   04 Jun 2027 17:09:10.169            37.226                Novosib          4653.250
       177   04 Jun 2027 17:12:18.928   04 Jun 2027 17:13:41.038            82.110                Sumatra         10263.750
       178   04 Jun 2027 17:20:08.535   04 Jun 2027 17:21:16.727            68.192                Sumatra          8524.000
       179   04 Jun 2027 18:41:38.910   04 Jun 2027 18:43:46.556           127.646                  Delhi         15955.750
       180   04 Jun 2027 18:49:07.051   04 Jun 2027 18:49:11.114             4.063                  Delhi           507.875
       181   04 Jun 2027 18:51:13.588   04 Jun 2027 18:52:28.452            74.864                  Delhi          9358.000
       182   04 Jun 2027 20:12:29.239   04 Jun 2027 20:15:44.214           194.975                 Moscow         24371.875
       183   04 Jun 2027 21:52:43.586   04 Jun 2027 21:53:32.371            48.785                 Moscow          6098.125
       184   04 Jun 2027 21:54:02.767   04 Jun 2027 21:54:12.784            10.017              Murmansk1          1252.125
       185   04 Jun 2027 22:13:40.903   04 Jun 2027 22:14:56.379            75.476               CapeTown          4511.750
       186   05 Jun 2027 04:08:31.238   05 Jun 2027 04:08:55.922            24.684                Norilsk          3085.500
       187   05 Jun 2027 05:18:24.743   05 Jun 2027 05:19:26.851            62.108                Sumatra          7763.500
       188   05 Jun 2027 05:26:11.854   05 Jun 2027 05:26:35.282            23.428                Sumatra          2928.500
       189   05 Jun 2027 05:27:17.360   05 Jun 2027 05:29:14.472           117.112                  Delhi         14639.000
       190   05 Jun 2027 05:32:52.180   05 Jun 2027 05:33:51.191            59.011                  Delhi          7376.375
       191   05 Jun 2027 05:44:16.540   05 Jun 2027 05:47:01.828           165.288                 Moscow         20661.000
       192   05 Jun 2027 05:47:11.613   05 Jun 2027 05:49:38.414           146.801                Norilsk         18350.125
       193   05 Jun 2027 07:03:05.663   05 Jun 2027 07:07:17.042           251.379                  Delhi         31422.375
       194   05 Jun 2027 07:11:50.961   05 Jun 2027 07:12:42.302            51.341                 Moscow          6417.625
       195   05 Jun 2027 07:13:03.503   05 Jun 2027 07:15:10.032           126.529                Novosib         15816.125
       196   05 Jun 2027 07:15:12.436   05 Jun 2027 07:15:46.469            34.033                Norilsk          4254.125
       197   05 Jun 2027 07:20:02.439   05 Jun 2027 07:20:21.740            19.301              Murmansk1          2412.625
       198   05 Jun 2027 07:20:21.740   05 Jun 2027 07:21:22.938            61.198              Murmansk2          7649.750
       199   05 Jun 2027 07:21:28.642   05 Jun 2027 07:22:08.958            40.316              Murmansk1          5039.500
       200   05 Jun 2027 07:22:15.234   05 Jun 2027 07:23:39.561            84.327                 Moscow         10540.875
       201   05 Jun 2027 07:23:40.347   05 Jun 2027 07:26:11.893           151.546              Murmansk1         18943.250
       202   05 Jun 2027 07:26:30.727   05 Jun 2027 07:27:04.862            34.135              Murmansk1          4266.875
       203   05 Jun 2027 08:46:52.048   05 Jun 2027 08:47:53.132            61.084                 Moscow          7635.500
       204   05 Jun 2027 08:50:13.395   05 Jun 2027 08:52:25.578           132.183                 Moscow         16522.875
       205   05 Jun 2027 08:55:05.423   05 Jun 2027 08:56:42.328            96.905              Murmansk1         12113.125
       206   05 Jun 2027 08:57:00.370   05 Jun 2027 09:00:52.088           231.718                Norilsk         28964.750
       207   05 Jun 2027 09:01:45.188   05 Jun 2027 09:02:25.348            40.160              Murmansk1          5020.000
       208   05 Jun 2027 09:07:48.515   05 Jun 2027 09:09:16.888            88.373                Anadyr2         11046.625
       209   05 Jun 2027 10:05:54.509   05 Jun 2027 10:06:39.716            45.207               CapeTown          5650.875
       210   05 Jun 2027 10:34:24.998   05 Jun 2027 10:36:22.615           117.617              Murmansk2         14702.125
       211   05 Jun 2027 10:41:09.486   05 Jun 2027 10:42:36.069            86.583                Anadyr1         10822.875
       212   05 Jun 2027 10:43:51.092   05 Jun 2027 10:46:17.674           146.582                Anadyr2         18322.750
       213   05 Jun 2027 10:47:39.781   05 Jun 2027 10:50:42.137           182.356                Anadyr1         22794.500
       214   05 Jun 2027 12:08:11.575   05 Jun 2027 12:08:58.369            46.794              Murmansk1          5849.250
       215   05 Jun 2027 12:19:47.436   05 Jun 2027 12:23:26.231           218.795               Magadan1         27349.375
       216   05 Jun 2027 13:55:05.313   05 Jun 2027 13:56:23.187            77.874               Magadan1          9734.250
       217   05 Jun 2027 13:58:11.581   05 Jun 2027 13:59:45.621            94.040               Magadan1         11755.000
       218   05 Jun 2027 14:52:32.061   05 Jun 2027 14:53:10.159            38.098            RioGallegos          4762.250
       219   05 Jun 2027 15:35:23.578   05 Jun 2027 15:39:34.522           250.944                Irkutsk         31368.000
       220   05 Jun 2027 15:49:51.441   05 Jun 2027 15:53:16.081           204.640                Sumatra         25580.000
       221   05 Jun 2027 15:56:14.154   05 Jun 2027 15:58:40.436           146.282                Sumatra         18285.250
       222   05 Jun 2027 17:19:59.931   05 Jun 2027 17:23:00.554           180.623                  Delhi         22577.875
       223   05 Jun 2027 17:25:11.014   05 Jun 2027 17:27:58.529           167.515                  Delhi         20939.375
       224   05 Jun 2027 20:24:21.178   05 Jun 2027 20:25:37.902            76.724                 Moscow          9590.500
       225   05 Jun 2027 20:33:50.733   05 Jun 2027 20:35:34.026           103.293                 Moscow         12911.625
       226   05 Jun 2027 22:12:11.198   05 Jun 2027 22:12:43.730            32.532                 Moscow          4066.500
       227   05 Jun 2027 22:23:47.660   05 Jun 2027 22:25:09.954            82.294               CapeTown           148.125
       228   06 Jun 2027 04:20:40.502   06 Jun 2027 04:20:43.613             3.111                Irkutsk           388.875
       229   06 Jun 2027 05:30:41.387   06 Jun 2027 05:31:02.659            21.272                Sumatra          2659.000
       230   06 Jun 2027 05:32:53.443   06 Jun 2027 05:35:04.790           131.347                Sumatra         16418.375
       231   06 Jun 2027 05:38:58.225   06 Jun 2027 05:41:28.294           150.069                  Delhi         18758.625
       232   06 Jun 2027 05:56:09.691   06 Jun 2027 05:58:10.446           120.755                Novosib         15094.375
       233   06 Jun 2027 05:58:17.202   06 Jun 2027 06:00:48.823           151.621                Norilsk         18952.625
       234   06 Jun 2027 06:01:14.531   06 Jun 2027 06:02:55.690           101.159              Murmansk1         12644.875
       235   06 Jun 2027 07:18:17.822   06 Jun 2027 07:18:50.457            32.635                  Delhi          4079.375
       236   06 Jun 2027 07:23:58.126   06 Jun 2027 07:27:17.057           198.931                Novosib         24866.375
       237   06 Jun 2027 07:32:02.981   06 Jun 2027 07:33:16.420            73.439              Murmansk2          9179.875
       238   06 Jun 2027 07:33:35.455   06 Jun 2027 07:37:36.041           240.586                Norilsk         30073.250
       239   06 Jun 2027 07:37:55.545   06 Jun 2027 07:39:18.019            82.474              Murmansk1         10309.250
       240   06 Jun 2027 09:02:16.945   06 Jun 2027 09:03:40.805            83.860                 Moscow         10482.500
       241   06 Jun 2027 09:06:27.146   06 Jun 2027 09:07:08.020            40.874              Murmansk1          5109.250
       242   06 Jun 2027 09:07:59.179   06 Jun 2027 09:08:32.689            33.510              Murmansk1          4188.750
       243   06 Jun 2027 09:10:31.609   06 Jun 2027 09:13:19.675           168.066              Murmansk1         21008.250
       244   06 Jun 2027 09:18:43.190   06 Jun 2027 09:23:04.118           260.928                Anadyr1         32616.000
       245   06 Jun 2027 10:46:50.133   06 Jun 2027 10:47:05.533            15.400              Murmansk1          1925.000
       246   06 Jun 2027 10:53:07.234   06 Jun 2027 10:54:22.630            75.396                Anadyr2          9424.500
       247   06 Jun 2027 10:57:44.887   06 Jun 2027 10:58:11.503            26.616                Anadyr2          3327.000
       248   06 Jun 2027 11:00:40.309   06 Jun 2027 11:02:40.532           120.223                Anadyr1         15027.875
       249   06 Jun 2027 12:28:53.166   06 Jun 2027 12:29:11.261            18.095                Anadyr2          2261.875
       250   06 Jun 2027 12:31:39.174   06 Jun 2027 12:36:38.174           299.000               Magadan1         37375.000
       251   06 Jun 2027 14:07:05.610   06 Jun 2027 14:08:53.044           107.434               Magadan1         13429.250
       252   06 Jun 2027 14:59:53.050   06 Jun 2027 14:59:54.980             1.930            RioGallegos           241.250
       253   06 Jun 2027 15:03:29.395   06 Jun 2027 15:03:48.479            19.084            RioGallegos          2385.500
       254   06 Jun 2027 15:05:38.009   06 Jun 2027 15:07:12.000            93.991            RioGallegos         11748.875
       255   06 Jun 2027 15:47:10.535   06 Jun 2027 15:47:46.727            36.192                Irkutsk          4524.000
       256   06 Jun 2027 15:50:13.779   06 Jun 2027 15:51:30.618            76.839                Irkutsk          9604.875
       257   06 Jun 2027 15:54:10.676   06 Jun 2027 15:56:37.003           146.327                Irkutsk         18290.875
       258   06 Jun 2027 16:02:33.145   06 Jun 2027 16:05:11.517           158.372                Sumatra         19796.500
       259   06 Jun 2027 16:08:20.102   06 Jun 2027 16:08:34.547            14.445                Sumatra          1805.625
       260   06 Jun 2027 17:22:49.012   06 Jun 2027 17:24:13.039            84.027                Novosib         10503.375
       261   06 Jun 2027 17:31:18.504   06 Jun 2027 17:34:49.802           211.298                  Delhi         26412.250
       262   06 Jun 2027 17:37:30.584   06 Jun 2027 17:40:29.024           178.440                  Delhi         22305.000
       263   06 Jun 2027 20:36:15.136   06 Jun 2027 20:38:04.494           109.358                 Moscow         13669.750
       264   06 Jun 2027 22:35:57.712   06 Jun 2027 22:36:45.642            47.930               CapeTown          1641.000
       265   07 Jun 2027 05:50:44.933   07 Jun 2027 05:53:38.088           173.155                  Delhi         21644.375
       266   07 Jun 2027 06:08:18.660   07 Jun 2027 06:09:27.796            69.136              Murmansk1          8642.000
       267   07 Jun 2027 06:09:36.580   07 Jun 2027 06:10:09.514            32.934                Novosib          4116.750
       268   07 Jun 2027 06:10:27.869   07 Jun 2027 06:11:19.865            51.996                 Moscow          6499.500
       269   07 Jun 2027 06:11:22.739   07 Jun 2027 06:12:02.889            40.150              Murmansk1          5018.750
       270   07 Jun 2027 06:12:09.660   07 Jun 2027 06:13:30.277            80.617              Murmansk2         10077.125
       271   07 Jun 2027 06:13:30.277   07 Jun 2027 06:14:42.767            72.490              Murmansk1          9061.250
       272   07 Jun 2027 07:28:13.292   07 Jun 2027 07:29:08.013            54.721                  Delhi          6840.125
       273   07 Jun 2027 07:36:43.639   07 Jun 2027 07:38:34.474           110.835                Novosib         13854.375
       274   07 Jun 2027 07:39:22.145   07 Jun 2027 07:39:47.531            25.386                 Moscow          3173.250
       275   07 Jun 2027 07:44:41.789   07 Jun 2027 07:49:35.872           294.083                Norilsk         36760.375
       276   07 Jun 2027 07:49:43.087   07 Jun 2027 07:51:19.037            95.950              Murmansk2         11993.750
       277   07 Jun 2027 09:12:10.250   07 Jun 2027 09:12:57.207            46.957                 Moscow          5869.625
       278   07 Jun 2027 09:13:32.946   07 Jun 2027 09:15:42.228           129.282                 Moscow         16160.250
       279   07 Jun 2027 09:16:04.962   07 Jun 2027 09:16:56.377            51.415              Murmansk1          6426.875
       280   07 Jun 2027 09:18:35.037   07 Jun 2027 09:19:56.235            81.198              Murmansk1         10149.750
       281   07 Jun 2027 09:22:50.585   07 Jun 2027 09:23:32.550            41.965                Norilsk          5245.625
       282   07 Jun 2027 09:30:15.668   07 Jun 2027 09:36:10.990           355.322                Anadyr2         44415.250
       283   07 Jun 2027 11:05:05.775   07 Jun 2027 11:05:59.084            53.309                Anadyr1          6663.625
       284   07 Jun 2027 11:09:04.469   07 Jun 2027 11:10:19.640            75.171                Anadyr2          9396.375
       285   07 Jun 2027 11:13:51.101   07 Jun 2027 11:14:39.592            48.491                Anadyr2          6061.375
       286   07 Jun 2027 11:15:58.629   07 Jun 2027 11:16:38.799            40.170                Anadyr2          5021.250
       287   07 Jun 2027 12:34:05.003   07 Jun 2027 12:35:41.806            96.803              Murmansk1         12100.375
       288   07 Jun 2027 12:43:32.968   07 Jun 2027 12:45:58.576           145.608               Magadan2         18201.000
       289   07 Jun 2027 12:47:39.283   07 Jun 2027 12:49:34.897           115.614               Magadan2         14451.750
       290   07 Jun 2027 14:19:06.346   07 Jun 2027 14:19:32.675            26.329               Magadan1          3291.125
       291   07 Jun 2027 14:21:18.687   07 Jun 2027 14:22:24.624            65.937               Magadan1          8242.125
       292   07 Jun 2027 15:11:34.161   07 Jun 2027 15:15:42.522           248.361            RioGallegos         31045.125
       293   07 Jun 2027 15:59:00.717   07 Jun 2027 16:00:19.353            78.636                Irkutsk          9829.500
       294   07 Jun 2027 16:03:15.015   07 Jun 2027 16:03:28.080            13.065                Irkutsk          1633.125
       295   07 Jun 2027 16:12:55.229   07 Jun 2027 16:17:12.547           257.318                Sumatra         32164.750
       296   07 Jun 2027 17:34:43.333   07 Jun 2027 17:36:38.662           115.329                Novosib         14416.125
       297   07 Jun 2027 17:43:24.839   07 Jun 2027 17:46:43.123           198.284                  Delhi         24785.500
       298   07 Jun 2027 19:22:33.201   07 Jun 2027 19:23:35.796            62.595                  Delhi          7824.375
       299   07 Jun 2027 20:45:52.517   07 Jun 2027 20:46:59.328            66.811              Murmansk1          8351.375
       300   07 Jun 2027 20:48:10.704   07 Jun 2027 20:49:48.866            98.162                 Moscow         12270.250
       301   07 Jun 2027 22:50:43.576   07 Jun 2027 22:52:37.297           113.721               CapeTown         11689.375
       302   08 Jun 2027 03:08:51.911   08 Jun 2027 03:09:50.706            58.795                Novosib          7349.375
       303   08 Jun 2027 03:09:50.850   08 Jun 2027 03:10:40.186            49.336                Norilsk          6167.000
       304   08 Jun 2027 04:18:46.303   08 Jun 2027 04:23:15.172           268.869                Sumatra         33608.625
       305   08 Jun 2027 04:44:38.019   08 Jun 2027 04:46:16.726            98.707                Novosib         12338.375
       306   08 Jun 2027 04:46:18.936   08 Jun 2027 04:49:35.127           196.191              Murmansk2         24523.875
       307   08 Jun 2027 05:22:50.898   08 Jun 2027 05:23:23.879            32.981            RioGallegos          4122.625
       308   08 Jun 2027 05:23:50.462   08 Jun 2027 05:24:40.527            50.065            RioGallegos          6258.125
       309   08 Jun 2027 05:26:45.588   08 Jun 2027 05:27:15.571            29.983            RioGallegos          3747.875
       310   08 Jun 2027 05:27:55.839   08 Jun 2027 05:28:30.773            34.934            RioGallegos          4366.750
       311   08 Jun 2027 05:28:58.108   08 Jun 2027 05:29:18.457            20.349            RioGallegos          2543.625
       312   08 Jun 2027 05:55:40.680   08 Jun 2027 05:57:33.867           113.187                Sumatra         14148.375
       313   08 Jun 2027 05:58:36.800   08 Jun 2027 05:59:19.566            42.766                Sumatra          5345.750
       314   08 Jun 2027 06:02:37.103   08 Jun 2027 06:05:48.812           191.709                  Delhi         23963.625
       315   08 Jun 2027 06:09:41.692   08 Jun 2027 06:13:12.317           210.625                Novosib         26328.125
       316   08 Jun 2027 06:13:59.947   08 Jun 2027 06:16:19.188           139.241                 Moscow         17405.125
       317   08 Jun 2027 06:20:08.906   08 Jun 2027 06:22:18.069           129.163              Murmansk1         16145.375
       318   08 Jun 2027 06:22:24.604   08 Jun 2027 06:23:27.276            62.672                 Moscow          7834.000
       319   08 Jun 2027 06:23:33.530   08 Jun 2027 06:23:59.678            26.148              Murmansk1          3268.500
       320   08 Jun 2027 06:24:02.315   08 Jun 2027 06:25:28.735            86.420              Murmansk2         10802.500
       321   08 Jun 2027 07:41:06.853   08 Jun 2027 07:44:00.944           174.091                  Delhi         21761.375
       322   08 Jun 2027 07:49:39.780   08 Jun 2027 07:50:41.706            61.926                Novosib          7740.750
       323   08 Jun 2027 07:50:45.048   08 Jun 2027 07:51:48.642            63.594                 Moscow          7949.250
       324   08 Jun 2027 07:55:47.312   08 Jun 2027 07:56:24.238            36.926                Novosib          4615.750
       325   08 Jun 2027 07:57:18.938   08 Jun 2027 08:01:30.578           251.640                Norilsk         31455.000
       326   08 Jun 2027 08:01:38.955   08 Jun 2027 08:03:20.236           101.281              Murmansk2         12660.125
       327   08 Jun 2027 09:03:39.087   08 Jun 2027 09:06:01.783           142.696               CapeTown         17837.000
       328   08 Jun 2027 09:23:23.756   08 Jun 2027 09:27:46.594           262.838                 Moscow         32854.750
       329   08 Jun 2027 09:27:46.708   08 Jun 2027 09:28:47.231            60.523              Murmansk1          7565.375
       330   08 Jun 2027 09:30:03.374   08 Jun 2027 09:30:34.899            31.525              Murmansk1          3940.625
       331   08 Jun 2027 09:31:15.607   08 Jun 2027 09:31:53.854            38.247              Murmansk1          4780.875
       332   08 Jun 2027 09:34:56.754   08 Jun 2027 09:35:43.053            46.299              Murmansk2          5787.375
       333   08 Jun 2027 09:41:58.475   08 Jun 2027 09:46:13.945           255.470                Anadyr2         31933.750
       334   08 Jun 2027 09:46:14.872   08 Jun 2027 09:49:05.013           170.141                Anadyr1         21267.625
       335   08 Jun 2027 11:06:27.801   08 Jun 2027 11:06:47.395            19.594              Murmansk2          2449.250
       336   08 Jun 2027 11:07:35.220   08 Jun 2027 11:07:51.067            15.847              Murmansk2          1980.875
       337   08 Jun 2027 11:18:40.439   08 Jun 2027 11:19:08.372            27.933                Anadyr1          3491.625
       338   08 Jun 2027 11:20:34.705   08 Jun 2027 11:21:52.066            77.361                Anadyr1          9670.125
       339   08 Jun 2027 12:55:28.349   08 Jun 2027 13:00:22.308           293.959               Magadan1         36744.875
       340   08 Jun 2027 14:33:47.926   08 Jun 2027 14:34:27.276            39.350               Magadan1          4918.750
       341   08 Jun 2027 14:35:59.649   08 Jun 2027 14:36:00.749             1.100               Magadan1           137.500
       342   08 Jun 2027 15:23:20.134   08 Jun 2027 15:27:38.320           258.186            RioGallegos         32273.250
       343   08 Jun 2027 16:10:53.363   08 Jun 2027 16:12:46.287           112.924                Irkutsk         14115.500
       344   08 Jun 2027 16:24:39.060   08 Jun 2027 16:27:17.464           158.404                Sumatra         19800.500
       345   08 Jun 2027 17:46:39.194   08 Jun 2027 17:48:59.942           140.748                Novosib         17593.500
       346   08 Jun 2027 17:54:28.302   08 Jun 2027 17:58:22.805           234.503                  Delhi         29312.875
       347   08 Jun 2027 21:00:07.590   08 Jun 2027 21:01:25.142            77.552                 Moscow          9694.000
       348   08 Jun 2027 21:02:44.773   08 Jun 2027 21:04:50.899           126.126                 Moscow         15765.750
       349   09 Jun 2027 03:20:58.919   09 Jun 2027 03:21:57.941            59.022                Novosib          7377.750
       350   09 Jun 2027 03:22:01.758   09 Jun 2027 03:25:51.751           229.993                Norilsk         28749.125
       351   09 Jun 2027 03:27:52.359   09 Jun 2027 03:27:59.637             7.278              Murmansk2           909.750
       352   09 Jun 2027 03:28:21.423   09 Jun 2027 03:29:01.883            40.460              Murmansk2          5057.500
       353   09 Jun 2027 03:29:01.883   09 Jun 2027 03:29:21.816            19.933              Murmansk1          2491.625
       354   09 Jun 2027 03:55:29.708   09 Jun 2027 03:56:15.321            45.613            RioGallegos          5701.625
       355   09 Jun 2027 04:30:33.392   09 Jun 2027 04:33:23.910           170.518                Sumatra         21314.750
       356   09 Jun 2027 04:56:46.794   09 Jun 2027 04:58:03.954            77.160                 Moscow          9645.000
       357   09 Jun 2027 04:58:09.220   09 Jun 2027 04:58:19.550            10.330                Novosib          1291.250
       358   09 Jun 2027 04:58:20.833   09 Jun 2027 05:01:46.892           206.059              Murmansk1         25757.375
       359   09 Jun 2027 05:35:25.415   09 Jun 2027 05:36:07.064            41.649            RioGallegos          5206.125
       360   09 Jun 2027 05:36:39.571   09 Jun 2027 05:37:21.481            41.910            RioGallegos          5238.750
       361   09 Jun 2027 05:39:09.488   09 Jun 2027 05:39:57.549            48.061            RioGallegos          6007.625
       362   09 Jun 2027 06:08:31.419   09 Jun 2027 06:11:36.460           185.041                Sumatra         23130.125
       363   09 Jun 2027 06:14:34.582   09 Jun 2027 06:16:59.414           144.832                  Delhi         18104.000
       364   09 Jun 2027 06:21:56.311   09 Jun 2027 06:23:36.471           100.160                Novosib         12520.000
       365   09 Jun 2027 06:24:26.592   09 Jun 2027 06:25:12.304            45.712                Irkutsk          5714.000
       366   09 Jun 2027 06:25:17.715   09 Jun 2027 06:26:17.094            59.379                Novosib          7422.375
       367   09 Jun 2027 06:26:48.712   09 Jun 2027 06:28:20.492            91.780                 Moscow         11472.500
       368   09 Jun 2027 06:32:56.112   09 Jun 2027 06:34:04.741            68.629                Novosib          8578.625
       369   09 Jun 2027 06:34:10.024   09 Jun 2027 06:37:15.402           185.378                Norilsk         23172.250
       370   09 Jun 2027 07:54:27.867   09 Jun 2027 07:56:30.005           122.138                  Delhi         15267.250
       371   09 Jun 2027 08:08:29.340   09 Jun 2027 08:08:35.366             6.026                Norilsk           753.250
       372   09 Jun 2027 08:09:28.538   09 Jun 2027 08:15:21.584           353.046              Murmansk1         44130.750
       373   09 Jun 2027 09:14:39.183   09 Jun 2027 09:22:36.255           477.072               CapeTown         59634.000
       374   09 Jun 2027 09:35:41.276   09 Jun 2027 09:45:32.595           591.319                 Moscow         73914.875
       375   09 Jun 2027 09:45:39.804   09 Jun 2027 09:47:24.176           104.372              Murmansk2         13046.500
       376   09 Jun 2027 09:47:31.345   09 Jun 2027 09:47:48.186            16.841              Murmansk2          2105.125
       377   09 Jun 2027 09:48:04.335   09 Jun 2027 09:48:09.431             5.096              Murmansk2           637.000
       378   09 Jun 2027 09:49:00.572   09 Jun 2027 09:49:11.592            11.020              Murmansk2          1377.500
       379   09 Jun 2027 09:49:29.739   09 Jun 2027 09:49:48.659            18.920              Murmansk2          2365.000
       380   09 Jun 2027 09:53:46.642   09 Jun 2027 09:58:10.651           264.009                Anadyr1         33001.125
       381   09 Jun 2027 09:58:13.005   09 Jun 2027 10:01:51.201           218.196                Anadyr2         27274.500
       382   09 Jun 2027 10:49:41.765   09 Jun 2027 10:49:54.278            12.513               CapeTown          1564.125
       383   09 Jun 2027 11:17:51.725   09 Jun 2027 11:20:25.399           153.674              Murmansk1         19209.250
       384   09 Jun 2027 11:21:12.023   09 Jun 2027 11:21:18.942             6.919              Murmansk1           864.875
       385   09 Jun 2027 11:29:04.650   09 Jun 2027 11:31:47.870           163.220                Anadyr1         20402.500
       386   09 Jun 2027 11:33:21.444   09 Jun 2027 11:36:49.095           207.651               Magadan2         25956.375
       387   09 Jun 2027 11:37:08.449   09 Jun 2027 11:38:21.831            73.382               Magadan1          9172.750
       388   09 Jun 2027 13:07:24.984   09 Jun 2027 13:08:45.251            80.267               Magadan1         10033.375
       389   09 Jun 2027 13:09:26.148   09 Jun 2027 13:12:33.294           187.146               Magadan2         23393.250
       390   09 Jun 2027 15:35:09.592   09 Jun 2027 15:40:46.631           337.039            RioGallegos         42129.875
       391   09 Jun 2027 16:22:47.959   09 Jun 2027 16:24:44.513           116.554                Irkutsk         14569.250
       392   09 Jun 2027 16:36:29.220   09 Jun 2027 16:39:28.796           179.576                Sumatra         22447.000
       393   09 Jun 2027 17:58:36.325   09 Jun 2027 17:59:50.408            74.083                Novosib          9260.375
       394   09 Jun 2027 18:06:13.192   09 Jun 2027 18:10:40.378           267.186                  Delhi         33398.250
       395   09 Jun 2027 21:12:05.581   09 Jun 2027 21:13:08.183            62.602                 Moscow          7825.250
       396   09 Jun 2027 21:36:13.188   09 Jun 2027 21:38:58.449           165.261               CapeTown         20657.625
       397   10 Jun 2027 03:32:55.202   10 Jun 2027 03:37:52.758           297.556              Murmansk1         37194.500
       398   10 Jun 2027 04:42:26.489   10 Jun 2027 04:45:32.194           185.705                Sumatra         23213.125
       399   10 Jun 2027 05:08:50.926   10 Jun 2027 05:13:39.128           288.202              Murmansk1         36025.250
       400   10 Jun 2027 05:13:39.128   10 Jun 2027 05:14:11.899            32.771              Murmansk2          4096.375
       401   10 Jun 2027 05:47:00.586   10 Jun 2027 05:47:32.092            31.506            RioGallegos          3938.250
       402   10 Jun 2027 05:48:16.160   10 Jun 2027 05:48:41.908            25.748            RioGallegos          3218.500
       403   10 Jun 2027 06:21:56.657   10 Jun 2027 06:23:48.990           112.333                Sumatra         14041.625
       404   10 Jun 2027 06:26:37.384   10 Jun 2027 06:28:21.218           103.834                  Delhi         12979.250
       405   10 Jun 2027 06:29:03.158   10 Jun 2027 06:29:46.828            43.670                  Delhi          5458.750
       406   10 Jun 2027 06:33:55.369   10 Jun 2027 06:35:36.625           101.256                  Delhi         12657.000
       407   10 Jun 2027 06:36:08.870   10 Jun 2027 06:38:25.165           136.295                Novosib         17036.875
       408   10 Jun 2027 06:39:09.198   10 Jun 2027 06:39:51.763            42.565              Murmansk1          5320.625
       409   10 Jun 2027 06:44:16.240   10 Jun 2027 06:47:12.163           175.923                Norilsk         21990.375
       410   10 Jun 2027 06:47:13.996   10 Jun 2027 06:47:39.869            25.873                 Moscow          3234.125
       411   10 Jun 2027 06:47:49.843   10 Jun 2027 06:49:24.082            94.239              Murmansk2         11779.875
       412   10 Jun 2027 08:20:17.268   10 Jun 2027 08:20:55.712            38.444                Norilsk          4805.500
       413   10 Jun 2027 08:21:22.555   10 Jun 2027 08:25:30.256           247.701                Norilsk         30962.625
       414   10 Jun 2027 08:25:53.251   10 Jun 2027 08:27:23.062            89.811              Murmansk1         11226.375
       415   10 Jun 2027 09:26:00.812   10 Jun 2027 09:35:13.025           552.213               CapeTown         69026.625
       416   10 Jun 2027 09:48:02.738   10 Jun 2027 09:54:07.479           364.741                 Moscow         45592.625
       417   10 Jun 2027 09:54:35.529   10 Jun 2027 09:57:22.788           167.259              Murmansk1         20907.375
       418   10 Jun 2027 09:57:22.788   10 Jun 2027 10:00:56.535           213.747              Murmansk2         26718.375
       419   10 Jun 2027 10:05:38.159   10 Jun 2027 10:11:09.400           331.241                Anadyr2         41405.125
       420   10 Jun 2027 10:11:21.832   10 Jun 2027 10:14:31.602           189.770                Anadyr1         23721.250
       421   10 Jun 2027 11:31:32.693   10 Jun 2027 11:32:28.209            55.516              Murmansk2          6939.500
       422   10 Jun 2027 11:41:04.759   10 Jun 2027 11:43:43.077           158.318                Anadyr1         19789.750
       423   10 Jun 2027 11:44:42.161   10 Jun 2027 11:45:54.159            71.998                Anadyr1          8999.750
       424   10 Jun 2027 11:48:40.691   10 Jun 2027 11:51:30.190           169.499               Magadan2         21187.375
       425   10 Jun 2027 13:16:58.465   10 Jun 2027 13:19:02.053           123.588                Anadyr1         15448.500
       426   10 Jun 2027 13:19:22.640   10 Jun 2027 13:25:30.697           368.057               Magadan2         46007.125
       427   10 Jun 2027 15:18:06.554   10 Jun 2027 15:19:31.809            85.255                Sumatra         10656.875
       428   10 Jun 2027 15:47:01.698   10 Jun 2027 15:48:54.133           112.435            RioGallegos         14054.375
       429   10 Jun 2027 16:34:44.159   10 Jun 2027 16:36:14.492            90.333                Irkutsk         11291.625
       430   10 Jun 2027 16:43:10.698   10 Jun 2027 16:44:02.962            52.264                Novosib          6533.000
       431   10 Jun 2027 16:48:25.168   10 Jun 2027 16:51:31.462           186.294                Sumatra         23286.750
       432   10 Jun 2027 18:13:30.323   10 Jun 2027 18:15:21.543           111.220                Novosib         13902.500
       433   10 Jun 2027 18:18:02.823   10 Jun 2027 18:20:45.881           163.058                  Delhi         20382.250
       434   10 Jun 2027 19:49:08.694   10 Jun 2027 19:50:39.595            90.901                 Moscow         11362.625
       435   10 Jun 2027 21:29:04.892   10 Jun 2027 21:31:21.646           136.754                 Moscow         17094.250
       436   10 Jun 2027 21:51:05.495   10 Jun 2027 21:51:23.106            17.611               CapeTown          2201.375
       437   10 Jun 2027 21:57:33.091   10 Jun 2027 21:59:24.807           111.716               CapeTown         13964.500
       438   11 Jun 2027 03:22:45.530   11 Jun 2027 03:24:08.874            83.344                Sumatra          3859.250
       439   11 Jun 2027 03:44:51.828   11 Jun 2027 03:44:53.806             1.978                Irkutsk           247.250
       440   11 Jun 2027 03:45:06.435   11 Jun 2027 03:48:10.991           184.556              Murmansk2         23069.500
       441   11 Jun 2027 04:54:25.235   11 Jun 2027 04:57:00.991           155.756                Sumatra         19469.500
       442   11 Jun 2027 05:21:02.615   11 Jun 2027 05:25:49.434           286.819                Norilsk         35852.375
       443   11 Jun 2027 05:26:01.614   11 Jun 2027 05:26:04.284             2.670              Murmansk1           333.750
       444   11 Jun 2027 05:27:08.443   11 Jun 2027 05:27:57.573            49.130              Murmansk2          6141.250
       445   11 Jun 2027 06:00:07.638   11 Jun 2027 06:00:47.662            40.024            RioGallegos          5003.000
       446   11 Jun 2027 06:02:23.654   11 Jun 2027 06:02:50.259            26.605            RioGallegos          3325.625
       447   11 Jun 2027 06:03:58.135   11 Jun 2027 06:04:59.510            61.375            RioGallegos          7671.875
       448   11 Jun 2027 06:05:40.353   11 Jun 2027 06:05:58.169            17.816            RioGallegos          2227.000
       449   11 Jun 2027 06:38:45.701   11 Jun 2027 06:45:11.006           385.305                  Delhi         48163.125
       450   11 Jun 2027 06:46:36.944   11 Jun 2027 06:47:02.337            25.393                Novosib          3174.125
       451   11 Jun 2027 06:48:24.988   11 Jun 2027 06:50:09.527           104.539                Novosib         13067.375
       452   11 Jun 2027 06:50:19.021   11 Jun 2027 06:52:25.450           126.429                 Moscow         15803.625
       453   11 Jun 2027 06:56:26.183   11 Jun 2027 06:56:46.632            20.449                Novosib          2556.125
       454   11 Jun 2027 06:57:02.505   11 Jun 2027 06:58:44.726           102.221              Murmansk2         12777.625
       455   11 Jun 2027 06:58:59.427   11 Jun 2027 07:01:39.145           159.718                Norilsk         19964.750
       456   11 Jun 2027 07:03:28.884   11 Jun 2027 07:03:31.181             2.297              Murmansk1           287.125
       457   11 Jun 2027 08:23:01.290   11 Jun 2027 08:24:34.977            93.687                 Moscow         11710.875
       458   11 Jun 2027 08:25:45.795   11 Jun 2027 08:26:19.572            33.777                 Moscow          4222.125
       459   11 Jun 2027 08:32:36.667   11 Jun 2027 08:35:55.413           198.746                 Moscow         24843.250
       460   11 Jun 2027 08:36:00.088   11 Jun 2027 08:37:25.536            85.448                Norilsk         10681.000
       461   11 Jun 2027 08:37:51.522   11 Jun 2027 08:39:24.632            93.110              Murmansk2         11638.750
       462   11 Jun 2027 09:37:33.720   11 Jun 2027 09:46:52.024           558.304               CapeTown         69788.000
       463   11 Jun 2027 10:00:28.566   11 Jun 2027 10:04:18.642           230.076                 Moscow         28759.500
       464   11 Jun 2027 10:04:40.360   11 Jun 2027 10:05:01.193            20.833              Murmansk1          2604.125
       465   11 Jun 2027 10:05:56.774   11 Jun 2027 10:07:45.734           108.960              Murmansk1         13620.000
       466   11 Jun 2027 10:09:36.138   11 Jun 2027 10:10:11.502            35.364              Murmansk1          4420.500
       467   11 Jun 2027 10:10:50.763   11 Jun 2027 10:12:53.784           123.021              Murmansk1         15377.625
       468   11 Jun 2027 10:17:31.977   11 Jun 2027 10:22:52.413           320.436                Anadyr1         40054.500
       469   11 Jun 2027 10:23:46.427   11 Jun 2027 10:27:02.793           196.366                Anadyr2         24545.750
       470   11 Jun 2027 11:48:28.360   11 Jun 2027 11:49:09.653            41.293              Murmansk1          5161.625
       471   11 Jun 2027 11:49:52.586   11 Jun 2027 11:50:00.601             8.015              Murmansk1          1001.875
       472   11 Jun 2027 11:53:05.218   11 Jun 2027 11:55:21.194           135.976                Anadyr1         16997.000
       473   11 Jun 2027 11:56:27.936   11 Jun 2027 12:01:34.308           306.372               Magadan2         38296.500
       474   11 Jun 2027 13:31:21.139   11 Jun 2027 13:33:58.480           157.341               Magadan1         19667.625
       475   11 Jun 2027 15:17:18.532   11 Jun 2027 15:19:57.798           159.266                Irkutsk         19908.250
       476   11 Jun 2027 15:27:56.854   11 Jun 2027 15:29:57.839           120.985                Sumatra         15123.125
       477   11 Jun 2027 16:47:34.639   11 Jun 2027 16:49:26.710           112.071                Novosib         14008.875
       478   11 Jun 2027 16:53:41.436   11 Jun 2027 16:54:20.043            38.607                Irkutsk          4825.875
       479   11 Jun 2027 16:54:32.341   11 Jun 2027 16:56:48.038           135.697                Novosib         16962.125
       480   11 Jun 2027 17:00:26.703   11 Jun 2027 17:01:48.067            81.364                Sumatra         10170.500
       481   11 Jun 2027 17:08:12.286   11 Jun 2027 17:10:06.513           114.227                Sumatra         14278.375
       482   11 Jun 2027 18:29:56.478   11 Jun 2027 18:32:53.143           176.665                  Delhi         22083.125
