uniorb/output/strategy_4/Drop/Drop_KinoSat_111305.txt

KinoSat_111305
-------------------------
    Access    *     Start Time (UTCG)     *     Stop Time (UTCG)  *   Duration (s)        *       Station  *  Data (Mbytes)
         1   01 Jun 2027 03:29:41.953   01 Jun 2027 03:30:47.189            65.236              Murmansk1          2038.625
         2   01 Jun 2027 03:31:00.066   01 Jun 2027 03:33:57.976           177.910              Murmansk1          5559.688
         3   01 Jun 2027 03:33:57.976   01 Jun 2027 03:34:21.627            23.651              Murmansk2           739.094
         4   01 Jun 2027 04:52:21.077   01 Jun 2027 04:52:29.845             8.768               Magadan1           274.000
         5   01 Jun 2027 04:52:45.246   01 Jun 2027 04:56:44.653           239.407                Anadyr1          7481.469
         6   01 Jun 2027 04:57:18.073   01 Jun 2027 04:58:06.697            48.624               Magadan2          1519.500
         7   01 Jun 2027 06:26:58.713   01 Jun 2027 06:27:04.081             5.368                Anadyr2           167.750
         8   01 Jun 2027 06:27:07.214   01 Jun 2027 06:27:44.772            37.558               Magadan1          1173.688
         9   01 Jun 2027 06:27:50.718   01 Jun 2027 06:29:23.636            92.918                Anadyr2          2903.688
        10   01 Jun 2027 06:29:37.673   01 Jun 2027 06:32:07.888           150.215                Anadyr2          4694.219
        11   01 Jun 2027 06:32:07.888   01 Jun 2027 06:32:37.375            29.487                Anadyr1           921.469
        12   01 Jun 2027 08:02:12.513   01 Jun 2027 08:05:22.596           190.083                Irkutsk          5940.094
        13   01 Jun 2027 08:06:04.357   01 Jun 2027 08:09:15.236           190.879                Anadyr2          5964.969
        14   01 Jun 2027 08:09:16.662   01 Jun 2027 08:10:15.187            58.525                Novosib          1828.906
        15   01 Jun 2027 08:10:22.465   01 Jun 2027 08:11:45.184            82.719              Murmansk2          2584.969
        16   01 Jun 2027 08:11:45.184   01 Jun 2027 08:12:14.243            29.059              Murmansk1           908.094
        17   01 Jun 2027 08:45:01.435   01 Jun 2027 08:46:37.100            95.665            RioGallegos          2989.531
        18   01 Jun 2027 09:39:04.702   01 Jun 2027 09:39:20.672            15.970               Magadan2           499.062
        19   01 Jun 2027 09:40:28.386   01 Jun 2027 09:42:32.701           124.315               Magadan2          3884.844
        20   01 Jun 2027 09:42:32.701   01 Jun 2027 09:42:53.739            21.038               Magadan1           657.438
        21   01 Jun 2027 09:43:15.036   01 Jun 2027 09:43:35.876            20.840               Magadan1           651.250
        22   01 Jun 2027 09:44:08.198   01 Jun 2027 09:44:24.190            15.992                Irkutsk           499.750
        23   01 Jun 2027 09:44:52.488   01 Jun 2027 09:45:28.258            35.770              Murmansk1          1117.812
        24   01 Jun 2027 09:45:32.645   01 Jun 2027 09:47:53.610           140.965                Norilsk          4405.156
        25   01 Jun 2027 09:48:54.859   01 Jun 2027 09:49:18.767            23.908                Norilsk           747.125
        26   01 Jun 2027 09:50:31.445   01 Jun 2027 09:50:39.560             8.115              Murmansk1           253.594
        27   01 Jun 2027 09:51:14.757   01 Jun 2027 09:51:55.303            40.546              Murmansk2          1267.063
        28   01 Jun 2027 09:51:55.303   01 Jun 2027 09:52:20.943            25.640              Murmansk1           801.250
        29   01 Jun 2027 10:20:54.024   01 Jun 2027 10:21:57.898            63.874            RioGallegos          1996.062
        30   01 Jun 2027 10:25:01.575   01 Jun 2027 10:25:05.422             3.847            RioGallegos           120.219
        31   01 Jun 2027 10:30:38.272   01 Jun 2027 10:30:41.882             3.610            RioGallegos           112.812
        32   01 Jun 2027 10:55:25.408   01 Jun 2027 10:57:56.075           150.667                Sumatra          4708.344
        33   01 Jun 2027 11:17:52.906   01 Jun 2027 11:18:59.626            66.720                Norilsk          2085.000
        34   01 Jun 2027 11:19:02.985   01 Jun 2027 11:19:27.711            24.726                 Moscow           772.687
        35   01 Jun 2027 11:19:31.559   01 Jun 2027 11:21:42.168           130.609                Norilsk          4081.531
        36   01 Jun 2027 11:21:44.460   01 Jun 2027 11:21:53.394             8.934              Murmansk1           279.188
        37   01 Jun 2027 11:22:23.627   01 Jun 2027 11:23:21.940            58.313                Novosib          1822.281
        38   01 Jun 2027 12:02:16.421   01 Jun 2027 12:05:35.174           198.753            RioGallegos          6211.031
        39   01 Jun 2027 12:45:28.087   01 Jun 2027 12:45:45.575            17.488                  Delhi           546.500
        40   01 Jun 2027 12:46:12.005   01 Jun 2027 12:47:54.073           102.068                  Delhi          3189.625
        41   01 Jun 2027 12:48:02.543   01 Jun 2027 12:48:40.719            38.176                Novosib          1193.000
        42   01 Jun 2027 12:51:39.537   01 Jun 2027 12:52:40.001            60.464                Novosib          1889.500
        43   01 Jun 2027 12:53:03.963   01 Jun 2027 12:54:11.893            67.930                Norilsk          2122.813
        44   01 Jun 2027 12:56:58.534   01 Jun 2027 12:57:11.850            13.316                Norilsk           416.125
        45   01 Jun 2027 13:00:44.960   01 Jun 2027 13:01:06.516            21.556                Norilsk           673.625
        46   01 Jun 2027 14:23:59.375   01 Jun 2027 14:27:57.498           238.123                 Moscow          7441.344
        47   01 Jun 2027 14:28:32.085   01 Jun 2027 14:30:31.771           119.686              Murmansk2          3740.188
        48   01 Jun 2027 14:31:12.750   01 Jun 2027 14:32:25.987            73.237              Murmansk2          2288.656
        49   01 Jun 2027 14:32:44.799   01 Jun 2027 14:33:19.248            34.449                Norilsk          1076.531
        50   01 Jun 2027 14:35:13.815   01 Jun 2027 14:35:44.707            30.892                Norilsk           965.375
        51   01 Jun 2027 15:38:14.692   01 Jun 2027 15:41:08.961           174.269               CapeTown          5445.906
        52   01 Jun 2027 16:01:48.654   01 Jun 2027 16:02:29.527            40.873                 Moscow          1277.281
        53   01 Jun 2027 16:04:46.731   01 Jun 2027 16:05:17.862            31.131              Murmansk2           972.844
        54   01 Jun 2027 16:05:46.455   01 Jun 2027 16:05:57.150            10.695              Murmansk1           334.219
        55   01 Jun 2027 16:06:45.784   01 Jun 2027 16:07:05.054            19.270              Murmansk2           602.188
        56   01 Jun 2027 16:08:32.681   01 Jun 2027 16:08:50.650            17.969              Murmansk1           561.531
        57   01 Jun 2027 16:14:19.035   01 Jun 2027 16:14:37.463            18.428              Murmansk1           575.875
        58   01 Jun 2027 16:18:24.644   01 Jun 2027 16:20:29.678           125.034                Anadyr1          3907.312
        59   01 Jun 2027 16:24:21.841   01 Jun 2027 16:24:24.493             2.652                Anadyr2            82.875
        60   01 Jun 2027 16:25:38.644   01 Jun 2027 16:26:00.626            21.982                Anadyr1           686.937
        61   01 Jun 2027 16:27:14.004   01 Jun 2027 16:27:27.678            13.674                Anadyr1           427.312
        62   01 Jun 2027 16:28:03.198   01 Jun 2027 16:28:07.599             4.401                Anadyr1           137.531
        63   01 Jun 2027 17:13:35.409   01 Jun 2027 17:15:32.634           117.225               CapeTown          3663.281
        64   01 Jun 2027 17:44:27.496   01 Jun 2027 17:49:18.510           291.014              Murmansk2          9094.188
        65   01 Jun 2027 17:54:02.774   01 Jun 2027 17:54:26.909            24.135                Anadyr1           754.219
        66   01 Jun 2027 17:55:33.466   01 Jun 2027 17:56:12.119            38.653                Anadyr2          1207.906
        67   01 Jun 2027 17:57:11.989   01 Jun 2027 17:58:33.736            81.747               Magadan1          2554.594
        68   01 Jun 2027 19:29:58.336   01 Jun 2027 19:31:50.856           112.520                Anadyr1          3516.250
        69   01 Jun 2027 19:32:03.530   01 Jun 2027 19:33:48.700           105.170                Anadyr2          3286.563
        70   01 Jun 2027 19:34:05.032   01 Jun 2027 19:36:02.417           117.385               Magadan2          3668.281
        71   01 Jun 2027 19:36:02.417   01 Jun 2027 19:37:14.181            71.764               Magadan1          2242.625
        72   01 Jun 2027 19:39:17.149   01 Jun 2027 19:39:39.379            22.230               Magadan2           694.688
        73   01 Jun 2027 19:41:16.897   01 Jun 2027 19:41:38.053            21.156               Magadan1           661.125
        74   01 Jun 2027 20:26:20.659   01 Jun 2027 20:28:44.351           143.692            RioGallegos          4490.375
        75   01 Jun 2027 20:31:30.851   01 Jun 2027 20:31:32.206             1.355            RioGallegos            42.344
        76   01 Jun 2027 21:05:47.807   01 Jun 2027 21:08:04.675           136.868                Anadyr1          4277.125
        77   01 Jun 2027 21:08:11.758   01 Jun 2027 21:13:02.312           290.554               Magadan2          9079.813
        78   01 Jun 2027 21:15:19.531   01 Jun 2027 21:16:04.190            44.659                Irkutsk          1395.594
        79   01 Jun 2027 21:28:00.461   01 Jun 2027 21:30:09.724           129.263                Sumatra          4039.469
        80   01 Jun 2027 21:34:09.995   01 Jun 2027 21:36:09.435           119.440                Sumatra          3732.500
        81   01 Jun 2027 22:41:05.384   01 Jun 2027 22:41:37.674            32.290                Anadyr1          1009.062
        82   01 Jun 2027 22:42:54.476   01 Jun 2027 22:43:46.345            51.869                Anadyr2          1620.906
        83   01 Jun 2027 22:44:08.735   01 Jun 2027 22:44:13.603             4.868                Norilsk           152.125
        84   01 Jun 2027 22:44:18.312   01 Jun 2027 22:45:54.952            96.640               Magadan1          3020.000
        85   01 Jun 2027 22:46:17.662   01 Jun 2027 22:46:59.910            42.248               Magadan2          1320.250
        86   01 Jun 2027 22:47:37.018   01 Jun 2027 22:47:57.089            20.071               Magadan2           627.219
        87   01 Jun 2027 22:48:20.303   01 Jun 2027 22:49:04.336            44.033                Novosib          1376.031
        88   01 Jun 2027 22:51:14.245   01 Jun 2027 22:51:43.297            29.052                Novosib           907.875
        89   01 Jun 2027 22:58:35.564   01 Jun 2027 23:00:07.819            92.255                  Delhi          2882.969
        90   01 Jun 2027 23:02:50.991   01 Jun 2027 23:03:00.934             9.943                  Delhi           310.719
        91   01 Jun 2027 23:36:53.598   01 Jun 2027 23:37:05.008            11.410            RioGallegos           356.563
        92   01 Jun 2027 23:37:50.810   01 Jun 2027 23:38:01.617            10.807            RioGallegos           337.719
        93   01 Jun 2027 23:38:29.839   01 Jun 2027 23:39:20.130            50.291            RioGallegos          1571.594
        94   01 Jun 2027 23:44:28.721   01 Jun 2027 23:44:35.326             6.605            RioGallegos           206.406
        95   02 Jun 2027 00:15:14.518   02 Jun 2027 00:16:19.668            65.150                Anadyr2          2035.937
        96   02 Jun 2027 00:16:19.668   02 Jun 2027 00:16:55.078            35.410                Anadyr1          1106.562
        97   02 Jun 2027 00:17:29.304   02 Jun 2027 00:18:16.001            46.697                Anadyr2          1459.281
        98   02 Jun 2027 00:19:42.609   02 Jun 2027 00:21:45.478           122.869                Norilsk          3839.656
        99   02 Jun 2027 00:21:53.142   02 Jun 2027 00:22:29.944            36.802               Magadan1          1150.063
       100   02 Jun 2027 00:22:41.847   02 Jun 2027 00:24:21.872           100.025              Murmansk1          3125.781
       101   02 Jun 2027 00:25:14.667   02 Jun 2027 00:25:41.757            27.090              Murmansk1           846.563
       102   02 Jun 2027 00:27:13.447   02 Jun 2027 00:27:50.075            36.628              Murmansk2          1144.625
       103   02 Jun 2027 00:33:23.970   02 Jun 2027 00:33:37.874            13.904                Novosib           434.500
       104   02 Jun 2027 00:34:19.897   02 Jun 2027 00:34:40.968            21.071                  Delhi           658.469
       105   02 Jun 2027 00:36:50.366   02 Jun 2027 00:37:42.472            52.106                  Delhi          1628.313
       106   02 Jun 2027 00:39:51.290   02 Jun 2027 00:39:55.797             4.507                  Delhi           140.844
       107   02 Jun 2027 00:43:23.412   02 Jun 2027 00:43:38.231            14.819                  Delhi           463.094
       108   02 Jun 2027 01:15:07.563   02 Jun 2027 01:15:49.081            41.518            RioGallegos          1297.437
       109   02 Jun 2027 01:19:45.673   02 Jun 2027 01:19:58.110            12.437            RioGallegos           388.656
       110   02 Jun 2027 01:48:32.269   02 Jun 2027 01:48:55.966            23.697                Anadyr1           740.531
       111   02 Jun 2027 01:48:59.200   02 Jun 2027 01:49:22.562            23.362                Anadyr2           730.062
       112   02 Jun 2027 01:50:00.040   02 Jun 2027 01:50:33.104            33.064                Anadyr1          1033.250
       113   02 Jun 2027 01:51:05.993   02 Jun 2027 01:51:14.170             8.177                Anadyr1           255.531
       114   02 Jun 2027 01:51:37.922   02 Jun 2027 01:51:48.693            10.771                Anadyr1           336.594
       115   02 Jun 2027 01:53:44.235   02 Jun 2027 01:54:16.980            32.745                Anadyr2          1023.281
       116   02 Jun 2027 01:54:37.232   02 Jun 2027 01:55:22.112            44.880               Magadan1          1402.500
       117   02 Jun 2027 01:55:38.292   02 Jun 2027 01:55:59.013            20.721                Norilsk           647.531
       118   02 Jun 2027 01:56:45.903   02 Jun 2027 01:57:04.092            18.189               Magadan2           568.406
       119   02 Jun 2027 01:57:29.169   02 Jun 2027 01:57:33.936             4.767                Norilsk           148.969
       120   02 Jun 2027 01:57:53.160   02 Jun 2027 01:58:19.623            26.463              Murmansk1           826.969
       121   02 Jun 2027 01:58:39.980   02 Jun 2027 02:00:08.280            88.300              Murmansk1          2759.375
       122   02 Jun 2027 02:01:00.306   02 Jun 2027 02:01:15.791            15.485                Irkutsk           483.906
       123   02 Jun 2027 02:04:32.237   02 Jun 2027 02:04:47.890            15.653                Novosib           489.156
       124   02 Jun 2027 02:05:19.585   02 Jun 2027 02:05:49.651            30.066                 Moscow           939.563
       125   02 Jun 2027 02:09:01.478   02 Jun 2027 02:09:08.357             6.879                  Delhi           214.969
       126   02 Jun 2027 02:09:56.705   02 Jun 2027 02:10:57.023            60.318                  Delhi          1884.937
       127   02 Jun 2027 02:31:35.806   02 Jun 2027 02:32:57.670            81.864               CapeTown          2558.250
       128   02 Jun 2027 03:41:03.572   02 Jun 2027 03:41:33.157            29.585                Norilsk           924.531
       129   02 Jun 2027 03:42:56.521   02 Jun 2027 03:43:24.374            27.853              Murmansk2           870.406
       130   02 Jun 2027 03:43:47.298   02 Jun 2027 03:46:31.350           164.052              Murmansk1          5126.625
       131   02 Jun 2027 03:46:37.166   02 Jun 2027 03:48:44.815           127.649                 Moscow          3989.031
       132   02 Jun 2027 05:04:17.342   02 Jun 2027 05:05:07.881            50.539               Magadan2          1579.344
       133   02 Jun 2027 05:05:07.881   02 Jun 2027 05:06:17.787            69.906               Magadan1          2184.563
       134   02 Jun 2027 05:06:17.787   02 Jun 2027 05:06:37.077            19.290               Magadan2           602.812
       135   02 Jun 2027 05:06:49.382   02 Jun 2027 05:07:09.107            19.725                Anadyr1           616.406
       136   02 Jun 2027 05:07:27.787   02 Jun 2027 05:07:37.378             9.591                Anadyr1           299.719
       137   02 Jun 2027 06:43:32.227   02 Jun 2027 06:44:51.434            79.207                Anadyr2          2475.219
       138   02 Jun 2027 06:45:09.281   02 Jun 2027 06:46:12.416            63.135               Magadan1          1972.969
       139   02 Jun 2027 08:16:18.754   02 Jun 2027 08:17:54.487            95.733                Anadyr2          2991.656
       140   02 Jun 2027 08:18:15.725   02 Jun 2027 08:18:35.997            20.272               Magadan2           633.500
       141   02 Jun 2027 08:18:56.985   02 Jun 2027 08:20:49.190           112.205                Anadyr1          3506.406
       142   02 Jun 2027 08:21:16.985   02 Jun 2027 08:21:51.539            34.554               Magadan2          1079.812
       143   02 Jun 2027 09:53:02.738   02 Jun 2027 09:54:33.374            90.636               Magadan2          2832.375
       144   02 Jun 2027 09:55:36.737   02 Jun 2027 09:55:49.554            12.817                Irkutsk           400.531
       145   02 Jun 2027 09:55:59.502   02 Jun 2027 09:56:38.022            38.520                Irkutsk          1203.750
       146   02 Jun 2027 09:57:02.435   02 Jun 2027 09:57:07.902             5.467                Novosib           170.844
       147   02 Jun 2027 09:57:08.893   02 Jun 2027 09:57:31.115            22.222                Irkutsk           694.438
       148   02 Jun 2027 09:57:47.613   02 Jun 2027 09:57:50.417             2.804                Irkutsk            87.625
       149   02 Jun 2027 10:33:11.382   02 Jun 2027 10:33:40.322            28.940            RioGallegos           904.375
       150   02 Jun 2027 10:34:08.441   02 Jun 2027 10:34:37.266            28.825            RioGallegos           900.781
       151   02 Jun 2027 10:35:58.026   02 Jun 2027 10:36:55.665            57.639            RioGallegos          1801.219
       152   02 Jun 2027 11:16:24.195   02 Jun 2027 11:17:20.640            56.445                Sumatra          1763.906
       153   02 Jun 2027 11:28:56.988   02 Jun 2027 11:29:46.411            49.423                Irkutsk          1544.469
       154   02 Jun 2027 11:29:49.888   02 Jun 2027 11:30:11.982            22.094                Irkutsk           690.438
       155   02 Jun 2027 11:30:27.452   02 Jun 2027 11:31:14.136            46.684                Norilsk          1458.875
       156   02 Jun 2027 11:31:30.760   02 Jun 2027 11:31:52.419            21.659                Norilsk           676.844
       157   02 Jun 2027 11:32:06.889   02 Jun 2027 11:33:14.575            67.686                Novosib          2115.188
       158   02 Jun 2027 11:33:22.549   02 Jun 2027 11:33:38.602            16.053                Norilsk           501.656
       159   02 Jun 2027 12:52:12.942   02 Jun 2027 12:53:24.633            71.691                  Delhi          2240.344
       160   02 Jun 2027 12:56:36.363   02 Jun 2027 12:57:18.985            42.622                  Delhi          1331.937
       161   02 Jun 2027 13:00:24.890   02 Jun 2027 13:02:05.172           100.282                Novosib          3133.812
       162   02 Jun 2027 13:03:41.762   02 Jun 2027 13:05:31.457           109.695                Novosib          3427.969
       163   02 Jun 2027 13:05:59.796   02 Jun 2027 13:06:53.674            53.878                Norilsk          1683.687
       164   02 Jun 2027 13:09:21.346   02 Jun 2027 13:09:33.294            11.948                Norilsk           373.375
       165   02 Jun 2027 14:36:03.130   02 Jun 2027 14:39:42.034           218.904                 Moscow          6840.750
       166   02 Jun 2027 14:40:24.079   02 Jun 2027 14:42:49.332           145.253              Murmansk1          4539.156
       167   02 Jun 2027 14:45:00.588   02 Jun 2027 14:46:46.027           105.439                Norilsk          3294.969
       168   02 Jun 2027 15:49:59.515   02 Jun 2027 15:51:35.522            96.007               CapeTown          3000.219
       169   02 Jun 2027 15:51:59.134   02 Jun 2027 15:53:24.009            84.875               CapeTown          2652.344
       170   02 Jun 2027 16:17:07.491   02 Jun 2027 16:18:10.001            62.510              Murmansk1          1953.438
       171   02 Jun 2027 16:20:52.608   02 Jun 2027 16:21:30.022            37.414              Murmansk1          1169.188
       172   02 Jun 2027 16:26:35.856   02 Jun 2027 16:26:42.964             7.108              Murmansk2           222.125
       173   02 Jun 2027 16:26:42.964   02 Jun 2027 16:27:00.020            17.056              Murmansk1           533.000
       174   02 Jun 2027 16:30:21.428   02 Jun 2027 16:32:05.652           104.224                Anadyr1          3257.000
       175   02 Jun 2027 16:33:57.947   02 Jun 2027 16:34:01.609             3.662                Anadyr2           114.437
       176   02 Jun 2027 16:35:48.350   02 Jun 2027 16:36:03.289            14.939                Anadyr1           466.844
       177   02 Jun 2027 16:36:03.289   02 Jun 2027 16:36:04.115             0.826                Anadyr2            25.812
       178   02 Jun 2027 16:36:10.079   02 Jun 2027 16:36:19.105             9.026                Anadyr1           282.063
       179   02 Jun 2027 16:39:01.581   02 Jun 2027 16:39:20.575            18.994                Anadyr2           593.563
       180   02 Jun 2027 17:25:46.026   02 Jun 2027 17:26:47.509            61.483               CapeTown          1921.344
       181   02 Jun 2027 17:32:39.003   02 Jun 2027 17:33:27.896            48.893               CapeTown          1527.906
       182   02 Jun 2027 17:57:12.147   02 Jun 2027 18:00:49.963           217.816              Murmansk1          6806.750
       183   02 Jun 2027 18:06:03.898   02 Jun 2027 18:06:24.195            20.297                Anadyr2           634.281
       184   02 Jun 2027 18:09:00.597   02 Jun 2027 18:11:45.165           164.568               Magadan1          5142.750
       185   02 Jun 2027 19:41:59.763   02 Jun 2027 19:45:44.340           224.577                Anadyr1          7018.031
       186   02 Jun 2027 19:45:45.766   02 Jun 2027 19:48:14.650           148.884               Magadan1          4652.625
       187   02 Jun 2027 19:48:46.016   02 Jun 2027 19:49:02.751            16.735               Magadan2           522.969
       188   02 Jun 2027 19:49:55.318   02 Jun 2027 19:50:15.828            20.510               Magadan2           640.938
       189   02 Jun 2027 20:37:36.791   02 Jun 2027 20:40:26.822           170.031            RioGallegos          5313.469
       190   02 Jun 2027 20:43:09.534   02 Jun 2027 20:43:47.386            37.852            RioGallegos          1182.875
       191   02 Jun 2027 21:17:46.948   02 Jun 2027 21:18:18.253            31.305                Anadyr2           978.281
       192   02 Jun 2027 21:19:55.168   02 Jun 2027 21:23:37.601           222.433                Norilsk          6951.031
       193   02 Jun 2027 21:24:37.996   02 Jun 2027 21:25:41.169            63.173                Irkutsk          1974.156
       194   02 Jun 2027 21:28:09.804   02 Jun 2027 21:28:38.953            29.149                Irkutsk           910.906
       195   02 Jun 2027 21:39:11.642   02 Jun 2027 21:41:47.866           156.224                Sumatra          4882.000
       196   02 Jun 2027 22:53:30.094   02 Jun 2027 22:53:59.615            29.521                Anadyr1           922.531
       197   02 Jun 2027 22:54:44.617   02 Jun 2027 22:55:29.604            44.987                Anadyr2          1405.844
       198   02 Jun 2027 22:55:44.142   02 Jun 2027 22:57:19.310            95.168                Norilsk          2974.000
       199   02 Jun 2027 22:57:33.932   02 Jun 2027 22:58:18.696            44.764               Magadan2          1398.875
       200   02 Jun 2027 22:59:37.523   02 Jun 2027 23:00:41.559            64.036                Irkutsk          2001.125
       201   02 Jun 2027 23:00:45.391   02 Jun 2027 23:00:48.373             2.982                Novosib            93.188
       202   02 Jun 2027 23:03:09.367   02 Jun 2027 23:03:38.532            29.165                Novosib           911.406
       203   02 Jun 2027 23:09:21.973   02 Jun 2027 23:11:40.696           138.723                  Delhi          4335.094
       204   02 Jun 2027 23:59:19.676   02 Jun 2027 23:59:39.456            19.780            RioGallegos           618.125
       205   03 Jun 2027 00:26:57.454   03 Jun 2027 00:27:14.008            16.554                Anadyr1           517.312
       206   03 Jun 2027 00:27:40.628   03 Jun 2027 00:28:17.193            36.565                Anadyr2          1142.656
       207   03 Jun 2027 00:28:17.193   03 Jun 2027 00:28:29.984            12.791                Anadyr1           399.719
       208   03 Jun 2027 00:28:56.393   03 Jun 2027 00:29:14.339            17.946                Anadyr1           560.813
       209   03 Jun 2027 00:29:28.520   03 Jun 2027 00:29:36.087             7.567                Anadyr1           236.469
       210   03 Jun 2027 00:29:42.324   03 Jun 2027 00:29:49.026             6.702                Anadyr2           209.438
       211   03 Jun 2027 00:31:44.597   03 Jun 2027 00:32:29.067            44.470                Norilsk          1389.687
       212   03 Jun 2027 00:32:30.397   03 Jun 2027 00:32:45.623            15.226               Magadan1           475.812
       213   03 Jun 2027 00:32:57.471   03 Jun 2027 00:34:03.955            66.484               Magadan2          2077.625
       214   03 Jun 2027 00:34:29.494   03 Jun 2027 00:35:56.647            87.153              Murmansk1          2723.531
       215   03 Jun 2027 00:35:57.018   03 Jun 2027 00:37:43.217           106.199              Murmansk2          3318.719
       216   03 Jun 2027 00:39:01.764   03 Jun 2027 00:39:53.958            52.194              Murmansk1          1631.062
       217   03 Jun 2027 00:52:39.910   03 Jun 2027 00:54:34.378           114.468                  Delhi          3577.125
       218   03 Jun 2027 01:29:40.234   03 Jun 2027 01:30:06.852            26.618            RioGallegos           831.813
       219   03 Jun 2027 02:00:14.427   03 Jun 2027 02:00:44.429            30.002                Anadyr1           937.562
       220   03 Jun 2027 02:01:19.821   03 Jun 2027 02:01:34.412            14.591                Anadyr2           455.969
       221   03 Jun 2027 02:02:14.004   03 Jun 2027 02:02:25.349            11.345                Anadyr2           354.531
       222   03 Jun 2027 02:03:01.320   03 Jun 2027 02:03:18.518            17.198                Anadyr1           537.437
       223   03 Jun 2027 02:06:09.935   03 Jun 2027 02:07:05.391            55.456               Magadan1          1733.000
       224   03 Jun 2027 02:07:38.775   03 Jun 2027 02:08:01.400            22.625                Norilsk           707.031
       225   03 Jun 2027 02:08:12.146   03 Jun 2027 02:08:44.137            31.991               Magadan1           999.719
       226   03 Jun 2027 02:09:18.772   03 Jun 2027 02:09:19.163             0.391                Norilsk            12.219
       227   03 Jun 2027 02:09:53.745   03 Jun 2027 02:11:05.960            72.215              Murmansk1          2256.719
       228   03 Jun 2027 02:11:22.095   03 Jun 2027 02:11:25.224             3.129              Murmansk1            97.781
       229   03 Jun 2027 02:11:40.738   03 Jun 2027 02:11:52.152            11.414                Novosib           356.688
       230   03 Jun 2027 02:13:05.196   03 Jun 2027 02:14:17.006            71.810                Novosib          2244.062
       231   03 Jun 2027 02:18:40.217   03 Jun 2027 02:18:53.236            13.019                Novosib           406.844
       232   03 Jun 2027 02:19:43.390   03 Jun 2027 02:20:00.827            17.437                 Moscow           544.906
       233   03 Jun 2027 02:22:05.173   03 Jun 2027 02:22:20.709            15.536                  Delhi           485.500
       234   03 Jun 2027 02:25:19.274   03 Jun 2027 02:25:39.685            20.411                  Delhi           637.844
       235   03 Jun 2027 02:42:10.989   03 Jun 2027 02:43:04.475            53.486               CapeTown          1671.438
       236   03 Jun 2027 03:40:03.429   03 Jun 2027 03:40:15.005            11.576                Anadyr1           361.750
       237   03 Jun 2027 03:41:25.697   03 Jun 2027 03:41:58.715            33.018               Magadan1          1031.813
       238   03 Jun 2027 03:46:30.014   03 Jun 2027 03:46:36.962             6.948                Anadyr2           217.125
       239   03 Jun 2027 03:53:29.685   03 Jun 2027 03:54:21.532            51.847              Murmansk1          1620.219
       240   03 Jun 2027 03:54:51.739   03 Jun 2027 03:58:12.039           200.300              Murmansk2          6259.375
       241   03 Jun 2027 03:58:12.039   03 Jun 2027 03:58:33.278            21.239              Murmansk1           663.719
       242   03 Jun 2027 05:16:26.507   03 Jun 2027 05:20:19.380           232.873               Magadan2          7277.281
       243   03 Jun 2027 05:20:19.380   03 Jun 2027 05:20:55.038            35.658               Magadan1          1114.313
       244   03 Jun 2027 05:20:56.921   03 Jun 2027 05:22:26.871            89.950                Anadyr1          2810.937
       245   03 Jun 2027 05:22:26.871   03 Jun 2027 05:22:36.246             9.375                Anadyr2           292.969
       246   03 Jun 2027 06:54:06.734   03 Jun 2027 06:54:28.189            21.455               Magadan1           670.469
       247   03 Jun 2027 06:54:28.189   03 Jun 2027 06:54:31.308             3.119               Magadan2            97.469
       248   03 Jun 2027 06:54:41.230   03 Jun 2027 06:55:34.802            53.572                Anadyr2          1674.125
       249   03 Jun 2027 06:55:34.802   03 Jun 2027 06:55:53.189            18.387                Anadyr1           574.594
       250   03 Jun 2027 06:56:10.323   03 Jun 2027 06:56:28.802            18.479               Magadan2           577.469
       251   03 Jun 2027 08:26:40.173   03 Jun 2027 08:27:36.434            56.261               Magadan2          1758.156
       252   03 Jun 2027 08:27:45.307   03 Jun 2027 08:27:52.183             6.876               Magadan2           214.875
       253   03 Jun 2027 08:28:01.581   03 Jun 2027 08:28:05.723             4.142                Norilsk           129.438
       254   03 Jun 2027 08:28:06.130   03 Jun 2027 08:28:44.850            38.720               Magadan2          1210.000
       255   03 Jun 2027 08:29:21.439   03 Jun 2027 08:30:13.878            52.439               Magadan1          1638.719
       256   03 Jun 2027 08:30:18.024   03 Jun 2027 08:30:38.826            20.802               Magadan2           650.063
       257   03 Jun 2027 08:31:00.179   03 Jun 2027 08:31:13.922            13.743               Magadan1           429.469
       258   03 Jun 2027 08:31:38.412   03 Jun 2027 08:31:51.968            13.556                Anadyr2           423.625
       259   03 Jun 2027 08:32:29.378   03 Jun 2027 08:32:47.793            18.415               Magadan2           575.469
       260   03 Jun 2027 08:33:14.233   03 Jun 2027 08:33:31.375            17.142               Magadan1           535.687
       261   03 Jun 2027 08:33:35.146   03 Jun 2027 08:33:37.037             1.891               Magadan2            59.094
       262   03 Jun 2027 08:33:50.852   03 Jun 2027 08:34:00.037             9.185                Norilsk           287.031
       263   03 Jun 2027 09:08:43.809   03 Jun 2027 09:08:47.453             3.644            RioGallegos           113.875
       264   03 Jun 2027 09:09:43.478   03 Jun 2027 09:10:53.959            70.481            RioGallegos          2202.531
       265   03 Jun 2027 09:44:52.797   03 Jun 2027 09:45:33.783            40.986                Sumatra          1280.812
       266   03 Jun 2027 09:48:28.713   03 Jun 2027 09:49:44.928            76.215                Sumatra          2381.719
       267   03 Jun 2027 10:05:04.802   03 Jun 2027 10:05:36.685            31.883                Novosib           996.344
       268   03 Jun 2027 10:05:45.618   03 Jun 2027 10:05:50.712             5.094                Irkutsk           159.188
       269   03 Jun 2027 10:05:53.907   03 Jun 2027 10:06:02.217             8.310                Novosib           259.688
       270   03 Jun 2027 10:06:10.016   03 Jun 2027 10:06:39.027            29.011                Irkutsk           906.594
       271   03 Jun 2027 10:06:57.337   03 Jun 2027 10:07:16.519            19.182                Norilsk           599.437
       272   03 Jun 2027 10:07:25.284   03 Jun 2027 10:07:51.745            26.461                Norilsk           826.906
       273   03 Jun 2027 10:08:00.116   03 Jun 2027 10:08:05.820             5.704                Irkutsk           178.250
       274   03 Jun 2027 10:08:41.393   03 Jun 2027 10:08:50.658             9.265                Norilsk           289.531
       275   03 Jun 2027 10:08:55.180   03 Jun 2027 10:09:11.798            16.618                Novosib           519.312
       276   03 Jun 2027 10:09:20.011   03 Jun 2027 10:09:42.336            22.325                Irkutsk           697.656
       277   03 Jun 2027 10:45:33.230   03 Jun 2027 10:46:02.717            29.487            RioGallegos           921.469
       278   03 Jun 2027 10:47:29.865   03 Jun 2027 10:48:04.037            34.172            RioGallegos          1067.875
       279   03 Jun 2027 11:19:49.971   03 Jun 2027 11:20:26.985            37.014                Sumatra          1156.687
       280   03 Jun 2027 11:22:09.580   03 Jun 2027 11:23:10.507            60.927                Sumatra          1903.969
       281   03 Jun 2027 11:40:49.778   03 Jun 2027 11:41:05.346            15.568                Irkutsk           486.500
       282   03 Jun 2027 11:41:44.138   03 Jun 2027 11:42:17.231            33.093                Irkutsk          1034.156
       283   03 Jun 2027 11:42:42.850   03 Jun 2027 11:43:01.922            19.072                Norilsk           596.000
       284   03 Jun 2027 11:43:12.985   03 Jun 2027 11:43:26.867            13.882                Novosib           433.812
       285   03 Jun 2027 11:43:30.388   03 Jun 2027 11:44:00.903            30.515                Norilsk           953.594
       286   03 Jun 2027 11:44:10.176   03 Jun 2027 11:45:01.529            51.353                Irkutsk          1604.781
       287   03 Jun 2027 11:45:09.329   03 Jun 2027 11:45:10.655             1.326                Novosib            41.437
       288   03 Jun 2027 13:04:40.128   03 Jun 2027 13:08:17.213           217.085                  Delhi          6783.906
       289   03 Jun 2027 13:13:01.552   03 Jun 2027 13:13:20.333            18.781                Novosib           586.906
       290   03 Jun 2027 13:14:07.622   03 Jun 2027 13:14:40.997            33.375                Novosib          1042.969
       291   03 Jun 2027 13:16:04.122   03 Jun 2027 13:16:56.462            52.340              Murmansk2          1635.625
       292   03 Jun 2027 13:17:33.966   03 Jun 2027 13:18:47.536            73.570                Norilsk          2299.062
       293   03 Jun 2027 14:48:09.928   03 Jun 2027 14:50:11.649           121.721                 Moscow          3803.781
       294   03 Jun 2027 14:51:41.432   03 Jun 2027 14:54:51.227           189.795              Murmansk2          5931.094
       295   03 Jun 2027 14:55:49.116   03 Jun 2027 14:55:49.884             0.768              Murmansk2            24.000
       296   03 Jun 2027 14:56:49.097   03 Jun 2027 14:56:55.652             6.555              Murmansk1           204.844
       297   03 Jun 2027 14:58:00.322   03 Jun 2027 14:59:18.436            78.114                Norilsk          2441.062
       298   03 Jun 2027 15:01:00.993   03 Jun 2027 15:01:53.802            52.809                Norilsk          1650.281
       299   03 Jun 2027 15:08:49.769   03 Jun 2027 15:09:07.520            17.751                Anadyr2           554.719
       300   03 Jun 2027 15:09:16.063   03 Jun 2027 15:09:29.582            13.519                Anadyr2           422.469
       301   03 Jun 2027 15:09:56.670   03 Jun 2027 15:10:50.595            53.925                Anadyr2          1685.156
       302   03 Jun 2027 16:03:44.911   03 Jun 2027 16:03:45.109             0.198               CapeTown             6.187
       303   03 Jun 2027 16:07:58.068   03 Jun 2027 16:07:59.610             1.542               CapeTown            48.188
       304   03 Jun 2027 16:08:24.415   03 Jun 2027 16:08:32.829             8.414               CapeTown           262.938
       305   03 Jun 2027 16:09:13.962   03 Jun 2027 16:09:36.260            22.298               CapeTown           696.813
       306   03 Jun 2027 16:12:13.125   03 Jun 2027 16:13:29.269            76.144               CapeTown          2379.500
       307   03 Jun 2027 16:27:06.219   03 Jun 2027 16:27:08.038             1.819                 Moscow            56.844
       308   03 Jun 2027 16:27:39.695   03 Jun 2027 16:28:17.753            38.058                 Moscow          1189.312
       309   03 Jun 2027 16:29:30.522   03 Jun 2027 16:30:48.096            77.574              Murmansk2          2424.188
       310   03 Jun 2027 16:38:45.011   03 Jun 2027 16:39:24.944            39.933              Murmansk1          1247.906
       311   03 Jun 2027 16:42:19.251   03 Jun 2027 16:43:24.816            65.565                Anadyr2          2048.906
       312   03 Jun 2027 16:44:10.336   03 Jun 2027 16:44:45.330            34.994                Anadyr1          1093.562
       313   03 Jun 2027 16:51:25.080   03 Jun 2027 16:51:52.513            27.433                Anadyr2           857.281
       314   03 Jun 2027 17:38:00.231   03 Jun 2027 17:38:39.532            39.301               CapeTown          1228.156
       315   03 Jun 2027 17:41:53.182   03 Jun 2027 17:42:38.981            45.799               CapeTown          1431.219
       316   03 Jun 2027 17:48:38.310   03 Jun 2027 17:48:55.420            17.110               CapeTown           534.688
       317   03 Jun 2027 18:10:02.391   03 Jun 2027 18:14:38.418           276.027              Murmansk1          8625.844
       318   03 Jun 2027 18:20:52.130   03 Jun 2027 18:22:29.489            97.359               Magadan1          3042.469
       319   03 Jun 2027 18:23:39.961   03 Jun 2027 18:23:54.550            14.589               Magadan1           455.906
       320   03 Jun 2027 18:28:47.462   03 Jun 2027 18:29:20.642            33.180               Magadan1          1036.875
       321   03 Jun 2027 19:54:01.057   03 Jun 2027 19:56:06.913           125.856                Anadyr1          3933.000
       322   03 Jun 2027 19:56:17.355   03 Jun 2027 19:57:48.519            91.164                Anadyr2          2848.875
       323   03 Jun 2027 19:57:56.099   03 Jun 2027 20:00:33.845           157.746               Magadan2          4929.562
       324   03 Jun 2027 20:02:55.876   03 Jun 2027 20:03:22.059            26.183               Magadan1           818.219
       325   03 Jun 2027 20:49:08.783   03 Jun 2027 20:52:12.306           183.523            RioGallegos          5735.094
       326   03 Jun 2027 20:55:41.089   03 Jun 2027 20:55:50.069             8.980            RioGallegos           280.625
       327   03 Jun 2027 21:29:45.544   03 Jun 2027 21:32:08.256           142.712                Anadyr1          4459.750
       328   03 Jun 2027 21:32:16.927   03 Jun 2027 21:33:22.895            65.968               Magadan2          2061.500
       329   03 Jun 2027 21:33:26.388   03 Jun 2027 21:33:53.396            27.008               Magadan2           844.000
       330   03 Jun 2027 21:36:24.454   03 Jun 2027 21:37:40.448            75.994                Irkutsk          2374.812
       331   03 Jun 2027 21:39:09.447   03 Jun 2027 21:39:48.365            38.918                Irkutsk          1216.188
       332   03 Jun 2027 21:50:36.783   03 Jun 2027 21:53:00.330           143.547                Sumatra          4485.844
       333   03 Jun 2027 21:56:16.858   03 Jun 2027 21:56:38.356            21.498                Sumatra           671.812
       334   03 Jun 2027 23:06:02.786   03 Jun 2027 23:07:13.849            71.063                Anadyr1          2220.719
       335   03 Jun 2027 23:07:46.095   03 Jun 2027 23:08:17.760            31.665                Norilsk           989.531
       336   03 Jun 2027 23:08:44.436   03 Jun 2027 23:08:55.869            11.433               Magadan1           357.281
       337   03 Jun 2027 23:08:59.923   03 Jun 2027 23:09:03.621             3.698               Magadan1           115.562
       338   03 Jun 2027 23:09:45.166   03 Jun 2027 23:10:20.143            34.977               Magadan2          1093.031
       339   03 Jun 2027 23:10:40.273   03 Jun 2027 23:11:00.869            20.596               Magadan2           643.625
       340   03 Jun 2027 23:11:38.236   03 Jun 2027 23:12:02.527            24.291                Irkutsk           759.094
       341   03 Jun 2027 23:12:23.801   03 Jun 2027 23:15:01.308           157.507                Novosib          4922.094
       342   03 Jun 2027 23:20:37.328   03 Jun 2027 23:21:35.311            57.983                  Delhi          1811.969
       343   03 Jun 2027 23:25:02.762   03 Jun 2027 23:25:33.425            30.663                  Delhi           958.219
       344   03 Jun 2027 23:29:48.055   03 Jun 2027 23:29:54.136             6.081                  Delhi           190.031
       345   03 Jun 2027 23:35:55.951   03 Jun 2027 23:36:23.470            27.519                Sumatra           859.969
       346   04 Jun 2027 00:08:31.950   04 Jun 2027 00:09:00.489            28.539            RioGallegos           891.844
       347   04 Jun 2027 00:38:39.623   04 Jun 2027 00:40:12.722            93.099                Anadyr2          2909.344
       348   04 Jun 2027 00:41:00.582   04 Jun 2027 00:41:09.701             9.119                Anadyr2           284.969
       349   04 Jun 2027 00:43:46.484   04 Jun 2027 00:44:02.857            16.373                Norilsk           511.656
       350   04 Jun 2027 00:44:14.413   04 Jun 2027 00:44:19.471             5.058               Magadan2           158.062
       351   04 Jun 2027 00:44:26.607   04 Jun 2027 00:45:49.981            83.374                Norilsk          2605.438
       352   04 Jun 2027 00:46:21.523   04 Jun 2027 00:47:56.928            95.405              Murmansk1          2981.406
       353   04 Jun 2027 00:48:10.998   04 Jun 2027 00:48:24.482            13.484                Novosib           421.375
       354   04 Jun 2027 00:48:36.141   04 Jun 2027 00:49:00.339            24.198              Murmansk2           756.188
       355   04 Jun 2027 00:49:14.908   04 Jun 2027 00:50:36.530            81.622              Murmansk2          2550.687
       356   04 Jun 2027 00:55:13.157   04 Jun 2027 00:56:48.177            95.020                  Delhi          2969.375
       357   04 Jun 2027 01:37:31.315   04 Jun 2027 01:38:17.035            45.720            RioGallegos          1428.750
       358   04 Jun 2027 01:40:01.242   04 Jun 2027 01:40:31.373            30.131            RioGallegos           941.594
       359   04 Jun 2027 02:11:57.284   04 Jun 2027 02:12:31.569            34.285                Anadyr2          1071.406
       360   04 Jun 2027 02:13:19.114   04 Jun 2027 02:13:35.785            16.671                Anadyr1           520.969
       361   04 Jun 2027 02:14:15.627   04 Jun 2027 02:14:29.237            13.610                Anadyr1           425.312
       362   04 Jun 2027 02:14:30.442   04 Jun 2027 02:14:49.791            19.349                Anadyr2           604.656
       363   04 Jun 2027 02:17:40.217   04 Jun 2027 02:18:51.234            71.017               Magadan2          2219.281
       364   04 Jun 2027 02:19:38.953   04 Jun 2027 02:20:01.438            22.485                Norilsk           702.656
       365   04 Jun 2027 02:21:54.699   04 Jun 2027 02:22:22.638            27.939              Murmansk1           873.094
       366   04 Jun 2027 02:23:29.514   04 Jun 2027 02:23:56.052            26.538              Murmansk2           829.313
       367   04 Jun 2027 02:24:26.985   04 Jun 2027 02:25:54.214            87.229                Novosib          2725.906
       368   04 Jun 2027 02:27:03.408   04 Jun 2027 02:27:05.457             2.049                 Moscow            64.031
       369   04 Jun 2027 02:27:11.183   04 Jun 2027 02:27:51.131            39.948                Irkutsk          1248.375
       370   04 Jun 2027 02:34:06.531   04 Jun 2027 02:34:29.243            22.712                Novosib           709.750
       371   04 Jun 2027 02:50:35.325   04 Jun 2027 02:50:59.631            24.306               CapeTown           759.562
       372   04 Jun 2027 02:51:50.651   04 Jun 2027 02:53:21.701            91.050               CapeTown          2845.312
       373   04 Jun 2027 03:57:59.160   04 Jun 2027 03:58:08.279             9.119               Magadan1           284.969
       374   04 Jun 2027 04:07:48.582   04 Jun 2027 04:10:45.552           176.970              Murmansk2          5530.313
       375   04 Jun 2027 04:11:52.198   04 Jun 2027 04:13:53.768           121.570                 Moscow          3799.062
       376   04 Jun 2027 04:35:53.216   04 Jun 2027 04:36:40.547            47.331               CapeTown          1479.094
       377   04 Jun 2027 04:37:25.440   04 Jun 2027 04:37:34.305             8.865               CapeTown           277.031
       378   04 Jun 2027 05:28:29.039   04 Jun 2027 05:30:26.548           117.509               Magadan1          3672.156
       379   04 Jun 2027 05:30:26.548   04 Jun 2027 05:32:01.577            95.029               Magadan2          2969.656
       380   04 Jun 2027 05:32:11.949   04 Jun 2027 05:34:37.414           145.465                Anadyr1          4545.781
       381   04 Jun 2027 07:05:31.914   04 Jun 2027 07:05:36.361             4.447               Magadan1           138.969
       382   04 Jun 2027 07:05:49.842   04 Jun 2027 07:05:59.194             9.352               Magadan1           292.250
       383   04 Jun 2027 07:06:05.366   04 Jun 2027 07:06:29.968            24.602               Magadan1           768.813
       384   04 Jun 2027 07:06:34.664   04 Jun 2027 07:08:08.751            94.087               Magadan2          2940.219
       385   04 Jun 2027 07:08:53.534   04 Jun 2027 07:09:29.471            35.937                Anadyr1          1123.031
       386   04 Jun 2027 08:39:30.831   04 Jun 2027 08:39:35.322             4.491               Magadan2           140.344
       387   04 Jun 2027 08:40:33.772   04 Jun 2027 08:40:46.219            12.447               Magadan2           388.969
       388   04 Jun 2027 08:41:31.965   04 Jun 2027 08:42:11.064            39.099               Magadan1          1221.844
       389   04 Jun 2027 08:42:37.417   04 Jun 2027 08:42:41.457             4.040               Magadan2           126.250
       390   04 Jun 2027 08:43:14.140   04 Jun 2027 08:44:29.632            75.492               Magadan2          2359.125
       391   04 Jun 2027 08:44:40.728   04 Jun 2027 08:45:11.184            30.456                Irkutsk           951.750
       392   04 Jun 2027 08:45:20.385   04 Jun 2027 08:45:25.575             5.190               Magadan2           162.187
       393   04 Jun 2027 08:45:47.228   04 Jun 2027 08:45:58.260            11.032                Norilsk           344.750
       394   04 Jun 2027 09:20:39.797   04 Jun 2027 09:21:52.659            72.862            RioGallegos          2276.937
       395   04 Jun 2027 09:56:23.181   04 Jun 2027 09:57:46.963            83.782                Sumatra          2618.188
       396   04 Jun 2027 10:18:14.413   04 Jun 2027 10:18:48.523            34.110                Novosib          1065.938
       397   04 Jun 2027 10:19:32.336   04 Jun 2027 10:19:45.292            12.956                Novosib           404.875
       398   04 Jun 2027 10:20:11.288   04 Jun 2027 10:20:52.419            41.131                Irkutsk          1285.344
       399   04 Jun 2027 10:21:07.048   04 Jun 2027 10:21:16.127             9.079                Norilsk           283.719
       400   04 Jun 2027 10:21:16.997   04 Jun 2027 10:21:20.044             3.047                Novosib            95.219
       401   04 Jun 2027 10:21:29.808   04 Jun 2027 10:21:36.226             6.418                Norilsk           200.562
       402   04 Jun 2027 10:21:48.396   04 Jun 2027 10:22:14.033            25.637                Novosib           801.156
       403   04 Jun 2027 10:58:00.124   04 Jun 2027 10:58:53.589            53.465            RioGallegos          1670.781
       404   04 Jun 2027 11:32:13.015   04 Jun 2027 11:32:45.152            32.137                Sumatra          1004.281
       405   04 Jun 2027 11:36:04.650   04 Jun 2027 11:36:24.634            19.984                Sumatra           624.500
       406   04 Jun 2027 11:42:07.803   04 Jun 2027 11:42:33.347            25.544                  Delhi           798.250
       407   04 Jun 2027 11:44:17.411   04 Jun 2027 11:46:17.090           119.679                  Delhi          3739.969
       408   04 Jun 2027 11:53:17.331   04 Jun 2027 11:53:36.278            18.947                Irkutsk           592.094
       409   04 Jun 2027 11:53:37.963   04 Jun 2027 11:54:21.686            43.723                Irkutsk          1366.344
       410   04 Jun 2027 11:54:40.613   04 Jun 2027 11:54:40.855             0.242                Novosib             7.562
       411   04 Jun 2027 11:54:58.520   04 Jun 2027 11:56:08.764            70.244                Irkutsk          2195.125
       412   04 Jun 2027 11:56:23.699   04 Jun 2027 11:57:00.930            37.231                Novosib          1163.469
       413   04 Jun 2027 11:57:05.212   04 Jun 2027 11:57:36.581            31.369                Novosib           980.281
       414   04 Jun 2027 13:17:16.930   04 Jun 2027 13:18:40.266            83.336                  Delhi          2604.250
       415   04 Jun 2027 13:19:56.869   04 Jun 2027 13:22:16.548           139.679                  Delhi          4364.969
       416   04 Jun 2027 13:26:09.496   04 Jun 2027 13:26:49.188            39.692                Novosib          1240.375
       417   04 Jun 2027 13:27:33.892   04 Jun 2027 13:27:53.701            19.809                Novosib           619.031
       418   04 Jun 2027 13:27:59.606   04 Jun 2027 13:28:58.052            58.446              Murmansk1          1826.437
       419   04 Jun 2027 13:28:58.052   04 Jun 2027 13:28:58.960             0.908              Murmansk2            28.375
       420   04 Jun 2027 13:29:15.237   04 Jun 2027 13:30:37.904            82.667                Norilsk          2583.344
       421   04 Jun 2027 13:35:06.739   04 Jun 2027 13:36:16.196            69.457                Norilsk          2170.531
       422   04 Jun 2027 15:00:19.910   04 Jun 2027 15:02:10.006           110.096                 Moscow          3440.500
       423   04 Jun 2027 15:03:50.392   04 Jun 2027 15:06:53.143           182.751              Murmansk2          5710.969
       424   04 Jun 2027 15:10:41.337   04 Jun 2027 15:11:02.431            21.094              Murmansk2           659.188
       425   04 Jun 2027 15:11:21.365   04 Jun 2027 15:13:03.942           102.577                Norilsk          3205.531
       426   04 Jun 2027 15:19:30.119   04 Jun 2027 15:20:47.829            77.710                Anadyr2          2428.437
       427   04 Jun 2027 15:25:12.984   04 Jun 2027 15:25:13.555             0.571                Anadyr2            17.844
       428   04 Jun 2027 16:16:36.716   04 Jun 2027 16:16:43.796             7.080               CapeTown           221.250
       429   04 Jun 2027 16:17:52.597   04 Jun 2027 16:19:46.631           114.034               CapeTown          3563.562
       430   04 Jun 2027 16:40:26.232   04 Jun 2027 16:40:28.514             2.282                 Moscow            71.313
       431   04 Jun 2027 16:41:55.946   04 Jun 2027 16:42:41.617            45.671              Murmansk2          1427.219
       432   04 Jun 2027 16:46:31.915   04 Jun 2027 16:47:00.261            28.346              Murmansk2           885.813
       433   04 Jun 2027 16:50:12.833   04 Jun 2027 16:50:46.995            34.162              Murmansk2          1067.563
       434   04 Jun 2027 16:51:52.369   04 Jun 2027 16:52:23.401            31.032              Murmansk2           969.750
       435   04 Jun 2027 16:54:17.895   04 Jun 2027 16:55:04.711            46.816                Anadyr1          1463.000
       436   04 Jun 2027 16:57:01.942   04 Jun 2027 16:57:20.635            18.693                Anadyr2           584.156
       437   04 Jun 2027 16:57:48.796   04 Jun 2027 16:58:46.900            58.104                Anadyr2          1815.750
       438   04 Jun 2027 17:50:23.562   04 Jun 2027 17:51:04.796            41.234               CapeTown          1288.562
       439   04 Jun 2027 17:56:40.654   04 Jun 2027 17:56:45.552             4.898               CapeTown           153.063
       440   04 Jun 2027 17:57:04.132   04 Jun 2027 17:57:26.947            22.815               CapeTown           712.969
       441   04 Jun 2027 18:00:12.188   04 Jun 2027 18:00:22.279            10.091               CapeTown           315.344
       442   04 Jun 2027 18:23:00.969   04 Jun 2027 18:27:24.175           263.206              Murmansk1          8225.187
       443   04 Jun 2027 18:31:18.487   04 Jun 2027 18:31:37.313            18.826                Anadyr1           588.312
       444   04 Jun 2027 18:32:45.825   04 Jun 2027 18:33:04.104            18.279               Magadan1           571.219
       445   04 Jun 2027 18:33:10.279   04 Jun 2027 18:33:42.497            32.218               Magadan1          1006.813
       446   04 Jun 2027 18:36:41.016   04 Jun 2027 18:37:16.498            35.482               Magadan2          1108.812
       447   04 Jun 2027 18:38:48.721   04 Jun 2027 18:39:30.869            42.148               Magadan1          1317.125
       448   04 Jun 2027 18:41:38.296   04 Jun 2027 18:42:05.204            26.908               Magadan1           840.875
       449   04 Jun 2027 20:06:02.191   04 Jun 2027 20:08:08.587           126.396                Anadyr1          3949.875
       450   04 Jun 2027 20:08:17.328   04 Jun 2027 20:10:13.269           115.941                Anadyr2          3623.156
       451   04 Jun 2027 20:11:10.954   04 Jun 2027 20:12:02.503            51.549               Magadan1          1610.906
       452   04 Jun 2027 20:12:02.503   04 Jun 2027 20:13:00.558            58.055               Magadan2          1814.219
       453   04 Jun 2027 20:13:03.455   04 Jun 2027 20:13:07.792             4.337               Magadan2           135.531
       454   04 Jun 2027 20:13:09.974   04 Jun 2027 20:13:49.982            40.008               Magadan2          1250.250
       455   04 Jun 2027 20:18:50.305   04 Jun 2027 20:18:51.870             1.565               Magadan1            48.906
       456   04 Jun 2027 20:19:00.235   04 Jun 2027 20:19:26.287            26.052               Magadan1           814.125
       457   04 Jun 2027 21:00:48.997   04 Jun 2027 21:03:23.506           154.509            RioGallegos          4828.406
       458   04 Jun 2027 21:05:29.950   04 Jun 2027 21:05:53.170            23.220            RioGallegos           725.625
       459   04 Jun 2027 21:10:08.814   04 Jun 2027 21:10:11.474             2.660            RioGallegos            83.125
       460   04 Jun 2027 21:41:43.521   04 Jun 2027 21:42:33.764            50.243                Anadyr2          1570.094
       461   04 Jun 2027 21:43:53.416   04 Jun 2027 21:44:15.971            22.555                Norilsk           704.844
       462   04 Jun 2027 21:44:19.701   04 Jun 2027 21:46:25.046           125.345               Magadan2          3917.031
       463   04 Jun 2027 21:48:14.329   04 Jun 2027 21:50:30.047           135.718                Irkutsk          4241.188
       464   04 Jun 2027 22:02:11.698   04 Jun 2027 22:03:56.113           104.415                Sumatra          3262.969
       465   04 Jun 2027 22:13:36.046   04 Jun 2027 22:13:58.047            22.001                Sumatra           687.531
       466   04 Jun 2027 23:16:38.974   04 Jun 2027 23:18:07.965            88.991                Anadyr2          2780.969
       467   04 Jun 2027 23:18:29.442   04 Jun 2027 23:18:59.204            29.762                Anadyr2           930.063
       468   04 Jun 2027 23:19:12.746   04 Jun 2027 23:19:23.145            10.399                Anadyr2           324.969
       469   04 Jun 2027 23:19:48.136   04 Jun 2027 23:21:02.118            73.982                Norilsk          2311.937
       470   04 Jun 2027 23:22:52.491   04 Jun 2027 23:23:24.052            31.561               Magadan1           986.281
       471   04 Jun 2027 23:23:39.812   04 Jun 2027 23:25:01.836            82.024                Irkutsk          2563.250
       472   04 Jun 2027 23:25:43.269   04 Jun 2027 23:26:40.817            57.548                Novosib          1798.375
       473   04 Jun 2027 23:31:44.645   04 Jun 2027 23:32:42.915            58.270                Novosib          1820.937
       474   04 Jun 2027 23:32:56.024   04 Jun 2027 23:34:46.585           110.561                  Delhi          3455.031
       475   05 Jun 2027 00:22:51.589   05 Jun 2027 00:22:59.372             7.783            RioGallegos           243.219
       476   05 Jun 2027 00:50:21.216   05 Jun 2027 00:50:55.619            34.403                Anadyr1          1075.094
       477   05 Jun 2027 00:51:22.764   05 Jun 2027 00:52:08.745            45.981                Anadyr2          1436.906
       478   05 Jun 2027 00:52:48.099   05 Jun 2027 00:53:18.058            29.959                Anadyr1           936.219
       479   05 Jun 2027 00:55:16.330   05 Jun 2027 00:55:53.898            37.568                Anadyr2          1174.000
       480   05 Jun 2027 00:55:59.072   05 Jun 2027 00:56:04.930             5.858                Norilsk           183.063
       481   05 Jun 2027 00:56:09.833   05 Jun 2027 00:57:08.152            58.319               Magadan1          1822.469
       482   05 Jun 2027 00:57:13.137   05 Jun 2027 00:57:39.678            26.541               Magadan1           829.406
