uniorb/output/strategy_4/Drop/Drop_KinoSat_111210.txt

KinoSat_111210
-------------------------
    Access    *     Start Time (UTCG)     *     Stop Time (UTCG)  *   Duration (s)        *       Station  *  Data (Mbytes)
         1   01 Jun 2027 04:11:30.003   01 Jun 2027 04:11:37.005             7.002               Magadan2           218.813
         2   01 Jun 2027 04:12:19.489   01 Jun 2027 04:12:46.222            26.733               Magadan2           835.406
         3   01 Jun 2027 04:20:27.990   01 Jun 2027 04:21:08.546            40.556                Norilsk          1267.375
         4   01 Jun 2027 04:22:07.361   01 Jun 2027 04:22:42.073            34.712              Murmansk1          1084.750
         5   01 Jun 2027 04:25:11.408   01 Jun 2027 04:25:12.974             1.566              Murmansk2            48.937
         6   01 Jun 2027 05:44:15.401   01 Jun 2027 05:47:19.736           184.335               Magadan2          5760.469
         7   01 Jun 2027 05:47:19.736   01 Jun 2027 05:47:46.847            27.111               Magadan1           847.219
         8   01 Jun 2027 05:47:59.117   01 Jun 2027 05:49:13.715            74.598                Anadyr2          2331.188
         9   01 Jun 2027 07:19:16.411   01 Jun 2027 07:20:45.691            89.280                Anadyr2          2790.000
        10   01 Jun 2027 07:20:45.691   01 Jun 2027 07:22:28.809           103.118                Anadyr1          3222.438
        11   01 Jun 2027 07:22:49.512   01 Jun 2027 07:23:46.042            56.530                Anadyr1          1766.563
        12   01 Jun 2027 07:24:06.043   01 Jun 2027 07:25:49.740           103.697               Magadan1          3240.531
        13   01 Jun 2027 07:27:07.232   01 Jun 2027 07:27:32.825            25.593              Murmansk1           799.781
        14   01 Jun 2027 08:01:16.263   01 Jun 2027 08:02:22.104            65.841            RioGallegos          2057.531
        15   01 Jun 2027 08:57:09.574   01 Jun 2027 08:57:24.745            15.171               Magadan1           474.094
        16   01 Jun 2027 08:57:24.745   01 Jun 2027 09:00:34.298           189.553               Magadan2          5923.531
        17   01 Jun 2027 09:01:18.913   01 Jun 2027 09:01:54.624            35.711                Novosib          1115.969
        18   01 Jun 2027 09:03:16.931   01 Jun 2027 09:03:24.451             7.520              Murmansk2           235.000
        19   01 Jun 2027 09:03:32.094   01 Jun 2027 09:03:55.702            23.608              Murmansk2           737.750
        20   01 Jun 2027 09:04:34.525   01 Jun 2027 09:05:17.244            42.719              Murmansk1          1334.969
        21   01 Jun 2027 09:05:26.961   01 Jun 2027 09:06:00.578            33.617              Murmansk1          1050.531
        22   01 Jun 2027 09:06:40.527   01 Jun 2027 09:06:41.029             0.502                Norilsk            15.688
        23   01 Jun 2027 09:08:22.620   01 Jun 2027 09:09:21.379            58.759              Murmansk1          1836.219
        24   01 Jun 2027 09:36:26.817   01 Jun 2027 09:37:51.867            85.050            RioGallegos          2657.813
        25   01 Jun 2027 09:44:59.624   01 Jun 2027 09:45:03.605             3.981            RioGallegos           124.406
        26   01 Jun 2027 09:45:24.340   01 Jun 2027 09:45:44.207            19.867            RioGallegos           620.844
        27   01 Jun 2027 09:47:58.154   01 Jun 2027 09:48:53.936            55.782            RioGallegos          1743.187
        28   01 Jun 2027 10:11:14.777   01 Jun 2027 10:14:13.888           179.111                Sumatra          5597.219
        29   01 Jun 2027 10:32:40.611   01 Jun 2027 10:33:47.512            66.901                Irkutsk          2090.656
        30   01 Jun 2027 10:34:41.210   01 Jun 2027 10:37:45.640           184.430              Murmansk1          5763.437
        31   01 Jun 2027 11:15:59.927   01 Jun 2027 11:16:32.471            32.544            RioGallegos          1017.000
        32   01 Jun 2027 11:17:11.576   01 Jun 2027 11:17:43.780            32.204            RioGallegos          1006.375
        33   01 Jun 2027 11:18:29.047   01 Jun 2027 11:19:38.302            69.255            RioGallegos          2164.219
        34   01 Jun 2027 11:20:28.919   01 Jun 2027 11:20:29.357             0.438            RioGallegos            13.687
        35   01 Jun 2027 11:51:12.297   01 Jun 2027 11:54:17.488           185.191                Sumatra          5787.219
        36   01 Jun 2027 12:06:10.023   01 Jun 2027 12:06:27.252            17.229                Novosib           538.406
        37   01 Jun 2027 12:07:31.460   01 Jun 2027 12:08:00.426            28.966                Novosib           905.188
        38   01 Jun 2027 13:43:07.414   01 Jun 2027 13:43:41.402            33.988                 Moscow          1062.125
        39   01 Jun 2027 13:44:56.824   01 Jun 2027 13:45:26.334            29.510              Murmansk2           922.188
        40   01 Jun 2027 13:46:09.274   01 Jun 2027 13:46:36.655            27.381              Murmansk2           855.656
        41   01 Jun 2027 13:46:51.842   01 Jun 2027 13:48:19.236            87.394                Norilsk          2731.062
        42   01 Jun 2027 13:48:22.305   01 Jun 2027 13:49:34.976            72.671                Norilsk          2270.969
        43   01 Jun 2027 13:51:06.109   01 Jun 2027 13:51:40.483            34.374                Norilsk          1074.188
        44   01 Jun 2027 13:53:46.700   01 Jun 2027 13:54:19.872            33.172                Norilsk          1036.625
        45   01 Jun 2027 14:58:02.892   01 Jun 2027 14:58:25.122            22.230               CapeTown           694.687
        46   01 Jun 2027 14:58:41.886   01 Jun 2027 14:59:35.118            53.232               CapeTown          1663.500
        47   01 Jun 2027 15:00:27.979   01 Jun 2027 15:01:09.421            41.442               CapeTown          1295.063
        48   01 Jun 2027 15:23:19.971   01 Jun 2027 15:24:36.494            76.523              Murmansk1          2391.344
        49   01 Jun 2027 15:28:22.896   01 Jun 2027 15:28:43.022            20.126              Murmansk1           628.937
        50   01 Jun 2027 15:29:10.052   01 Jun 2027 15:29:38.452            28.400              Murmansk1           887.500
        51   01 Jun 2027 15:34:24.867   01 Jun 2027 15:34:45.295            20.428                Anadyr1           638.375
        52   01 Jun 2027 15:35:27.109   01 Jun 2027 15:36:07.918            40.809                Anadyr2          1275.281
        53   01 Jun 2027 15:37:01.591   01 Jun 2027 15:37:28.664            27.073                Anadyr2           846.031
        54   01 Jun 2027 15:38:33.010   01 Jun 2027 15:38:37.185             4.175                Anadyr2           130.469
        55   01 Jun 2027 15:39:02.933   01 Jun 2027 15:40:28.657            85.724                Anadyr2          2678.875
        56   01 Jun 2027 16:38:29.524   01 Jun 2027 16:38:55.583            26.059               CapeTown           814.344
        57   01 Jun 2027 16:59:17.824   01 Jun 2027 17:00:47.901            90.077              Murmansk2          2814.906
        58   01 Jun 2027 17:02:00.412   01 Jun 2027 17:02:40.390            39.978              Murmansk2          1249.312
        59   01 Jun 2027 17:03:05.853   01 Jun 2027 17:04:15.238            69.385              Murmansk2          2168.281
        60   01 Jun 2027 17:07:07.729   01 Jun 2027 17:07:55.249            47.520              Murmansk1          1485.000
        61   01 Jun 2027 17:14:01.816   01 Jun 2027 17:14:27.083            25.267                Anadyr2           789.594
        62   01 Jun 2027 17:16:05.224   01 Jun 2027 17:16:32.781            27.557               Magadan2           861.156
        63   01 Jun 2027 17:16:37.420   01 Jun 2027 17:17:14.782            37.362               Magadan1          1167.562
        64   01 Jun 2027 17:21:36.298   01 Jun 2027 17:21:45.733             9.435                Anadyr2           294.844
        65   01 Jun 2027 18:45:47.822   01 Jun 2027 18:49:57.677           249.855                Anadyr2          7807.969
        66   01 Jun 2027 18:50:22.972   01 Jun 2027 18:51:29.468            66.496               Magadan2          2078.000
        67   01 Jun 2027 18:51:29.468   01 Jun 2027 18:51:46.416            16.948               Magadan1           529.625
        68   01 Jun 2027 18:52:46.322   01 Jun 2027 18:53:18.608            32.286               Magadan1          1008.938
        69   01 Jun 2027 18:54:54.474   01 Jun 2027 18:55:48.695            54.221               Magadan1          1694.406
        70   01 Jun 2027 18:58:03.869   01 Jun 2027 18:58:33.417            29.548               Magadan1           923.375
        71   01 Jun 2027 18:59:07.689   01 Jun 2027 19:00:03.258            55.569               Magadan2          1736.531
        72   01 Jun 2027 20:21:39.996   01 Jun 2027 20:23:46.050           126.054                Anadyr2          3939.188
        73   01 Jun 2027 20:23:57.450   01 Jun 2027 20:25:45.820           108.370                Norilsk          3386.563
        74   01 Jun 2027 20:25:48.335   01 Jun 2027 20:27:34.886           106.551                Norilsk          3329.719
        75   01 Jun 2027 20:29:34.819   01 Jun 2027 20:31:36.376           121.557                Irkutsk          3798.656
        76   01 Jun 2027 20:32:14.643   01 Jun 2027 20:32:18.993             4.350                Irkutsk           135.938
        77   01 Jun 2027 20:33:44.950   01 Jun 2027 20:34:41.444            56.494                Irkutsk          1765.437
        78   01 Jun 2027 20:46:17.174   01 Jun 2027 20:47:38.128            80.954                Sumatra          2529.812
        79   01 Jun 2027 21:57:21.092   01 Jun 2027 21:58:26.156            65.064                Anadyr1          2033.250
        80   01 Jun 2027 21:58:40.565   01 Jun 2027 21:59:22.676            42.111                Anadyr1          1315.969
        81   01 Jun 2027 22:00:05.365   01 Jun 2027 22:00:19.164            13.799               Magadan2           431.219
        82   01 Jun 2027 22:00:38.014   01 Jun 2027 22:00:41.811             3.797               Magadan2           118.656
        83   01 Jun 2027 22:00:49.159   01 Jun 2027 22:01:13.506            24.347               Magadan1           760.844
        84   01 Jun 2027 22:01:37.107   01 Jun 2027 22:01:43.593             6.486               Magadan2           202.688
        85   01 Jun 2027 22:02:42.429   01 Jun 2027 22:03:23.010            40.581                Norilsk          1268.156
        86   01 Jun 2027 22:06:17.995   01 Jun 2027 22:06:52.012            34.017                Irkutsk          1063.031
        87   01 Jun 2027 22:07:30.921   01 Jun 2027 22:07:50.076            19.155                Novosib           598.594
        88   01 Jun 2027 22:11:09.768   01 Jun 2027 22:11:47.008            37.240                Novosib          1163.750
        89   01 Jun 2027 22:12:52.893   01 Jun 2027 22:13:01.886             8.993                Novosib           281.031
        90   01 Jun 2027 22:14:25.768   01 Jun 2027 22:14:47.317            21.549                Irkutsk           673.406
        91   01 Jun 2027 22:21:36.341   01 Jun 2027 22:22:23.620            47.279                Sumatra          1477.469
        92   01 Jun 2027 22:23:57.155   01 Jun 2027 22:26:00.130           122.975                Sumatra          3842.969
        93   01 Jun 2027 23:33:16.463   01 Jun 2027 23:33:39.332            22.869                Anadyr1           714.656
        94   01 Jun 2027 23:33:45.819   01 Jun 2027 23:34:29.693            43.874                Anadyr2          1371.063
        95   01 Jun 2027 23:35:31.316   01 Jun 2027 23:35:50.577            19.261                Norilsk           601.906
        96   01 Jun 2027 23:36:08.512   01 Jun 2027 23:37:33.732            85.220               Magadan1          2663.125
        97   01 Jun 2027 23:37:36.372   01 Jun 2027 23:37:58.833            22.461               Magadan2           701.906
        98   01 Jun 2027 23:39:18.223   01 Jun 2027 23:40:01.570            43.347              Murmansk2          1354.594
        99   01 Jun 2027 23:40:16.172   01 Jun 2027 23:41:48.792            92.620              Murmansk1          2894.375
       100   01 Jun 2027 23:47:51.404   01 Jun 2027 23:48:28.533            37.129                  Delhi          1160.281
       101   01 Jun 2027 23:53:19.449   01 Jun 2027 23:53:42.663            23.214                  Delhi           725.438
       102   01 Jun 2027 23:54:35.105   01 Jun 2027 23:54:45.343            10.238                  Delhi           319.938
       103   01 Jun 2027 23:54:56.253   01 Jun 2027 23:56:19.967            83.714                  Delhi          2616.063
       104   02 Jun 2027 00:35:39.761   02 Jun 2027 00:35:45.202             5.441            RioGallegos           170.031
       105   02 Jun 2027 00:36:45.533   02 Jun 2027 00:36:54.869             9.336            RioGallegos           291.750
       106   02 Jun 2027 01:04:53.171   02 Jun 2027 01:05:16.864            23.693                Anadyr2           740.406
       107   02 Jun 2027 01:05:19.419   02 Jun 2027 01:05:21.883             2.464                Anadyr2            77.000
       108   02 Jun 2027 01:05:46.363   02 Jun 2027 01:06:27.760            41.397                Anadyr1          1293.656
       109   02 Jun 2027 01:07:08.795   02 Jun 2027 01:07:29.788            20.993                Anadyr1           656.031
       110   02 Jun 2027 01:07:29.788   02 Jun 2027 01:07:39.654             9.866                Anadyr2           308.312
       111   02 Jun 2027 01:07:49.168   02 Jun 2027 01:07:54.737             5.569                Anadyr1           174.031
       112   02 Jun 2027 01:08:58.371   02 Jun 2027 01:09:23.536            25.165                Anadyr2           786.406
       113   02 Jun 2027 01:10:39.542   02 Jun 2027 01:11:02.907            23.365                Anadyr2           730.156
       114   02 Jun 2027 01:11:04.014   02 Jun 2027 01:11:49.608            45.594               Magadan1          1424.812
       115   02 Jun 2027 01:11:49.608   02 Jun 2027 01:13:30.056           100.448               Magadan2          3139.000
       116   02 Jun 2027 01:13:45.415   02 Jun 2027 01:14:32.498            47.083              Murmansk2          1471.344
       117   02 Jun 2027 01:15:20.871   02 Jun 2027 01:16:48.571            87.700                Novosib          2740.625
       118   02 Jun 2027 01:23:28.934   02 Jun 2027 01:23:33.340             4.406              Murmansk2           137.688
       119   02 Jun 2027 01:24:41.671   02 Jun 2027 01:25:10.618            28.947                  Delhi           904.594
       120   02 Jun 2027 01:28:49.170   02 Jun 2027 01:28:55.651             6.481                  Delhi           202.531
       121   02 Jun 2027 01:29:55.925   02 Jun 2027 01:30:05.811             9.886                  Delhi           308.937
       122   02 Jun 2027 01:30:28.924   02 Jun 2027 01:30:51.150            22.226                  Delhi           694.562
       123   02 Jun 2027 01:46:03.036   02 Jun 2027 01:46:34.842            31.806               CapeTown           993.938
       124   02 Jun 2027 02:38:29.670   02 Jun 2027 02:40:41.149           131.479                Anadyr1          4108.719
       125   02 Jun 2027 02:41:41.612   02 Jun 2027 02:41:50.330             8.718                Anadyr2           272.437
       126   02 Jun 2027 02:42:56.256   02 Jun 2027 02:44:08.598            72.342               Magadan2          2260.688
       127   02 Jun 2027 02:44:32.493   02 Jun 2027 02:44:39.970             7.477               Magadan1           233.656
       128   02 Jun 2027 02:46:06.670   02 Jun 2027 02:46:27.445            20.775               Magadan1           649.219
       129   02 Jun 2027 02:47:11.072   02 Jun 2027 02:47:48.182            37.110                Norilsk          1159.688
       130   02 Jun 2027 02:49:37.506   02 Jun 2027 02:51:05.386            87.880              Murmansk1          2746.250
       131   02 Jun 2027 02:51:53.769   02 Jun 2027 02:52:27.288            33.519                Novosib          1047.469
       132   02 Jun 2027 02:56:45.388   02 Jun 2027 02:57:29.895            44.507                Novosib          1390.844
       133   02 Jun 2027 03:00:37.789   02 Jun 2027 03:02:19.281           101.492                 Moscow          3171.625
       134   02 Jun 2027 03:16:50.801   02 Jun 2027 03:20:06.983           196.182               CapeTown          6130.688
       135   02 Jun 2027 04:20:14.422   02 Jun 2027 04:21:17.702            63.280                Anadyr1          1977.500
       136   02 Jun 2027 04:21:32.214   02 Jun 2027 04:22:28.560            56.346               Magadan2          1760.812
       137   02 Jun 2027 04:22:44.166   02 Jun 2027 04:23:43.475            59.309               Magadan1          1853.406
       138   02 Jun 2027 05:55:49.176   02 Jun 2027 05:56:53.644            64.468                Anadyr1          2014.625
       139   02 Jun 2027 05:57:22.679   02 Jun 2027 05:59:24.903           122.224                Anadyr2          3819.500
       140   02 Jun 2027 06:00:04.295   02 Jun 2027 06:01:18.932            74.637               Magadan1          2332.406
       141   02 Jun 2027 07:31:27.405   02 Jun 2027 07:32:30.395            62.990               Magadan2          1968.437
       142   02 Jun 2027 07:32:45.917   02 Jun 2027 07:33:19.055            33.138                Anadyr1          1035.562
       143   02 Jun 2027 07:33:58.716   02 Jun 2027 07:37:16.873           198.157                Anadyr2          6192.406
       144   02 Jun 2027 07:37:17.596   02 Jun 2027 07:37:57.277            39.681                Novosib          1240.031
       145   02 Jun 2027 08:13:00.767   02 Jun 2027 08:13:51.496            50.729            RioGallegos          1585.281
       146   02 Jun 2027 09:08:19.884   02 Jun 2027 09:10:25.337           125.453               Magadan1          3920.406
       147   02 Jun 2027 09:11:20.815   02 Jun 2027 09:12:08.605            47.790               Magadan1          1493.437
       148   02 Jun 2027 09:12:45.867   02 Jun 2027 09:12:52.429             6.562                Irkutsk           205.063
       149   02 Jun 2027 09:13:02.413   02 Jun 2027 09:13:18.143            15.730                Irkutsk           491.562
       150   02 Jun 2027 09:13:20.635   02 Jun 2027 09:13:20.890             0.255                Irkutsk             7.969
       151   02 Jun 2027 09:13:33.863   02 Jun 2027 09:14:04.083            30.220                Norilsk           944.375
       152   02 Jun 2027 09:48:37.816   02 Jun 2027 09:51:32.188           174.372            RioGallegos          5449.125
       153   02 Jun 2027 10:23:14.730   02 Jun 2027 10:25:08.566           113.836                Sumatra          3557.375
       154   02 Jun 2027 10:43:23.034   02 Jun 2027 10:43:33.900            10.866                  Delhi           339.562
       155   02 Jun 2027 10:45:58.723   02 Jun 2027 10:46:27.634            28.911                Irkutsk           903.469
       156   02 Jun 2027 10:46:39.198   02 Jun 2027 10:47:01.254            22.056                Novosib           689.250
       157   02 Jun 2027 10:47:04.165   02 Jun 2027 10:47:15.224            11.059                Norilsk           345.594
       158   02 Jun 2027 10:47:23.618   02 Jun 2027 10:47:43.345            19.727                Novosib           616.469
       159   02 Jun 2027 10:47:47.254   02 Jun 2027 10:47:58.341            11.087                Irkutsk           346.469
       160   02 Jun 2027 10:48:15.195   02 Jun 2027 10:48:19.461             4.266                Irkutsk           133.312
       161   02 Jun 2027 10:48:28.056   02 Jun 2027 10:48:54.974            26.918                Norilsk           841.187
       162   02 Jun 2027 10:49:11.265   02 Jun 2027 10:49:34.955            23.690                Norilsk           740.312
       163   02 Jun 2027 10:50:02.646   02 Jun 2027 10:50:29.521            26.875                Norilsk           839.844
       164   02 Jun 2027 11:29:11.133   02 Jun 2027 11:29:48.685            37.552            RioGallegos          1173.500
       165   02 Jun 2027 11:32:12.107   02 Jun 2027 11:32:54.205            42.098            RioGallegos          1315.563
       166   02 Jun 2027 12:07:37.031   02 Jun 2027 12:07:43.466             6.435                  Delhi           201.094
       167   02 Jun 2027 12:09:39.773   02 Jun 2027 12:10:31.187            51.414                  Delhi          1606.688
       168   02 Jun 2027 12:15:30.527   02 Jun 2027 12:16:15.398            44.871                Novosib          1402.219
       169   02 Jun 2027 12:17:49.939   02 Jun 2027 12:18:24.643            34.704                Novosib          1084.500
       170   02 Jun 2027 12:19:32.532   02 Jun 2027 12:19:58.448            25.916                Norilsk           809.875
       171   02 Jun 2027 12:23:04.210   02 Jun 2027 12:23:16.543            12.333                Norilsk           385.406
       172   02 Jun 2027 12:24:21.781   02 Jun 2027 12:24:52.704            30.923                Norilsk           966.344
       173   02 Jun 2027 12:28:54.340   02 Jun 2027 12:28:57.463             3.123                Norilsk            97.594
       174   02 Jun 2027 13:51:50.448   02 Jun 2027 13:55:47.814           237.366                 Moscow          7417.688
       175   02 Jun 2027 13:55:56.462   02 Jun 2027 13:58:13.522           137.060              Murmansk1          4283.125
       176   02 Jun 2027 13:59:34.899   02 Jun 2027 14:00:11.804            36.905                Norilsk          1153.281
       177   02 Jun 2027 14:01:08.600   02 Jun 2027 14:02:23.893            75.293                Norilsk          2352.906
       178   02 Jun 2027 15:06:18.070   02 Jun 2027 15:07:43.063            84.993               CapeTown          2656.031
       179   02 Jun 2027 15:09:20.573   02 Jun 2027 15:09:28.699             8.126               CapeTown           253.938
       180   02 Jun 2027 15:10:39.543   02 Jun 2027 15:11:27.756            48.213               CapeTown          1506.656
       181   02 Jun 2027 15:29:22.839   02 Jun 2027 15:30:09.514            46.675                 Moscow          1458.594
       182   02 Jun 2027 15:32:27.729   02 Jun 2027 15:32:52.954            25.225              Murmansk1           788.281
       183   02 Jun 2027 15:34:56.884   02 Jun 2027 15:36:36.283            99.399              Murmansk1          3106.219
       184   02 Jun 2027 15:46:19.283   02 Jun 2027 15:48:26.411           127.128                Anadyr2          3972.750
       185   02 Jun 2027 16:49:27.361   02 Jun 2027 16:49:50.969            23.608               CapeTown           737.750
       186   02 Jun 2027 16:51:56.893   02 Jun 2027 16:52:51.956            55.063               CapeTown          1720.719
       187   02 Jun 2027 17:11:55.937   02 Jun 2027 17:13:43.841           107.904              Murmansk2          3372.000
       188   02 Jun 2027 17:16:14.387   02 Jun 2027 17:16:42.601            28.214              Murmansk1           881.688
       189   02 Jun 2027 17:21:54.209   02 Jun 2027 17:22:54.635            60.426                Anadyr1          1888.312
       190   02 Jun 2027 17:23:03.964   02 Jun 2027 17:23:22.896            18.932                Anadyr2           591.625
       191   02 Jun 2027 17:25:12.699   02 Jun 2027 17:26:25.663            72.964               Magadan2          2280.125
       192   02 Jun 2027 17:26:58.725   02 Jun 2027 17:27:52.187            53.462               Magadan1          1670.688
       193   02 Jun 2027 17:28:39.736   02 Jun 2027 17:28:43.251             3.515               Magadan2           109.844
       194   02 Jun 2027 17:28:44.096   02 Jun 2027 17:28:52.131             8.035               Magadan2           251.094
       195   02 Jun 2027 18:57:49.322   02 Jun 2027 18:59:53.982           124.660                Anadyr1          3895.625
       196   02 Jun 2027 19:00:09.785   02 Jun 2027 19:03:17.466           187.681               Magadan1          5865.031
       197   02 Jun 2027 19:03:21.854   02 Jun 2027 19:03:39.591            17.737               Magadan1           554.281
       198   02 Jun 2027 19:04:21.210   02 Jun 2027 19:04:48.214            27.004               Magadan1           843.875
       199   02 Jun 2027 19:05:28.116   02 Jun 2027 19:05:59.183            31.067               Magadan2           970.844
       200   02 Jun 2027 19:09:50.063   02 Jun 2027 19:11:09.726            79.663               Magadan1          2489.469
       201   02 Jun 2027 19:54:57.107   02 Jun 2027 19:56:50.706           113.599            RioGallegos          3549.969
       202   02 Jun 2027 20:33:39.806   02 Jun 2027 20:34:08.175            28.369                Anadyr1           886.531
       203   02 Jun 2027 20:35:20.521   02 Jun 2027 20:35:22.805             2.284                Anadyr2            71.375
       204   02 Jun 2027 20:35:26.468   02 Jun 2027 20:35:47.151            20.683                Anadyr2           646.344
       205   02 Jun 2027 20:35:52.085   02 Jun 2027 20:38:26.169           154.084                Norilsk          4815.125
       206   02 Jun 2027 20:38:52.317   02 Jun 2027 20:39:33.325            41.008                Norilsk          1281.500
       207   02 Jun 2027 20:41:35.178   02 Jun 2027 20:41:47.027            11.849                Irkutsk           370.281
       208   02 Jun 2027 20:43:35.827   02 Jun 2027 20:44:04.880            29.053                Irkutsk           907.906
       209   02 Jun 2027 20:44:36.373   02 Jun 2027 20:44:38.102             1.729                Irkutsk            54.031
       210   02 Jun 2027 20:44:43.310   02 Jun 2027 20:45:44.673            61.363                Irkutsk          1917.594
       211   02 Jun 2027 20:46:50.742   02 Jun 2027 20:47:27.820            37.078                Irkutsk          1158.687
       212   02 Jun 2027 20:56:30.658   02 Jun 2027 20:58:18.840           108.182                Sumatra          3380.687
       213   02 Jun 2027 21:02:21.164   02 Jun 2027 21:03:39.212            78.048                Sumatra          2439.000
       214   02 Jun 2027 22:11:33.443   02 Jun 2027 22:12:23.016            49.573                Norilsk          1549.156
       215   02 Jun 2027 22:13:02.845   02 Jun 2027 22:13:12.417             9.572                Norilsk           299.125
       216   02 Jun 2027 22:13:24.867   02 Jun 2027 22:13:37.552            12.685                Norilsk           396.406
       217   02 Jun 2027 22:15:30.334   02 Jun 2027 22:16:50.739            80.405                Irkutsk          2512.656
       218   02 Jun 2027 22:17:26.800   02 Jun 2027 22:17:37.665            10.865                Novosib           339.531
       219   02 Jun 2027 22:19:28.878   02 Jun 2027 22:19:59.990            31.112                Novosib           972.250
       220   02 Jun 2027 22:28:06.755   02 Jun 2027 22:29:31.494            84.739                  Delhi          2648.094
       221   02 Jun 2027 22:35:41.120   02 Jun 2027 22:36:24.518            43.398                Sumatra          1356.187
       222   02 Jun 2027 23:43:15.558   02 Jun 2027 23:45:17.373           121.815                Anadyr1          3806.719
       223   02 Jun 2027 23:47:33.361   02 Jun 2027 23:47:51.616            18.255                Norilsk           570.469
       224   02 Jun 2027 23:48:09.120   02 Jun 2027 23:49:29.962            80.842               Magadan1          2526.313
       225   02 Jun 2027 23:50:45.240   02 Jun 2027 23:52:00.436            75.196              Murmansk1          2349.875
       226   02 Jun 2027 23:52:23.155   02 Jun 2027 23:53:21.354            58.199                Novosib          1818.719
       227   02 Jun 2027 23:54:54.387   02 Jun 2027 23:55:05.886            11.499              Murmansk2           359.344
       228   02 Jun 2027 23:58:44.725   02 Jun 2027 23:59:19.542            34.817                  Delhi          1088.031
       229   02 Jun 2027 23:59:39.582   03 Jun 2027 00:01:40.364           120.782                  Delhi          3774.437
       230   03 Jun 2027 00:45:49.144   03 Jun 2027 00:45:57.909             8.765            RioGallegos           273.906
       231   03 Jun 2027 00:47:30.387   03 Jun 2027 00:47:34.726             4.339            RioGallegos           135.594
       232   03 Jun 2027 01:16:34.544   03 Jun 2027 01:16:56.792            22.248                Anadyr2           695.250
       233   03 Jun 2027 01:17:16.180   03 Jun 2027 01:17:47.593            31.413                Anadyr1           981.656
       234   03 Jun 2027 01:17:47.593   03 Jun 2027 01:18:08.674            21.081                Anadyr2           658.781
       235   03 Jun 2027 01:18:40.417   03 Jun 2027 01:19:15.150            34.733                Anadyr2          1085.406
       236   03 Jun 2027 01:19:20.692   03 Jun 2027 01:19:37.502            16.810                Anadyr2           525.312
       237   03 Jun 2027 01:22:24.171   03 Jun 2027 01:22:27.660             3.489                Anadyr1           109.031
       238   03 Jun 2027 01:22:42.474   03 Jun 2027 01:24:11.464            88.990               Magadan2          2780.938
       239   03 Jun 2027 01:24:11.464   03 Jun 2027 01:24:58.000            46.536               Magadan1          1454.250
       240   03 Jun 2027 01:25:45.156   03 Jun 2027 01:27:52.001           126.845              Murmansk1          3963.906
       241   03 Jun 2027 01:29:40.660   03 Jun 2027 01:29:41.494             0.834                 Moscow            26.063
       242   03 Jun 2027 01:29:43.280   03 Jun 2027 01:29:47.209             3.929                 Moscow           122.781
       243   03 Jun 2027 01:30:36.367   03 Jun 2027 01:30:52.124            15.757              Murmansk1           492.406
       244   03 Jun 2027 01:33:21.987   03 Jun 2027 01:33:42.835            20.848                 Moscow           651.500
       245   03 Jun 2027 01:33:57.360   03 Jun 2027 01:34:11.073            13.713                 Moscow           428.531
       246   03 Jun 2027 01:36:27.477   03 Jun 2027 01:36:50.000            22.523                  Delhi           703.844
       247   03 Jun 2027 01:42:26.513   03 Jun 2027 01:42:32.095             5.582                  Delhi           174.438
       248   03 Jun 2027 01:42:50.043   03 Jun 2027 01:44:27.922            97.879                  Delhi          3058.719
       249   03 Jun 2027 02:50:18.436   03 Jun 2027 02:51:42.308            83.872                Anadyr2          2621.000
       250   03 Jun 2027 02:52:39.537   03 Jun 2027 02:53:39.480            59.943                Anadyr1          1873.219
       251   03 Jun 2027 02:54:25.104   03 Jun 2027 02:55:42.847            77.743               Magadan1          2429.469
       252   03 Jun 2027 02:59:50.368   03 Jun 2027 03:00:13.972            23.604                Norilsk           737.625
       253   03 Jun 2027 03:08:39.447   03 Jun 2027 03:09:51.197            71.750              Murmansk1          2242.187
       254   03 Jun 2027 03:09:52.295   03 Jun 2027 03:10:45.928            53.633                Novosib          1676.031
       255   03 Jun 2027 03:11:13.511   03 Jun 2027 03:11:19.133             5.622                Novosib           175.687
       256   03 Jun 2027 03:11:22.988   03 Jun 2027 03:12:40.738            77.750                 Moscow          2429.688
       257   03 Jun 2027 03:28:46.700   03 Jun 2027 03:31:41.428           174.728               CapeTown          5460.250
       258   03 Jun 2027 04:25:30.138   03 Jun 2027 04:26:57.446            87.308                Anadyr1          2728.375
       259   03 Jun 2027 04:26:57.446   03 Jun 2027 04:27:07.822            10.376                Anadyr2           324.250
       260   03 Jun 2027 04:32:10.348   03 Jun 2027 04:33:17.431            67.083               Magadan2          2096.344
       261   03 Jun 2027 04:34:08.807   03 Jun 2027 04:34:26.153            17.346               Magadan1           542.063
       262   03 Jun 2027 04:34:26.153   03 Jun 2027 04:35:15.001            48.848               Magadan2          1526.500
       263   03 Jun 2027 04:35:21.218   03 Jun 2027 04:35:35.748            14.530                Norilsk           454.063
       264   03 Jun 2027 06:10:11.740   03 Jun 2027 06:12:02.778           111.038                Anadyr2          3469.937
       265   03 Jun 2027 07:42:25.055   03 Jun 2027 07:42:35.674            10.619               Magadan2           331.844
       266   03 Jun 2027 07:43:26.567   03 Jun 2027 07:43:44.864            18.297               Magadan2           571.781
       267   03 Jun 2027 07:43:50.325   03 Jun 2027 07:44:27.113            36.788               Magadan1          1149.625
       268   03 Jun 2027 07:44:32.527   03 Jun 2027 07:44:59.495            26.968               Magadan2           842.750
       269   03 Jun 2027 07:45:21.125   03 Jun 2027 07:45:50.628            29.503                Anadyr2           921.969
       270   03 Jun 2027 07:46:06.350   03 Jun 2027 07:46:30.581            24.231               Magadan1           757.219
       271   03 Jun 2027 07:46:42.711   03 Jun 2027 07:47:11.190            28.479               Magadan1           889.969
       272   03 Jun 2027 07:47:19.541   03 Jun 2027 07:47:57.328            37.787               Magadan1          1180.844
       273   03 Jun 2027 07:48:12.872   03 Jun 2027 07:48:17.260             4.388               Magadan1           137.125
       274   03 Jun 2027 07:48:17.260   03 Jun 2027 07:48:22.341             5.081               Magadan2           158.781
       275   03 Jun 2027 07:48:23.225   03 Jun 2027 07:48:41.676            18.451                Anadyr2           576.594
       276   03 Jun 2027 07:48:58.465   03 Jun 2027 07:49:45.274            46.809               Magadan1          1462.781
       277   03 Jun 2027 08:24:48.493   03 Jun 2027 08:25:29.063            40.570            RioGallegos          1267.812
       278   03 Jun 2027 09:01:57.104   03 Jun 2027 09:04:04.725           127.621                Sumatra          3988.156
       279   03 Jun 2027 09:20:18.055   03 Jun 2027 09:20:58.469            40.414               Magadan1          1262.938
       280   03 Jun 2027 09:21:01.582   03 Jun 2027 09:22:28.999            87.417               Magadan1          2731.781
       281   03 Jun 2027 09:23:07.204   03 Jun 2027 09:23:55.406            48.202                Novosib          1506.312
       282   03 Jun 2027 09:24:45.456   03 Jun 2027 09:24:47.746             2.290                Novosib            71.563
       283   03 Jun 2027 09:24:53.210   03 Jun 2027 09:25:06.000            12.790                Irkutsk           399.687
       284   03 Jun 2027 09:25:17.054   03 Jun 2027 09:25:38.304            21.250                Irkutsk           664.063
       285   03 Jun 2027 09:25:43.104   03 Jun 2027 09:25:45.694             2.590                Irkutsk            80.937
       286   03 Jun 2027 10:00:52.728   03 Jun 2027 10:01:42.587            49.859            RioGallegos          1558.094
       287   03 Jun 2027 10:01:55.846   03 Jun 2027 10:02:24.178            28.332            RioGallegos           885.375
       288   03 Jun 2027 10:35:20.346   03 Jun 2027 10:37:39.815           139.469                Sumatra          4358.406
       289   03 Jun 2027 10:55:51.439   03 Jun 2027 10:55:52.834             1.395                  Delhi            43.594
       290   03 Jun 2027 10:57:59.868   03 Jun 2027 10:58:05.167             5.299                Irkutsk           165.594
       291   03 Jun 2027 10:59:01.265   03 Jun 2027 10:59:15.718            14.453                Irkutsk           451.656
       292   03 Jun 2027 10:59:17.015   03 Jun 2027 10:59:26.278             9.263                Novosib           289.469
       293   03 Jun 2027 10:59:31.002   03 Jun 2027 10:59:37.974             6.972                Norilsk           217.875
       294   03 Jun 2027 10:59:45.074   03 Jun 2027 10:59:56.216            11.142                Novosib           348.188
       295   03 Jun 2027 10:59:57.290   03 Jun 2027 10:59:59.528             2.238                Irkutsk            69.938
       296   03 Jun 2027 11:00:10.244   03 Jun 2027 11:01:14.261            64.017                Novosib          2000.531
       297   03 Jun 2027 11:01:24.337   03 Jun 2027 11:02:10.827            46.490                Novosib          1452.813
       298   03 Jun 2027 11:43:16.916   03 Jun 2027 11:43:48.907            31.991            RioGallegos           999.719
       299   03 Jun 2027 12:19:52.650   03 Jun 2027 12:20:47.139            54.489                  Delhi          1702.781
       300   03 Jun 2027 12:24:42.027   03 Jun 2027 12:24:51.076             9.049                  Delhi           282.781
       301   03 Jun 2027 12:27:58.372   03 Jun 2027 12:29:56.402           118.030                Novosib          3688.438
       302   03 Jun 2027 12:31:56.000   03 Jun 2027 12:32:43.662            47.662                Norilsk          1489.437
       303   03 Jun 2027 12:38:52.636   03 Jun 2027 12:39:09.906            17.270                Norilsk           539.688
       304   03 Jun 2027 14:03:52.461   03 Jun 2027 14:07:36.283           223.822                 Moscow          6994.437
       305   03 Jun 2027 14:07:43.935   03 Jun 2027 14:10:05.768           141.833              Murmansk2          4432.281
       306   03 Jun 2027 14:12:22.635   03 Jun 2027 14:13:50.198            87.563                Norilsk          2736.344
       307   03 Jun 2027 14:15:10.846   03 Jun 2027 14:16:49.323            98.477                Norilsk          3077.406
       308   03 Jun 2027 15:17:59.693   03 Jun 2027 15:18:44.983            45.290               CapeTown          1415.312
       309   03 Jun 2027 15:28:38.830   03 Jun 2027 15:29:17.373            38.543               CapeTown          1204.469
       310   03 Jun 2027 15:43:29.148   03 Jun 2027 15:43:56.844            27.696                 Moscow           865.500
       311   03 Jun 2027 15:45:01.983   03 Jun 2027 15:45:43.862            41.879              Murmansk1          1308.719
       312   03 Jun 2027 15:48:55.242   03 Jun 2027 15:49:32.021            36.779              Murmansk1          1149.344
       313   03 Jun 2027 15:58:15.270   03 Jun 2027 16:00:08.655           113.385                Anadyr2          3543.281
       314   03 Jun 2027 16:00:48.409   03 Jun 2027 16:00:50.336             1.927                Anadyr1            60.219
       315   03 Jun 2027 16:03:29.452   03 Jun 2027 16:04:12.603            43.151                Anadyr1          1348.469
       316   03 Jun 2027 16:53:31.246   03 Jun 2027 16:53:41.719            10.473               CapeTown           327.281
       317   03 Jun 2027 16:54:24.665   03 Jun 2027 16:54:26.418             1.753               CapeTown            54.781
       318   03 Jun 2027 16:55:10.893   03 Jun 2027 16:55:21.954            11.061               CapeTown           345.656
       319   03 Jun 2027 16:58:56.941   03 Jun 2027 16:59:09.253            12.312               CapeTown           384.750
       320   03 Jun 2027 17:01:02.086   03 Jun 2027 17:01:20.172            18.086               CapeTown           565.188
       321   03 Jun 2027 17:04:13.199   03 Jun 2027 17:04:23.279            10.080               CapeTown           315.000
       322   03 Jun 2027 17:24:37.964   03 Jun 2027 17:28:12.660           214.696              Murmansk2          6709.250
       323   03 Jun 2027 17:28:44.755   03 Jun 2027 17:29:30.603            45.848              Murmansk1          1432.750
       324   03 Jun 2027 17:36:58.963   03 Jun 2027 17:38:24.312            85.349               Magadan2          2667.156
       325   03 Jun 2027 17:38:48.155   03 Jun 2027 17:39:23.744            35.589               Magadan1          1112.156
       326   03 Jun 2027 17:40:23.906   03 Jun 2027 17:40:41.807            17.901               Magadan1           559.406
       327   03 Jun 2027 17:42:23.119   03 Jun 2027 17:43:13.518            50.399               Magadan2          1574.969
       328   03 Jun 2027 19:09:50.747   03 Jun 2027 19:11:53.276           122.529                Anadyr1          3829.031
       329   03 Jun 2027 19:12:09.278   03 Jun 2027 19:14:47.412           158.134               Magadan2          4941.688
       330   03 Jun 2027 19:15:07.645   03 Jun 2027 19:16:06.212            58.567               Magadan2          1830.219
       331   03 Jun 2027 20:05:51.719   03 Jun 2027 20:08:30.049           158.330            RioGallegos          4947.813
       332   03 Jun 2027 20:11:23.199   03 Jun 2027 20:11:58.201            35.002            RioGallegos          1093.812
       333   03 Jun 2027 20:45:39.180   03 Jun 2027 20:46:56.899            77.719                Anadyr1          2428.719
       334   03 Jun 2027 20:47:03.878   03 Jun 2027 20:47:10.741             6.863                Anadyr1           214.469
       335   03 Jun 2027 20:47:14.629   03 Jun 2027 20:47:37.223            22.594                Anadyr1           706.063
       336   03 Jun 2027 20:47:48.695   03 Jun 2027 20:48:30.509            41.814                Norilsk          1306.687
       337   03 Jun 2027 20:49:20.925   03 Jun 2027 20:49:48.094            27.169                Norilsk           849.031
       338   03 Jun 2027 20:50:22.027   03 Jun 2027 20:51:00.288            38.261                Norilsk          1195.656
       339   03 Jun 2027 20:52:40.079   03 Jun 2027 20:55:32.146           172.067                Irkutsk          5377.094
       340   03 Jun 2027 20:56:49.690   03 Jun 2027 20:57:01.349            11.659                Irkutsk           364.344
       341   03 Jun 2027 21:07:29.737   03 Jun 2027 21:09:52.774           143.037                Sumatra          4469.906
       342   03 Jun 2027 22:24:11.131   03 Jun 2027 22:24:56.148            45.017               Magadan1          1406.781
       343   03 Jun 2027 22:25:02.636   03 Jun 2027 22:25:38.042            35.406                Norilsk          1106.438
       344   03 Jun 2027 22:27:18.532   03 Jun 2027 22:27:36.566            18.034               Magadan2           563.562
       345   03 Jun 2027 22:28:07.675   03 Jun 2027 22:31:24.066           196.391                Novosib          6137.219
       346   03 Jun 2027 22:37:51.103   03 Jun 2027 22:39:33.242           102.139                  Delhi          3191.844
       347   03 Jun 2027 23:55:31.083   03 Jun 2027 23:55:58.220            27.137                Anadyr1           848.031
       348   03 Jun 2027 23:57:13.425   03 Jun 2027 23:57:31.397            17.972                Anadyr2           561.625
       349   03 Jun 2027 23:59:35.346   04 Jun 2027 00:00:07.622            32.276                Norilsk          1008.625
       350   04 Jun 2027 00:00:08.787   04 Jun 2027 00:00:55.378            46.591               Magadan2          1455.969
       351   04 Jun 2027 00:01:06.452   04 Jun 2027 00:01:35.520            29.068                Norilsk           908.375
       352   04 Jun 2027 00:02:03.062   04 Jun 2027 00:02:18.388            15.326               Magadan2           478.938
       353   04 Jun 2027 00:02:28.484   04 Jun 2027 00:06:02.525           214.041              Murmansk2          6688.781
       354   04 Jun 2027 00:11:22.019   04 Jun 2027 00:13:21.063           119.044                  Delhi          3720.125
       355   04 Jun 2027 00:58:19.617   04 Jun 2027 00:58:27.658             8.041            RioGallegos           251.281
       356   04 Jun 2027 01:28:16.365   04 Jun 2027 01:28:41.856            25.491                Anadyr1           796.594
       357   04 Jun 2027 01:29:13.695   04 Jun 2027 01:30:46.657            92.962                Anadyr2          2905.063
       358   04 Jun 2027 01:34:17.084   04 Jun 2027 01:36:25.577           128.493               Magadan2          4015.406
       359   04 Jun 2027 01:37:45.424   04 Jun 2027 01:38:35.657            50.233              Murmansk1          1569.781
       360   04 Jun 2027 01:38:42.874   04 Jun 2027 01:39:53.684            70.810              Murmansk2          2212.812
       361   04 Jun 2027 01:41:02.645   04 Jun 2027 01:41:18.989            16.344                Irkutsk           510.750
       362   04 Jun 2027 01:41:30.806   04 Jun 2027 01:41:35.888             5.082                 Moscow           158.813
       363   04 Jun 2027 01:42:17.918   04 Jun 2027 01:43:07.669            49.751                 Moscow          1554.719
       364   04 Jun 2027 01:48:23.838   04 Jun 2027 01:48:47.353            23.515                 Moscow           734.844
       365   04 Jun 2027 01:49:42.779   04 Jun 2027 01:49:51.518             8.739                  Delhi           273.094
       366   04 Jun 2027 01:51:16.247   04 Jun 2027 01:52:23.707            67.460                  Delhi          2108.125
       367   04 Jun 2027 02:14:50.483   04 Jun 2027 02:15:42.759            52.276               CapeTown          1633.625
       368   04 Jun 2027 03:02:08.627   04 Jun 2027 03:03:22.063            73.436                Anadyr1          2294.875
       369   04 Jun 2027 03:23:57.637   04 Jun 2027 03:29:48.423           350.786                 Moscow         10962.062
       370   04 Jun 2027 03:40:47.575   04 Jun 2027 03:43:21.931           154.356               CapeTown          4823.625
       371   04 Jun 2027 03:44:23.326   04 Jun 2027 03:44:59.189            35.863               CapeTown          1120.719
       372   04 Jun 2027 03:45:47.834   04 Jun 2027 03:46:13.768            25.934               CapeTown           810.437
       373   04 Jun 2027 04:37:34.225   04 Jun 2027 04:42:54.195           319.970                Anadyr2          9999.062
       374   04 Jun 2027 04:43:27.389   04 Jun 2027 04:43:30.049             2.660               Magadan2            83.125
       375   04 Jun 2027 04:43:56.471   04 Jun 2027 04:47:42.779           226.308               Magadan2          7072.125
       376   04 Jun 2027 04:48:11.502   04 Jun 2027 04:48:33.790            22.288                Anadyr1           696.500
       377   04 Jun 2027 06:20:57.006   04 Jun 2027 06:21:39.334            42.328                Anadyr2          1322.750
       378   04 Jun 2027 06:21:41.679   04 Jun 2027 06:22:01.126            19.447               Magadan1           607.719
       379   04 Jun 2027 06:22:01.874   04 Jun 2027 06:22:58.167            56.293                Anadyr1          1759.156
       380   04 Jun 2027 06:23:25.893   04 Jun 2027 06:23:55.260            29.367                Anadyr2           917.719
       381   04 Jun 2027 06:23:55.260   04 Jun 2027 06:24:41.141            45.881                Anadyr1          1433.781
       382   04 Jun 2027 07:55:28.252   04 Jun 2027 07:55:35.888             7.636               Magadan2           238.625
       383   04 Jun 2027 07:55:43.709   04 Jun 2027 07:56:34.392            50.683               Magadan2          1583.844
       384   04 Jun 2027 07:56:45.868   04 Jun 2027 07:57:25.196            39.328                Anadyr1          1229.000
       385   04 Jun 2027 07:57:39.278   04 Jun 2027 07:58:53.316            74.038                Anadyr2          2313.687
       386   04 Jun 2027 07:59:05.596   04 Jun 2027 07:59:07.635             2.039               Magadan2            63.719
       387   04 Jun 2027 07:59:55.205   04 Jun 2027 08:00:03.354             8.149                Novosib           254.656
       388   04 Jun 2027 08:00:09.043   04 Jun 2027 08:00:20.299            11.256                Anadyr1           351.750
       389   04 Jun 2027 08:00:22.973   04 Jun 2027 08:01:10.869            47.896               Magadan2          1496.750
       390   04 Jun 2027 08:01:38.948   04 Jun 2027 08:01:41.440             2.492               Magadan1            77.875
       391   04 Jun 2027 08:03:48.793   04 Jun 2027 08:04:23.294            34.501              Murmansk1          1078.156
       392   04 Jun 2027 08:36:39.409   04 Jun 2027 08:37:20.553            41.144            RioGallegos          1285.750
       393   04 Jun 2027 08:39:31.269   04 Jun 2027 08:39:42.060            10.791            RioGallegos           337.219
       394   04 Jun 2027 09:13:06.864   04 Jun 2027 09:13:34.171            27.307                Sumatra           853.344
       395   04 Jun 2027 09:16:30.138   04 Jun 2027 09:17:54.604            84.466                Sumatra          2639.563
       396   04 Jun 2027 09:33:12.157   04 Jun 2027 09:33:26.671            14.514                Irkutsk           453.562
       397   04 Jun 2027 09:33:45.502   04 Jun 2027 09:33:51.520             6.018                Irkutsk           188.063
       398   04 Jun 2027 09:33:58.170   04 Jun 2027 09:34:29.101            30.931                Irkutsk           966.594
       399   04 Jun 2027 09:34:58.112   04 Jun 2027 09:35:20.585            22.473              Murmansk1           702.281
       400   04 Jun 2027 09:35:40.610   04 Jun 2027 09:35:55.129            14.519                Novosib           453.719
       401   04 Jun 2027 09:36:15.750   04 Jun 2027 09:36:54.206            38.456                Irkutsk          1201.750
       402   04 Jun 2027 09:37:28.376   04 Jun 2027 09:37:40.104            11.728                Novosib           366.500
       403   04 Jun 2027 10:13:11.884   04 Jun 2027 10:13:39.213            27.329            RioGallegos           854.031
       404   04 Jun 2027 10:13:58.746   04 Jun 2027 10:14:28.232            29.486            RioGallegos           921.438
       405   04 Jun 2027 10:47:31.960   04 Jun 2027 10:48:12.236            40.276                Sumatra          1258.625
       406   04 Jun 2027 10:50:09.918   04 Jun 2027 10:51:58.253           108.335                Sumatra          3385.469
       407   04 Jun 2027 11:10:47.936   04 Jun 2027 11:10:54.902             6.966                Irkutsk           217.688
       408   04 Jun 2027 11:11:15.359   04 Jun 2027 11:11:19.200             3.841                Novosib           120.031
       409   04 Jun 2027 11:11:28.406   04 Jun 2027 11:12:01.223            32.817                Novosib          1025.531
       410   04 Jun 2027 11:12:28.506   04 Jun 2027 11:13:10.836            42.330                Novosib          1322.813
       411   04 Jun 2027 12:32:15.187   04 Jun 2027 12:34:37.353           142.166                  Delhi          4442.687
       412   04 Jun 2027 12:40:31.497   04 Jun 2027 12:41:59.102            87.605                Novosib          2737.656
       413   04 Jun 2027 12:43:29.968   04 Jun 2027 12:43:47.641            17.673                Novosib           552.281
       414   04 Jun 2027 12:44:21.707   04 Jun 2027 12:45:01.105            39.398                Norilsk          1231.187
       415   04 Jun 2027 12:46:52.438   04 Jun 2027 12:47:05.008            12.570                Norilsk           392.813
       416   04 Jun 2027 12:48:53.279   04 Jun 2027 12:49:12.721            19.442                Norilsk           607.563
       417   04 Jun 2027 12:52:40.236   04 Jun 2027 12:52:58.799            18.563                Norilsk           580.094
       418   04 Jun 2027 14:15:57.453   04 Jun 2027 14:19:11.134           193.681                 Moscow          6052.531
       419   04 Jun 2027 14:19:28.900   04 Jun 2027 14:21:22.338           113.438              Murmansk2          3544.937
       420   04 Jun 2027 14:21:53.996   04 Jun 2027 14:22:41.902            47.906              Murmansk1          1497.063
       421   04 Jun 2027 14:25:16.907   04 Jun 2027 14:26:33.808            76.901                Norilsk          2403.156
       422   04 Jun 2027 14:28:53.816   04 Jun 2027 14:29:21.234            27.418                Norilsk           856.812
       423   04 Jun 2027 14:36:24.672   04 Jun 2027 14:36:34.983            10.311                Anadyr1           322.219
       424   04 Jun 2027 14:38:17.507   04 Jun 2027 14:38:53.314            35.807                Anadyr1          1118.969
       425   04 Jun 2027 15:29:46.478   04 Jun 2027 15:30:46.074            59.596               CapeTown          1862.375
       426   04 Jun 2027 15:54:32.803   04 Jun 2027 15:55:31.412            58.609                 Moscow          1831.531
       427   04 Jun 2027 15:57:08.841   04 Jun 2027 15:58:39.178            90.337              Murmansk2          2823.031
       428   04 Jun 2027 16:10:12.457   04 Jun 2027 16:12:09.453           116.996                Anadyr1          3656.125
       429   04 Jun 2027 16:12:39.480   04 Jun 2027 16:12:39.925             0.445                Anadyr2            13.906
       430   04 Jun 2027 16:15:24.252   04 Jun 2027 16:15:53.574            29.322                Anadyr1           916.313
       431   04 Jun 2027 17:05:43.217   04 Jun 2027 17:06:44.148            60.931               CapeTown          1904.094
       432   04 Jun 2027 17:07:14.388   04 Jun 2027 17:07:22.430             8.042               CapeTown           251.313
       433   04 Jun 2027 17:37:24.783   04 Jun 2027 17:40:46.845           202.062              Murmansk2          6314.437
       434   04 Jun 2027 17:40:46.845   04 Jun 2027 17:41:04.740            17.895              Murmansk1           559.219
       435   04 Jun 2027 17:42:33.856   04 Jun 2027 17:42:35.365             1.509              Murmansk2            47.156
       436   04 Jun 2027 17:45:56.297   04 Jun 2027 17:46:42.329            46.032                Anadyr1          1438.500
       437   04 Jun 2027 17:47:36.420   04 Jun 2027 17:48:04.729            28.309                Anadyr2           884.656
       438   04 Jun 2027 17:48:48.843   04 Jun 2027 17:50:35.485           106.642               Magadan2          3332.562
       439   04 Jun 2027 17:53:37.101   04 Jun 2027 17:53:46.260             9.159               Magadan2           286.219
       440   04 Jun 2027 17:57:30.590   04 Jun 2027 17:57:39.978             9.388               Magadan2           293.375
       441   04 Jun 2027 19:21:52.071   04 Jun 2027 19:25:08.629           196.558                Anadyr1          6142.438
       442   04 Jun 2027 19:25:25.900   04 Jun 2027 19:25:41.382            15.482                Anadyr1           483.813
       443   04 Jun 2027 19:26:13.904   04 Jun 2027 19:28:55.543           161.639               Magadan2          5051.219
       444   04 Jun 2027 19:29:50.345   04 Jun 2027 19:29:59.939             9.594               Magadan2           299.813
       445   04 Jun 2027 19:31:51.147   04 Jun 2027 19:32:03.016            11.869               Magadan1           370.906
       446   04 Jun 2027 20:17:15.955   04 Jun 2027 20:20:14.863           178.908            RioGallegos          5590.875
       447   04 Jun 2027 20:23:32.237   04 Jun 2027 20:24:14.368            42.131            RioGallegos          1316.594
       448   04 Jun 2027 20:57:38.055   04 Jun 2027 20:59:07.651            89.596                Anadyr1          2799.875
       449   04 Jun 2027 20:59:17.825   04 Jun 2027 21:00:07.394            49.569                Anadyr1          1549.031
       450   04 Jun 2027 21:01:10.436   04 Jun 2027 21:01:49.591            39.155                Norilsk          1223.594
       451   04 Jun 2027 21:02:17.140   04 Jun 2027 21:03:03.100            45.960                Norilsk          1436.250
       452   04 Jun 2027 21:04:23.908   04 Jun 2027 21:05:43.726            79.818                Irkutsk          2494.312
       453   04 Jun 2027 21:18:47.515   04 Jun 2027 21:21:12.148           144.633                Sumatra          4519.781
       454   04 Jun 2027 21:24:03.895   04 Jun 2027 21:25:07.293            63.398                Sumatra          1981.187
       455   04 Jun 2027 22:36:13.901   04 Jun 2027 22:37:17.670            63.769               Magadan1          1992.781
       456   04 Jun 2027 22:37:51.833   04 Jun 2027 22:38:12.107            20.274               Magadan2           633.562
       457   04 Jun 2027 22:39:28.120   04 Jun 2027 22:39:46.509            18.389               Magadan1           574.656
       458   04 Jun 2027 22:39:58.388   04 Jun 2027 22:40:44.746            46.358                Novosib          1448.688
       459   04 Jun 2027 22:41:07.966   04 Jun 2027 22:41:28.314            20.348                Irkutsk           635.875
       460   04 Jun 2027 22:43:58.338   04 Jun 2027 22:44:10.573            12.235                Irkutsk           382.344
       461   04 Jun 2027 22:44:36.570   04 Jun 2027 22:44:45.507             8.937                Novosib           279.281
       462   04 Jun 2027 22:45:45.122   04 Jun 2027 22:46:49.579            64.457                Novosib          2014.281
       463   04 Jun 2027 22:48:53.107   04 Jun 2027 22:51:25.106           151.999                  Delhi          4749.969
       464   04 Jun 2027 22:52:42.086   04 Jun 2027 22:54:00.632            78.546                  Delhi          2454.563
       465   05 Jun 2027 00:11:37.246   05 Jun 2027 00:12:15.318            38.072                Norilsk          1189.750
       466   05 Jun 2027 00:13:05.618   05 Jun 2027 00:13:37.721            32.103                Norilsk          1003.219
       467   05 Jun 2027 00:13:48.256   05 Jun 2027 00:14:05.490            17.234               Magadan2           538.562
       468   05 Jun 2027 00:14:05.490   05 Jun 2027 00:14:37.263            31.773               Magadan1           992.906
       469   05 Jun 2027 00:14:39.050   05 Jun 2027 00:16:00.086            81.036              Murmansk2          2532.375
       470   05 Jun 2027 00:16:19.527   05 Jun 2027 00:18:57.676           158.149              Murmansk1          4942.156
       471   05 Jun 2027 00:27:29.589   05 Jun 2027 00:28:34.043            64.454                  Delhi          2014.188
       472   05 Jun 2027 01:06:26.331   05 Jun 2027 01:06:51.716            25.385            RioGallegos           793.281
       473   05 Jun 2027 01:10:10.135   05 Jun 2027 01:10:21.153            11.018            RioGallegos           344.312
       474   05 Jun 2027 01:39:58.792   05 Jun 2027 01:40:33.646            34.854                Anadyr2          1089.187
       475   05 Jun 2027 01:40:56.118   05 Jun 2027 01:41:50.246            54.128                Anadyr1          1691.500
       476   05 Jun 2027 01:42:43.226   05 Jun 2027 01:43:05.634            22.408                Anadyr2           700.250
       477   05 Jun 2027 01:43:10.510   05 Jun 2027 01:43:12.996             2.486                Anadyr1            77.687
       478   05 Jun 2027 01:45:48.733   05 Jun 2027 01:47:21.868            93.135               Magadan1          2910.469
       479   05 Jun 2027 01:47:44.577   05 Jun 2027 01:47:55.243            10.666                Norilsk           333.312
       480   05 Jun 2027 01:48:04.640   05 Jun 2027 01:48:11.444             6.804               Magadan2           212.625
       481   05 Jun 2027 01:49:37.395   05 Jun 2027 01:50:10.078            32.683                Norilsk          1021.344
       482   05 Jun 2027 01:50:31.346   05 Jun 2027 01:50:37.094             5.748              Murmansk2           179.625
