uniorb/output/strategy_4/Drop/Drop_KinoSat_111602.txt

KinoSat_111602
-------------------------
    Access    *     Start Time (UTCG)     *     Stop Time (UTCG)  *   Duration (s)        *       Station  *  Data (Mbytes)
         1   01 Jun 2027 03:45:52.972   01 Jun 2027 03:46:47.696            54.724              Murmansk1          1710.125
         2   01 Jun 2027 03:46:54.921   01 Jun 2027 03:50:50.910           235.989                Novosib          7374.656
         3   01 Jun 2027 03:51:34.301   01 Jun 2027 03:51:51.240            16.939                 Moscow           529.344
         4   01 Jun 2027 04:07:48.044   01 Jun 2027 04:08:05.193            17.149               CapeTown           535.906
         5   01 Jun 2027 05:23:18.417   01 Jun 2027 05:23:51.861            33.444                Norilsk          1045.125
         6   01 Jun 2027 05:23:53.558   01 Jun 2027 05:24:51.436            57.878              Murmansk2          1808.688
         7   01 Jun 2027 05:24:51.436   01 Jun 2027 05:25:04.383            12.947              Murmansk1           404.594
         8   01 Jun 2027 05:25:22.234   01 Jun 2027 05:26:05.204            42.970              Murmansk1          1342.812
         9   01 Jun 2027 05:26:50.903   01 Jun 2027 05:27:11.355            20.452              Murmansk2           639.125
        10   01 Jun 2027 05:28:01.717   01 Jun 2027 05:28:03.373             1.656              Murmansk2            51.750
        11   01 Jun 2027 05:43:21.981   01 Jun 2027 05:44:28.950            66.969               CapeTown          2092.781
        12   01 Jun 2027 06:46:08.845   01 Jun 2027 06:50:10.825           241.980                Anadyr1          7561.875
        13   01 Jun 2027 06:52:42.413   01 Jun 2027 06:52:44.777             2.364              Murmansk2            73.875
        14   01 Jun 2027 08:22:43.240   01 Jun 2027 08:23:23.748            40.508                Anadyr1          1265.875
        15   01 Jun 2027 08:23:50.152   01 Jun 2027 08:25:03.276            73.124                Irkutsk          2285.125
        16   01 Jun 2027 08:27:32.339   01 Jun 2027 08:27:36.011             3.672                Anadyr2           114.750
        17   01 Jun 2027 09:57:49.004   01 Jun 2027 09:57:59.049            10.045               Magadan2           313.906
        18   01 Jun 2027 09:59:32.718   01 Jun 2027 10:03:01.925           209.207               Magadan2          6537.719
        19   01 Jun 2027 11:13:37.910   01 Jun 2027 11:14:51.614            73.704                Sumatra          2303.250
        20   01 Jun 2027 11:23:31.261   01 Jun 2027 11:24:31.312            60.051                Sumatra          1876.594
        21   01 Jun 2027 11:36:06.011   01 Jun 2027 11:42:40.443           394.432              Murmansk1         12326.000
        22   01 Jun 2027 11:42:40.443   01 Jun 2027 11:44:00.755            80.312              Murmansk2          2509.750
        23   01 Jun 2027 11:44:03.235   01 Jun 2027 11:45:06.310            63.075              Murmansk1          1971.094
        24   01 Jun 2027 11:45:42.899   01 Jun 2027 11:45:49.290             6.391              Murmansk2           199.719
        25   01 Jun 2027 12:15:32.824   01 Jun 2027 12:17:48.994           136.170            RioGallegos          4255.312
        26   01 Jun 2027 12:19:11.023   01 Jun 2027 12:19:52.518            41.495            RioGallegos          1296.719
        27   01 Jun 2027 12:49:45.777   01 Jun 2027 12:53:10.013           204.236                Sumatra          6382.375
        28   01 Jun 2027 13:05:12.816   01 Jun 2027 13:10:30.611           317.795                Irkutsk          9931.094
        29   01 Jun 2027 14:34:54.640   01 Jun 2027 14:39:47.964           293.324                  Delhi          9166.375
        30   01 Jun 2027 14:43:24.106   01 Jun 2027 14:46:58.334           214.228                Novosib          6694.625
        31   01 Jun 2027 16:00:07.862   01 Jun 2027 16:00:30.989            23.127               CapeTown           722.719
        32   01 Jun 2027 16:17:46.680   01 Jun 2027 16:20:41.578           174.898                 Moscow          5465.563
        33   01 Jun 2027 16:21:16.443   01 Jun 2027 16:21:43.975            27.532              Murmansk1           860.375
        34   01 Jun 2027 16:22:11.595   01 Jun 2027 16:22:24.747            13.152              Murmansk1           411.000
        35   01 Jun 2027 16:22:56.171   01 Jun 2027 16:23:52.716            56.545              Murmansk1          1767.031
        36   01 Jun 2027 16:29:21.889   01 Jun 2027 16:30:18.921            57.032                Norilsk          1782.250
        37   01 Jun 2027 16:36:44.113   01 Jun 2027 16:37:28.829            44.716                Anadyr1          1397.375
        38   01 Jun 2027 17:31:02.972   01 Jun 2027 17:32:51.827           108.855               CapeTown          3401.719
        39   01 Jun 2027 17:38:53.875   01 Jun 2027 17:39:06.943            13.068               CapeTown           408.375
        40   01 Jun 2027 17:42:50.053   01 Jun 2027 17:43:15.669            25.616               CapeTown           800.500
        41   01 Jun 2027 17:57:39.169   01 Jun 2027 18:02:09.985           270.816                 Moscow          8463.000
        42   01 Jun 2027 18:07:28.208   01 Jun 2027 18:07:59.665            31.457              Murmansk1           983.031
        43   01 Jun 2027 18:08:36.169   01 Jun 2027 18:09:13.948            37.779              Murmansk1          1180.594
        44   01 Jun 2027 18:19:52.637   01 Jun 2027 18:20:04.872            12.235                Anadyr1           382.344
        45   01 Jun 2027 18:20:33.394   01 Jun 2027 18:20:51.572            18.178                Anadyr1           568.062
        46   01 Jun 2027 19:07:49.792   01 Jun 2027 19:11:56.310           246.518               CapeTown          7703.688
        47   01 Jun 2027 19:40:43.410   01 Jun 2027 19:44:42.272           238.862              Murmansk1          7464.437
        48   01 Jun 2027 19:50:17.677   01 Jun 2027 19:50:25.142             7.465               Magadan1           233.281
        49   01 Jun 2027 19:50:32.011   01 Jun 2027 19:50:45.726            13.715               Magadan1           428.594
        50   01 Jun 2027 19:52:49.396   01 Jun 2027 19:53:17.585            28.189               Magadan2           880.906
        51   01 Jun 2027 19:58:32.418   01 Jun 2027 19:58:41.464             9.046               Magadan1           282.687
        52   01 Jun 2027 21:23:25.692   01 Jun 2027 21:27:08.454           222.762                Anadyr1          6961.312
        53   01 Jun 2027 21:27:09.901   01 Jun 2027 21:28:33.334            83.433                Anadyr2          2607.281
        54   01 Jun 2027 21:28:35.319   01 Jun 2027 21:32:11.464           216.145               Magadan2          6754.531
        55   01 Jun 2027 21:32:43.723   01 Jun 2027 21:33:19.576            35.853               Magadan2          1120.406
        56   01 Jun 2027 22:18:05.627   01 Jun 2027 22:20:29.009           143.382            RioGallegos          4480.687
        57   01 Jun 2027 22:59:06.270   01 Jun 2027 23:01:19.178           132.908                Anadyr2          4153.375
        58   01 Jun 2027 23:01:19.783   01 Jun 2027 23:01:48.503            28.720                Anadyr1           897.500
        59   01 Jun 2027 23:01:53.294   01 Jun 2027 23:03:21.536            88.242               Magadan1          2757.562
        60   01 Jun 2027 23:03:23.013   01 Jun 2027 23:03:59.183            36.170               Magadan2          1130.312
        61   01 Jun 2027 23:04:55.484   01 Jun 2027 23:05:21.423            25.939               Magadan2           810.594
        62   01 Jun 2027 23:05:33.803   01 Jun 2027 23:06:46.636            72.833                Irkutsk          2276.031
        63   01 Jun 2027 23:07:31.560   01 Jun 2027 23:09:01.780            90.220                Irkutsk          2819.375
        64   01 Jun 2027 23:19:27.775   01 Jun 2027 23:19:57.971            30.196                Sumatra           943.625
        65   01 Jun 2027 23:21:37.477   01 Jun 2027 23:22:12.361            34.884                Sumatra          1090.125
        66   01 Jun 2027 23:23:16.837   01 Jun 2027 23:24:12.407            55.570                Sumatra          1736.563
        67   01 Jun 2027 23:30:53.167   01 Jun 2027 23:31:13.198            20.031                Sumatra           625.969
        68   01 Jun 2027 23:57:17.206   01 Jun 2027 23:57:30.772            13.566            RioGallegos           423.937
        69   02 Jun 2027 00:00:43.252   02 Jun 2027 00:00:46.333             3.081            RioGallegos            96.281
        70   02 Jun 2027 00:02:54.647   02 Jun 2027 00:03:13.990            19.343            RioGallegos           604.469
        71   02 Jun 2027 00:04:53.140   02 Jun 2027 00:04:58.008             4.868            RioGallegos           152.125
        72   02 Jun 2027 00:06:00.886   02 Jun 2027 00:06:01.374             0.488            RioGallegos            15.250
        73   02 Jun 2027 00:33:59.193   02 Jun 2027 00:35:08.298            69.105                Anadyr1          2159.531
        74   02 Jun 2027 00:35:24.234   02 Jun 2027 00:35:39.435            15.201                Anadyr1           475.031
        75   02 Jun 2027 00:35:39.435   02 Jun 2027 00:36:06.273            26.838                Anadyr2           838.687
        76   02 Jun 2027 00:36:14.773   02 Jun 2027 00:36:26.007            11.234                Anadyr2           351.062
        77   02 Jun 2027 00:36:47.469   02 Jun 2027 00:36:48.385             0.916                Anadyr1            28.625
        78   02 Jun 2027 00:37:11.324   02 Jun 2027 00:38:55.844           104.520                Norilsk          3266.250
        79   02 Jun 2027 00:39:20.984   02 Jun 2027 00:39:39.422            18.438               Magadan2           576.188
        80   02 Jun 2027 00:41:03.442   02 Jun 2027 00:42:40.889            97.447                Irkutsk          3045.219
        81   02 Jun 2027 00:43:14.389   02 Jun 2027 00:44:51.926            97.537                Novosib          3048.031
        82   02 Jun 2027 00:50:01.805   02 Jun 2027 00:50:06.177             4.372                  Delhi           136.625
        83   02 Jun 2027 00:52:19.902   02 Jun 2027 00:52:24.337             4.435                  Delhi           138.594
        84   02 Jun 2027 00:53:11.719   02 Jun 2027 00:54:04.469            52.750                  Delhi          1648.437
        85   02 Jun 2027 00:55:52.425   02 Jun 2027 00:55:59.693             7.268                  Delhi           227.125
        86   02 Jun 2027 00:58:36.374   02 Jun 2027 00:58:38.566             2.192                  Delhi            68.500
        87   02 Jun 2027 00:59:18.534   02 Jun 2027 00:59:40.197            21.663                  Delhi           676.969
        88   02 Jun 2027 01:01:10.575   02 Jun 2027 01:01:17.753             7.178                Sumatra           224.312
        89   02 Jun 2027 01:02:11.700   02 Jun 2027 01:02:40.528            28.828                Sumatra           900.875
        90   02 Jun 2027 01:03:19.731   02 Jun 2027 01:05:45.785           146.054                Sumatra          4564.187
        91   02 Jun 2027 02:08:44.259   02 Jun 2027 02:09:00.903            16.644                Anadyr1           520.125
        92   02 Jun 2027 02:09:32.601   02 Jun 2027 02:10:02.932            30.331                Anadyr1           947.844
        93   02 Jun 2027 02:13:11.656   02 Jun 2027 02:14:28.248            76.592                Norilsk          2393.500
        94   02 Jun 2027 02:15:36.469   02 Jun 2027 02:16:22.492            46.023              Murmansk1          1438.219
        95   02 Jun 2027 02:16:40.051   02 Jun 2027 02:17:03.068            23.017              Murmansk2           719.281
        96   02 Jun 2027 02:17:16.391   02 Jun 2027 02:18:52.701            96.310                Novosib          3009.687
        97   02 Jun 2027 02:21:27.926   02 Jun 2027 02:21:37.985            10.059                Irkutsk           314.344
        98   02 Jun 2027 02:22:40.681   02 Jun 2027 02:23:23.743            43.062                Irkutsk          1345.687
        99   02 Jun 2027 02:29:27.176   02 Jun 2027 02:29:41.519            14.343                  Delhi           448.219
       100   02 Jun 2027 02:32:21.286   02 Jun 2027 02:32:57.851            36.565                  Delhi          1142.656
       101   02 Jun 2027 02:33:33.692   02 Jun 2027 02:34:11.156            37.464                  Delhi          1170.750
       102   02 Jun 2027 03:57:44.023   02 Jun 2027 03:58:10.249            26.226                Novosib           819.562
       103   02 Jun 2027 03:59:08.962   02 Jun 2027 04:01:50.984           162.022              Murmansk1          5063.187
       104   02 Jun 2027 04:02:05.691   02 Jun 2027 04:02:57.929            52.238                Novosib          1632.437
       105   02 Jun 2027 04:03:28.951   02 Jun 2027 04:06:38.552           189.601                 Moscow          5925.031
       106   02 Jun 2027 04:19:21.910   02 Jun 2027 04:19:33.752            11.842               CapeTown           370.062
       107   02 Jun 2027 04:21:11.471   02 Jun 2027 04:21:21.518            10.047               CapeTown           313.969
       108   02 Jun 2027 04:22:49.295   02 Jun 2027 04:23:15.318            26.023               CapeTown           813.219
       109   02 Jun 2027 04:24:02.640   02 Jun 2027 04:24:36.079            33.439               CapeTown          1044.969
       110   02 Jun 2027 05:41:19.046   02 Jun 2027 05:41:53.079            34.033                 Moscow          1063.531
       111   02 Jun 2027 06:58:16.840   02 Jun 2027 06:58:52.879            36.039                Anadyr1          1126.219
       112   02 Jun 2027 06:59:29.446   02 Jun 2027 07:02:45.751           196.305                Anadyr1          6134.531
       113   02 Jun 2027 07:02:45.751   02 Jun 2027 07:04:01.816            76.065                Anadyr2          2377.031
       114   02 Jun 2027 08:36:35.888   02 Jun 2027 08:39:38.217           182.329               Magadan2          5697.781
       115   02 Jun 2027 10:09:50.172   02 Jun 2027 10:10:27.173            37.001               Magadan1          1156.281
       116   02 Jun 2027 10:10:27.173   02 Jun 2027 10:10:57.109            29.936               Magadan2           935.500
       117   02 Jun 2027 10:11:28.451   02 Jun 2027 10:14:53.003           204.552               Magadan2          6392.250
       118   02 Jun 2027 10:16:14.642   02 Jun 2027 10:16:15.162             0.520                Norilsk            16.250
       119   02 Jun 2027 10:50:02.435   02 Jun 2027 10:51:05.077            62.642            RioGallegos          1957.563
       120   02 Jun 2027 10:51:13.058   02 Jun 2027 10:51:24.061            11.003            RioGallegos           343.844
       121   02 Jun 2027 10:57:51.730   02 Jun 2027 10:58:05.165            13.435            RioGallegos           419.844
       122   02 Jun 2027 11:25:19.452   02 Jun 2027 11:25:55.834            36.382                Sumatra          1136.938
       123   02 Jun 2027 11:27:47.145   02 Jun 2027 11:28:42.367            55.222                Sumatra          1725.688
       124   02 Jun 2027 11:45:23.355   02 Jun 2027 11:45:38.219            14.864                Irkutsk           464.500
       125   02 Jun 2027 11:45:41.159   02 Jun 2027 11:46:30.851            49.692                Norilsk          1552.875
       126   02 Jun 2027 11:46:35.172   02 Jun 2027 11:46:41.917             6.745                Norilsk           210.781
       127   02 Jun 2027 11:47:03.680   02 Jun 2027 11:47:30.566            26.886                Novosib           840.188
       128   02 Jun 2027 11:47:36.585   02 Jun 2027 11:48:16.466            39.881                Irkutsk          1246.281
       129   02 Jun 2027 11:48:20.540   02 Jun 2027 11:48:48.543            28.003                Irkutsk           875.094
       130   02 Jun 2027 11:49:00.677   02 Jun 2027 11:49:15.966            15.289                Novosib           477.781
       131   02 Jun 2027 11:49:28.377   02 Jun 2027 11:51:18.114           109.737                Irkutsk          3429.281
       132   02 Jun 2027 13:02:23.009   02 Jun 2027 13:03:53.668            90.659                Sumatra          2833.094
       133   02 Jun 2027 13:05:58.637   02 Jun 2027 13:07:22.341            83.704                Sumatra          2615.750
       134   02 Jun 2027 13:17:23.823   02 Jun 2027 13:19:10.735           106.912                Novosib          3341.000
       135   02 Jun 2027 13:21:31.573   02 Jun 2027 13:22:40.668            69.095                Irkutsk          2159.219
       136   02 Jun 2027 13:25:18.338   02 Jun 2027 13:25:40.495            22.157                Irkutsk           692.406
       137   02 Jun 2027 14:47:51.231   02 Jun 2027 14:52:05.599           254.368                  Delhi          7949.000
       138   02 Jun 2027 14:56:22.004   02 Jun 2027 14:58:57.967           155.963                Novosib          4873.844
       139   02 Jun 2027 15:05:45.403   02 Jun 2027 15:06:28.156            42.753                Norilsk          1336.031
       140   02 Jun 2027 16:10:01.189   02 Jun 2027 16:11:01.024            59.835               CapeTown          1869.844
       141   02 Jun 2027 16:15:00.156   02 Jun 2027 16:15:43.758            43.602               CapeTown          1362.563
       142   02 Jun 2027 16:30:01.318   02 Jun 2027 16:30:36.720            35.402                 Moscow          1106.313
       143   02 Jun 2027 16:33:21.195   02 Jun 2027 16:34:31.181            69.986                 Moscow          2187.063
       144   02 Jun 2027 16:36:18.905   02 Jun 2027 16:36:54.046            35.141              Murmansk2          1098.156
       145   02 Jun 2027 16:44:39.938   02 Jun 2027 16:45:23.216            43.278              Murmansk2          1352.437
       146   02 Jun 2027 16:48:28.861   02 Jun 2027 16:49:27.160            58.299                Anadyr1          1821.844
       147   02 Jun 2027 16:50:08.240   02 Jun 2027 16:50:24.104            15.864                Anadyr2           495.750
       148   02 Jun 2027 16:50:54.305   02 Jun 2027 16:51:03.535             9.230                Anadyr2           288.437
       149   02 Jun 2027 16:51:12.582   02 Jun 2027 16:51:17.854             5.272                Anadyr2           164.750
       150   02 Jun 2027 16:52:12.674   02 Jun 2027 16:52:37.311            24.637                Anadyr2           769.906
       151   02 Jun 2027 16:54:47.324   02 Jun 2027 16:55:22.315            34.991                Anadyr2          1093.469
       152   02 Jun 2027 17:43:00.463   02 Jun 2027 17:43:32.641            32.178               CapeTown          1005.562
       153   02 Jun 2027 17:43:42.613   02 Jun 2027 17:45:19.436            96.823               CapeTown          3025.719
       154   02 Jun 2027 18:10:51.178   02 Jun 2027 18:13:25.451           154.273                 Moscow          4821.031
       155   02 Jun 2027 18:15:51.387   02 Jun 2027 18:16:55.753            64.366              Murmansk1          2011.438
       156   02 Jun 2027 18:24:39.647   02 Jun 2027 18:24:49.767            10.120                Anadyr2           316.250
       157   02 Jun 2027 18:25:47.599   02 Jun 2027 18:25:52.372             4.773                Anadyr2           149.156
       158   02 Jun 2027 18:26:13.786   02 Jun 2027 18:26:33.485            19.699                Anadyr2           615.594
       159   02 Jun 2027 18:28:40.824   02 Jun 2027 18:29:29.342            48.518               Magadan1          1516.187
       160   02 Jun 2027 18:30:52.459   02 Jun 2027 18:31:04.607            12.148               Magadan2           379.625
       161   02 Jun 2027 19:20:17.256   02 Jun 2027 19:21:09.815            52.559               CapeTown          1642.469
       162   02 Jun 2027 19:22:47.385   02 Jun 2027 19:23:44.150            56.765               CapeTown          1773.906
       163   02 Jun 2027 19:54:11.064   02 Jun 2027 19:55:59.845           108.781              Murmansk2          3399.406
       164   02 Jun 2027 20:00:18.373   02 Jun 2027 20:00:26.841             8.468                Anadyr2           264.625
       165   02 Jun 2027 20:00:33.031   02 Jun 2027 20:01:10.553            37.522                Anadyr2          1172.563
       166   02 Jun 2027 20:02:02.304   02 Jun 2027 20:03:27.204            84.900               Magadan2          2653.125
       167   02 Jun 2027 20:03:27.204   02 Jun 2027 20:04:32.957            65.753               Magadan1          2054.781
       168   02 Jun 2027 20:05:25.672   02 Jun 2027 20:06:25.431            59.759               Magadan2          1867.469
       169   02 Jun 2027 20:12:36.157   02 Jun 2027 20:13:35.773            59.616               Magadan2          1863.000
       170   02 Jun 2027 21:35:26.694   02 Jun 2027 21:38:52.820           206.126                Anadyr1          6441.437
       171   02 Jun 2027 21:39:27.363   02 Jun 2027 21:41:28.015           120.652               Magadan1          3770.375
       172   02 Jun 2027 21:41:28.015   02 Jun 2027 21:41:55.581            27.566               Magadan2           861.437
       173   02 Jun 2027 21:42:12.780   02 Jun 2027 21:42:26.754            13.974                Norilsk           436.688
       174   02 Jun 2027 21:42:45.931   02 Jun 2027 21:42:55.096             9.165               Magadan2           286.406
       175   02 Jun 2027 21:44:52.728   02 Jun 2027 21:45:02.839            10.111               Magadan1           315.969
       176   02 Jun 2027 21:48:00.283   02 Jun 2027 21:48:05.403             5.120               Magadan1           160.000
       177   02 Jun 2027 21:49:25.515   02 Jun 2027 21:49:58.485            32.970               Magadan1          1030.313
       178   02 Jun 2027 22:29:52.657   02 Jun 2027 22:31:59.488           126.831            RioGallegos          3963.469
       179   02 Jun 2027 22:32:59.962   02 Jun 2027 22:33:28.961            28.999            RioGallegos           906.219
       180   02 Jun 2027 22:35:23.097   02 Jun 2027 22:35:25.220             2.123            RioGallegos            66.344
       181   02 Jun 2027 22:38:34.930   02 Jun 2027 22:39:19.090            44.160            RioGallegos          1380.000
       182   02 Jun 2027 23:11:03.440   02 Jun 2027 23:11:52.064            48.624                Anadyr2          1519.500
       183   02 Jun 2027 23:13:14.665   02 Jun 2027 23:13:18.891             4.226                Anadyr2           132.062
       184   02 Jun 2027 23:13:21.689   02 Jun 2027 23:14:56.089            94.400                Norilsk          2950.000
       185   02 Jun 2027 23:14:56.446   02 Jun 2027 23:15:05.920             9.474               Magadan1           296.062
       186   02 Jun 2027 23:15:05.920   02 Jun 2027 23:15:06.117             0.197               Magadan2             6.156
       187   02 Jun 2027 23:16:28.620   02 Jun 2027 23:17:00.021            31.401                Norilsk           981.281
       188   02 Jun 2027 23:17:27.195   02 Jun 2027 23:18:13.987            46.792                Irkutsk          1462.250
       189   02 Jun 2027 23:18:40.249   02 Jun 2027 23:18:50.617            10.368               Magadan2           324.000
       190   02 Jun 2027 23:19:12.196   02 Jun 2027 23:19:26.051            13.855                Irkutsk           432.969
       191   02 Jun 2027 23:19:38.019   02 Jun 2027 23:20:17.558            39.539                Irkutsk          1235.594
       192   02 Jun 2027 23:20:31.014   02 Jun 2027 23:21:58.592            87.578                Novosib          2736.813
       193   02 Jun 2027 23:31:12.801   02 Jun 2027 23:31:52.258            39.457                Sumatra          1233.031
       194   02 Jun 2027 23:33:55.019   02 Jun 2027 23:34:42.527            47.508                Sumatra          1484.625
       195   02 Jun 2027 23:39:16.549   02 Jun 2027 23:40:39.753            83.204                Sumatra          2600.125
       196   03 Jun 2027 00:45:47.469   03 Jun 2027 00:47:19.917            92.448                Anadyr2          2889.000
       197   03 Jun 2027 00:49:13.614   03 Jun 2027 00:50:56.345           102.731                Norilsk          3210.344
       198   03 Jun 2027 00:52:47.711   03 Jun 2027 00:53:16.183            28.472               Magadan1           889.750
       199   03 Jun 2027 00:53:21.198   03 Jun 2027 00:55:07.747           106.549                Irkutsk          3329.656
       200   03 Jun 2027 00:55:56.829   03 Jun 2027 00:57:19.666            82.837                Novosib          2588.656
       201   03 Jun 2027 01:02:40.852   03 Jun 2027 01:03:17.952            37.100                  Delhi          1159.375
       202   03 Jun 2027 01:08:47.492   03 Jun 2027 01:08:50.920             3.428                Sumatra           107.125
       203   03 Jun 2027 01:09:03.592   03 Jun 2027 01:11:02.724           119.132                Sumatra          3722.875
       204   03 Jun 2027 01:49:01.600   03 Jun 2027 01:50:05.267            63.667            RioGallegos          1989.594
       205   03 Jun 2027 02:19:19.785   03 Jun 2027 02:19:31.950            12.165                Anadyr2           380.156
       206   03 Jun 2027 02:20:45.638   03 Jun 2027 02:21:50.584            64.946                Anadyr1          2029.562
       207   03 Jun 2027 02:25:13.369   03 Jun 2027 02:26:14.102            60.733                Norilsk          1897.906
       208   03 Jun 2027 02:27:33.772   03 Jun 2027 02:28:22.734            48.962              Murmansk2          1530.063
       209   03 Jun 2027 02:28:45.581   03 Jun 2027 02:29:04.200            18.619              Murmansk1           581.844
       210   03 Jun 2027 02:29:12.230   03 Jun 2027 02:29:49.023            36.793                Novosib          1149.781
       211   03 Jun 2027 02:30:00.193   03 Jun 2027 02:31:00.634            60.441                Irkutsk          1888.781
       212   03 Jun 2027 02:37:20.177   03 Jun 2027 02:38:56.313            96.136                  Delhi          3004.250
       213   03 Jun 2027 04:11:37.414   03 Jun 2027 04:11:42.778             5.364              Murmansk1           167.625
       214   03 Jun 2027 04:11:53.810   03 Jun 2027 04:14:56.765           182.955                 Moscow          5717.344
       215   03 Jun 2027 04:15:13.110   03 Jun 2027 04:19:09.141           236.031                 Moscow          7375.969
       216   03 Jun 2027 04:31:01.932   03 Jun 2027 04:33:25.157           143.225               CapeTown          4475.781
       217   03 Jun 2027 04:35:09.191   03 Jun 2027 04:37:04.499           115.308               CapeTown          3603.375
       218   03 Jun 2027 04:41:08.416   03 Jun 2027 04:42:13.028            64.612               CapeTown          2019.125
       219   03 Jun 2027 04:42:36.343   03 Jun 2027 04:42:50.407            14.064               CapeTown           439.500
       220   03 Jun 2027 05:34:17.591   03 Jun 2027 05:34:26.429             8.838                Anadyr2           276.188
       221   03 Jun 2027 05:34:43.999   03 Jun 2027 05:35:30.113            46.114               Magadan1          1441.063
       222   03 Jun 2027 05:35:52.431   03 Jun 2027 05:35:57.305             4.874                Anadyr2           152.313
       223   03 Jun 2027 05:36:22.116   03 Jun 2027 05:36:49.572            27.456                Anadyr1           858.000
       224   03 Jun 2027 05:39:43.732   03 Jun 2027 05:40:08.289            24.557                Anadyr2           767.406
       225   03 Jun 2027 05:47:51.242   03 Jun 2027 05:48:21.829            30.587                 Moscow           955.844
       226   03 Jun 2027 05:52:47.895   03 Jun 2027 05:54:33.975           106.080                 Moscow          3315.000
       227   03 Jun 2027 06:07:42.845   03 Jun 2027 06:08:23.488            40.643               CapeTown          1270.094
       228   03 Jun 2027 06:17:21.923   03 Jun 2027 06:18:04.616            42.693               CapeTown          1334.156
       229   03 Jun 2027 07:08:18.423   03 Jun 2027 07:09:15.220            56.797                Anadyr1          1774.906
       230   03 Jun 2027 07:09:20.315   03 Jun 2027 07:09:26.307             5.992               Magadan1           187.250
       231   03 Jun 2027 07:09:34.813   03 Jun 2027 07:09:45.296            10.483               Magadan1           327.594
       232   03 Jun 2027 07:09:46.417   03 Jun 2027 07:09:54.450             8.033               Magadan1           251.031
       233   03 Jun 2027 07:10:09.446   03 Jun 2027 07:10:53.757            44.311                Anadyr2          1384.719
       234   03 Jun 2027 07:10:53.757   03 Jun 2027 07:11:23.104            29.347                Anadyr1           917.094
       235   03 Jun 2027 07:11:33.115   03 Jun 2027 07:11:55.454            22.339               Magadan1           698.094
       236   03 Jun 2027 07:12:18.321   03 Jun 2027 07:12:43.941            25.620                Anadyr2           800.625
       237   03 Jun 2027 07:13:28.053   03 Jun 2027 07:13:48.225            20.172                Anadyr2           630.375
       238   03 Jun 2027 07:13:48.225   03 Jun 2027 07:14:14.633            26.408                Anadyr1           825.250
       239   03 Jun 2027 08:44:41.787   03 Jun 2027 08:45:43.222            61.435               Magadan1          1919.844
       240   03 Jun 2027 08:45:53.439   03 Jun 2027 08:46:36.691            43.252               Magadan2          1351.625
       241   03 Jun 2027 08:47:42.031   03 Jun 2027 08:48:15.838            33.807                Anadyr1          1056.469
       242   03 Jun 2027 08:48:48.116   03 Jun 2027 08:49:27.221            39.105               Magadan2          1222.031
       243   03 Jun 2027 08:49:51.352   03 Jun 2027 08:50:23.928            32.576               Magadan2          1018.000
       244   03 Jun 2027 09:27:23.210   03 Jun 2027 09:27:47.761            24.551            RioGallegos           767.219
       245   03 Jun 2027 09:29:19.926   03 Jun 2027 09:29:43.729            23.803            RioGallegos           743.844
       246   03 Jun 2027 10:19:50.010   03 Jun 2027 10:20:18.441            28.431               Magadan2           888.469
       247   03 Jun 2027 10:21:35.539   03 Jun 2027 10:22:03.796            28.257                Irkutsk           883.031
       248   03 Jun 2027 10:22:53.534   03 Jun 2027 10:23:11.254            17.720                Irkutsk           553.750
       249   03 Jun 2027 10:23:15.813   03 Jun 2027 10:23:22.580             6.767               Magadan1           211.469
       250   03 Jun 2027 10:23:27.470   03 Jun 2027 10:23:52.563            25.093                Irkutsk           784.156
       251   03 Jun 2027 10:24:01.414   03 Jun 2027 10:25:40.824            99.410               Magadan1          3106.563
       252   03 Jun 2027 10:25:58.476   03 Jun 2027 10:26:28.993            30.517                Irkutsk           953.656
       253   03 Jun 2027 10:26:44.003   03 Jun 2027 10:26:53.116             9.113                Novosib           284.781
       254   03 Jun 2027 10:27:44.877   03 Jun 2027 10:28:08.412            23.535                Novosib           735.469
       255   03 Jun 2027 11:02:06.255   03 Jun 2027 11:02:57.077            50.822            RioGallegos          1588.187
       256   03 Jun 2027 11:37:07.721   03 Jun 2027 11:39:39.805           152.084                Sumatra          4752.625
       257   03 Jun 2027 11:58:16.088   03 Jun 2027 11:58:23.422             7.334                Novosib           229.188
       258   03 Jun 2027 11:58:24.974   03 Jun 2027 11:58:36.245            11.271                Novosib           352.219
       259   03 Jun 2027 11:58:46.234   03 Jun 2027 11:59:22.254            36.020                Norilsk          1125.625
       260   03 Jun 2027 11:59:34.544   03 Jun 2027 12:00:28.824            54.280                Norilsk          1696.250
       261   03 Jun 2027 12:01:32.379   03 Jun 2027 12:03:15.984           103.605                Irkutsk          3237.656
       262   03 Jun 2027 12:04:35.435   03 Jun 2027 12:04:53.290            17.855                Novosib           557.969
       263   03 Jun 2027 12:08:07.922   03 Jun 2027 12:08:22.200            14.278                Norilsk           446.187
       264   03 Jun 2027 12:40:50.688   03 Jun 2027 12:41:51.615            60.927            RioGallegos          1903.969
       265   03 Jun 2027 12:45:39.733   03 Jun 2027 12:46:06.604            26.871            RioGallegos           839.719
       266   03 Jun 2027 12:48:57.538   03 Jun 2027 12:49:36.655            39.117            RioGallegos          1222.406
       267   03 Jun 2027 13:16:56.884   03 Jun 2027 13:17:49.358            52.474                Sumatra          1639.812
       268   03 Jun 2027 13:19:44.764   03 Jun 2027 13:19:53.078             8.314                Sumatra           259.813
       269   03 Jun 2027 13:20:41.151   03 Jun 2027 13:22:32.129           110.978                Sumatra          3468.063
       270   03 Jun 2027 13:31:15.741   03 Jun 2027 13:33:30.909           135.168                Irkutsk          4224.000
       271   03 Jun 2027 15:01:18.984   03 Jun 2027 15:04:09.618           170.634                  Delhi          5332.313
       272   03 Jun 2027 15:09:39.590   03 Jun 2027 15:10:56.668            77.078                Novosib          2408.687
       273   03 Jun 2027 15:11:50.943   03 Jun 2027 15:13:02.360            71.417                Novosib          2231.781
       274   03 Jun 2027 16:21:06.442   03 Jun 2027 16:21:43.678            37.236               CapeTown          1163.625
       275   03 Jun 2027 16:23:51.988   03 Jun 2027 16:24:32.031            40.043               CapeTown          1251.344
       276   03 Jun 2027 16:26:49.697   03 Jun 2027 16:27:06.011            16.314               CapeTown           509.813
       277   03 Jun 2027 16:27:43.253   03 Jun 2027 16:28:20.840            37.587               CapeTown          1174.594
       278   03 Jun 2027 16:45:00.710   03 Jun 2027 16:46:40.052            99.342                 Moscow          3104.437
       279   03 Jun 2027 16:52:44.573   03 Jun 2027 16:53:40.038            55.465              Murmansk2          1733.281
       280   03 Jun 2027 17:00:18.364   03 Jun 2027 17:00:37.383            19.019                Anadyr1           594.344
       281   03 Jun 2027 17:00:51.389   03 Jun 2027 17:01:45.944            54.555                Anadyr2          1704.844
       282   03 Jun 2027 17:02:20.783   03 Jun 2027 17:02:55.736            34.953                Anadyr1          1092.281
       283   03 Jun 2027 17:06:40.338   03 Jun 2027 17:07:16.595            36.257                Anadyr2          1133.031
       284   03 Jun 2027 17:55:00.830   03 Jun 2027 17:55:25.735            24.905               CapeTown           778.281
       285   03 Jun 2027 17:57:25.007   03 Jun 2027 17:57:41.311            16.304               CapeTown           509.500
       286   03 Jun 2027 17:58:14.501   03 Jun 2027 17:58:18.071             3.570               CapeTown           111.563
       287   03 Jun 2027 17:59:38.970   03 Jun 2027 17:59:53.185            14.215               CapeTown           444.219
       288   03 Jun 2027 18:02:58.400   03 Jun 2027 18:03:02.253             3.853               CapeTown           120.406
       289   03 Jun 2027 18:03:36.753   03 Jun 2027 18:03:59.993            23.240               CapeTown           726.250
       290   03 Jun 2027 18:04:36.259   03 Jun 2027 18:04:37.417             1.158               CapeTown            36.188
       291   03 Jun 2027 18:04:42.617   03 Jun 2027 18:06:51.924           129.307               CapeTown          4040.844
       292   03 Jun 2027 18:24:27.925   03 Jun 2027 18:25:24.099            56.174              Murmansk2          1755.438
       293   03 Jun 2027 18:25:50.746   03 Jun 2027 18:26:19.022            28.276              Murmansk2           883.625
       294   03 Jun 2027 18:27:48.815   03 Jun 2027 18:29:34.984           106.169              Murmansk2          3317.781
       295   03 Jun 2027 18:39:46.646   03 Jun 2027 18:40:27.798            41.152               Magadan1          1286.000
       296   03 Jun 2027 18:42:34.356   03 Jun 2027 18:43:05.932            31.576               Magadan2           986.750
       297   03 Jun 2027 19:35:26.560   03 Jun 2027 19:35:53.446            26.886               CapeTown           840.188
       298   03 Jun 2027 20:11:33.352   03 Jun 2027 20:15:18.233           224.881                Anadyr2          7027.531
       299   03 Jun 2027 20:16:03.765   03 Jun 2027 20:17:05.160            61.395               Magadan1          1918.594
       300   03 Jun 2027 20:17:05.160   03 Jun 2027 20:18:47.470           102.310               Magadan2          3197.188
       301   03 Jun 2027 20:19:41.259   03 Jun 2027 20:19:56.365            15.106               Magadan1           472.063
       302   03 Jun 2027 20:25:23.833   03 Jun 2027 20:25:40.438            16.605               Magadan1           518.906
       303   03 Jun 2027 20:25:54.011   03 Jun 2027 20:25:56.075             2.064               Magadan2            64.500
       304   03 Jun 2027 21:47:27.431   03 Jun 2027 21:51:08.547           221.116                Anadyr2          6909.875
       305   03 Jun 2027 21:51:18.510   03 Jun 2027 21:54:11.272           172.762                Norilsk          5398.812
       306   03 Jun 2027 21:54:38.222   03 Jun 2027 21:54:48.067             9.845                Norilsk           307.656
       307   03 Jun 2027 21:55:47.297   03 Jun 2027 21:56:06.862            19.565               Magadan1           611.406
       308   03 Jun 2027 21:56:06.862   03 Jun 2027 21:56:35.113            28.251               Magadan2           882.844
       309   03 Jun 2027 21:56:52.438   03 Jun 2027 21:58:02.460            70.022                Irkutsk          2188.187
       310   03 Jun 2027 22:41:43.015   03 Jun 2027 22:42:54.284            71.269            RioGallegos          2227.156
       311   03 Jun 2027 22:43:53.988   03 Jun 2027 22:44:13.867            19.879            RioGallegos           621.219
       312   03 Jun 2027 22:47:43.298   03 Jun 2027 22:47:51.336             8.038            RioGallegos           251.188
       313   03 Jun 2027 22:49:53.800   03 Jun 2027 22:50:02.911             9.111            RioGallegos           284.719
       314   03 Jun 2027 22:50:39.522   03 Jun 2027 22:51:11.504            31.982            RioGallegos           999.438
       315   03 Jun 2027 23:22:59.774   03 Jun 2027 23:23:41.225            41.451                Anadyr1          1295.344
       316   03 Jun 2027 23:24:14.137   03 Jun 2027 23:25:15.845            61.708                Anadyr1          1928.375
       317   03 Jun 2027 23:25:16.950   03 Jun 2027 23:27:08.489           111.539                Norilsk          3485.594
       318   03 Jun 2027 23:28:56.065   03 Jun 2027 23:28:58.666             2.601                Norilsk            81.281
       319   03 Jun 2027 23:29:22.477   03 Jun 2027 23:30:16.948            54.471                Irkutsk          1702.219
       320   03 Jun 2027 23:30:46.524   03 Jun 2027 23:32:03.601            77.077                Novosib          2408.656
       321   03 Jun 2027 23:33:19.036   03 Jun 2027 23:33:28.398             9.362                Novosib           292.562
       322   03 Jun 2027 23:36:03.181   03 Jun 2027 23:37:02.939            59.758                Novosib          1867.438
       323   03 Jun 2027 23:43:04.138   03 Jun 2027 23:43:40.559            36.421                Sumatra          1138.156
       324   03 Jun 2027 23:50:47.175   03 Jun 2027 23:51:02.648            15.473                Sumatra           483.531
       325   03 Jun 2027 23:51:38.390   03 Jun 2027 23:52:35.731            57.341                Sumatra          1791.906
       326   04 Jun 2027 00:25:07.397   04 Jun 2027 00:25:32.733            25.336            RioGallegos           791.750
       327   04 Jun 2027 00:28:50.061   04 Jun 2027 00:29:53.698            63.637            RioGallegos          1988.656
       328   04 Jun 2027 00:59:13.977   04 Jun 2027 00:59:39.942            25.965                Anadyr1           811.406
       329   04 Jun 2027 00:59:49.172   04 Jun 2027 01:00:08.902            19.730                Anadyr2           616.563
       330   04 Jun 2027 01:01:15.927   04 Jun 2027 01:03:06.839           110.912                Norilsk          3466.000
       331   04 Jun 2027 01:04:44.179   04 Jun 2027 01:05:39.276            55.097               Magadan1          1721.781
       332   04 Jun 2027 01:06:07.483   04 Jun 2027 01:07:15.015            67.532                Novosib          2110.375
       333   04 Jun 2027 01:07:55.984   04 Jun 2027 01:08:32.399            36.415                Novosib          1137.969
       334   04 Jun 2027 01:12:02.944   04 Jun 2027 01:12:41.845            38.901                Novosib          1215.656
       335   04 Jun 2027 01:14:24.025   04 Jun 2027 01:15:06.410            42.385                  Delhi          1324.531
       336   04 Jun 2027 01:21:57.148   04 Jun 2027 01:22:52.589            55.441                Sumatra          1732.531
       337   04 Jun 2027 01:26:44.221   04 Jun 2027 01:27:49.823            65.602                Sumatra          2050.062
       338   04 Jun 2027 01:57:23.486   04 Jun 2027 01:57:42.000            18.514            RioGallegos           578.563
       339   04 Jun 2027 01:58:21.910   04 Jun 2027 01:59:22.404            60.494            RioGallegos          1890.437
       340   04 Jun 2027 02:33:42.765   04 Jun 2027 02:33:58.136            15.371                Anadyr2           480.344
       341   04 Jun 2027 02:36:27.306   04 Jun 2027 02:36:57.646            30.340                Anadyr1           948.125
       342   04 Jun 2027 02:37:12.870   04 Jun 2027 02:37:52.379            39.509               Magadan1          1234.656
       343   04 Jun 2027 02:38:09.137   04 Jun 2027 02:38:31.526            22.389                Norilsk           699.656
       344   04 Jun 2027 02:39:32.228   04 Jun 2027 02:40:49.485            77.257              Murmansk2          2414.281
       345   04 Jun 2027 02:41:04.565   04 Jun 2027 02:42:18.855            74.290                Novosib          2321.563
       346   04 Jun 2027 02:44:43.995   04 Jun 2027 02:44:55.923            11.928                Irkutsk           372.750
       347   04 Jun 2027 02:48:24.333   04 Jun 2027 02:48:59.670            35.337                Irkutsk          1104.281
       348   04 Jun 2027 02:49:35.157   04 Jun 2027 02:50:34.569            59.412                  Delhi          1856.625
       349   04 Jun 2027 04:23:09.068   04 Jun 2027 04:23:21.514            12.446              Murmansk1           388.938
       350   04 Jun 2027 04:23:35.169   04 Jun 2027 04:23:50.171            15.002              Murmansk1           468.813
       351   04 Jun 2027 04:24:12.988   04 Jun 2027 04:27:41.358           208.370              Murmansk1          6511.563
       352   04 Jun 2027 04:28:08.049   04 Jun 2027 04:29:52.996           104.947                 Moscow          3279.594
       353   04 Jun 2027 05:46:19.240   04 Jun 2027 05:49:36.747           197.507                Anadyr2          6172.094
       354   04 Jun 2027 05:49:36.747   04 Jun 2027 05:51:42.622           125.875                Anadyr1          3933.594
       355   04 Jun 2027 07:20:23.409   04 Jun 2027 07:20:32.220             8.811                Anadyr1           275.344
       356   04 Jun 2027 07:20:40.343   04 Jun 2027 07:20:56.293            15.950               Magadan1           498.438
       357   04 Jun 2027 07:21:20.849   04 Jun 2027 07:21:48.668            27.819               Magadan2           869.344
       358   04 Jun 2027 07:21:56.487   04 Jun 2027 07:22:57.032            60.545               Magadan2          1892.031
       359   04 Jun 2027 07:23:14.323   04 Jun 2027 07:24:19.501            65.178                Anadyr1          2036.813
       360   04 Jun 2027 07:24:35.233   04 Jun 2027 07:25:33.526            58.293               Magadan1          1821.656
       361   04 Jun 2027 07:35:48.392   04 Jun 2027 07:36:50.073            61.681                 Moscow          1927.531
       362   04 Jun 2027 08:55:28.640   04 Jun 2027 08:57:03.940            95.300                Anadyr2          2978.125
       363   04 Jun 2027 08:57:38.395   04 Jun 2027 08:57:41.199             2.804               Magadan2            87.625
       364   04 Jun 2027 08:57:56.308   04 Jun 2027 08:58:20.266            23.958               Magadan2           748.687
       365   04 Jun 2027 08:58:35.196   04 Jun 2027 08:59:56.102            80.906               Magadan2          2528.313
       366   04 Jun 2027 09:00:17.066   04 Jun 2027 09:00:19.814             2.748                Anadyr2            85.875
       367   04 Jun 2027 09:00:21.991   04 Jun 2027 09:00:31.146             9.155               Magadan2           286.094
       368   04 Jun 2027 09:01:03.358   04 Jun 2027 09:01:05.902             2.544               Magadan2            79.500
       369   04 Jun 2027 09:01:10.916   04 Jun 2027 09:01:25.337            14.421                Irkutsk           450.656
       370   04 Jun 2027 09:01:53.619   04 Jun 2027 09:02:28.131            34.512               Magadan2          1078.500
       371   04 Jun 2027 09:06:04.408   04 Jun 2027 09:06:42.478            38.070              Murmansk2          1189.688
       372   04 Jun 2027 09:39:04.322   04 Jun 2027 09:39:19.833            15.511            RioGallegos           484.719
       373   04 Jun 2027 09:39:48.960   04 Jun 2027 09:40:32.674            43.714            RioGallegos          1366.062
       374   04 Jun 2027 10:33:51.043   04 Jun 2027 10:35:14.612            83.569               Magadan1          2611.531
       375   04 Jun 2027 10:35:36.100   04 Jun 2027 10:35:37.743             1.643               Magadan2            51.344
       376   04 Jun 2027 10:36:24.754   04 Jun 2027 10:36:38.220            13.466                Irkutsk           420.812
       377   04 Jun 2027 10:37:23.068   04 Jun 2027 10:37:35.523            12.455                Irkutsk           389.219
       378   04 Jun 2027 10:37:39.053   04 Jun 2027 10:38:24.051            44.998               Magadan1          1406.188
       379   04 Jun 2027 10:38:38.079   04 Jun 2027 10:39:26.385            48.306                Irkutsk          1509.562
       380   04 Jun 2027 11:14:13.588   04 Jun 2027 11:15:25.967            72.379            RioGallegos          2261.844
       381   04 Jun 2027 11:49:02.004   04 Jun 2027 11:50:22.697            80.693                Sumatra          2521.656
       382   04 Jun 2027 12:07:21.799   04 Jun 2027 12:07:35.831            14.032                Novosib           438.500
       383   04 Jun 2027 12:07:52.004   04 Jun 2027 12:08:01.956             9.952                Irkutsk           311.000
       384   04 Jun 2027 12:09:34.745   04 Jun 2027 12:10:20.992            46.247                Irkutsk          1445.219
       385   04 Jun 2027 12:19:59.220   04 Jun 2027 12:20:08.998             9.778                Norilsk           305.563
       386   04 Jun 2027 12:53:43.951   04 Jun 2027 12:54:58.827            74.876            RioGallegos          2339.875
       387   04 Jun 2027 12:57:08.389   04 Jun 2027 12:58:18.052            69.663            RioGallegos          2176.969
       388   04 Jun 2027 13:00:54.676   04 Jun 2027 13:01:10.577            15.901            RioGallegos           496.906
       389   04 Jun 2027 13:28:55.018   04 Jun 2027 13:31:54.402           179.384                Sumatra          5605.750
       390   04 Jun 2027 13:44:53.466   04 Jun 2027 13:45:29.070            35.604                Irkutsk          1112.625
       391   04 Jun 2027 13:46:08.104   04 Jun 2027 13:47:32.848            84.744                Irkutsk          2648.250
       392   04 Jun 2027 15:18:46.305   04 Jun 2027 15:20:54.446           128.141                 Moscow          4004.406
       393   04 Jun 2027 15:22:36.340   04 Jun 2027 15:23:12.919            36.579              Murmansk1          1143.094
       394   04 Jun 2027 15:24:36.083   04 Jun 2027 15:25:42.764            66.681                Norilsk          2083.781
       395   04 Jun 2027 15:28:18.891   04 Jun 2027 15:30:04.298           105.407                Norilsk          3293.969
       396   04 Jun 2027 16:32:30.667   04 Jun 2027 16:32:46.188            15.521               CapeTown           485.031
       397   04 Jun 2027 16:35:23.380   04 Jun 2027 16:35:35.881            12.501               CapeTown           390.656
       398   04 Jun 2027 16:35:54.344   04 Jun 2027 16:35:58.648             4.304               CapeTown           134.500
       399   04 Jun 2027 16:36:36.694   04 Jun 2027 16:37:11.862            35.168               CapeTown          1099.000
       400   04 Jun 2027 16:38:42.946   04 Jun 2027 16:39:25.207            42.261               CapeTown          1320.656
       401   04 Jun 2027 16:54:42.021   04 Jun 2027 16:55:01.272            19.251                 Moscow           601.594
       402   04 Jun 2027 16:56:30.665   04 Jun 2027 16:57:26.323            55.658                 Moscow          1739.313
       403   04 Jun 2027 16:58:50.345   04 Jun 2027 16:59:33.245            42.900                 Moscow          1340.625
       404   04 Jun 2027 17:04:07.384   04 Jun 2027 17:04:10.275             2.891              Murmansk1            90.344
       405   04 Jun 2027 17:05:38.010   04 Jun 2027 17:06:12.162            34.152              Murmansk1          1067.250
       406   04 Jun 2027 17:09:13.003   04 Jun 2027 17:09:58.559            45.556              Murmansk2          1423.625
       407   04 Jun 2027 17:12:10.910   04 Jun 2027 17:12:37.732            26.822                Anadyr2           838.188
       408   04 Jun 2027 17:14:31.020   04 Jun 2027 17:14:46.607            15.587                Anadyr1           487.094
       409   04 Jun 2027 17:15:12.970   04 Jun 2027 17:15:18.653             5.683                Anadyr2           177.594
       410   04 Jun 2027 17:16:56.660   04 Jun 2027 17:17:10.629            13.969                Anadyr2           436.531
       411   04 Jun 2027 17:20:00.141   04 Jun 2027 17:20:07.031             6.890                Anadyr1           215.312
       412   04 Jun 2027 17:20:12.988   04 Jun 2027 17:20:41.956            28.968                Anadyr1           905.250
       413   04 Jun 2027 18:09:24.256   04 Jun 2027 18:10:10.575            46.319               CapeTown          1447.469
       414   04 Jun 2027 18:12:24.895   04 Jun 2027 18:12:52.517            27.622               CapeTown           863.188
       415   04 Jun 2027 18:17:58.714   04 Jun 2027 18:18:19.377            20.663               CapeTown           645.719
       416   04 Jun 2027 18:37:02.658   04 Jun 2027 18:37:41.944            39.286              Murmansk1          1227.688
       417   04 Jun 2027 18:37:47.139   04 Jun 2027 18:42:05.213           258.074              Murmansk2          8064.813
       418   04 Jun 2027 18:51:17.902   04 Jun 2027 18:52:19.094            61.192               Magadan2          1912.250
       419   04 Jun 2027 19:46:40.531   04 Jun 2027 19:47:03.068            22.537               CapeTown           704.281
       420   04 Jun 2027 19:49:21.219   04 Jun 2027 19:50:00.301            39.082               CapeTown          1221.312
       421   04 Jun 2027 20:23:35.104   04 Jun 2027 20:27:26.635           231.531                Anadyr2          7235.344
       422   04 Jun 2027 20:27:42.858   04 Jun 2027 20:29:37.484           114.626               Magadan1          3582.063
       423   04 Jun 2027 20:31:49.340   04 Jun 2027 20:31:53.021             3.681               Magadan2           115.031
       424   04 Jun 2027 20:36:39.317   04 Jun 2027 20:36:51.920            12.603               Magadan1           393.844
       425   04 Jun 2027 20:37:55.019   04 Jun 2027 20:37:58.353             3.334               Magadan2           104.187
       426   04 Jun 2027 21:59:27.845   04 Jun 2027 22:04:12.341           284.496                Anadyr1          8890.500
       427   04 Jun 2027 22:04:20.475   04 Jun 2027 22:05:25.737            65.262               Magadan2          2039.437
       428   04 Jun 2027 22:05:25.737   04 Jun 2027 22:07:04.014            98.277               Magadan1          3071.156
       429   04 Jun 2027 22:07:21.221   04 Jun 2027 22:08:11.515            50.294                Irkutsk          1571.688
       430   04 Jun 2027 22:09:47.711   04 Jun 2027 22:10:02.358            14.647                Irkutsk           457.719
       431   04 Jun 2027 22:12:52.761   04 Jun 2027 22:13:15.102            22.341                Irkutsk           698.156
       432   04 Jun 2027 22:24:09.900   04 Jun 2027 22:24:44.037            34.137                Sumatra          1066.781
       433   04 Jun 2027 22:26:16.118   04 Jun 2027 22:27:12.153            56.035                Sumatra          1751.094
       434   04 Jun 2027 23:01:33.462   04 Jun 2027 23:02:09.279            35.817            RioGallegos          1119.281
       435   04 Jun 2027 23:02:45.010   04 Jun 2027 23:03:02.294            17.284            RioGallegos           540.125
       436   04 Jun 2027 23:34:55.192   04 Jun 2027 23:37:14.731           139.539                Anadyr2          4360.594
       437   04 Jun 2027 23:37:33.404   04 Jun 2027 23:38:37.786            64.382                Norilsk          2011.938
       438   04 Jun 2027 23:38:43.825   04 Jun 2027 23:38:56.980            13.155                Norilsk           411.094
       439   04 Jun 2027 23:39:05.205   04 Jun 2027 23:39:06.998             1.793               Magadan1            56.031
       440   04 Jun 2027 23:40:00.952   04 Jun 2027 23:40:11.739            10.787               Magadan1           337.094
       441   04 Jun 2027 23:40:15.035   04 Jun 2027 23:40:29.099            14.064               Magadan1           439.500
       442   04 Jun 2027 23:40:51.697   04 Jun 2027 23:41:03.246            11.549               Magadan2           360.906
       443   04 Jun 2027 23:41:19.320   04 Jun 2027 23:41:32.019            12.699                Irkutsk           396.844
       444   04 Jun 2027 23:41:44.373   04 Jun 2027 23:42:22.652            38.279                Irkutsk          1196.219
       445   04 Jun 2027 23:42:23.184   04 Jun 2027 23:43:19.726            56.542                Novosib          1766.937
       446   04 Jun 2027 23:45:58.887   04 Jun 2027 23:46:22.524            23.637                Novosib           738.656
       447   04 Jun 2027 23:48:01.410   04 Jun 2027 23:48:47.339            45.929                Novosib          1435.281
       448   04 Jun 2027 23:55:01.294   04 Jun 2027 23:55:22.186            20.892                Sumatra           652.875
       449   04 Jun 2027 23:57:45.322   04 Jun 2027 23:57:56.626            11.304                Sumatra           353.250
       450   05 Jun 2027 00:01:00.414   05 Jun 2027 00:01:40.997            40.583                Sumatra          1268.219
       451   05 Jun 2027 00:04:36.386   05 Jun 2027 00:04:37.370             0.984                Sumatra            30.750
       452   05 Jun 2027 00:34:27.286   05 Jun 2027 00:34:43.873            16.587            RioGallegos           518.344
       453   05 Jun 2027 00:35:34.577   05 Jun 2027 00:35:41.418             6.841            RioGallegos           213.781
       454   05 Jun 2027 00:36:45.846   05 Jun 2027 00:37:01.903            16.057            RioGallegos           501.781
       455   05 Jun 2027 00:40:09.808   05 Jun 2027 00:40:50.281            40.473            RioGallegos          1264.781
       456   05 Jun 2027 01:09:36.676   05 Jun 2027 01:09:54.446            17.770                Anadyr2           555.312
       457   05 Jun 2027 01:10:30.089   05 Jun 2027 01:11:05.815            35.726                Anadyr1          1116.438
       458   05 Jun 2027 01:11:31.643   05 Jun 2027 01:11:58.439            26.796                Anadyr1           837.375
       459   05 Jun 2027 01:13:18.227   05 Jun 2027 01:15:04.303           106.076                Norilsk          3314.875
       460   05 Jun 2027 01:16:10.845   05 Jun 2027 01:16:52.968            42.123               Magadan2          1316.344
       461   05 Jun 2027 01:17:00.597   05 Jun 2027 01:18:50.830           110.233              Murmansk2          3444.781
       462   05 Jun 2027 01:21:02.344   05 Jun 2027 01:21:04.893             2.549                Novosib            79.656
       463   05 Jun 2027 01:21:52.103   05 Jun 2027 01:24:08.804           136.701                Novosib          4271.906
       464   05 Jun 2027 02:05:57.586   05 Jun 2027 02:07:17.484            79.898            RioGallegos          2496.813
       465   05 Jun 2027 02:09:18.214   05 Jun 2027 02:10:17.442            59.228            RioGallegos          1850.875
       466   05 Jun 2027 02:42:41.910   05 Jun 2027 02:43:01.146            19.236                Anadyr1           601.125
       467   05 Jun 2027 02:45:34.630   05 Jun 2027 02:45:39.348             4.718                Anadyr1           147.438
       468   05 Jun 2027 02:47:56.649   05 Jun 2027 02:48:11.639            14.990                Anadyr1           468.437
       469   05 Jun 2027 02:48:56.005   05 Jun 2027 02:49:53.801            57.796               Magadan2          1806.125
       470   05 Jun 2027 02:50:03.137   05 Jun 2027 02:50:39.418            36.281                Norilsk          1133.781
       471   05 Jun 2027 02:51:31.559   05 Jun 2027 02:52:51.831            80.272              Murmansk2          2508.500
       472   05 Jun 2027 02:53:08.400   05 Jun 2027 02:53:48.125            39.725                Novosib          1241.406
       473   05 Jun 2027 02:54:09.252   05 Jun 2027 02:55:31.781            82.529                Irkutsk          2579.031
       474   05 Jun 2027 03:00:46.111   05 Jun 2027 03:00:48.603             2.492                Novosib            77.875
       475   05 Jun 2027 03:00:54.009   05 Jun 2027 03:01:25.806            31.797                Novosib           993.656
       476   05 Jun 2027 03:01:44.067   05 Jun 2027 03:02:27.998            43.931                  Delhi          1372.844
       477   05 Jun 2027 04:35:13.700   05 Jun 2027 04:35:28.309            14.609              Murmansk1           456.531
       478   05 Jun 2027 04:35:40.001   05 Jun 2027 04:36:06.790            26.789                Novosib           837.156
       479   05 Jun 2027 04:36:12.671   05 Jun 2027 04:36:42.586            29.915              Murmansk1           934.844
       480   05 Jun 2027 04:36:57.767   05 Jun 2027 04:37:43.939            46.172                Novosib          1442.875
       481   05 Jun 2027 04:38:05.793   05 Jun 2027 04:39:54.181           108.388              Murmansk2          3387.125
       482   05 Jun 2027 04:40:13.537   05 Jun 2027 04:43:28.803           195.266                 Moscow          6102.063
