uniorb/output/strategy_4/Drop/Drop_KinoSat_110203.txt

KinoSat_110203
-------------------------
    Access    *     Start Time (UTCG)     *     Stop Time (UTCG)  *   Duration (s)        *       Station  *  Data (Mbytes)
         1   01 Jun 2027 04:23:13.469   01 Jun 2027 04:24:32.409            78.940                Irkutsk          9867.500
         2   01 Jun 2027 04:25:12.974   01 Jun 2027 04:25:26.086            13.112              Murmansk2          1639.000
         3   01 Jun 2027 04:25:41.597   01 Jun 2027 04:27:14.744            93.147              Murmansk2         11643.375
         4   01 Jun 2027 04:27:40.358   01 Jun 2027 04:28:26.553            46.195              Murmansk2          5774.375
         5   01 Jun 2027 04:28:57.715   01 Jun 2027 04:29:11.031            13.316              Murmansk2          1664.500
         6   01 Jun 2027 04:30:34.400   01 Jun 2027 04:30:44.718            10.318                Norilsk          1289.750
         7   01 Jun 2027 05:03:43.500   01 Jun 2027 05:05:52.068           128.568            RioGallegos         16071.000
         8   01 Jun 2027 05:39:43.094   01 Jun 2027 05:40:17.097            34.003                Sumatra          4250.375
         9   01 Jun 2027 05:41:22.481   01 Jun 2027 05:42:08.435            45.954                Sumatra          5744.250
        10   01 Jun 2027 05:44:04.871   01 Jun 2027 05:44:11.722             6.851                Sumatra           856.375
        11   01 Jun 2027 05:45:51.349   01 Jun 2027 05:48:36.131           164.782                  Delhi         20597.750
        12   01 Jun 2027 06:02:10.569   01 Jun 2027 06:04:47.911           157.342                Novosib         19667.750
        13   01 Jun 2027 07:37:39.747   01 Jun 2027 07:38:35.326            55.579                Novosib          6947.375
        14   01 Jun 2027 07:39:06.421   01 Jun 2027 07:39:27.876            21.455                 Moscow          2681.875
        15   01 Jun 2027 10:22:22.967   01 Jun 2027 10:22:46.090            23.123               CapeTown          2890.375
        16   01 Jun 2027 11:00:07.921   01 Jun 2027 11:01:06.190            58.269                Anadyr2          7283.625
        17   01 Jun 2027 11:04:13.243   01 Jun 2027 11:05:10.392            57.149                Anadyr2          7143.625
        18   01 Jun 2027 11:07:37.805   01 Jun 2027 11:08:12.801            34.996                Anadyr2          4374.500
        19   01 Jun 2027 11:10:21.514   01 Jun 2027 11:11:31.710            70.196                Anadyr1          8774.500
        20   01 Jun 2027 12:36:08.038   01 Jun 2027 12:38:16.039           128.001                Anadyr1         16000.125
        21   01 Jun 2027 12:38:36.942   01 Jun 2027 12:41:38.277           181.335               Magadan1         22666.875
        22   01 Jun 2027 12:42:21.117   01 Jun 2027 12:43:42.701            81.584               Magadan2         10198.000
        23   01 Jun 2027 14:19:55.689   01 Jun 2027 14:19:59.371             3.682               Magadan2           460.250
        24   01 Jun 2027 14:23:14.130   01 Jun 2027 14:25:45.068           150.938               Magadan1         18867.250
        25   01 Jun 2027 15:12:53.385   01 Jun 2027 15:13:17.495            24.110            RioGallegos          3013.750
        26   01 Jun 2027 15:54:06.058   01 Jun 2027 15:57:53.578           227.520                Irkutsk         28440.000
        27   01 Jun 2027 16:09:51.328   01 Jun 2027 16:12:12.954           141.626                Sumatra         17703.250
        28   01 Jun 2027 17:29:47.096   01 Jun 2027 17:31:30.281           103.185                Novosib         12898.125
        29   01 Jun 2027 17:38:01.853   01 Jun 2027 17:41:46.950           225.097                  Delhi         28137.125
        30   01 Jun 2027 19:12:48.667   01 Jun 2027 19:13:35.734            47.067                  Delhi           337.375
        31   02 Jun 2027 04:13:55.158   02 Jun 2027 04:18:14.401           259.243                Sumatra         32405.375
        32   02 Jun 2027 04:39:17.829   02 Jun 2027 04:47:14.829           477.000              Murmansk2         59625.000
        33   02 Jun 2027 05:17:52.708   02 Jun 2027 05:21:55.980           243.272            RioGallegos         30409.000
        34   02 Jun 2027 05:51:16.276   02 Jun 2027 05:52:31.551            75.275                Sumatra          9409.375
        35   02 Jun 2027 05:58:28.468   02 Jun 2027 06:00:43.783           135.315                  Delhi         16914.375
        36   02 Jun 2027 06:15:51.277   02 Jun 2027 06:18:25.961           154.684                 Moscow         19335.500
        37   02 Jun 2027 06:18:34.464   02 Jun 2027 06:22:34.287           239.823              Murmansk2         29977.875
        38   02 Jun 2027 07:41:10.142   02 Jun 2027 07:41:47.407            37.265                  Delhi          4658.125
        39   02 Jun 2027 07:44:16.694   02 Jun 2027 07:46:34.501           137.807                Novosib         17225.875
        40   02 Jun 2027 07:51:07.125   02 Jun 2027 07:51:15.962             8.837                 Moscow          1104.625
        41   02 Jun 2027 07:52:19.939   02 Jun 2027 07:53:27.706            67.767                Norilsk          8470.875
        42   02 Jun 2027 07:53:38.106   02 Jun 2027 07:58:21.342           283.236              Murmansk2         35404.500
        43   02 Jun 2027 09:02:09.886   02 Jun 2027 09:03:35.183            85.297               CapeTown         10662.125
        44   02 Jun 2027 09:21:06.422   02 Jun 2027 09:21:46.982            40.560                 Moscow          5070.000
        45   02 Jun 2027 09:24:53.505   02 Jun 2027 09:26:18.583            85.078              Murmansk2         10634.750
        46   02 Jun 2027 09:26:22.410   02 Jun 2027 09:26:53.503            31.093                 Moscow          3886.625
        47   02 Jun 2027 09:27:16.472   02 Jun 2027 09:30:39.071           202.599                 Moscow         25324.875
        48   02 Jun 2027 09:30:42.826   02 Jun 2027 09:33:03.784           140.958              Murmansk2         17619.750
        49   02 Jun 2027 09:33:03.784   02 Jun 2027 09:34:19.095            75.311              Murmansk1          9413.875
        50   02 Jun 2027 09:37:06.379   02 Jun 2027 09:43:45.493           399.114                Anadyr2         49889.250
        51   02 Jun 2027 11:15:50.345   02 Jun 2027 11:16:53.248            62.903                Anadyr2          7862.875
        52   02 Jun 2027 12:50:31.711   02 Jun 2027 12:55:07.213           275.502               Magadan1         34437.750
        53   02 Jun 2027 14:29:28.107   02 Jun 2027 14:31:01.342            93.235               Magadan2         11654.375
        54   02 Jun 2027 15:18:27.059   02 Jun 2027 15:20:43.158           136.099            RioGallegos         17012.375
        55   02 Jun 2027 16:05:57.758   02 Jun 2027 16:09:09.272           191.514                Irkutsk         23939.250
        56   02 Jun 2027 16:19:46.536   02 Jun 2027 16:22:12.525           145.989                Sumatra         18248.625
        57   02 Jun 2027 17:41:42.364   02 Jun 2027 17:43:25.845           103.481                Novosib         12935.125
        58   02 Jun 2027 17:49:37.800   02 Jun 2027 17:53:42.429           244.629                  Delhi         30578.625
        59   02 Jun 2027 20:51:46.514   02 Jun 2027 20:52:06.327            19.813              Murmansk1          2476.625
        60   02 Jun 2027 20:55:10.356   02 Jun 2027 20:56:35.574            85.218                 Moscow         10652.250
        61   02 Jun 2027 20:57:39.384   02 Jun 2027 21:00:20.006           160.622                 Moscow         14741.375
        62   03 Jun 2027 03:16:03.880   03 Jun 2027 03:16:56.693            52.813                Novosib          6601.625
        63   03 Jun 2027 03:17:00.121   03 Jun 2027 03:20:53.324           233.203                Norilsk         29150.375
        64   03 Jun 2027 03:20:56.846   03 Jun 2027 03:21:14.954            18.108              Murmansk1          2263.500
        65   03 Jun 2027 04:25:39.578   03 Jun 2027 04:28:20.341           160.763                Sumatra         20095.375
        66   03 Jun 2027 04:51:59.593   03 Jun 2027 04:52:44.889            45.296                 Moscow          5662.000
        67   03 Jun 2027 04:52:49.253   03 Jun 2027 04:53:20.073            30.820                Novosib          3852.500
        68   03 Jun 2027 04:53:28.098   03 Jun 2027 04:56:46.687           198.589                Norilsk         24823.625
        69   03 Jun 2027 04:56:47.552   03 Jun 2027 04:59:09.431           141.879              Murmansk2         17734.875
        70   03 Jun 2027 06:17:18.226   03 Jun 2027 06:22:23.596           305.370                  Delhi         38171.250
        71   03 Jun 2027 06:22:28.415   03 Jun 2027 06:23:36.455            68.040                Novosib          8505.000
        72   03 Jun 2027 06:27:28.969   03 Jun 2027 06:30:32.893           183.924                 Moscow         22990.500
        73   03 Jun 2027 06:31:00.085   03 Jun 2027 06:34:33.402           213.317              Murmansk1         26664.625
        74   03 Jun 2027 07:55:12.978   03 Jun 2027 07:56:45.634            92.656                 Moscow         11582.000
        75   03 Jun 2027 07:58:10.656   03 Jun 2027 07:58:37.431            26.775                Novosib          3346.875
        76   03 Jun 2027 08:03:01.332   03 Jun 2027 08:03:26.721            25.389                 Moscow          3173.625
        77   03 Jun 2027 08:04:21.801   03 Jun 2027 08:06:48.395           146.594                Norilsk         18324.250
        78   03 Jun 2027 08:07:01.166   03 Jun 2027 08:10:22.632           201.466              Murmansk2         25183.250
        79   03 Jun 2027 09:14:41.831   03 Jun 2027 09:17:10.472           148.641               CapeTown         18580.125
        80   03 Jun 2027 09:33:03.970   03 Jun 2027 09:33:25.625            21.655                 Moscow          2706.875
        81   03 Jun 2027 09:36:54.847   03 Jun 2027 09:38:54.302           119.455              Murmansk2         14931.875
        82   03 Jun 2027 09:39:00.139   03 Jun 2027 09:42:35.681           215.542                 Moscow         26942.750
        83   03 Jun 2027 09:42:36.838   03 Jun 2027 09:46:20.690           223.852              Murmansk1         27981.500
        84   03 Jun 2027 09:48:52.663   03 Jun 2027 09:56:34.572           461.909                Anadyr1         57738.625
        85   03 Jun 2027 10:51:01.477   03 Jun 2027 10:56:14.581           313.104               CapeTown         39138.000
        86   03 Jun 2027 11:17:30.711   03 Jun 2027 11:22:10.205           279.494              Murmansk2         34936.750
        87   03 Jun 2027 11:24:06.345   03 Jun 2027 11:30:23.980           377.635                Anadyr1         47204.375
        88   03 Jun 2027 13:02:27.860   03 Jun 2027 13:07:07.904           280.044               Magadan1         35005.500
        89   03 Jun 2027 13:10:09.332   03 Jun 2027 13:14:10.360           241.028               Magadan2         30128.500
        90   03 Jun 2027 15:30:15.206   03 Jun 2027 15:31:15.530            60.324            RioGallegos          7540.500
        91   03 Jun 2027 15:33:56.758   03 Jun 2027 15:34:38.075            41.317            RioGallegos          5164.625
        92   03 Jun 2027 15:37:28.983   03 Jun 2027 15:39:42.409           133.426            RioGallegos         16678.250
        93   03 Jun 2027 16:20:01.413   03 Jun 2027 16:20:02.876             1.463                Irkutsk           182.875
        94   03 Jun 2027 16:31:34.174   03 Jun 2027 16:36:27.467           293.293                Sumatra         36661.625
        95   03 Jun 2027 18:01:20.415   03 Jun 2027 18:05:41.364           260.949                  Delhi         32618.625
        96   03 Jun 2027 21:07:07.912   03 Jun 2027 21:08:16.244            68.332                 Moscow          8541.500
        97   03 Jun 2027 21:31:20.469   03 Jun 2027 21:33:29.169           128.700               CapeTown         16087.500
        98   04 Jun 2027 03:27:52.119   04 Jun 2027 03:29:03.469            71.350                Novosib          8918.750
        99   04 Jun 2027 03:29:04.518   04 Jun 2027 03:32:19.589           195.071              Murmansk2         24383.875
       100   04 Jun 2027 04:37:30.259   04 Jun 2027 04:40:31.124           180.865                Sumatra         22608.125
       101   04 Jun 2027 05:03:25.856   04 Jun 2027 05:05:24.576           118.720                 Moscow         14840.000
       102   04 Jun 2027 05:05:33.483   04 Jun 2027 05:08:48.442           194.959                Norilsk         24369.875
       103   04 Jun 2027 05:09:10.912   04 Jun 2027 05:11:04.725           113.813              Murmansk2         14226.625
       104   04 Jun 2027 06:29:04.244   04 Jun 2027 06:34:21.925           317.681                  Delhi         39710.125
       105   04 Jun 2027 06:39:46.173   04 Jun 2027 06:42:39.115           172.942                 Moscow         21617.750
       106   04 Jun 2027 06:42:53.918   04 Jun 2027 06:46:32.910           218.992              Murmansk2         27374.000
       107   04 Jun 2027 08:16:23.611   04 Jun 2027 08:20:33.271           249.660                Norilsk         31207.500
       108   04 Jun 2027 08:20:33.936   04 Jun 2027 08:22:24.063           110.127              Murmansk2         13765.875
       109   04 Jun 2027 09:27:05.710   04 Jun 2027 09:30:10.648           184.938               CapeTown         23117.250
       110   04 Jun 2027 09:48:56.313   04 Jun 2027 09:50:32.886            96.573              Murmansk2         12071.625
       111   04 Jun 2027 09:50:35.076   04 Jun 2027 09:51:44.151            69.075                 Moscow          8634.375
       112   04 Jun 2027 09:53:37.412   04 Jun 2027 09:58:22.184           284.772              Murmansk2         35596.500
       113   04 Jun 2027 10:01:11.703   04 Jun 2027 10:09:17.187           485.484                Anadyr1         60685.500
       114   04 Jun 2027 11:03:17.879   04 Jun 2027 11:08:11.063           293.184               CapeTown         36648.000
       115   04 Jun 2027 11:28:35.603   04 Jun 2027 11:34:08.378           332.775              Murmansk1         41596.875
       116   04 Jun 2027 11:38:38.388   04 Jun 2027 11:48:24.755           586.367                Anadyr2         73295.875
       117   04 Jun 2027 13:11:59.524   04 Jun 2027 13:16:49.930           290.406                Anadyr2         36300.750
       118   04 Jun 2027 13:19:07.991   04 Jun 2027 13:22:11.645           183.654               Magadan2         22956.750
       119   04 Jun 2027 13:22:18.536   04 Jun 2027 13:23:31.431            72.895               Magadan1          9111.875
       120   04 Jun 2027 13:25:38.191   04 Jun 2027 13:26:28.903            50.712               Magadan2          6339.000
       121   04 Jun 2027 15:42:06.295   04 Jun 2027 15:45:42.417           216.122            RioGallegos         27015.250
       122   04 Jun 2027 15:49:40.672   04 Jun 2027 15:51:35.377           114.705            RioGallegos         14338.125
       123   04 Jun 2027 16:29:47.178   04 Jun 2027 16:31:27.117            99.939                Irkutsk         12492.375
       124   04 Jun 2027 16:38:22.728   04 Jun 2027 16:38:43.225            20.497                Novosib          2562.125
       125   04 Jun 2027 16:43:27.778   04 Jun 2027 16:46:34.267           186.489                Sumatra         23311.125
       126   04 Jun 2027 18:10:22.477   04 Jun 2027 18:10:41.303            18.826                Novosib          2353.250
       127   04 Jun 2027 18:13:08.202   04 Jun 2027 18:15:40.555           152.353                  Delhi         19044.125
       128   04 Jun 2027 19:44:17.532   04 Jun 2027 19:45:04.975            47.443                 Moscow          5930.375
       129   04 Jun 2027 21:15:49.405   04 Jun 2027 21:16:04.369            14.964              Murmansk1          1870.500
       130   04 Jun 2027 21:23:54.415   04 Jun 2027 21:26:14.843           140.428                 Moscow         17553.500
       131   04 Jun 2027 21:43:08.247   04 Jun 2027 21:46:04.573           176.326               CapeTown         13712.750
       132   05 Jun 2027 03:39:57.603   05 Jun 2027 03:41:09.560            71.957                Novosib          8994.625
       133   05 Jun 2027 03:41:12.042   05 Jun 2027 03:44:25.545           193.503                Norilsk         24187.875
       134   05 Jun 2027 04:49:26.704   05 Jun 2027 04:52:27.175           180.471                Sumatra         22558.875
       135   05 Jun 2027 05:16:02.156   05 Jun 2027 05:17:24.599            82.443                Novosib         10305.375
       136   05 Jun 2027 05:17:36.454   05 Jun 2027 05:20:50.280           193.826                Norilsk         24228.250
       137   05 Jun 2027 05:20:50.912   05 Jun 2027 05:23:00.679           129.767              Murmansk1         16220.875
       138   05 Jun 2027 06:41:38.389   05 Jun 2027 06:46:16.759           278.370                  Delhi         34796.250
       139   05 Jun 2027 06:46:18.037   05 Jun 2027 06:47:41.281            83.244                Novosib         10405.500
       140   05 Jun 2027 06:51:33.197   05 Jun 2027 06:52:02.718            29.521                Novosib          3690.125
       141   05 Jun 2027 06:52:05.922   05 Jun 2027 06:54:44.727           158.805                 Moscow         19850.625
       142   05 Jun 2027 06:54:45.435   05 Jun 2027 06:56:49.733           124.298                Norilsk         15537.250
       143   05 Jun 2027 06:56:59.348   05 Jun 2027 06:58:32.769            93.421              Murmansk1         11677.625
       144   05 Jun 2027 08:28:25.326   05 Jun 2027 08:32:29.336           244.010                Norilsk         30501.250
       145   05 Jun 2027 08:32:52.366   05 Jun 2027 08:34:25.596            93.230              Murmansk2         11653.750
       146   05 Jun 2027 09:39:22.887   05 Jun 2027 09:42:54.377           211.490               CapeTown         26436.250
       147   05 Jun 2027 09:58:01.020   05 Jun 2027 09:58:31.249            30.229                 Moscow          3778.625
       148   05 Jun 2027 10:00:47.956   05 Jun 2027 10:02:20.899            92.943              Murmansk2         11617.875
       149   05 Jun 2027 10:02:20.899   05 Jun 2027 10:02:39.953            19.054              Murmansk1          2381.750
       150   05 Jun 2027 10:02:52.102   05 Jun 2027 10:04:44.226           112.124                 Moscow         14015.500
       151   05 Jun 2027 10:05:37.644   05 Jun 2027 10:10:23.535           285.891              Murmansk2         35736.375
       152   05 Jun 2027 10:12:35.922   05 Jun 2027 10:21:54.738           558.816                Anadyr1         69852.000
       153   05 Jun 2027 11:15:28.478   05 Jun 2027 11:20:02.592           274.114               CapeTown         34264.250
       154   05 Jun 2027 11:41:31.231   05 Jun 2027 11:46:05.447           274.216              Murmansk1         34277.000
       155   05 Jun 2027 11:51:37.302   05 Jun 2027 11:59:04.575           447.273               Magadan2         55909.125
       156   05 Jun 2027 11:59:47.857   05 Jun 2027 12:00:37.442            49.585                Anadyr2          6198.125
       157   05 Jun 2027 13:24:00.886   05 Jun 2027 13:24:23.771            22.885                Anadyr2          2860.625
       158   05 Jun 2027 13:26:23.291   05 Jun 2027 13:31:08.547           285.256               Magadan1         35657.000
       159   05 Jun 2027 15:23:37.277   05 Jun 2027 15:29:02.173           324.896                Sumatra         40612.000
       160   05 Jun 2027 16:41:44.196   05 Jun 2027 16:43:03.033            78.837                Irkutsk          9854.625
       161   05 Jun 2027 16:55:27.014   05 Jun 2027 16:57:57.796           150.782                Sumatra         18847.750
       162   05 Jun 2027 17:03:07.579   05 Jun 2027 17:06:44.486           216.907                Sumatra         27113.375
       163   05 Jun 2027 18:25:00.267   05 Jun 2027 18:27:55.562           175.295                  Delhi         21911.875
       164   05 Jun 2027 18:34:05.210   05 Jun 2027 18:34:31.144            25.934                  Delhi          3241.750
       165   05 Jun 2027 19:56:01.494   05 Jun 2027 19:58:26.640           145.146                 Moscow         18143.250
       166   05 Jun 2027 21:55:01.077   05 Jun 2027 21:56:44.541           103.464               CapeTown         12933.000
       167   05 Jun 2027 22:02:39.730   05 Jun 2027 22:04:33.417           113.687               CapeTown          1426.125
       168   06 Jun 2027 03:51:59.436   06 Jun 2027 03:56:28.506           269.070                Norilsk         33633.750
       169   06 Jun 2027 05:01:28.729   06 Jun 2027 05:03:33.389           124.660                Sumatra         15582.500
       170   06 Jun 2027 05:12:03.199   06 Jun 2027 05:13:44.829           101.630                  Delhi         12703.750
       171   06 Jun 2027 05:28:05.238   06 Jun 2027 05:32:52.173           286.935                Norilsk         35866.875
       172   06 Jun 2027 05:32:58.684   06 Jun 2027 05:34:57.267           118.583              Murmansk1         14822.875
       173   06 Jun 2027 06:53:42.490   06 Jun 2027 06:58:07.749           265.259                  Delhi         33157.375
       174   06 Jun 2027 06:58:08.256   06 Jun 2027 06:59:03.541            55.285                 Moscow          6910.625
       175   06 Jun 2027 07:03:28.517   06 Jun 2027 07:04:52.124            83.607                Novosib         10450.875
       176   06 Jun 2027 07:04:59.402   06 Jun 2027 07:08:50.948           231.546                Norilsk         28943.250
       177   06 Jun 2027 07:09:11.270   06 Jun 2027 07:10:32.947            81.677              Murmansk2         10209.625
       178   06 Jun 2027 08:35:01.427   06 Jun 2027 08:35:19.136            17.709                 Moscow          2213.625
       179   06 Jun 2027 08:39:20.426   06 Jun 2027 08:42:57.527           217.101                 Moscow         27137.625
       180   06 Jun 2027 08:43:21.002   06 Jun 2027 08:46:27.214           186.212              Murmansk1         23276.500
       181   06 Jun 2027 09:47:23.885   06 Jun 2027 09:55:27.253           483.368               CapeTown         60421.000
       182   06 Jun 2027 10:12:49.264   06 Jun 2027 10:16:35.842           226.578              Murmansk2         28322.250
       183   06 Jun 2027 10:17:39.274   06 Jun 2027 10:22:24.689           285.415              Murmansk1         35676.875
       184   06 Jun 2027 10:24:30.792   06 Jun 2027 10:34:28.021           597.229                Anadyr2         74653.625
       185   06 Jun 2027 11:27:33.761   06 Jun 2027 11:31:49.017           255.256               CapeTown         31907.000
       186   06 Jun 2027 11:54:00.835   06 Jun 2027 11:54:10.819             9.984              Murmansk1          1248.000
       187   06 Jun 2027 12:04:17.670   06 Jun 2027 12:05:29.279            71.609               Magadan2          8951.125
       188   06 Jun 2027 12:07:32.986   06 Jun 2027 12:08:52.541            79.555               Magadan1          9944.375
       189   06 Jun 2027 13:38:22.213   06 Jun 2027 13:39:09.627            47.414               Magadan2          5926.750
       190   06 Jun 2027 13:41:43.088   06 Jun 2027 13:43:09.512            86.424               Magadan1         10803.000
       191   06 Jun 2027 15:23:52.408   06 Jun 2027 15:27:21.260           208.852                Irkutsk         26106.500
       192   06 Jun 2027 15:34:16.213   06 Jun 2027 15:36:48.776           152.563                Sumatra         19070.375
       193   06 Jun 2027 15:39:12.151   06 Jun 2027 15:42:16.758           184.607                Sumatra         23075.875
       194   06 Jun 2027 16:55:59.831   06 Jun 2027 16:57:19.522            79.691                Novosib          9961.375
       195   06 Jun 2027 17:05:02.874   06 Jun 2027 17:09:10.167           247.293                  Delhi         30911.625
       196   06 Jun 2027 18:36:56.062   06 Jun 2027 18:39:21.118           145.056                  Delhi         18132.000
       197   06 Jun 2027 20:07:49.546   06 Jun 2027 20:10:34.647           165.101                 Moscow         20637.625
       198   06 Jun 2027 21:51:08.356   06 Jun 2027 21:52:41.232            92.876                 Moscow          5611.375
       199   07 Jun 2027 04:03:51.522   07 Jun 2027 04:06:16.812           145.290                Norilsk         18161.250
       200   07 Jun 2027 05:13:36.468   07 Jun 2027 05:14:31.726            55.258                Sumatra          6907.250
       201   07 Jun 2027 05:17:29.263   07 Jun 2027 05:18:24.350            55.087                Sumatra          6885.875
       202   07 Jun 2027 05:22:43.101   07 Jun 2027 05:24:24.185           101.084                  Delhi         12635.500
       203   07 Jun 2027 05:38:22.457   07 Jun 2027 05:38:59.673            37.216                Irkutsk          4652.000
       204   07 Jun 2027 05:39:51.494   07 Jun 2027 05:41:26.882            95.388                Novosib         11923.500
       205   07 Jun 2027 05:42:10.763   07 Jun 2027 05:42:14.016             3.253                 Moscow           406.625
       206   07 Jun 2027 05:42:28.111   07 Jun 2027 05:46:54.437           266.326              Murmansk2         33290.750
       207   07 Jun 2027 07:05:43.304   07 Jun 2027 07:09:54.259           250.955                  Delhi         31369.375
       208   07 Jun 2027 07:10:03.913   07 Jun 2027 07:11:12.792            68.879                 Moscow          8609.875
       209   07 Jun 2027 07:16:00.937   07 Jun 2027 07:18:54.345           173.408                 Moscow         21676.000
       210   07 Jun 2027 07:19:00.149   07 Jun 2027 07:22:33.405           213.256              Murmansk1         26657.000
       211   07 Jun 2027 08:45:23.127   07 Jun 2027 08:47:11.312           108.185                 Moscow         13523.125
       212   07 Jun 2027 08:50:23.497   07 Jun 2027 08:54:57.831           274.334                 Moscow         34291.750
       213   07 Jun 2027 08:55:18.364   07 Jun 2027 08:58:28.888           190.524              Murmansk1         23815.500
       214   07 Jun 2027 10:00:46.790   07 Jun 2027 10:07:51.876           425.086               CapeTown         53135.750
       215   07 Jun 2027 10:25:01.156   07 Jun 2027 10:25:55.889            54.733              Murmansk1          6841.625
       216   07 Jun 2027 10:26:35.287   07 Jun 2027 10:28:36.887           121.600                 Moscow         15200.000
       217   07 Jun 2027 10:29:40.826   07 Jun 2027 10:31:53.966           133.140              Murmansk1         16642.500
       218   07 Jun 2027 10:31:53.966   07 Jun 2027 10:34:25.592           151.626              Murmansk2         18953.250
       219   07 Jun 2027 10:36:59.753   07 Jun 2027 10:38:05.115            65.362                Anadyr2          8170.250
       220   07 Jun 2027 10:40:54.991   07 Jun 2027 10:41:07.334            12.343                Anadyr1          1542.875
       221   07 Jun 2027 12:16:03.456   07 Jun 2027 12:19:29.071           205.615               Magadan1         25701.875
       222   07 Jun 2027 13:50:21.778   07 Jun 2027 13:51:26.451            64.673               Magadan1          8084.125
       223   07 Jun 2027 13:58:30.349   07 Jun 2027 13:59:56.344            85.995               Magadan2         10749.375
       224   07 Jun 2027 15:30:46.303   07 Jun 2027 15:33:28.391           162.088                Irkutsk         20261.000
       225   07 Jun 2027 15:34:52.987   07 Jun 2027 15:37:00.812           127.825                Irkutsk         15978.125
       226   07 Jun 2027 15:45:23.997   07 Jun 2027 15:48:35.949           191.952                Sumatra         23994.000
       227   07 Jun 2027 15:51:26.683   07 Jun 2027 15:54:27.941           181.258                Sumatra         22657.250
       228   07 Jun 2027 17:09:17.811   07 Jun 2027 17:10:40.200            82.389                Novosib         10298.625
       229   07 Jun 2027 17:15:38.067   07 Jun 2027 17:18:22.553           164.486                  Delhi         20560.750
       230   07 Jun 2027 18:58:31.542   07 Jun 2027 18:58:51.251            19.709                  Delhi          2463.625
       231   07 Jun 2027 20:19:40.536   07 Jun 2027 20:20:42.498            61.962                 Moscow          7745.250
       232   07 Jun 2027 20:23:35.513   07 Jun 2027 20:25:11.262            95.749                 Moscow         11968.625
       233   07 Jun 2027 21:58:25.873   07 Jun 2027 22:00:00.781            94.908                 Moscow          3056.250
       234   08 Jun 2027 04:15:51.311   08 Jun 2027 04:15:59.878             8.567                Irkutsk          1070.875
       235   08 Jun 2027 04:16:06.370   08 Jun 2027 04:18:11.364           124.994                Norilsk         15624.250
       236   08 Jun 2027 05:25:50.417   08 Jun 2027 05:26:27.662            37.245                Sumatra          4655.625
       237   08 Jun 2027 05:28:10.291   08 Jun 2027 05:30:20.997           130.706                Sumatra         16338.250
       238   08 Jun 2027 05:34:21.502   08 Jun 2027 05:36:39.802           138.300                  Delhi         17287.500
       239   08 Jun 2027 05:50:26.377   08 Jun 2027 05:50:56.816            30.439                 Moscow          3804.875
       240   08 Jun 2027 05:51:10.327   08 Jun 2027 05:53:27.036           136.709                Novosib         17088.625
       241   08 Jun 2027 05:53:36.959   08 Jun 2027 05:54:24.285            47.326                 Moscow          5915.750
       242   08 Jun 2027 05:54:33.008   08 Jun 2027 05:58:52.157           259.149              Murmansk2         32393.625
       243   08 Jun 2027 07:17:40.789   08 Jun 2027 07:21:35.273           234.484                  Delhi         29310.500
       244   08 Jun 2027 07:27:54.241   08 Jun 2027 07:30:58.411           184.170                 Moscow         23021.250
       245   08 Jun 2027 07:30:59.073   08 Jun 2027 07:34:34.124           215.051              Murmansk1         26881.375
       246   08 Jun 2027 08:57:23.284   08 Jun 2027 08:59:54.370           151.086                 Moscow         18885.750
       247   08 Jun 2027 09:01:47.076   08 Jun 2027 09:02:23.221            36.145              Murmansk2          4518.125
       248   08 Jun 2027 09:02:28.525   08 Jun 2027 09:06:57.390           268.865                 Moscow         33608.125
       249   08 Jun 2027 09:07:07.939   08 Jun 2027 09:10:30.591           202.652              Murmansk1         25331.500
       250   08 Jun 2027 09:14:16.477   08 Jun 2027 09:17:47.483           211.006                Anadyr1         26375.750
       251   08 Jun 2027 10:13:42.148   08 Jun 2027 10:15:40.959           118.811               CapeTown         14851.375
       252   08 Jun 2027 10:52:46.342   08 Jun 2027 10:53:30.125            43.783                Anadyr2          5472.875
       253   08 Jun 2027 10:55:34.230   08 Jun 2027 10:55:39.983             5.753                Anadyr1           719.125
       254   08 Jun 2027 12:26:58.600   08 Jun 2027 12:31:26.289           267.689               Magadan2         33461.125
       255   08 Jun 2027 14:02:21.883   08 Jun 2027 14:02:55.171            33.288               Magadan2          4161.000
       256   08 Jun 2027 14:59:16.070   08 Jun 2027 15:00:44.201            88.131            RioGallegos         11016.375
       257   08 Jun 2027 15:42:31.690   08 Jun 2027 15:45:00.243           148.553                Irkutsk         18569.125
       258   08 Jun 2027 15:46:48.472   08 Jun 2027 15:48:27.281            98.809                Irkutsk         12351.125
       259   08 Jun 2027 15:56:46.864   08 Jun 2027 16:00:29.132           222.268                Sumatra         27783.500
       260   08 Jun 2027 17:19:18.048   08 Jun 2027 17:22:08.047           169.999                Novosib         21249.875
       261   08 Jun 2027 17:26:49.468   08 Jun 2027 17:32:40.201           350.733                  Delhi         43841.625
       262   08 Jun 2027 20:31:33.755   08 Jun 2027 20:33:11.006            97.251                 Moscow          8382.624
       263   09 Jun 2027 05:38:11.590   09 Jun 2027 05:39:57.540           105.950                Sumatra         13243.750
       264   09 Jun 2027 05:46:05.958   09 Jun 2027 05:48:51.113           165.155                  Delhi         20644.375
       265   09 Jun 2027 06:03:50.908   09 Jun 2027 06:05:26.437            95.529                Novosib         11941.125
       266   09 Jun 2027 06:05:29.131   09 Jun 2027 06:06:33.128            63.997                 Moscow          7999.625
       267   09 Jun 2027 06:06:52.011   09 Jun 2027 06:10:50.391           238.380              Murmansk2         29797.500
       268   09 Jun 2027 07:29:34.719   09 Jun 2027 07:33:09.045           214.326                  Delhi         26790.750
       269   09 Jun 2027 07:33:14.122   09 Jun 2027 07:35:08.864           114.742                Novosib         14342.750
       270   09 Jun 2027 07:39:26.296   09 Jun 2027 07:43:02.008           215.712                 Moscow         26964.000
       271   09 Jun 2027 07:43:18.601   09 Jun 2027 07:46:35.057           196.456              Murmansk1         24557.000
       272   09 Jun 2027 09:09:22.690   09 Jun 2027 09:12:18.018           175.328                 Moscow         21916.000
       273   09 Jun 2027 09:13:06.959   09 Jun 2027 09:15:13.784           126.825              Murmansk2         15853.125
       274   09 Jun 2027 09:15:22.541   09 Jun 2027 09:18:56.108           213.567                 Moscow         26695.875
       275   09 Jun 2027 09:19:02.838   09 Jun 2027 09:22:17.349           194.511              Murmansk2         24313.875
       276   09 Jun 2027 11:00:22.712   09 Jun 2027 11:01:20.654            57.942                Anadyr2          7242.750
       277   09 Jun 2027 12:38:51.651   09 Jun 2027 12:41:51.227           179.576               Magadan2         22447.000
       278   09 Jun 2027 12:42:36.551   09 Jun 2027 12:43:24.426            47.875               Magadan1          5984.375
       279   09 Jun 2027 12:43:59.532   09 Jun 2027 12:45:57.594           118.062               Magadan2         14757.750
       280   09 Jun 2027 15:06:57.372   09 Jun 2027 15:11:01.134           243.762            RioGallegos         30470.250
       281   09 Jun 2027 15:55:23.654   09 Jun 2027 15:58:09.140           165.486                Irkutsk         20685.750
       282   09 Jun 2027 17:30:01.818   09 Jun 2027 17:32:19.997           138.179                Novosib         17272.375
       283   09 Jun 2027 17:37:39.474   09 Jun 2027 17:39:32.463           112.989                Novosib         14123.625
       284   09 Jun 2027 17:44:55.726   09 Jun 2027 17:45:52.556            56.830                  Delhi          7103.750
       285   09 Jun 2027 19:13:03.626   09 Jun 2027 19:15:23.457           139.831                  Delhi         17478.875
       286   09 Jun 2027 20:43:28.733   09 Jun 2027 20:45:17.537           108.804                 Moscow         13600.500
       287   09 Jun 2027 21:15:36.794   09 Jun 2027 21:17:31.188           114.394               CapeTown         14299.250
       288   09 Jun 2027 22:43:22.991   09 Jun 2027 22:43:50.226            27.235               CapeTown          1171.500
       289   10 Jun 2027 04:14:09.653   10 Jun 2027 04:18:29.481           259.828                Sumatra         32478.500
       290   10 Jun 2027 04:39:33.757   10 Jun 2027 04:41:31.927           118.170                Novosib         14771.250
       291   10 Jun 2027 04:41:35.505   10 Jun 2027 04:47:29.546           354.041              Murmansk2         44255.125
       292   10 Jun 2027 05:22:10.381   10 Jun 2027 05:26:12.705           242.324            RioGallegos         30290.500
       293   10 Jun 2027 05:50:41.893   10 Jun 2027 05:52:46.329           124.436                Sumatra         15554.500
       294   10 Jun 2027 05:57:56.006   10 Jun 2027 05:58:43.923            47.917                  Delhi          5989.625
       295   10 Jun 2027 06:00:58.707   10 Jun 2027 06:01:29.011            30.304                  Delhi          3788.000
       296   10 Jun 2027 06:16:07.240   10 Jun 2027 06:18:40.895           153.655                 Moscow         19206.875
       297   10 Jun 2027 06:18:51.252   10 Jun 2027 06:22:49.087           237.835              Murmansk1         29729.375
       298   10 Jun 2027 07:41:24.681   10 Jun 2027 07:42:02.148            37.467                  Delhi          4683.375
       299   10 Jun 2027 07:44:32.476   10 Jun 2027 07:46:49.931           137.455                Novosib         17181.875
       300   10 Jun 2027 07:52:34.580   10 Jun 2027 07:55:04.327           149.747                Norilsk         18718.375
       301   10 Jun 2027 07:55:52.312   10 Jun 2027 07:58:36.188           163.876              Murmansk2         20484.500
       302   10 Jun 2027 09:02:25.636   10 Jun 2027 09:03:52.291            86.655               CapeTown         10831.875
       303   10 Jun 2027 09:21:21.219   10 Jun 2027 09:21:56.036            34.817                 Moscow          4352.125
       304   10 Jun 2027 09:25:08.161   10 Jun 2027 09:27:11.184           123.023              Murmansk2         15377.875
       305   10 Jun 2027 09:27:26.897   10 Jun 2027 09:30:53.854           206.957                 Moscow         25869.625
       306   10 Jun 2027 09:31:04.628   10 Jun 2027 09:34:33.953           209.325              Murmansk2         26165.625
       307   10 Jun 2027 09:37:20.895   10 Jun 2027 09:44:01.244           400.349                Anadyr2         50043.625
       308   10 Jun 2027 10:38:53.599   10 Jun 2027 10:41:15.619           142.020               CapeTown         17752.500
       309   10 Jun 2027 12:50:46.449   10 Jun 2027 12:55:23.326           276.877               Magadan1         34609.625
       310   10 Jun 2027 14:28:08.682   10 Jun 2027 14:28:21.419            12.737               Magadan1          1592.125
       311   10 Jun 2027 14:28:48.709   10 Jun 2027 14:31:16.081           147.372               Magadan2         18421.500
       312   10 Jun 2027 15:18:41.640   10 Jun 2027 15:20:59.142           137.502            RioGallegos         17187.750
       313   10 Jun 2027 16:06:12.452   10 Jun 2027 16:09:22.581           190.129                Irkutsk         23766.125
       314   10 Jun 2027 16:20:01.092   10 Jun 2027 16:22:27.642           146.550                Sumatra         18318.750
       315   10 Jun 2027 17:41:57.114   10 Jun 2027 17:43:40.094           102.980                Novosib         12872.500
       316   10 Jun 2027 17:49:52.270   10 Jun 2027 17:51:04.203            71.933                  Delhi          8991.625
       317   10 Jun 2027 17:53:00.144   10 Jun 2027 17:53:57.353            57.209                  Delhi          7151.125
       318   10 Jun 2027 19:25:12.974   10 Jun 2027 19:25:35.119            22.145                  Delhi          2768.125
       319   10 Jun 2027 19:27:46.274   10 Jun 2027 19:29:49.602           123.328                  Delhi         15416.000
       320   10 Jun 2027 20:52:01.353   10 Jun 2027 20:52:18.087            16.734              Murmansk2          2091.750
       321   10 Jun 2027 20:55:25.123   10 Jun 2027 20:56:49.927            84.804                 Moscow         10600.500
       322   10 Jun 2027 21:19:52.476   10 Jun 2027 21:20:31.323            38.847               CapeTown          4855.875
       323   10 Jun 2027 22:58:20.818   10 Jun 2027 22:59:31.494            70.676               CapeTown          7938.500
       324   11 Jun 2027 03:16:20.268   11 Jun 2027 03:17:11.625            51.357                Novosib          6419.625
       325   11 Jun 2027 03:17:16.547   11 Jun 2027 03:21:08.147           231.600                Norilsk         28950.000
       326   11 Jun 2027 03:21:14.661   11 Jun 2027 03:21:32.163            17.502              Murmansk1          2187.750
       327   11 Jun 2027 04:25:54.187   11 Jun 2027 04:28:35.401           161.214                Sumatra         20151.750
       328   11 Jun 2027 04:52:15.822   11 Jun 2027 04:52:35.488            19.666                Norilsk          2458.250
       329   11 Jun 2027 04:52:44.173   11 Jun 2027 04:53:00.727            16.554                 Moscow          2069.250
       330   11 Jun 2027 04:53:05.117   11 Jun 2027 04:53:34.943            29.826                Novosib          3728.250
       331   11 Jun 2027 04:53:43.001   11 Jun 2027 04:57:01.543           198.542                Norilsk         24817.750
       332   11 Jun 2027 04:57:03.277   11 Jun 2027 04:59:24.161           140.884              Murmansk2         17610.500
       333   11 Jun 2027 06:17:32.973   11 Jun 2027 06:22:38.421           305.448                  Delhi         38181.000
       334   11 Jun 2027 06:22:40.271   11 Jun 2027 06:23:14.816            34.545                 Moscow          4318.125
       335   11 Jun 2027 06:27:45.175   11 Jun 2027 06:30:47.817           182.642                 Moscow         22830.250
       336   11 Jun 2027 06:30:49.101   11 Jun 2027 06:34:48.210           239.109              Murmansk1         29888.625
       337   11 Jun 2027 07:55:27.180   11 Jun 2027 07:57:01.498            94.318                 Moscow         11789.750
       338   11 Jun 2027 07:58:25.153   11 Jun 2027 07:58:52.064            26.911                Novosib          3363.875
       339   11 Jun 2027 08:03:17.747   11 Jun 2027 08:03:44.614            26.867                 Moscow          3358.375
       340   11 Jun 2027 08:04:36.438   11 Jun 2027 08:07:04.530           148.092                Norilsk         18511.500
       341   11 Jun 2027 08:07:16.006   11 Jun 2027 08:10:37.480           201.474              Murmansk2         25184.250
       342   11 Jun 2027 09:14:57.392   11 Jun 2027 09:17:26.528           149.136               CapeTown         18642.000
       343   11 Jun 2027 09:33:18.749   11 Jun 2027 09:33:40.285            21.536                 Moscow          2692.000
       344   11 Jun 2027 09:37:09.504   11 Jun 2027 09:39:09.117           119.613              Murmansk1         14951.625
       345   11 Jun 2027 09:39:14.957   11 Jun 2027 09:42:50.444           215.487                 Moscow         26935.875
       346   11 Jun 2027 09:42:52.740   11 Jun 2027 09:46:35.548           222.808              Murmansk1         27851.000
       347   11 Jun 2027 09:49:07.272   11 Jun 2027 09:56:50.189           462.917                Anadyr1         57864.625
       348   11 Jun 2027 10:51:16.464   11 Jun 2027 10:56:29.387           312.923               CapeTown         39115.375
       349   11 Jun 2027 11:17:45.435   11 Jun 2027 11:19:02.674            77.239              Murmansk2          9654.875
       350   11 Jun 2027 11:19:02.674   11 Jun 2027 11:22:25.022           202.348              Murmansk1         25293.500
       351   11 Jun 2027 11:24:21.158   11 Jun 2027 11:32:15.598           474.440                Anadyr1         59305.000
       352   11 Jun 2027 13:02:42.621   11 Jun 2027 13:08:01.605           318.984               Magadan1         39873.000
       353   11 Jun 2027 15:30:29.846   11 Jun 2027 15:36:12.253           342.407            RioGallegos         42800.875
       354   11 Jun 2027 16:20:16.609   11 Jun 2027 16:20:16.951             0.342                Irkutsk            42.750
       355   11 Jun 2027 16:27:37.216   11 Jun 2027 16:29:21.904           104.688                Irkutsk         13086.000
       356   11 Jun 2027 16:31:48.840   11 Jun 2027 16:34:41.509           172.669                Sumatra         21583.625
       357   11 Jun 2027 17:53:53.767   11 Jun 2027 17:55:14.630            80.863                Novosib         10107.875
       358   11 Jun 2027 18:01:34.986   11 Jun 2027 18:05:56.359           261.373                  Delhi         32671.625
       359   11 Jun 2027 21:31:35.043   11 Jun 2027 21:34:00.761           145.718               CapeTown         18214.750
       360   12 Jun 2027 03:28:06.304   12 Jun 2027 03:33:32.495           326.191              Murmansk1         40773.875
       361   12 Jun 2027 04:37:44.975   12 Jun 2027 04:40:46.080           181.105                Sumatra         22638.125
       362   12 Jun 2027 05:03:40.082   12 Jun 2027 05:05:39.809           119.727                 Moscow         14965.875
       363   12 Jun 2027 05:05:48.412   12 Jun 2027 05:09:03.299           194.887                Norilsk         24360.875
       364   12 Jun 2027 05:09:04.030   12 Jun 2027 05:11:19.467           135.437              Murmansk1         16929.625
       365   12 Jun 2027 06:29:45.745   12 Jun 2027 06:34:36.694           290.949                  Delhi         36368.625
       366   12 Jun 2027 06:35:34.369   12 Jun 2027 06:36:08.452            34.083                Novosib          4260.375
       367   12 Jun 2027 06:40:02.361   12 Jun 2027 06:41:18.811            76.450                Novosib          9556.250
       368   12 Jun 2027 06:41:21.444   12 Jun 2027 06:42:54.031            92.587                 Moscow         11573.375
       369   12 Jun 2027 06:43:08.469   12 Jun 2027 06:46:47.725           219.256              Murmansk2         27407.000
       370   12 Jun 2027 08:16:38.246   12 Jun 2027 08:20:48.063           249.817                Norilsk         31227.125
       371   12 Jun 2027 08:20:49.193   12 Jun 2027 08:22:38.914           109.721              Murmansk2         13715.125
       372   12 Jun 2027 09:27:21.116   12 Jun 2027 09:30:26.337           185.221               CapeTown         23152.625
       373   12 Jun 2027 09:49:10.971   12 Jun 2027 09:50:21.338            70.367              Murmansk2          8795.875
       374   12 Jun 2027 09:50:43.721   12 Jun 2027 09:51:51.158            67.437                 Moscow          8429.625
       375   12 Jun 2027 09:53:52.425   12 Jun 2027 09:58:37.040           284.615              Murmansk1         35576.875
       376   12 Jun 2027 10:00:57.632   12 Jun 2027 10:09:32.705           515.073                Anadyr1         64384.125
       377   12 Jun 2027 11:03:32.778   12 Jun 2027 11:08:25.785           293.007               CapeTown         36625.875
       378   12 Jun 2027 11:28:50.679   12 Jun 2027 11:34:23.181           332.502              Murmansk2         41562.750
       379   12 Jun 2027 11:38:53.486   12 Jun 2027 11:48:39.821           586.335                Anadyr1         73291.875
       380   12 Jun 2027 13:12:14.374   12 Jun 2027 13:12:56.646            42.272                Anadyr2          5284.000
       381   12 Jun 2027 13:14:39.898   12 Jun 2027 13:19:45.770           305.872               Magadan1         38234.000
       382   12 Jun 2027 13:20:35.159   12 Jun 2027 13:22:33.684           118.525               Magadan2         14815.625
       383   12 Jun 2027 13:25:54.113   12 Jun 2027 13:26:44.016            49.903               Magadan1          6237.875
       384   12 Jun 2027 15:42:20.987   12 Jun 2027 15:45:55.146           214.159            RioGallegos         26769.875
       385   12 Jun 2027 16:30:01.936   12 Jun 2027 16:31:41.398            99.462                Irkutsk         12432.750
       386   12 Jun 2027 16:38:38.252   12 Jun 2027 16:38:58.985            20.733                Novosib          2591.625
       387   12 Jun 2027 16:43:42.543   12 Jun 2027 16:46:49.173           186.630                Sumatra         23328.750
       388   12 Jun 2027 18:10:37.486   12 Jun 2027 18:12:40.688           123.202                Novosib         15400.250
       389   12 Jun 2027 18:13:22.854   12 Jun 2027 18:15:55.691           152.837                  Delhi         19104.625
       390   12 Jun 2027 19:44:32.024   12 Jun 2027 19:45:29.367            57.343                 Moscow          7167.875
       391   12 Jun 2027 21:16:04.252   12 Jun 2027 21:16:19.004            14.752              Murmansk2          1844.000
       392   12 Jun 2027 21:26:29.861   12 Jun 2027 21:27:27.208            57.347                 Moscow          7168.375
       393   12 Jun 2027 21:43:22.909   12 Jun 2027 21:46:19.511           176.602               CapeTown         13973.250
       394   13 Jun 2027 03:40:09.063   13 Jun 2027 03:40:09.116             0.053                Irkutsk             6.625
       395   13 Jun 2027 03:40:12.049   13 Jun 2027 03:41:24.475            72.426                Novosib          9053.250
       396   13 Jun 2027 03:41:26.967   13 Jun 2027 03:44:43.593           196.626                Norilsk         24578.250
       397   13 Jun 2027 04:49:41.517   13 Jun 2027 04:52:41.004           179.487                Sumatra         22435.875
       398   13 Jun 2027 05:16:17.541   13 Jun 2027 05:17:39.454            81.913                Novosib         10239.125
       399   13 Jun 2027 05:17:41.209   13 Jun 2027 05:21:05.140           203.931                Norilsk         25491.375
       400   13 Jun 2027 05:21:10.884   13 Jun 2027 05:23:15.434           124.550              Murmansk1         15568.750
       401   13 Jun 2027 06:41:53.179   13 Jun 2027 06:46:31.467           278.288                  Delhi         34786.000
       402   13 Jun 2027 06:46:36.067   13 Jun 2027 06:46:55.153            19.086                 Moscow          2385.750
       403   13 Jun 2027 06:51:47.667   13 Jun 2027 06:52:16.925            29.258                Novosib          3657.250
       404   13 Jun 2027 06:52:23.853   13 Jun 2027 06:54:59.637           155.784                 Moscow         19473.000
       405   13 Jun 2027 06:55:00.424   13 Jun 2027 06:57:04.590           124.166                Norilsk         15520.750
       406   13 Jun 2027 06:57:13.836   13 Jun 2027 06:58:47.592            93.756              Murmansk2         11719.500
       407   13 Jun 2027 08:28:09.741   13 Jun 2027 08:31:11.410           181.669                 Moscow         22708.625
       408   13 Jun 2027 08:31:20.865   13 Jun 2027 08:34:40.450           199.585              Murmansk1         24948.125
       409   13 Jun 2027 09:33:01.660   13 Jun 2027 09:43:09.847           608.187               CapeTown         76023.375
       410   13 Jun 2027 09:58:15.717   13 Jun 2027 09:58:45.593            29.876                 Moscow          3734.500
       411   13 Jun 2027 10:01:02.811   13 Jun 2027 10:02:36.299            93.488              Murmansk1         11686.000
       412   13 Jun 2027 10:02:36.299   13 Jun 2027 10:02:54.580            18.281              Murmansk2          2285.125
       413   13 Jun 2027 10:03:06.133   13 Jun 2027 10:05:00.704           114.571                 Moscow         14321.375
       414   13 Jun 2027 10:05:52.379   13 Jun 2027 10:08:42.695           170.316              Murmansk1         21289.500
       415   13 Jun 2027 10:08:42.695   13 Jun 2027 10:10:38.389           115.694              Murmansk2         14461.750
       416   13 Jun 2027 10:12:50.632   13 Jun 2027 10:22:10.174           559.542                Anadyr2         69942.750
       417   13 Jun 2027 11:15:43.299   13 Jun 2027 11:20:17.229           273.930               CapeTown         34241.250
       418   13 Jun 2027 11:41:45.942   13 Jun 2027 11:46:20.228           274.286              Murmansk1         34285.750
       419   13 Jun 2027 11:51:51.770   13 Jun 2027 11:56:38.697           286.927               Magadan1         35865.875
       420   13 Jun 2027 11:57:38.283   13 Jun 2027 11:59:20.303           102.020               Magadan2         12752.500
       421   13 Jun 2027 13:26:38.083   13 Jun 2027 13:28:40.239           122.156               Magadan2         15269.500
       422   13 Jun 2027 15:12:49.809   13 Jun 2027 15:14:50.709           120.900                Irkutsk         15112.500
       423   13 Jun 2027 15:23:50.268   13 Jun 2027 15:25:22.860            92.592                Sumatra         11574.000
       424   13 Jun 2027 15:27:05.806   13 Jun 2027 15:29:18.705           132.899                Sumatra         16612.375
       425   13 Jun 2027 16:41:58.979   13 Jun 2027 16:43:17.421            78.442                Irkutsk          9805.250
       426   13 Jun 2027 16:44:51.118   13 Jun 2027 16:46:44.337           113.219                Irkutsk         14152.375
       427   13 Jun 2027 16:55:41.874   13 Jun 2027 16:58:11.769           149.895                Sumatra         18736.875
       428   13 Jun 2027 17:06:59.722   13 Jun 2027 17:07:09.346             9.624                Sumatra          1203.000
       429   13 Jun 2027 18:21:34.251   13 Jun 2027 18:22:39.059            64.808                Novosib          8101.000
       430   13 Jun 2027 18:25:14.988   13 Jun 2027 18:28:39.092           204.104                  Delhi         25513.000
       431   13 Jun 2027 18:33:00.799   13 Jun 2027 18:34:21.086            80.287                  Delhi         10035.875
       432   13 Jun 2027 19:56:16.073   13 Jun 2027 19:57:25.748            69.675                 Moscow          8709.375
       433   13 Jun 2027 21:55:15.824   13 Jun 2027 21:58:08.357           172.533               CapeTown         16488.876
