uniorb/output/strategy_4/Drop/Drop_KinoSat_110806.txt

KinoSat_110806
-------------------------
    Access    *     Start Time (UTCG)     *     Stop Time (UTCG)  *   Duration (s)        *       Station  *  Data (Mbytes)
         1   01 Jun 2027 03:27:38.878   01 Jun 2027 03:29:11.646            92.768               Magadan1          2899.000
         2   01 Jun 2027 03:29:11.646   01 Jun 2027 03:29:44.832            33.186               Magadan2          1037.062
         3   01 Jun 2027 03:29:44.832   01 Jun 2027 03:30:10.100            25.268               Magadan1           789.625
         4   01 Jun 2027 03:30:15.487   01 Jun 2027 03:32:37.358           141.871                Anadyr1          4433.469
         5   01 Jun 2027 05:03:54.219   01 Jun 2027 05:05:34.107            99.888               Magadan1          3121.500
         6   01 Jun 2027 05:05:42.725   01 Jun 2027 05:05:51.139             8.414               Magadan2           262.937
         7   01 Jun 2027 05:05:54.380   01 Jun 2027 05:06:30.088            35.708               Magadan2          1115.875
         8   01 Jun 2027 05:06:31.271   01 Jun 2027 05:07:14.068            42.797                Norilsk          1337.406
         9   01 Jun 2027 05:07:20.972   01 Jun 2027 05:07:39.051            18.079              Murmansk1           564.969
        10   01 Jun 2027 05:07:43.445   01 Jun 2027 05:08:14.035            30.590               Magadan1           955.937
        11   01 Jun 2027 05:44:24.852   01 Jun 2027 05:46:01.052            96.200            RioGallegos          3006.250
        12   01 Jun 2027 06:38:28.452   01 Jun 2027 06:39:33.506            65.054               Magadan2          2032.937
        13   01 Jun 2027 06:39:35.042   01 Jun 2027 06:42:21.336           166.294                Irkutsk          5196.688
        14   01 Jun 2027 06:42:42.281   01 Jun 2027 06:44:09.549            87.268                Norilsk          2727.125
        15   01 Jun 2027 07:18:38.460   01 Jun 2027 07:19:11.044            32.584            RioGallegos          1018.250
        16   01 Jun 2027 07:19:51.263   01 Jun 2027 07:20:27.573            36.310            RioGallegos          1134.688
        17   01 Jun 2027 07:53:58.520   01 Jun 2027 07:56:20.901           142.381                Sumatra          4449.406
        18   01 Jun 2027 08:06:41.087   01 Jun 2027 08:07:51.432            70.345                  Delhi          2198.281
        19   01 Jun 2027 08:15:50.607   01 Jun 2027 08:19:54.138           243.531                Irkutsk          7610.344
        20   01 Jun 2027 08:20:23.483   01 Jun 2027 08:21:16.369            52.886                Novosib          1652.687
        21   01 Jun 2027 09:30:51.777   01 Jun 2027 09:31:00.491             8.714                Sumatra           272.312
        22   01 Jun 2027 09:39:14.376   01 Jun 2027 09:40:55.950           101.574                  Delhi          3174.187
        23   01 Jun 2027 09:53:32.392   01 Jun 2027 09:54:18.374            45.982                Irkutsk          1436.938
        24   01 Jun 2027 09:54:59.541   01 Jun 2027 09:55:54.414            54.873              Murmansk1          1714.781
        25   01 Jun 2027 09:56:18.550   01 Jun 2027 09:56:34.681            16.131              Murmansk2           504.094
        26   01 Jun 2027 09:57:15.720   01 Jun 2027 09:57:17.767             2.047              Murmansk1            63.969
        27   01 Jun 2027 09:57:21.199   01 Jun 2027 09:57:34.429            13.230                 Moscow           413.438
        28   01 Jun 2027 11:16:17.539   01 Jun 2027 11:19:14.288           176.749                  Delhi          5523.406
        29   01 Jun 2027 11:20:08.808   01 Jun 2027 11:20:18.304             9.496                  Delhi           296.750
        30   01 Jun 2027 11:24:05.607   01 Jun 2027 11:24:09.847             4.240                  Delhi           132.500
        31   01 Jun 2027 11:29:01.634   01 Jun 2027 11:29:38.840            37.206                 Moscow          1162.688
        32   01 Jun 2027 11:30:09.102   01 Jun 2027 11:33:04.289           175.187              Murmansk2          5474.594
        33   01 Jun 2027 11:33:04.289   01 Jun 2027 11:34:18.932            74.643              Murmansk1          2332.594
        34   01 Jun 2027 11:34:19.191   01 Jun 2027 11:35:01.624            42.433                 Moscow          1326.031
        35   01 Jun 2027 11:35:09.219   01 Jun 2027 11:36:24.573            75.354                Norilsk          2354.812
        36   01 Jun 2027 12:38:52.549   01 Jun 2027 12:40:54.123           121.574               CapeTown          3799.187
        37   01 Jun 2027 12:43:39.968   01 Jun 2027 12:44:30.024            50.056               CapeTown          1564.250
        38   01 Jun 2027 12:58:35.359   01 Jun 2027 12:59:36.064            60.705                 Moscow          1897.031
        39   01 Jun 2027 13:02:02.658   01 Jun 2027 13:03:47.293           104.635              Murmansk2          3269.844
        40   01 Jun 2027 13:03:47.293   01 Jun 2027 13:06:53.562           186.269              Murmansk1          5820.906
        41   01 Jun 2027 13:08:14.521   01 Jun 2027 13:08:56.610            42.089              Murmansk2          1315.281
        42   01 Jun 2027 13:17:10.677   01 Jun 2027 13:23:29.519           378.842                Anadyr1         11838.813
        43   01 Jun 2027 14:42:28.001   01 Jun 2027 14:42:32.715             4.714              Murmansk2           147.313
        44   01 Jun 2027 14:42:38.717   01 Jun 2027 14:42:47.781             9.064              Murmansk2           283.250
        45   01 Jun 2027 14:52:16.873   01 Jun 2027 14:56:24.258           247.385                Anadyr2          7730.781
        46   01 Jun 2027 14:57:45.665   01 Jun 2027 14:59:42.794           117.129               Magadan1          3660.281
        47   01 Jun 2027 16:22:42.229   01 Jun 2027 16:23:52.716            70.487              Murmansk2          2202.719
        48   01 Jun 2027 16:28:07.599   01 Jun 2027 16:29:57.067           109.468                Anadyr1          3420.875
        49   01 Jun 2027 16:30:40.338   01 Jun 2027 16:35:42.887           302.549               Magadan1          9454.656
        50   01 Jun 2027 18:04:01.944   01 Jun 2027 18:07:25.273           203.329                Anadyr1          6354.031
        51   01 Jun 2027 18:08:00.486   01 Jun 2027 18:09:20.427            79.941               Magadan1          2498.156
        52   01 Jun 2027 18:09:20.427   01 Jun 2027 18:10:03.338            42.911               Magadan2          1340.969
        53   01 Jun 2027 18:10:37.355   01 Jun 2027 18:10:46.432             9.077                Norilsk           283.656
        54   01 Jun 2027 18:58:32.286   01 Jun 2027 19:02:33.828           241.542            RioGallegos          7548.188
        55   01 Jun 2027 19:41:53.873   01 Jun 2027 19:43:38.211           104.338                Norilsk          3260.563
        56   01 Jun 2027 19:44:07.257   01 Jun 2027 19:44:54.370            47.113               Magadan1          1472.281
        57   01 Jun 2027 19:46:05.392   01 Jun 2027 19:47:33.648            88.256                Irkutsk          2758.000
        58   01 Jun 2027 19:48:11.537   01 Jun 2027 19:53:04.453           292.916                Novosib          9153.625
        59   01 Jun 2027 20:00:46.263   01 Jun 2027 20:01:10.107            23.844                Sumatra           745.125
        60   01 Jun 2027 20:02:29.083   01 Jun 2027 20:03:45.498            76.415                Sumatra          2387.969
        61   01 Jun 2027 20:11:29.139   01 Jun 2027 20:12:13.244            44.105                Sumatra          1378.281
        62   01 Jun 2027 21:20:49.527   01 Jun 2027 21:21:11.131            21.604                Norilsk           675.125
        63   01 Jun 2027 21:21:41.681   01 Jun 2027 21:22:15.690            34.009                Irkutsk          1062.781
        64   01 Jun 2027 21:22:26.531   01 Jun 2027 21:23:24.984            58.453                Novosib          1826.656
        65   01 Jun 2027 21:23:51.345   01 Jun 2027 21:24:52.912            61.567                Novosib          1923.969
        66   01 Jun 2027 21:27:30.904   01 Jun 2027 21:28:42.588            71.684                Novosib          2240.125
        67   01 Jun 2027 21:29:40.556   01 Jun 2027 21:33:15.784           215.228                  Delhi          6725.875
        68   01 Jun 2027 21:34:45.488   01 Jun 2027 21:35:18.993            33.505                  Delhi          1047.031
        69   01 Jun 2027 22:53:56.328   01 Jun 2027 22:54:04.532             8.204               Magadan1           256.375
        70   01 Jun 2027 22:55:11.219   01 Jun 2027 22:55:19.129             7.910                Norilsk           247.187
        71   01 Jun 2027 22:55:24.421   01 Jun 2027 22:55:52.647            28.226               Magadan2           882.062
        72   01 Jun 2027 22:56:10.323   01 Jun 2027 22:56:48.295            37.972               Magadan1          1186.625
        73   01 Jun 2027 22:57:11.268   01 Jun 2027 23:00:15.911           184.643              Murmansk1          5770.094
        74   01 Jun 2027 23:00:37.496   01 Jun 2027 23:01:42.593            65.097              Murmansk2          2034.281
        75   01 Jun 2027 23:02:08.572   01 Jun 2027 23:07:01.183           292.611                 Moscow          9144.094
        76   02 Jun 2027 00:31:57.321   02 Jun 2027 00:33:31.918            94.597              Murmansk2          2956.156
        77   02 Jun 2027 00:34:12.140   02 Jun 2027 00:34:19.932             7.792                Novosib           243.500
        78   02 Jun 2027 00:34:33.713   02 Jun 2027 00:34:49.434            15.721              Murmansk2           491.281
        79   02 Jun 2027 00:35:17.470   02 Jun 2027 00:36:09.049            51.579              Murmansk2          1611.844
        80   02 Jun 2027 00:37:22.684   02 Jun 2027 00:37:25.960             3.276                 Moscow           102.375
        81   02 Jun 2027 00:37:51.273   02 Jun 2027 00:38:38.836            47.563              Murmansk1          1486.344
        82   02 Jun 2027 00:39:23.305   02 Jun 2027 00:39:41.809            18.504                 Moscow           578.250
        83   02 Jun 2027 00:59:40.739   02 Jun 2027 01:01:38.001           117.262               CapeTown          3664.438
        84   02 Jun 2027 01:02:00.020   02 Jun 2027 01:03:17.117            77.097               CapeTown          2409.281
        85   02 Jun 2027 01:58:19.548   02 Jun 2027 01:58:25.059             5.511               Magadan2           172.219
        86   02 Jun 2027 01:58:30.133   02 Jun 2027 02:00:04.962            94.829               Magadan1          2963.406
        87   02 Jun 2027 02:03:20.201   02 Jun 2027 02:03:28.220             8.019               Magadan2           250.594
        88   02 Jun 2027 02:03:58.429   02 Jun 2027 02:04:06.060             7.631               Magadan2           238.469
        89   02 Jun 2027 02:06:19.074   02 Jun 2027 02:06:20.513             1.439               Magadan2            44.969
        90   02 Jun 2027 02:06:39.824   02 Jun 2027 02:07:14.856            35.032               Magadan1          1094.750
        91   02 Jun 2027 02:07:55.391   02 Jun 2027 02:09:06.512            71.121              Murmansk1          2222.531
        92   02 Jun 2027 02:09:36.496   02 Jun 2027 02:09:58.170            21.674              Murmansk2           677.312
        93   02 Jun 2027 02:11:09.513   02 Jun 2027 02:11:27.167            17.654                 Moscow           551.687
        94   02 Jun 2027 02:11:38.239   02 Jun 2027 02:12:12.743            34.504                 Moscow          1078.250
        95   02 Jun 2027 02:17:09.489   02 Jun 2027 02:17:17.127             7.638                 Moscow           238.688
        96   02 Jun 2027 02:18:02.040   02 Jun 2027 02:18:23.008            20.968                 Moscow           655.250
        97   02 Jun 2027 02:22:10.400   02 Jun 2027 02:22:13.993             3.593                 Moscow           112.281
        98   02 Jun 2027 02:23:33.027   02 Jun 2027 02:23:37.891             4.864                 Moscow           152.000
        99   02 Jun 2027 02:35:47.189   02 Jun 2027 02:36:26.977            39.788               CapeTown          1243.375
       100   02 Jun 2027 02:40:42.471   02 Jun 2027 02:40:46.216             3.745               CapeTown           117.031
       101   02 Jun 2027 02:41:05.257   02 Jun 2027 02:41:54.931            49.674               CapeTown          1552.313
       102   02 Jun 2027 03:36:47.256   02 Jun 2027 03:37:13.803            26.547                Anadyr2           829.594
       103   02 Jun 2027 03:37:13.803   02 Jun 2027 03:37:39.193            25.390                Anadyr1           793.438
       104   02 Jun 2027 03:37:45.226   02 Jun 2027 03:38:03.997            18.771               Magadan1           586.594
       105   02 Jun 2027 03:38:11.643   02 Jun 2027 03:38:26.312            14.669                Anadyr2           458.406
       106   02 Jun 2027 03:38:26.312   02 Jun 2027 03:40:29.782           123.470                Anadyr1          3858.438
       107   02 Jun 2027 03:40:34.322   02 Jun 2027 03:41:42.291            67.969               Magadan2          2124.031
       108   02 Jun 2027 03:42:02.084   02 Jun 2027 03:42:16.975            14.891                Anadyr2           465.344
       109   02 Jun 2027 03:42:21.047   02 Jun 2027 03:43:14.467            53.420               Magadan2          1669.375
       110   02 Jun 2027 03:43:17.625   02 Jun 2027 03:44:37.758            80.133                Anadyr1          2504.156
       111   02 Jun 2027 05:15:56.835   02 Jun 2027 05:16:03.212             6.377               Magadan1           199.281
       112   02 Jun 2027 05:16:12.310   02 Jun 2027 05:17:11.922            59.612               Magadan1          1862.875
       113   02 Jun 2027 05:17:22.330   02 Jun 2027 05:18:29.369            67.039               Magadan1          2094.969
       114   02 Jun 2027 05:18:30.890   02 Jun 2027 05:20:02.980            92.090                Anadyr2          2877.813
       115   02 Jun 2027 06:51:40.019   02 Jun 2027 06:52:34.336            54.317                Irkutsk          1697.406
       116   02 Jun 2027 06:53:43.532   02 Jun 2027 06:55:58.635           135.103                Irkutsk          4221.969
       117   02 Jun 2027 06:56:23.697   02 Jun 2027 06:57:09.731            46.034                Novosib          1438.563
       118   02 Jun 2027 08:29:33.082   02 Jun 2027 08:29:41.737             8.655                Irkutsk           270.469
       119   02 Jun 2027 08:29:54.980   02 Jun 2027 08:31:51.798           116.818                Irkutsk          3650.563
       120   02 Jun 2027 09:09:20.289   02 Jun 2027 09:10:59.817            99.528            RioGallegos          3110.250
       121   02 Jun 2027 09:43:42.118   02 Jun 2027 09:45:17.244            95.126                Sumatra          2972.687
       122   02 Jun 2027 09:47:40.194   02 Jun 2027 09:47:50.018             9.824                Sumatra           307.000
       123   02 Jun 2027 10:03:51.302   02 Jun 2027 10:05:00.148            68.846                Novosib          2151.438
       124   02 Jun 2027 10:05:08.088   02 Jun 2027 10:05:21.156            13.068                Novosib           408.375
       125   02 Jun 2027 10:06:28.440   02 Jun 2027 10:06:32.530             4.090                Novosib           127.812
       126   02 Jun 2027 10:06:39.347   02 Jun 2027 10:07:11.298            31.951                Norilsk           998.469
       127   02 Jun 2027 10:07:16.064   02 Jun 2027 10:07:16.932             0.868                Norilsk            27.125
       128   02 Jun 2027 10:07:26.406   02 Jun 2027 10:07:41.972            15.566                Novosib           486.438
       129   02 Jun 2027 11:29:37.754   02 Jun 2027 11:32:15.263           157.509                  Delhi          4922.156
       130   02 Jun 2027 11:39:28.054   02 Jun 2027 11:39:44.877            16.823              Murmansk2           525.719
       131   02 Jun 2027 11:39:52.242   02 Jun 2027 11:40:11.452            19.210              Murmansk2           600.312
       132   02 Jun 2027 11:40:49.237   02 Jun 2027 11:40:57.857             8.620              Murmansk2           269.375
       133   02 Jun 2027 11:41:24.975   02 Jun 2027 11:41:45.047            20.072              Murmansk2           627.250
       134   02 Jun 2027 11:44:17.826   02 Jun 2027 11:44:29.304            11.478              Murmansk1           358.687
       135   02 Jun 2027 11:44:33.053   02 Jun 2027 11:44:36.260             3.207                 Moscow           100.219
       136   02 Jun 2027 13:10:52.815   02 Jun 2027 13:11:38.207            45.392                 Moscow          1418.500
       137   02 Jun 2027 13:12:31.205   02 Jun 2027 13:12:50.484            19.279                 Moscow           602.469
       138   02 Jun 2027 13:13:12.967   02 Jun 2027 13:13:31.399            18.432                 Moscow           576.000
       139   02 Jun 2027 13:13:45.176   02 Jun 2027 13:14:39.975            54.799                 Moscow          1712.469
       140   02 Jun 2027 13:14:46.633   02 Jun 2027 13:15:55.049            68.416              Murmansk2          2138.000
       141   02 Jun 2027 13:16:29.145   02 Jun 2027 13:16:55.814            26.669              Murmansk1           833.406
       142   02 Jun 2027 13:17:16.154   02 Jun 2027 13:18:19.766            63.612              Murmansk2          1987.875
       143   02 Jun 2027 13:18:25.641   02 Jun 2027 13:18:39.224            13.583              Murmansk1           424.469
       144   02 Jun 2027 13:25:23.010   02 Jun 2027 13:25:27.165             4.155              Murmansk1           129.844
       145   02 Jun 2027 13:28:58.767   02 Jun 2027 13:32:46.840           228.073                Anadyr1          7127.281
       146   02 Jun 2027 13:32:56.594   02 Jun 2027 13:35:01.507           124.913                Anadyr2          3903.531
       147   02 Jun 2027 14:53:00.099   02 Jun 2027 14:53:21.824            21.725              Murmansk1           678.906
       148   02 Jun 2027 14:53:24.170   02 Jun 2027 14:54:23.349            59.179              Murmansk2          1849.344
       149   02 Jun 2027 15:04:16.565   02 Jun 2027 15:06:22.677           126.112                Anadyr2          3941.000
       150   02 Jun 2027 15:06:38.582   02 Jun 2027 15:06:51.075            12.493                Anadyr2           390.406
       151   02 Jun 2027 15:07:30.939   02 Jun 2027 15:07:44.720            13.781                Anadyr1           430.656
       152   02 Jun 2027 15:07:44.720   02 Jun 2027 15:08:28.128            43.408                Anadyr2          1356.500
       153   02 Jun 2027 15:08:34.219   02 Jun 2027 15:13:32.649           298.430               Magadan1          9325.938
       154   02 Jun 2027 16:40:56.141   02 Jun 2027 16:41:47.021            50.880                Anadyr1          1590.000
       155   02 Jun 2027 16:42:36.949   02 Jun 2027 16:44:48.049           131.100               Magadan1          4096.875
       156   02 Jun 2027 16:44:48.049   02 Jun 2027 16:45:23.355            35.306               Magadan2          1103.313
       157   02 Jun 2027 16:47:55.027   02 Jun 2027 16:48:59.651            64.624               Magadan1          2019.500
       158   02 Jun 2027 18:16:02.355   02 Jun 2027 18:18:52.941           170.586                Anadyr2          5330.813
       159   02 Jun 2027 18:19:11.511   02 Jun 2027 18:23:45.458           273.947                Norilsk          8560.844
       160   02 Jun 2027 18:25:16.155   02 Jun 2027 18:27:15.850           119.695                Irkutsk          3740.469
       161   02 Jun 2027 19:13:08.991   02 Jun 2027 19:13:35.484            26.493            RioGallegos           827.906
       162   02 Jun 2027 19:53:54.382   02 Jun 2027 19:55:34.752           100.370                Norilsk          3136.563
       163   02 Jun 2027 19:57:54.439   02 Jun 2027 19:58:05.031            10.592                Norilsk           331.000
       164   02 Jun 2027 19:58:19.729   02 Jun 2027 19:59:22.755            63.026                Irkutsk          1969.563
       165   02 Jun 2027 19:59:30.848   02 Jun 2027 20:03:48.151           257.303                Novosib          8040.719
       166   02 Jun 2027 20:05:31.306   02 Jun 2027 20:06:18.136            46.830                Novosib          1463.437
       167   02 Jun 2027 20:12:49.793   02 Jun 2027 20:14:07.515            77.722                Sumatra          2428.812
       168   02 Jun 2027 21:33:44.745   02 Jun 2027 21:34:04.590            19.845                Irkutsk           620.156
       169   02 Jun 2027 21:34:09.241   02 Jun 2027 21:34:18.922             9.681                Irkutsk           302.531
       170   02 Jun 2027 21:35:21.530   02 Jun 2027 21:35:24.900             3.370                Norilsk           105.313
       171   02 Jun 2027 21:35:51.757   02 Jun 2027 21:36:59.275            67.518                Novosib          2109.937
       172   02 Jun 2027 21:37:26.422   02 Jun 2027 21:38:16.747            50.325                Novosib          1572.656
       173   02 Jun 2027 21:41:25.345   02 Jun 2027 21:45:12.806           227.461                  Delhi          7108.156
       174   02 Jun 2027 23:05:44.246   02 Jun 2027 23:06:21.853            37.607               Magadan1          1175.219
       175   02 Jun 2027 23:08:10.589   02 Jun 2027 23:10:14.366           123.777              Murmansk2          3868.031
       176   02 Jun 2027 23:10:56.025   02 Jun 2027 23:13:05.439           129.414              Murmansk1          4044.188
       177   02 Jun 2027 23:14:11.203   02 Jun 2027 23:17:38.883           207.680                 Moscow          6490.000
       178   02 Jun 2027 23:19:05.648   02 Jun 2027 23:19:28.722            23.074                 Moscow           721.062
       179   03 Jun 2027 00:37:56.220   03 Jun 2027 00:38:50.980            54.760               Magadan1          1711.250
       180   03 Jun 2027 00:40:31.009   03 Jun 2027 00:41:40.235            69.226               Magadan1          2163.312
       181   03 Jun 2027 00:43:58.755   03 Jun 2027 00:46:09.549           130.794              Murmansk2          4087.312
       182   03 Jun 2027 00:46:30.747   03 Jun 2027 00:46:49.468            18.721              Murmansk1           585.031
       183   03 Jun 2027 00:47:17.525   03 Jun 2027 00:48:22.701            65.176                 Moscow          2036.750
       184   03 Jun 2027 00:52:19.305   03 Jun 2027 00:52:25.409             6.104                 Moscow           190.750
       185   03 Jun 2027 00:55:11.165   03 Jun 2027 00:55:19.070             7.905                 Moscow           247.031
       186   03 Jun 2027 00:56:45.925   03 Jun 2027 00:56:51.105             5.180                 Moscow           161.875
       187   03 Jun 2027 00:58:57.049   03 Jun 2027 00:59:45.974            48.925                 Moscow          1528.906
       188   03 Jun 2027 01:11:25.334   03 Jun 2027 01:13:02.050            96.716               CapeTown          3022.375
       189   03 Jun 2027 02:08:14.649   03 Jun 2027 02:08:49.111            34.462                Anadyr2          1076.938
       190   03 Jun 2027 02:09:56.067   03 Jun 2027 02:10:28.258            32.191               Magadan1          1005.969
       191   03 Jun 2027 02:10:38.935   03 Jun 2027 02:12:06.626            87.691               Magadan2          2740.344
       192   03 Jun 2027 02:17:47.224   03 Jun 2027 02:17:48.453             1.229               Magadan1            38.406
       193   03 Jun 2027 02:18:44.699   03 Jun 2027 02:18:51.422             6.723                Norilsk           210.094
       194   03 Jun 2027 02:18:59.434   03 Jun 2027 02:19:23.144            23.710                Norilsk           740.938
       195   03 Jun 2027 02:19:56.870   03 Jun 2027 02:20:59.289            62.419              Murmansk1          1950.594
       196   03 Jun 2027 02:22:31.235   03 Jun 2027 02:23:07.704            36.469              Murmansk2          1139.656
       197   03 Jun 2027 02:23:12.731   03 Jun 2027 02:23:50.927            38.196                 Moscow          1193.625
       198   03 Jun 2027 02:29:25.682   03 Jun 2027 02:29:47.136            21.454                 Moscow           670.438
       199   03 Jun 2027 02:33:32.732   03 Jun 2027 02:34:35.345            62.613                 Moscow          1956.656
       200   03 Jun 2027 02:53:19.144   03 Jun 2027 02:53:59.945            40.801               CapeTown          1275.031
       201   03 Jun 2027 03:45:19.250   03 Jun 2027 03:45:42.415            23.165                Anadyr1           723.906
       202   03 Jun 2027 03:48:37.292   03 Jun 2027 03:49:26.240            48.948                Anadyr2          1529.625
       203   03 Jun 2027 03:49:32.214   03 Jun 2027 03:51:47.066           134.852                Anadyr2          4214.125
       204   03 Jun 2027 03:51:54.174   03 Jun 2027 03:53:18.027            83.853               Magadan2          2620.406
       205   03 Jun 2027 03:53:18.027   03 Jun 2027 03:55:49.392           151.365               Magadan1          4730.156
       206   03 Jun 2027 03:55:49.392   03 Jun 2027 03:56:10.626            21.234               Magadan2           663.563
       207   03 Jun 2027 04:36:24.125   03 Jun 2027 04:38:17.956           113.831            RioGallegos          3557.219
       208   03 Jun 2027 05:26:15.658   03 Jun 2027 05:27:05.370            49.712                Irkutsk          1553.500
       209   03 Jun 2027 05:28:00.298   03 Jun 2027 05:31:06.975           186.677               Magadan2          5833.656
       210   03 Jun 2027 05:31:49.151   03 Jun 2027 05:32:12.632            23.481               Magadan1           733.781
       211   03 Jun 2027 05:35:20.444   03 Jun 2027 05:35:48.571            28.127                Norilsk           878.969
       212   03 Jun 2027 07:01:58.911   03 Jun 2027 07:02:18.771            19.860               Magadan2           620.625
       213   03 Jun 2027 07:03:12.362   03 Jun 2027 07:03:20.500             8.138               Magadan1           254.312
       214   03 Jun 2027 07:03:35.401   03 Jun 2027 07:04:03.998            28.597               Magadan2           893.656
       215   03 Jun 2027 07:04:08.189   03 Jun 2027 07:04:34.375            26.186               Magadan1           818.313
       216   03 Jun 2027 07:04:59.866   03 Jun 2027 07:05:07.826             7.960                Irkutsk           248.750
       217   03 Jun 2027 07:05:43.594   03 Jun 2027 07:06:07.733            24.139               Magadan2           754.344
       218   03 Jun 2027 07:06:10.413   03 Jun 2027 07:07:00.067            49.654               Magadan1          1551.687
       219   03 Jun 2027 07:07:38.210   03 Jun 2027 07:08:09.103            30.893                Norilsk           965.406
       220   03 Jun 2027 07:49:20.323   03 Jun 2027 07:49:55.479            35.156            RioGallegos          1098.625
       221   03 Jun 2027 08:27:31.310   03 Jun 2027 08:27:45.253            13.943                Sumatra           435.719
       222   03 Jun 2027 08:39:54.111   03 Jun 2027 08:40:42.764            48.653                Irkutsk          1520.406
       223   03 Jun 2027 08:41:11.635   03 Jun 2027 08:41:21.726            10.091                Irkutsk           315.344
       224   03 Jun 2027 08:41:24.739   03 Jun 2027 08:41:30.121             5.382                Novosib           168.188
       225   03 Jun 2027 08:41:36.577   03 Jun 2027 08:42:14.696            38.119                Irkutsk          1191.219
       226   03 Jun 2027 08:42:54.111   03 Jun 2027 08:43:14.519            20.408                Irkutsk           637.750
       227   03 Jun 2027 08:43:20.600   03 Jun 2027 08:43:48.119            27.519                Irkutsk           859.969
       228   03 Jun 2027 08:44:21.883   03 Jun 2027 08:44:24.394             2.511                Novosib            78.469
       229   03 Jun 2027 08:49:48.436   03 Jun 2027 08:50:13.867            25.431              Murmansk1           794.719
       230   03 Jun 2027 09:22:11.412   03 Jun 2027 09:22:17.130             5.718            RioGallegos           178.688
       231   03 Jun 2027 09:23:09.823   03 Jun 2027 09:23:23.504            13.681            RioGallegos           427.531
       232   03 Jun 2027 09:24:39.266   03 Jun 2027 09:25:01.764            22.498            RioGallegos           703.063
       233   03 Jun 2027 09:25:52.674   03 Jun 2027 09:26:10.902            18.228            RioGallegos           569.625
       234   03 Jun 2027 09:57:54.552   03 Jun 2027 09:59:54.968           120.416                Sumatra          3763.000
       235   03 Jun 2027 10:16:30.232   03 Jun 2027 10:17:05.645            35.413                Novosib          1106.656
       236   03 Jun 2027 10:18:19.180   03 Jun 2027 10:18:52.725            33.545                Novosib          1048.281
       237   03 Jun 2027 10:18:56.092   03 Jun 2027 10:18:56.529             0.437                Novosib            13.656
       238   03 Jun 2027 10:19:06.223   03 Jun 2027 10:19:10.602             4.379                Norilsk           136.844
       239   03 Jun 2027 10:19:18.080   03 Jun 2027 10:19:47.104            29.024                Novosib           907.000
       240   03 Jun 2027 11:56:19.427   03 Jun 2027 11:56:22.017             2.590                 Moscow            80.937
       241   03 Jun 2027 11:56:27.036   03 Jun 2027 11:57:20.152            53.116                 Moscow          1659.875
       242   03 Jun 2027 13:23:14.199   03 Jun 2027 13:23:43.323            29.124                 Moscow           910.125
       243   03 Jun 2027 13:24:13.690   03 Jun 2027 13:24:54.716            41.026                 Moscow          1282.062
       244   03 Jun 2027 13:27:48.066   03 Jun 2027 13:28:16.263            28.197              Murmansk1           881.156
       245   03 Jun 2027 13:28:52.687   03 Jun 2027 13:28:52.865             0.178                 Moscow             5.563
       246   03 Jun 2027 13:28:55.959   03 Jun 2027 13:28:57.351             1.392              Murmansk1            43.500
       247   03 Jun 2027 13:29:13.347   03 Jun 2027 13:29:56.254            42.907              Murmansk1          1340.844
       248   03 Jun 2027 13:32:17.108   03 Jun 2027 13:32:48.477            31.369              Murmansk2           980.281
       249   03 Jun 2027 13:33:59.023   03 Jun 2027 13:34:25.496            26.473                 Moscow           827.281
       250   03 Jun 2027 13:36:07.956   03 Jun 2027 13:36:12.304             4.348              Murmansk1           135.875
       251   03 Jun 2027 13:36:18.000   03 Jun 2027 13:36:32.641            14.641              Murmansk1           457.531
       252   03 Jun 2027 13:36:55.497   03 Jun 2027 13:37:07.598            12.101              Murmansk1           378.156
       253   03 Jun 2027 13:38:05.421   03 Jun 2027 13:38:31.183            25.762              Murmansk1           805.063
       254   03 Jun 2027 13:40:50.234   03 Jun 2027 13:41:06.030            15.796                Anadyr2           493.625
       255   03 Jun 2027 13:41:29.935   03 Jun 2027 13:43:10.602           100.667                Anadyr1          3145.844
       256   03 Jun 2027 13:43:31.441   03 Jun 2027 13:43:38.124             6.683                Anadyr1           208.844
       257   03 Jun 2027 13:44:08.280   03 Jun 2027 13:45:27.736            79.456                Anadyr1          2483.000
       258   03 Jun 2027 14:44:20.156   03 Jun 2027 14:44:40.117            19.961               CapeTown           623.781
       259   03 Jun 2027 14:45:04.116   03 Jun 2027 14:45:24.942            20.826               CapeTown           650.812
       260   03 Jun 2027 14:46:58.499   03 Jun 2027 14:48:18.612            80.113               CapeTown          2503.531
       261   03 Jun 2027 15:05:34.104   03 Jun 2027 15:06:24.362            50.258              Murmansk2          1570.562
       262   03 Jun 2027 15:08:15.411   03 Jun 2027 15:08:36.439            21.028              Murmansk1           657.125
       263   03 Jun 2027 15:10:02.364   03 Jun 2027 15:10:16.695            14.331              Murmansk2           447.844
       264   03 Jun 2027 15:12:06.116   03 Jun 2027 15:12:22.072            15.956              Murmansk1           498.625
       265   03 Jun 2027 15:12:47.589   03 Jun 2027 15:14:03.073            75.484              Murmansk1          2358.875
       266   03 Jun 2027 15:16:16.668   03 Jun 2027 15:17:09.308            52.640                Anadyr1          1645.000
       267   03 Jun 2027 15:18:48.252   03 Jun 2027 15:19:04.436            16.184                Anadyr2           505.750
       268   03 Jun 2027 15:19:32.270   03 Jun 2027 15:20:25.867            53.597                Anadyr2          1674.906
       269   03 Jun 2027 15:21:22.673   03 Jun 2027 15:26:10.210           287.537               Magadan1          8985.531
       270   03 Jun 2027 16:52:28.090   03 Jun 2027 16:52:36.526             8.436                Anadyr2           263.625
       271   03 Jun 2027 16:52:46.387   03 Jun 2027 16:53:24.913            38.526                Anadyr2          1203.937
       272   03 Jun 2027 16:54:34.593   03 Jun 2027 16:56:19.706           105.113               Magadan2          3284.781
       273   03 Jun 2027 16:56:38.459   03 Jun 2027 16:56:57.544            19.085               Magadan1           596.406
       274   03 Jun 2027 16:59:11.257   03 Jun 2027 16:59:50.482            39.225               Magadan1          1225.781
       275   03 Jun 2027 18:28:02.458   03 Jun 2027 18:29:37.461            95.003                Anadyr1          2968.844
       276   03 Jun 2027 18:29:47.445   03 Jun 2027 18:31:28.285           100.840                Anadyr2          3151.250
       277   03 Jun 2027 18:31:35.117   03 Jun 2027 18:33:30.386           115.269               Magadan1          3602.156
       278   03 Jun 2027 18:33:30.386   03 Jun 2027 18:33:37.271             6.885               Magadan2           215.156
       279   03 Jun 2027 18:34:21.991   03 Jun 2027 18:34:30.228             8.237               Magadan1           257.406
       280   03 Jun 2027 18:34:56.571   03 Jun 2027 18:35:03.648             7.077               Magadan1           221.156
       281   03 Jun 2027 18:35:46.582   03 Jun 2027 18:36:36.032            49.450                Norilsk          1545.313
       282   03 Jun 2027 18:36:46.360   03 Jun 2027 18:38:58.116           131.756                Irkutsk          4117.375
       283   03 Jun 2027 18:40:07.087   03 Jun 2027 18:41:40.933            93.846                Irkutsk          2932.688
       284   03 Jun 2027 18:53:23.558   03 Jun 2027 18:55:40.961           137.403                Sumatra          4293.844
       285   03 Jun 2027 20:08:20.464   03 Jun 2027 20:08:52.402            31.938                Norilsk           998.063
       286   03 Jun 2027 20:09:16.287   03 Jun 2027 20:10:06.616            50.329                Norilsk          1572.781
       287   03 Jun 2027 20:11:05.062   03 Jun 2027 20:15:14.952           249.890                Novosib          7809.062
       288   03 Jun 2027 20:17:35.454   03 Jun 2027 20:17:45.677            10.223                Novosib           319.469
       289   03 Jun 2027 20:23:37.098   03 Jun 2027 20:23:44.732             7.634                Sumatra           238.563
       290   03 Jun 2027 20:24:21.203   03 Jun 2027 20:24:52.540            31.337                Sumatra           979.281
       291   03 Jun 2027 20:32:02.186   03 Jun 2027 20:33:12.305            70.119                Sumatra          2191.219
       292   03 Jun 2027 21:42:29.753   03 Jun 2027 21:42:52.230            22.477               Magadan2           702.406
       293   03 Jun 2027 21:43:29.079   03 Jun 2027 21:43:47.596            18.517               Magadan2           578.656
       294   03 Jun 2027 21:45:46.464   03 Jun 2027 21:47:09.429            82.965                Novosib          2592.656
       295   03 Jun 2027 21:47:30.186   03 Jun 2027 21:47:42.796            12.610              Murmansk2           394.062
       296   03 Jun 2027 21:47:49.354   03 Jun 2027 21:48:41.130            51.776                Novosib          1618.000
       297   03 Jun 2027 21:53:14.898   03 Jun 2027 21:56:36.342           201.444                  Delhi          6295.125
       298   03 Jun 2027 22:04:09.215   03 Jun 2027 22:04:33.325            24.110                  Delhi           753.438
       299   03 Jun 2027 23:17:27.956   03 Jun 2027 23:18:00.454            32.498               Magadan1          1015.563
       300   03 Jun 2027 23:18:36.170   03 Jun 2027 23:19:13.129            36.959               Magadan1          1154.969
       301   03 Jun 2027 23:19:18.022   03 Jun 2027 23:19:50.770            32.748               Magadan1          1023.375
       302   03 Jun 2027 23:20:09.275   03 Jun 2027 23:24:23.498           254.223              Murmansk2          7944.469
       303   03 Jun 2027 23:24:44.903   03 Jun 2027 23:26:14.329            89.426                 Moscow          2794.562
       304   03 Jun 2027 23:26:32.146   03 Jun 2027 23:27:55.366            83.220                 Moscow          2600.625
       305   03 Jun 2027 23:52:11.502   03 Jun 2027 23:53:25.694            74.192               CapeTown          2318.500
       306   03 Jun 2027 23:55:01.023   03 Jun 2027 23:56:14.425            73.402               CapeTown          2293.813
       307   04 Jun 2027 00:56:00.314   04 Jun 2027 00:56:14.135            13.821              Murmansk2           431.906
       308   04 Jun 2027 00:56:14.135   04 Jun 2027 00:57:25.920            71.785              Murmansk1          2243.281
       309   04 Jun 2027 00:58:13.718   04 Jun 2027 00:58:30.486            16.768                Novosib           524.000
       310   04 Jun 2027 00:58:42.569   04 Jun 2027 00:58:49.171             6.602              Murmansk2           206.312
       311   04 Jun 2027 00:59:16.437   04 Jun 2027 01:01:16.263           119.826                 Moscow          3744.563
       312   04 Jun 2027 01:23:15.118   04 Jun 2027 01:24:47.495            92.377               CapeTown          2886.781
       313   04 Jun 2027 02:19:50.699   04 Jun 2027 02:20:49.651            58.952                Anadyr1          1842.250
       314   04 Jun 2027 02:21:12.977   04 Jun 2027 02:21:18.643             5.666                Anadyr2           177.062
       315   04 Jun 2027 02:21:34.316   04 Jun 2027 02:22:43.179            68.863               Magadan2          2151.969
       316   04 Jun 2027 02:23:55.550   04 Jun 2027 02:25:04.002            68.452               Magadan2          2139.125
       317   04 Jun 2027 02:31:58.225   04 Jun 2027 02:32:26.842            28.617              Murmansk2           894.281
       318   04 Jun 2027 02:33:18.669   04 Jun 2027 02:33:55.242            36.573              Murmansk1          1142.906
       319   04 Jun 2027 02:34:15.646   04 Jun 2027 02:35:06.728            51.082              Murmansk1          1596.313
       320   04 Jun 2027 02:35:16.430   04 Jun 2027 02:35:59.821            43.391                 Moscow          1355.969
       321   04 Jun 2027 02:41:41.723   04 Jun 2027 02:41:50.967             9.244                 Moscow           288.875
       322   04 Jun 2027 02:45:39.123   04 Jun 2027 02:45:43.414             4.291                 Moscow           134.094
       323   04 Jun 2027 02:46:56.015   04 Jun 2027 02:47:05.100             9.085                 Moscow           283.906
       324   04 Jun 2027 03:00:56.550   04 Jun 2027 03:02:44.421           107.871               CapeTown          3370.969
       325   04 Jun 2027 03:58:18.894   04 Jun 2027 03:58:41.755            22.861                Anadyr2           714.406
       326   04 Jun 2027 04:00:43.590   04 Jun 2027 04:03:56.445           192.855               Magadan2          6026.719
       327   04 Jun 2027 04:03:56.445   04 Jun 2027 04:06:11.488           135.043               Magadan1          4220.094
       328   04 Jun 2027 04:06:19.895   04 Jun 2027 04:07:07.200            47.305                Anadyr1          1478.281
       329   04 Jun 2027 04:07:39.291   04 Jun 2027 04:07:44.030             4.739                Anadyr2           148.094
       330   04 Jun 2027 04:47:32.512   04 Jun 2027 04:48:07.683            35.171            RioGallegos          1099.094
       331   04 Jun 2027 04:48:45.794   04 Jun 2027 04:49:43.741            57.947            RioGallegos          1810.844
       332   04 Jun 2027 04:50:41.630   04 Jun 2027 04:51:25.478            43.848            RioGallegos          1370.250
       333   04 Jun 2027 05:38:15.836   04 Jun 2027 05:43:41.387           325.551                Anadyr2         10173.469
       334   04 Jun 2027 05:43:51.846   04 Jun 2027 05:44:10.866            19.020               Magadan1           594.375
       335   04 Jun 2027 07:13:58.560   04 Jun 2027 07:14:21.788            23.228               Magadan1           725.875
       336   04 Jun 2027 07:14:50.045   04 Jun 2027 07:15:05.082            15.037               Magadan1           469.906
       337   04 Jun 2027 07:15:25.921   04 Jun 2027 07:15:40.542            14.621               Magadan2           456.906
       338   04 Jun 2027 07:15:47.832   04 Jun 2027 07:16:05.472            17.640                Novosib           551.250
       339   04 Jun 2027 07:16:05.532   04 Jun 2027 07:16:12.249             6.717               Magadan1           209.906
       340   04 Jun 2027 07:16:42.163   04 Jun 2027 07:17:41.339            59.176               Magadan2          1849.250
       341   04 Jun 2027 07:17:54.710   04 Jun 2027 07:18:10.342            15.632               Magadan2           488.500
       342   04 Jun 2027 07:19:50.632   04 Jun 2027 07:19:59.210             8.578                Novosib           268.062
       343   04 Jun 2027 07:20:27.558   04 Jun 2027 07:20:53.832            26.274              Murmansk2           821.063
       344   04 Jun 2027 07:59:30.970   04 Jun 2027 07:59:59.056            28.086            RioGallegos           877.687
       345   04 Jun 2027 08:03:30.551   04 Jun 2027 08:03:31.436             0.885            RioGallegos            27.656
       346   04 Jun 2027 08:29:37.112   04 Jun 2027 08:30:26.105            48.993                Sumatra          1531.031
       347   04 Jun 2027 08:36:27.950   04 Jun 2027 08:37:33.417            65.467                Sumatra          2045.844
       348   04 Jun 2027 08:52:11.164   04 Jun 2027 08:52:39.617            28.453              Murmansk2           889.156
       349   04 Jun 2027 08:52:54.732   04 Jun 2027 08:53:16.881            22.149                Novosib           692.156
       350   04 Jun 2027 08:53:28.002   04 Jun 2027 08:53:45.000            16.998                Novosib           531.187
       351   04 Jun 2027 08:53:47.468   04 Jun 2027 08:54:14.472            27.004                Irkutsk           843.875
       352   04 Jun 2027 08:54:18.538   04 Jun 2027 08:55:26.657            68.119                Irkutsk          2128.719
       353   04 Jun 2027 08:56:19.714   04 Jun 2027 08:56:25.777             6.063                Novosib           189.469
       354   04 Jun 2027 09:35:18.080   04 Jun 2027 09:36:09.450            51.370            RioGallegos          1605.312
       355   04 Jun 2027 09:37:12.153   04 Jun 2027 09:38:17.411            65.258            RioGallegos          2039.312
       356   04 Jun 2027 10:13:57.395   04 Jun 2027 10:15:38.664           101.269                  Delhi          3164.656
       357   04 Jun 2027 10:30:27.201   04 Jun 2027 10:30:28.657             1.456                Novosib            45.500
       358   04 Jun 2027 10:31:00.262   04 Jun 2027 10:31:08.401             8.139                Novosib           254.344
       359   04 Jun 2027 10:31:10.310   04 Jun 2027 10:31:12.680             2.370                Norilsk            74.063
       360   04 Jun 2027 10:31:32.067   04 Jun 2027 10:31:34.958             2.891                Norilsk            90.344
       361   04 Jun 2027 10:31:43.846   04 Jun 2027 10:31:55.332            11.486                Novosib           358.937
       362   04 Jun 2027 12:02:40.364   04 Jun 2027 12:03:15.337            34.973              Murmansk1          1092.906
       363   04 Jun 2027 12:03:33.847   04 Jun 2027 12:03:55.542            21.695              Murmansk1           677.969
       364   04 Jun 2027 12:05:49.677   04 Jun 2027 12:06:43.267            53.590                Norilsk          1674.687
       365   04 Jun 2027 12:08:44.150   04 Jun 2027 12:10:01.462            77.312                Norilsk          2416.000
       366   04 Jun 2027 12:10:33.707   04 Jun 2027 12:10:48.330            14.623                Norilsk           456.969
       367   04 Jun 2027 12:12:30.884   04 Jun 2027 12:12:37.401             6.517                Norilsk           203.656
       368   04 Jun 2027 13:35:39.946   04 Jun 2027 13:36:27.400            47.454                 Moscow          1482.938
       369   04 Jun 2027 13:36:40.534   04 Jun 2027 13:36:58.467            17.933                 Moscow           560.406
       370   04 Jun 2027 13:38:39.508   04 Jun 2027 13:38:44.977             5.469                 Moscow           170.906
       371   04 Jun 2027 13:38:58.247   04 Jun 2027 13:39:22.769            24.522              Murmansk1           766.312
       372   04 Jun 2027 13:40:31.276   04 Jun 2027 13:40:57.106            25.830              Murmansk2           807.188
       373   04 Jun 2027 13:41:54.379   04 Jun 2027 13:42:23.807            29.428              Murmansk1           919.625
       374   04 Jun 2027 13:42:56.663   04 Jun 2027 13:43:09.445            12.782              Murmansk1           399.437
       375   04 Jun 2027 13:44:01.394   04 Jun 2027 13:44:18.638            17.244              Murmansk1           538.875
       376   04 Jun 2027 13:45:08.716   04 Jun 2027 13:45:44.607            35.891              Murmansk1          1121.594
       377   04 Jun 2027 13:47:59.139   04 Jun 2027 13:48:09.689            10.550              Murmansk1           329.687
       378   04 Jun 2027 13:48:31.019   04 Jun 2027 13:48:36.445             5.426              Murmansk1           169.562
       379   04 Jun 2027 13:52:44.017   04 Jun 2027 13:55:22.816           158.799                Anadyr1          4962.469
       380   04 Jun 2027 13:55:38.694   04 Jun 2027 13:57:32.808           114.114                Anadyr2          3566.062
       381   04 Jun 2027 15:18:11.413   04 Jun 2027 15:20:17.114           125.701              Murmansk1          3928.156
       382   04 Jun 2027 15:22:32.760   04 Jun 2027 15:22:36.340             3.580              Murmansk1           111.875
       383   04 Jun 2027 15:23:12.919   04 Jun 2027 15:24:07.365            54.446              Murmansk1          1701.438
       384   04 Jun 2027 15:28:17.122   04 Jun 2027 15:29:04.592            47.470                Anadyr1          1483.438
       385   04 Jun 2027 15:30:29.760   04 Jun 2027 15:30:44.657            14.897                Anadyr2           465.531
       386   04 Jun 2027 15:31:07.651   04 Jun 2027 15:31:08.345             0.694                Anadyr1            21.688
       387   04 Jun 2027 15:31:19.420   04 Jun 2027 15:31:33.549            14.129                Anadyr2           441.531
       388   04 Jun 2027 15:31:40.220   04 Jun 2027 15:35:13.388           213.168               Magadan1          6661.500
       389   04 Jun 2027 15:35:19.880   04 Jun 2027 15:36:39.926            80.046               Magadan2          2501.438
       390   04 Jun 2027 17:04:11.694   04 Jun 2027 17:05:23.076            71.382                Anadyr2          2230.688
       391   04 Jun 2027 17:06:10.004   04 Jun 2027 17:06:13.591             3.587                Anadyr2           112.094
       392   04 Jun 2027 17:06:32.708   04 Jun 2027 17:06:40.008             7.300                Anadyr2           228.125
       393   04 Jun 2027 17:07:17.110   04 Jun 2027 17:08:26.697            69.587               Magadan2          2174.594
       394   04 Jun 2027 17:08:40.398   04 Jun 2027 17:09:02.572            22.174               Magadan1           692.938
       395   04 Jun 2027 17:09:28.728   04 Jun 2027 17:09:46.703            17.975               Magadan1           561.719
       396   04 Jun 2027 17:13:52.971   04 Jun 2027 17:14:06.258            13.287               Magadan2           415.219
       397   04 Jun 2027 17:14:18.885   04 Jun 2027 17:14:25.153             6.268               Magadan1           195.875
       398   04 Jun 2027 17:18:02.785   04 Jun 2027 17:18:11.269             8.484               Magadan2           265.125
       399   04 Jun 2027 18:01:50.460   04 Jun 2027 18:03:27.891            97.431            RioGallegos          3044.719
       400   04 Jun 2027 18:03:59.746   04 Jun 2027 18:04:06.240             6.494            RioGallegos           202.937
       401   04 Jun 2027 18:40:02.197   04 Jun 2027 18:41:38.541            96.344                Anadyr1          3010.750
       402   04 Jun 2027 18:41:48.431   04 Jun 2027 18:42:41.223            52.792                Anadyr2          1649.750
       403   04 Jun 2027 18:42:56.042   04 Jun 2027 18:43:55.400            59.358               Magadan2          1854.938
       404   04 Jun 2027 18:44:55.860   04 Jun 2027 18:46:16.549            80.689                Norilsk          2521.531
       405   04 Jun 2027 18:46:54.272   04 Jun 2027 18:47:57.225            62.953                Norilsk          1967.281
       406   04 Jun 2027 18:48:50.027   04 Jun 2027 18:50:44.901           114.874                Irkutsk          3589.813
       407   04 Jun 2027 18:52:18.613   04 Jun 2027 18:53:42.415            83.802                Irkutsk          2618.812
       408   04 Jun 2027 19:03:10.360   04 Jun 2027 19:04:53.688           103.328                Sumatra          3229.000
       409   04 Jun 2027 19:07:00.579   04 Jun 2027 19:08:16.048            75.469                Sumatra          2358.406
       410   04 Jun 2027 19:09:31.688   04 Jun 2027 19:09:47.010            15.322                Sumatra           478.812
       411   04 Jun 2027 20:21:53.665   04 Jun 2027 20:22:38.179            44.514                Irkutsk          1391.062
       412   04 Jun 2027 20:22:46.875   04 Jun 2027 20:24:44.260           117.385                Novosib          3668.281
       413   04 Jun 2027 20:27:32.212   04 Jun 2027 20:28:18.798            46.586                Novosib          1455.813
       414   04 Jun 2027 20:29:37.233   04 Jun 2027 20:30:23.553            46.320                Novosib          1447.500
       415   04 Jun 2027 20:35:38.527   04 Jun 2027 20:35:41.717             3.190                Sumatra            99.687
       416   04 Jun 2027 20:40:25.370   04 Jun 2027 20:41:14.826            49.456                Sumatra          1545.500
       417   04 Jun 2027 21:54:30.247   04 Jun 2027 21:55:19.065            48.818               Magadan2          1525.562
       418   04 Jun 2027 21:57:15.926   04 Jun 2027 22:01:11.876           235.950              Murmansk1          7373.438
       419   04 Jun 2027 22:05:08.477   04 Jun 2027 22:06:30.890            82.413                  Delhi          2575.406
       420   04 Jun 2027 22:13:11.470   04 Jun 2027 22:14:40.459            88.989                  Delhi          2780.906
       421   04 Jun 2027 23:29:07.358   04 Jun 2027 23:30:38.512            91.154               Magadan1          2848.562
       422   04 Jun 2027 23:30:46.555   04 Jun 2027 23:31:17.133            30.578               Magadan1           955.563
       423   04 Jun 2027 23:32:08.685   04 Jun 2027 23:34:55.927           167.242              Murmansk1          5226.312
       424   04 Jun 2027 23:35:30.134   04 Jun 2027 23:37:00.328            90.194              Murmansk1          2818.563
       425   04 Jun 2027 23:37:01.960   04 Jun 2027 23:38:37.496            95.536                 Moscow          2985.500
       426   05 Jun 2027 00:02:55.308   05 Jun 2027 00:04:51.291           115.983               CapeTown          3624.469
       427   05 Jun 2027 00:07:28.700   05 Jun 2027 00:07:59.531            30.831               CapeTown           963.469
       428   05 Jun 2027 00:09:58.222   05 Jun 2027 00:10:14.399            16.177               CapeTown           505.531
       429   05 Jun 2027 01:04:36.467   05 Jun 2027 01:06:09.516            93.049               Magadan2          2907.781
       430   05 Jun 2027 01:09:21.038   05 Jun 2027 01:09:32.863            11.825              Murmansk2           369.531
       431   05 Jun 2027 01:10:17.872   05 Jun 2027 01:10:27.468             9.596              Murmansk1           299.875
       432   05 Jun 2027 01:10:48.506   05 Jun 2027 01:11:16.675            28.169              Murmansk2           880.281
       433   05 Jun 2027 01:12:01.442   05 Jun 2027 01:12:14.066            12.624              Murmansk2           394.500
       434   05 Jun 2027 01:13:08.958   05 Jun 2027 01:13:32.096            23.138                 Moscow           723.063
       435   05 Jun 2027 01:14:52.291   05 Jun 2027 01:15:00.768             8.477                 Moscow           264.906
       436   05 Jun 2027 01:18:42.693   05 Jun 2027 01:18:45.645             2.952                 Moscow            92.250
       437   05 Jun 2027 01:19:30.674   05 Jun 2027 01:19:44.103            13.429                 Moscow           419.656
       438   05 Jun 2027 01:19:56.238   05 Jun 2027 01:19:58.325             2.087                 Moscow            65.219
       439   05 Jun 2027 01:20:27.145   05 Jun 2027 01:20:50.999            23.854                 Moscow           745.437
       440   05 Jun 2027 01:35:09.896   05 Jun 2027 01:35:43.610            33.714               CapeTown          1053.563
       441   05 Jun 2027 01:37:39.823   05 Jun 2027 01:37:58.008            18.185               CapeTown           568.281
       442   05 Jun 2027 01:39:11.691   05 Jun 2027 01:39:31.031            19.340               CapeTown           604.375
       443   05 Jun 2027 01:41:52.124   05 Jun 2027 01:42:24.989            32.865               CapeTown          1027.031
       444   05 Jun 2027 02:31:52.304   05 Jun 2027 02:33:03.108            70.804                Anadyr1          2212.625
       445   05 Jun 2027 02:33:10.121   05 Jun 2027 02:33:34.510            24.389                Anadyr2           762.156
       446   05 Jun 2027 02:33:45.576   05 Jun 2027 02:35:05.138            79.562               Magadan2          2486.312
       447   05 Jun 2027 02:35:23.621   05 Jun 2027 02:36:11.002            47.381               Magadan1          1480.656
       448   05 Jun 2027 02:43:59.422   05 Jun 2027 02:45:08.262            68.840              Murmansk1          2151.250
       449   05 Jun 2027 02:46:24.079   05 Jun 2027 02:46:27.994             3.915              Murmansk1           122.344
       450   05 Jun 2027 02:47:05.319   05 Jun 2027 02:47:19.460            14.141              Murmansk1           441.906
       451   05 Jun 2027 02:47:20.610   05 Jun 2027 02:48:30.053            69.443                 Moscow          2170.094
       452   05 Jun 2027 02:51:30.340   05 Jun 2027 02:51:42.966            12.626                 Moscow           394.563
       453   05 Jun 2027 02:55:30.279   05 Jun 2027 02:56:18.742            48.463                 Moscow          1514.469
       454   05 Jun 2027 03:13:50.038   05 Jun 2027 03:14:05.591            15.553               CapeTown           486.031
       455   05 Jun 2027 03:17:36.728   05 Jun 2027 03:17:49.739            13.011               CapeTown           406.594
       456   05 Jun 2027 04:14:19.091   05 Jun 2027 04:15:16.780            57.689               Magadan2          1802.781
       457   05 Jun 2027 04:15:53.103   05 Jun 2027 04:19:10.840           197.737               Magadan1          6179.281
       458   05 Jun 2027 04:19:22.480   05 Jun 2027 04:20:18.894            56.414                Anadyr2          1762.938
       459   05 Jun 2027 04:58:48.285   05 Jun 2027 05:01:13.598           145.313            RioGallegos          4541.031
       460   05 Jun 2027 05:50:05.382   05 Jun 2027 05:52:29.376           143.994                Anadyr1          4499.812
       461   05 Jun 2027 05:52:46.391   05 Jun 2027 05:55:22.860           156.469                Anadyr2          4889.656
       462   05 Jun 2027 05:55:51.887   05 Jun 2027 05:56:01.889            10.002                Norilsk           312.563
       463   05 Jun 2027 05:56:01.975   05 Jun 2027 05:56:08.200             6.225               Magadan1           194.531
       464   05 Jun 2027 05:56:12.807   05 Jun 2027 05:56:17.728             4.921                Novosib           153.781
       465   05 Jun 2027 07:25:57.558   05 Jun 2027 07:26:24.669            27.111               Magadan2           847.219
       466   05 Jun 2027 07:26:31.419   05 Jun 2027 07:27:00.074            28.655               Magadan1           895.469
       467   05 Jun 2027 07:27:58.288   05 Jun 2027 07:28:14.028            15.740                Irkutsk           491.875
       468   05 Jun 2027 07:28:14.912   05 Jun 2027 07:28:52.714            37.802               Magadan2          1181.313
       469   05 Jun 2027 07:28:59.379   05 Jun 2027 07:29:38.061            38.682               Magadan2          1208.813
       470   05 Jun 2027 07:29:41.072   05 Jun 2027 07:29:56.920            15.848               Magadan1           495.250
       471   05 Jun 2027 07:31:49.473   05 Jun 2027 07:32:33.081            43.608                Novosib          1362.750
       472   05 Jun 2027 08:11:33.247   05 Jun 2027 08:11:53.049            19.802            RioGallegos           618.812
       473   05 Jun 2027 08:13:41.480   05 Jun 2027 08:14:06.473            24.993            RioGallegos           781.031
       474   05 Jun 2027 08:41:41.353   05 Jun 2027 08:43:02.874            81.521                Sumatra          2547.531
       475   05 Jun 2027 09:03:50.219   05 Jun 2027 09:04:30.294            40.075                Irkutsk          1252.344
       476   05 Jun 2027 09:05:12.793   05 Jun 2027 09:05:39.405            26.612                Irkutsk           831.625
       477   05 Jun 2027 09:05:41.242   05 Jun 2027 09:05:59.075            17.833                Irkutsk           557.281
       478   05 Jun 2027 09:06:13.984   05 Jun 2027 09:06:25.757            11.773                Irkutsk           367.906
       479   05 Jun 2027 09:07:31.879   05 Jun 2027 09:07:35.675             3.796                Irkutsk           118.625
       480   05 Jun 2027 09:08:14.211   05 Jun 2027 09:08:16.410             2.199                Novosib            68.719
       481   05 Jun 2027 09:49:02.751   05 Jun 2027 09:50:09.047            66.296            RioGallegos          2071.750
       482   05 Jun 2027 09:50:36.099   05 Jun 2027 09:50:47.370            11.271            RioGallegos           352.219
