uniorb/output/strategy_4/Drop/Drop_KinoSat_110909.txt

KinoSat_110909
-------------------------
    Access    *     Start Time (UTCG)     *     Stop Time (UTCG)  *   Duration (s)        *       Station  *  Data (Mbytes)
         1   01 Jun 2027 04:28:07.825   01 Jun 2027 04:28:35.993            28.168                Anadyr1           880.250
         2   01 Jun 2027 04:29:16.393   01 Jun 2027 04:29:53.992            37.599               Magadan2          1174.969
         3   01 Jun 2027 04:30:02.398   01 Jun 2027 04:32:22.876           140.478                Anadyr1          4389.937
         4   01 Jun 2027 04:32:50.922   01 Jun 2027 04:33:19.062            28.140               Magadan1           879.375
         5   01 Jun 2027 04:33:19.062   01 Jun 2027 04:35:24.229           125.167               Magadan2          3911.469
         6   01 Jun 2027 06:04:01.692   01 Jun 2027 06:08:31.229           269.537               Magadan2          8423.031
         7   01 Jun 2027 06:08:31.229   01 Jun 2027 06:08:50.458            19.229               Magadan1           600.906
         8   01 Jun 2027 06:08:51.840   01 Jun 2027 06:09:52.683            60.843                Anadyr2          1901.344
         9   01 Jun 2027 06:10:19.687   01 Jun 2027 06:10:45.463            25.776                Anadyr2           805.500
        10   01 Jun 2027 06:10:49.878   01 Jun 2027 06:11:13.121            23.243                Novosib           726.344
        11   01 Jun 2027 06:46:30.371   01 Jun 2027 06:47:43.470            73.099            RioGallegos          2284.344
        12   01 Jun 2027 07:25:31.118   01 Jun 2027 07:26:16.553            45.435                Sumatra          1419.844
        13   01 Jun 2027 07:28:34.388   01 Jun 2027 07:29:13.928            39.540                Sumatra          1235.625
        14   01 Jun 2027 07:41:59.187   01 Jun 2027 07:42:33.051            33.864               Magadan1          1058.250
        15   01 Jun 2027 07:42:33.051   01 Jun 2027 07:43:13.481            40.430               Magadan2          1263.438
        16   01 Jun 2027 07:43:25.425   01 Jun 2027 07:45:06.277           100.852               Magadan1          3151.625
        17   01 Jun 2027 07:45:06.277   01 Jun 2027 07:45:28.795            22.518               Magadan2           703.687
        18   01 Jun 2027 07:45:31.433   01 Jun 2027 07:47:04.819            93.386                Novosib          2918.313
        19   01 Jun 2027 08:56:37.395   01 Jun 2027 08:57:10.312            32.917                Sumatra          1028.656
        20   01 Jun 2027 08:58:04.482   01 Jun 2027 08:59:24.932            80.450                Sumatra          2514.062
        21   01 Jun 2027 09:06:52.423   01 Jun 2027 09:07:58.816            66.393                  Delhi          2074.781
        22   01 Jun 2027 09:16:47.069   01 Jun 2027 09:16:47.378             0.309                  Delhi             9.656
        23   01 Jun 2027 09:20:13.112   01 Jun 2027 09:22:44.779           151.667                Irkutsk          4739.594
        24   01 Jun 2027 09:22:52.109   01 Jun 2027 09:23:50.469            58.360              Murmansk2          1823.750
        25   01 Jun 2027 09:23:50.469   01 Jun 2027 09:25:57.547           127.078              Murmansk1          3971.188
        26   01 Jun 2027 09:26:19.803   01 Jun 2027 09:28:01.358           101.555                Norilsk          3173.594
        27   01 Jun 2027 09:28:11.046   01 Jun 2027 09:30:10.759           119.713              Murmansk2          3741.031
        28   01 Jun 2027 10:02:00.922   01 Jun 2027 10:05:25.047           204.125            RioGallegos          6378.906
        29   01 Jun 2027 10:05:35.896   01 Jun 2027 10:05:42.930             7.034            RioGallegos           219.812
        30   01 Jun 2027 10:40:55.444   01 Jun 2027 10:41:52.752            57.308                  Delhi          1790.875
        31   01 Jun 2027 10:45:31.366   01 Jun 2027 10:46:25.756            54.390                  Delhi          1699.688
        32   01 Jun 2027 10:46:53.141   01 Jun 2027 10:47:28.620            35.479                  Delhi          1108.719
        33   01 Jun 2027 10:56:31.141   01 Jun 2027 10:57:25.376            54.235                Novosib          1694.844
        34   01 Jun 2027 10:58:01.252   01 Jun 2027 10:58:57.455            56.203              Murmansk2          1756.344
        35   01 Jun 2027 10:58:59.232   01 Jun 2027 11:01:56.240           177.008                 Moscow          5531.500
        36   01 Jun 2027 11:02:36.112   01 Jun 2027 11:03:49.747            73.635                Norilsk          2301.094
        37   01 Jun 2027 12:25:13.773   01 Jun 2027 12:26:08.216            54.443                 Moscow          1701.344
        38   01 Jun 2027 12:27:05.400   01 Jun 2027 12:30:06.847           181.447                 Moscow          5670.219
        39   01 Jun 2027 12:30:29.216   01 Jun 2027 12:32:13.551           104.335              Murmansk2          3260.469
        40   01 Jun 2027 12:32:13.551   01 Jun 2027 12:32:55.889            42.338              Murmansk1          1323.062
        41   01 Jun 2027 12:36:04.350   01 Jun 2027 12:36:40.452            36.102                Norilsk          1128.188
        42   01 Jun 2027 12:37:48.197   01 Jun 2027 12:38:06.829            18.632                Norilsk           582.250
        43   01 Jun 2027 13:39:52.006   01 Jun 2027 13:42:44.627           172.621               CapeTown          5394.406
        44   01 Jun 2027 13:43:42.564   01 Jun 2027 13:44:45.973            63.409               CapeTown          1981.531
        45   01 Jun 2027 13:45:32.984   01 Jun 2027 13:46:36.745            63.761               CapeTown          1992.531
        46   01 Jun 2027 14:05:43.370   01 Jun 2027 14:06:33.230            49.860              Murmansk1          1558.125
        47   01 Jun 2027 14:06:36.180   01 Jun 2027 14:07:50.325            74.145              Murmansk2          2317.031
        48   01 Jun 2027 14:07:59.000   01 Jun 2027 14:08:23.178            24.178              Murmansk2           755.562
        49   01 Jun 2027 14:19:45.576   01 Jun 2027 14:22:19.716           154.140                Anadyr1          4816.875
        50   01 Jun 2027 15:14:42.865   01 Jun 2027 15:16:32.782           109.917               CapeTown          3434.906
        51   01 Jun 2027 15:45:02.731   01 Jun 2027 15:46:46.537           103.806              Murmansk2          3243.938
        52   01 Jun 2027 15:46:46.537   01 Jun 2027 15:47:30.215            43.678              Murmansk1          1364.937
        53   01 Jun 2027 15:55:17.402   01 Jun 2027 15:56:04.537            47.135                Anadyr2          1472.969
        54   01 Jun 2027 15:56:50.034   01 Jun 2027 15:57:06.448            16.414                Anadyr1           512.937
        55   01 Jun 2027 15:57:32.369   01 Jun 2027 15:57:47.799            15.430                Anadyr2           482.188
        56   01 Jun 2027 15:58:05.894   01 Jun 2027 15:58:14.132             8.238                Anadyr2           257.438
        57   01 Jun 2027 15:58:21.886   01 Jun 2027 15:58:30.189             8.303                Anadyr2           259.469
        58   01 Jun 2027 15:58:44.682   01 Jun 2027 16:01:56.789           192.107               Magadan2          6003.344
        59   01 Jun 2027 16:04:31.303   01 Jun 2027 16:05:29.746            58.443               Magadan2          1826.344
        60   01 Jun 2027 17:31:11.873   01 Jun 2027 17:32:53.524           101.651                Anadyr2          3176.594
        61   01 Jun 2027 17:32:58.772   01 Jun 2027 17:34:04.753            65.981                Anadyr1          2061.906
        62   01 Jun 2027 17:34:26.848   01 Jun 2027 17:34:58.723            31.875                Anadyr2           996.094
        63   01 Jun 2027 17:35:05.921   01 Jun 2027 17:35:36.856            30.935               Magadan1           966.719
        64   01 Jun 2027 17:35:50.037   01 Jun 2027 17:37:31.107           101.070               Magadan2          3158.438
        65   01 Jun 2027 17:38:11.010   01 Jun 2027 17:39:36.051            85.041               Magadan1          2657.531
        66   01 Jun 2027 19:07:02.856   01 Jun 2027 19:08:49.044           106.188                Anadyr1          3318.375
        67   01 Jun 2027 19:08:56.662   01 Jun 2027 19:11:01.026           124.364                Anadyr2          3886.375
        68   01 Jun 2027 19:11:04.521   01 Jun 2027 19:12:14.144            69.623               Magadan1          2175.719
        69   01 Jun 2027 19:12:31.965   01 Jun 2027 19:12:49.126            17.161               Magadan1           536.281
        70   01 Jun 2027 19:12:49.126   01 Jun 2027 19:13:31.392            42.266               Magadan2          1320.812
        71   01 Jun 2027 19:14:39.354   01 Jun 2027 19:17:43.850           184.496                Irkutsk          5765.500
        72   01 Jun 2027 19:20:04.852   01 Jun 2027 19:21:12.555            67.703                Irkutsk          2115.719
        73   01 Jun 2027 19:30:31.579   01 Jun 2027 19:31:59.380            87.801                Sumatra          2743.781
        74   01 Jun 2027 19:34:46.195   01 Jun 2027 19:36:28.163           101.968                Sumatra          3186.500
        75   01 Jun 2027 20:45:33.032   01 Jun 2027 20:45:56.065            23.033                Norilsk           719.781
        76   01 Jun 2027 20:46:20.122   01 Jun 2027 20:46:41.736            21.614                Norilsk           675.437
        77   01 Jun 2027 20:48:54.557   01 Jun 2027 20:50:14.177            79.620                Irkutsk          2488.125
        78   01 Jun 2027 20:51:08.948   01 Jun 2027 20:54:09.608           180.660                Novosib          5645.625
        79   01 Jun 2027 21:02:38.173   01 Jun 2027 21:03:00.513            22.340                Sumatra           698.125
        80   01 Jun 2027 22:17:05.169   01 Jun 2027 22:17:11.505             6.336                Anadyr1           198.000
        81   01 Jun 2027 22:18:03.534   01 Jun 2027 22:18:28.370            24.836                Anadyr2           776.125
        82   01 Jun 2027 22:21:30.974   01 Jun 2027 22:22:13.927            42.953               Magadan1          1342.281
        83   01 Jun 2027 22:23:11.890   01 Jun 2027 22:23:50.414            38.524               Magadan2          1203.875
        84   01 Jun 2027 22:24:22.431   01 Jun 2027 22:27:55.510           213.079              Murmansk1          6658.719
        85   01 Jun 2027 22:32:10.078   01 Jun 2027 22:33:35.398            85.320                  Delhi          2666.250
        86   01 Jun 2027 22:40:14.927   01 Jun 2027 22:41:41.430            86.503                  Delhi          2703.219
        87   01 Jun 2027 23:52:39.927   01 Jun 2027 23:52:48.716             8.789                Anadyr1           274.656
        88   01 Jun 2027 23:55:37.276   01 Jun 2027 23:55:46.833             9.557                Anadyr1           298.656
        89   01 Jun 2027 23:56:13.512   01 Jun 2027 23:57:22.584            69.072               Magadan2          2158.500
        90   01 Jun 2027 23:57:43.758   01 Jun 2027 23:58:31.017            47.259               Magadan1          1476.844
        91   01 Jun 2027 23:58:46.504   01 Jun 2027 23:58:58.605            12.101               Magadan1           378.156
        92   01 Jun 2027 23:59:09.092   02 Jun 2027 00:01:11.571           122.479              Murmansk2          3827.469
        93   02 Jun 2027 00:01:11.571   02 Jun 2027 00:02:04.421            52.850              Murmansk1          1651.563
        94   02 Jun 2027 00:02:50.880   02 Jun 2027 00:04:40.083           109.203              Murmansk1          3412.594
        95   02 Jun 2027 00:04:42.225   02 Jun 2027 00:05:09.520            27.295                 Moscow           852.969
        96   02 Jun 2027 00:09:42.559   02 Jun 2027 00:10:16.774            34.215                 Moscow          1069.219
        97   02 Jun 2027 00:30:11.120   02 Jun 2027 00:31:57.840           106.720               CapeTown          3335.000
        98   02 Jun 2027 00:32:36.174   02 Jun 2027 00:33:33.978            57.804               CapeTown          1806.375
        99   02 Jun 2027 01:28:01.123   02 Jun 2027 01:29:20.108            78.985               Magadan2          2468.281
       100   02 Jun 2027 01:31:47.616   02 Jun 2027 01:32:45.542            57.926               Magadan1          1810.188
       101   02 Jun 2027 01:35:01.994   02 Jun 2027 01:35:59.950            57.956              Murmansk2          1811.125
       102   02 Jun 2027 01:35:59.950   02 Jun 2027 01:36:43.150            43.200              Murmansk1          1350.000
       103   02 Jun 2027 01:37:45.703   02 Jun 2027 01:38:03.187            17.484                Novosib           546.375
       104   02 Jun 2027 01:39:39.925   02 Jun 2027 01:39:49.745             9.820                Novosib           306.875
       105   02 Jun 2027 01:42:11.494   02 Jun 2027 01:42:52.761            41.267                 Moscow          1289.594
       106   02 Jun 2027 01:49:34.397   02 Jun 2027 01:49:42.010             7.613                 Moscow           237.906
       107   02 Jun 2027 02:02:11.150   02 Jun 2027 02:02:27.599            16.449               CapeTown           514.031
       108   02 Jun 2027 02:02:56.378   02 Jun 2027 02:03:36.489            40.111               CapeTown          1253.469
       109   02 Jun 2027 02:10:31.630   02 Jun 2027 02:10:48.296            16.666               CapeTown           520.812
       110   02 Jun 2027 02:11:54.045   02 Jun 2027 02:12:59.840            65.795               CapeTown          2056.094
       111   02 Jun 2027 02:58:52.237   02 Jun 2027 03:00:04.636            72.399                Anadyr1          2262.469
       112   02 Jun 2027 03:00:04.636   02 Jun 2027 03:00:18.807            14.171                Anadyr2           442.844
       113   02 Jun 2027 03:01:02.078   02 Jun 2027 03:01:15.941            13.863               Magadan1           433.219
       114   02 Jun 2027 03:05:00.578   02 Jun 2027 03:05:38.710            38.132               Magadan2          1191.625
       115   02 Jun 2027 03:05:38.710   02 Jun 2027 03:06:38.322            59.612               Magadan1          1862.875
       116   02 Jun 2027 03:06:48.507   02 Jun 2027 03:08:52.326           123.819                Anadyr1          3869.344
       117   02 Jun 2027 03:09:04.438   02 Jun 2027 03:09:28.906            24.468               Magadan2           764.625
       118   02 Jun 2027 03:09:38.978   02 Jun 2027 03:09:41.360             2.382               Magadan2            74.437
       119   02 Jun 2027 04:40:48.081   02 Jun 2027 04:43:27.490           159.409                Anadyr1          4981.531
       120   02 Jun 2027 04:43:27.490   02 Jun 2027 04:43:38.423            10.933                Anadyr2           341.656
       121   02 Jun 2027 04:44:07.109   02 Jun 2027 04:44:45.183            38.074               Magadan2          1189.813
       122   02 Jun 2027 04:44:45.183   02 Jun 2027 04:45:10.541            25.358               Magadan1           792.438
       123   02 Jun 2027 04:45:35.612   02 Jun 2027 04:45:53.586            17.974                Anadyr2           561.688
       124   02 Jun 2027 06:16:55.299   02 Jun 2027 06:19:15.982           140.683               Magadan2          4396.344
       125   02 Jun 2027 06:19:26.332   02 Jun 2027 06:19:33.198             6.866               Magadan1           214.563
       126   02 Jun 2027 06:19:39.138   02 Jun 2027 06:20:58.654            79.516                Irkutsk          2484.875
       127   02 Jun 2027 06:21:08.700   02 Jun 2027 06:22:29.377            80.677               Magadan1          2521.156
       128   02 Jun 2027 06:22:57.295   02 Jun 2027 06:23:32.087            34.792                Novosib          1087.250
       129   02 Jun 2027 06:25:56.595   02 Jun 2027 06:26:52.693            56.098                Norilsk          1753.063
       130   02 Jun 2027 07:54:17.391   02 Jun 2027 07:55:59.780           102.389               Magadan1          3199.656
       131   02 Jun 2027 07:55:59.780   02 Jun 2027 07:56:14.164            14.384               Magadan2           449.500
       132   02 Jun 2027 07:56:52.023   02 Jun 2027 07:57:09.208            17.185               Magadan1           537.031
       133   02 Jun 2027 07:58:22.795   02 Jun 2027 07:59:08.030            45.235                Irkutsk          1413.594
       134   02 Jun 2027 07:59:35.587   02 Jun 2027 07:59:57.412            21.825              Murmansk2           682.031
       135   02 Jun 2027 08:34:08.968   02 Jun 2027 08:34:59.197            50.229            RioGallegos          1569.656
       136   02 Jun 2027 08:35:26.552   02 Jun 2027 08:36:26.238            59.686            RioGallegos          1865.188
       137   02 Jun 2027 08:37:34.208   02 Jun 2027 08:38:00.287            26.079            RioGallegos           814.969
       138   02 Jun 2027 08:38:43.695   02 Jun 2027 08:39:26.289            42.594            RioGallegos          1331.062
       139   02 Jun 2027 09:08:40.357   02 Jun 2027 09:09:17.664            37.307                Sumatra          1165.844
       140   02 Jun 2027 09:10:02.905   02 Jun 2027 09:10:59.671            56.766                Sumatra          1773.937
       141   02 Jun 2027 09:12:54.533   02 Jun 2027 09:14:18.278            83.745                Sumatra          2617.031
       142   02 Jun 2027 09:29:02.654   02 Jun 2027 09:29:05.620             2.966                Irkutsk            92.687
       143   02 Jun 2027 09:29:10.314   02 Jun 2027 09:29:35.647            25.333                Norilsk           791.656
       144   02 Jun 2027 09:29:37.392   02 Jun 2027 09:30:36.795            59.403                Irkutsk          1856.344
       145   02 Jun 2027 09:30:56.438   02 Jun 2027 09:31:42.068            45.630                Irkutsk          1425.937
       146   02 Jun 2027 09:32:00.281   02 Jun 2027 09:32:11.065            10.784                Novosib           337.000
       147   02 Jun 2027 09:32:37.248   02 Jun 2027 09:32:40.456             3.208                Norilsk           100.250
       148   02 Jun 2027 09:32:50.975   02 Jun 2027 09:32:55.588             4.613                Irkutsk           144.156
       149   02 Jun 2027 09:33:07.809   02 Jun 2027 09:33:13.706             5.897                Irkutsk           184.281
       150   02 Jun 2027 09:33:18.039   02 Jun 2027 09:33:18.202             0.163                Novosib             5.094
       151   02 Jun 2027 09:33:18.548   02 Jun 2027 09:34:17.036            58.488                Novosib          1827.750
       152   02 Jun 2027 09:35:06.476   02 Jun 2027 09:35:11.529             5.053                Novosib           157.906
       153   02 Jun 2027 10:15:31.304   02 Jun 2027 10:16:31.584            60.280            RioGallegos          1883.750
       154   02 Jun 2027 10:17:17.365   02 Jun 2027 10:17:43.964            26.599            RioGallegos           831.219
       155   02 Jun 2027 10:53:23.838   02 Jun 2027 10:54:42.313            78.475                  Delhi          2452.344
       156   02 Jun 2027 11:07:29.910   02 Jun 2027 11:08:21.341            51.431                Novosib          1607.219
       157   02 Jun 2027 11:09:17.485   02 Jun 2027 11:09:18.007             0.522                Novosib            16.312
       158   02 Jun 2027 11:10:26.173   02 Jun 2027 11:11:07.389            41.216                Novosib          1288.000
       159   02 Jun 2027 12:37:14.438   02 Jun 2027 12:39:43.483           149.045                 Moscow          4657.656
       160   02 Jun 2027 12:39:57.697   02 Jun 2027 12:40:33.245            35.548                 Moscow          1110.875
       161   02 Jun 2027 12:40:43.757   02 Jun 2027 12:42:44.456           120.699              Murmansk2          3771.844
       162   02 Jun 2027 12:42:46.447   02 Jun 2027 12:43:50.211            63.764              Murmansk2          1992.625
       163   02 Jun 2027 13:51:30.711   02 Jun 2027 13:53:53.122           142.411               CapeTown          4450.344
       164   02 Jun 2027 13:54:59.181   02 Jun 2027 13:56:35.049            95.868               CapeTown          2995.875
       165   02 Jun 2027 13:56:56.756   02 Jun 2027 13:57:01.083             4.327               CapeTown           135.219
       166   02 Jun 2027 14:18:01.775   02 Jun 2027 14:18:42.993            41.218              Murmansk2          1288.063
       167   02 Jun 2027 14:19:51.779   02 Jun 2027 14:21:40.106           108.327              Murmansk1          3385.219
       168   02 Jun 2027 14:31:40.748   02 Jun 2027 14:34:09.046           148.298                Anadyr2          4634.312
       169   02 Jun 2027 14:40:28.454   02 Jun 2027 14:41:12.377            43.923                Anadyr1          1372.594
       170   02 Jun 2027 15:57:42.916   02 Jun 2027 15:59:36.114           113.198              Murmansk1          3537.437
       171   02 Jun 2027 15:59:55.490   02 Jun 2027 16:00:24.193            28.703              Murmansk1           896.969
       172   02 Jun 2027 16:07:18.100   02 Jun 2027 16:09:05.313           107.213                Anadyr1          3350.406
       173   02 Jun 2027 16:10:07.149   02 Jun 2027 16:10:53.745            46.596                Anadyr2          1456.125
       174   02 Jun 2027 16:11:46.980   02 Jun 2027 16:15:28.869           221.889               Magadan1          6934.031
       175   02 Jun 2027 16:15:28.869   02 Jun 2027 16:16:33.659            64.790               Magadan2          2024.688
       176   02 Jun 2027 17:43:13.212   02 Jun 2027 17:44:12.556            59.344                Anadyr1          1854.500
       177   02 Jun 2027 17:44:42.989   02 Jun 2027 17:44:54.897            11.908                Anadyr1           372.125
       178   02 Jun 2027 17:45:32.837   02 Jun 2027 17:47:28.604           115.767               Magadan2          3617.719
       179   02 Jun 2027 17:48:59.069   02 Jun 2027 17:49:20.782            21.713               Magadan2           678.531
       180   02 Jun 2027 18:39:39.341   02 Jun 2027 18:42:09.649           150.308            RioGallegos          4697.125
       181   02 Jun 2027 19:19:02.303   02 Jun 2027 19:20:49.979           107.676                Anadyr2          3364.875
       182   02 Jun 2027 19:21:14.274   02 Jun 2027 19:23:13.960           119.686                Norilsk          3740.188
       183   02 Jun 2027 19:23:23.812   02 Jun 2027 19:24:34.012            70.200                Norilsk          2193.750
       184   02 Jun 2027 19:26:13.060   02 Jun 2027 19:27:33.954            80.894                Irkutsk          2527.938
       185   02 Jun 2027 19:27:39.243   02 Jun 2027 19:29:42.051           122.808                Irkutsk          3837.750
       186   02 Jun 2027 19:30:09.480   02 Jun 2027 19:31:02.918            53.438                Irkutsk          1669.938
       187   02 Jun 2027 19:32:11.443   02 Jun 2027 19:33:21.211            69.768                Irkutsk          2180.250
       188   02 Jun 2027 19:41:17.143   02 Jun 2027 19:43:32.349           135.206                Sumatra          4225.188
       189   02 Jun 2027 19:45:18.002   02 Jun 2027 19:45:25.737             7.735                Sumatra           241.719
       190   02 Jun 2027 20:57:58.560   02 Jun 2027 20:58:11.219            12.659                Norilsk           395.594
       191   02 Jun 2027 21:01:36.571   02 Jun 2027 21:03:12.145            95.574                Novosib          2986.688
       192   02 Jun 2027 21:11:54.599   02 Jun 2027 21:13:28.650            94.051                  Delhi          2939.094
       193   02 Jun 2027 21:15:41.435   02 Jun 2027 21:16:42.210            60.775                  Delhi          1899.219
       194   02 Jun 2027 22:33:30.856   02 Jun 2027 22:34:10.762            39.906               Magadan1          1247.062
       195   02 Jun 2027 22:35:59.880   02 Jun 2027 22:39:34.697           214.817              Murmansk2          6713.031
       196   02 Jun 2027 22:40:10.277   02 Jun 2027 22:41:01.458            51.181              Murmansk1          1599.406
       197   02 Jun 2027 22:44:06.479   02 Jun 2027 22:44:22.288            15.809                  Delhi           494.031
       198   02 Jun 2027 22:51:59.287   02 Jun 2027 22:52:34.855            35.568                  Delhi          1111.500
       199   03 Jun 2027 00:01:47.118   03 Jun 2027 00:01:57.642            10.524                Anadyr1           328.875
       200   03 Jun 2027 00:04:13.425   03 Jun 2027 00:04:27.364            13.939                Anadyr2           435.594
       201   03 Jun 2027 00:04:29.756   03 Jun 2027 00:04:40.666            10.910                Anadyr2           340.937
       202   03 Jun 2027 00:06:33.709   03 Jun 2027 00:06:54.775            21.066                Anadyr2           658.313
       203   03 Jun 2027 00:07:25.110   03 Jun 2027 00:07:47.722            22.612                Anadyr1           706.625
       204   03 Jun 2027 00:07:49.835   03 Jun 2027 00:09:59.199           129.364               Magadan1          4042.625
       205   03 Jun 2027 00:11:08.987   03 Jun 2027 00:14:06.075           177.088              Murmansk2          5534.000
       206   03 Jun 2027 00:14:06.075   03 Jun 2027 00:15:43.914            97.839              Murmansk1          3057.469
       207   03 Jun 2027 00:17:02.077   03 Jun 2027 00:17:19.130            17.053                 Moscow           532.906
       208   03 Jun 2027 00:24:53.628   03 Jun 2027 00:25:26.610            32.982                 Moscow          1030.688
       209   03 Jun 2027 00:41:12.226   03 Jun 2027 00:43:28.058           135.832               CapeTown          4244.750
       210   03 Jun 2027 00:48:31.467   03 Jun 2027 00:49:03.108            31.641               CapeTown           988.781
       211   03 Jun 2027 01:39:30.548   03 Jun 2027 01:40:18.004            47.456               Magadan2          1483.000
       212   03 Jun 2027 01:40:48.494   03 Jun 2027 01:41:37.862            49.368               Magadan1          1542.750
       213   03 Jun 2027 01:47:03.709   03 Jun 2027 01:48:39.744            96.035              Murmansk2          3001.094
       214   03 Jun 2027 01:50:16.949   03 Jun 2027 01:51:52.713            95.764                 Moscow          2992.625
       215   03 Jun 2027 02:01:06.542   03 Jun 2027 02:01:18.482            11.940                 Moscow           373.125
       216   03 Jun 2027 02:14:09.742   03 Jun 2027 02:15:21.997            72.255               CapeTown          2257.969
       217   03 Jun 2027 02:26:48.976   03 Jun 2027 02:26:57.792             8.816               CapeTown           275.500
       218   03 Jun 2027 03:10:55.365   03 Jun 2027 03:11:24.130            28.765                Anadyr2           898.906
       219   03 Jun 2027 03:12:34.736   03 Jun 2027 03:13:32.848            58.112               Magadan2          1816.000
       220   03 Jun 2027 03:16:54.006   03 Jun 2027 03:16:58.010             4.004               Magadan2           125.125
       221   03 Jun 2027 03:17:04.317   03 Jun 2027 03:19:50.541           166.224                Anadyr1          5194.500
       222   03 Jun 2027 03:21:08.187   03 Jun 2027 03:21:15.528             7.341                Anadyr2           229.406
       223   03 Jun 2027 04:56:37.551   03 Jun 2027 04:59:27.378           169.827               Magadan1          5307.094
       224   03 Jun 2027 06:28:42.834   03 Jun 2027 06:29:01.997            19.163               Magadan2           598.844
       225   03 Jun 2027 06:29:26.891   03 Jun 2027 06:29:36.234             9.343               Magadan1           291.969
       226   03 Jun 2027 06:29:39.835   03 Jun 2027 06:30:07.760            27.925                Anadyr2           872.656
       227   03 Jun 2027 06:30:36.210   03 Jun 2027 06:30:58.451            22.241                Anadyr1           695.031
       228   03 Jun 2027 06:31:17.459   03 Jun 2027 06:31:29.164            11.705               Magadan1           365.781
       229   03 Jun 2027 06:31:29.164   03 Jun 2027 06:32:06.887            37.723               Magadan2          1178.844
       230   03 Jun 2027 06:32:32.816   03 Jun 2027 06:33:20.011            47.195                Anadyr2          1474.844
       231   03 Jun 2027 06:33:28.406   03 Jun 2027 06:34:02.255            33.849               Magadan2          1057.781
       232   03 Jun 2027 06:34:02.255   03 Jun 2027 06:34:55.550            53.295               Magadan1          1665.469
       233   03 Jun 2027 06:37:38.048   03 Jun 2027 06:37:43.559             5.511                Norilsk           172.219
       234   03 Jun 2027 08:07:27.288   03 Jun 2027 08:07:48.213            20.925               Magadan2           653.906
       235   03 Jun 2027 08:07:51.653   03 Jun 2027 08:08:41.666            50.013                Irkutsk          1562.906
       236   03 Jun 2027 08:08:55.536   03 Jun 2027 08:09:38.086            42.550                Irkutsk          1329.687
       237   03 Jun 2027 08:14:25.681   03 Jun 2027 08:14:48.034            22.353                Norilsk           698.531
       238   03 Jun 2027 08:46:26.097   03 Jun 2027 08:47:27.341            61.244            RioGallegos          1913.875
       239   03 Jun 2027 09:20:49.092   03 Jun 2027 09:22:30.345           101.253                Sumatra          3164.156
       240   03 Jun 2027 09:41:39.755   03 Jun 2027 09:41:56.039            16.284                Irkutsk           508.875
       241   03 Jun 2027 09:42:25.739   03 Jun 2027 09:43:03.613            37.874                Novosib          1183.562
       242   03 Jun 2027 09:43:57.434   03 Jun 2027 09:44:20.666            23.232                Irkutsk           726.000
       243   03 Jun 2027 09:44:38.674   03 Jun 2027 09:44:45.204             6.530                Novosib           204.063
       244   03 Jun 2027 09:44:56.579   03 Jun 2027 09:45:01.862             5.283                Novosib           165.094
       245   03 Jun 2027 09:45:21.800   03 Jun 2027 09:45:32.109            10.309                Novosib           322.156
       246   03 Jun 2027 09:45:38.573   03 Jun 2027 09:45:43.676             5.103                Irkutsk           159.469
       247   03 Jun 2027 09:45:47.084   03 Jun 2027 09:46:29.167            42.083                Irkutsk          1315.094
       248   03 Jun 2027 09:47:02.585   03 Jun 2027 09:47:15.735            13.150                Novosib           410.937
       249   03 Jun 2027 11:05:27.393   03 Jun 2027 11:07:28.179           120.786                  Delhi          3774.563
       250   03 Jun 2027 11:09:40.810   03 Jun 2027 11:09:56.184            15.374                  Delhi           480.438
       251   03 Jun 2027 11:20:17.118   03 Jun 2027 11:20:39.485            22.367                Novosib           698.969
       252   03 Jun 2027 11:22:04.441   03 Jun 2027 11:22:26.652            22.211                Norilsk           694.094
       253   03 Jun 2027 12:49:18.021   03 Jun 2027 12:49:28.316            10.295                 Moscow           321.719
       254   03 Jun 2027 12:50:17.823   03 Jun 2027 12:51:12.031            54.208                 Moscow          1694.000
       255   03 Jun 2027 12:51:36.122   03 Jun 2027 12:51:52.604            16.482                 Moscow           515.062
       256   03 Jun 2027 12:52:04.707   03 Jun 2027 12:53:45.938           101.231                 Moscow          3163.469
       257   03 Jun 2027 12:53:50.197   03 Jun 2027 12:55:48.732           118.535              Murmansk2          3704.219
       258   03 Jun 2027 12:56:08.035   03 Jun 2027 12:56:39.545            31.510              Murmansk1           984.687
       259   03 Jun 2027 13:01:49.875   03 Jun 2027 13:02:11.404            21.529                Norilsk           672.781
       260   03 Jun 2027 14:03:15.223   03 Jun 2027 14:06:03.698           168.475               CapeTown          5264.844
       261   03 Jun 2027 14:06:54.567   03 Jun 2027 14:07:17.901            23.334               CapeTown           729.188
       262   03 Jun 2027 14:30:22.349   03 Jun 2027 14:33:43.218           200.869              Murmansk2          6277.156
       263   03 Jun 2027 14:43:37.271   03 Jun 2027 14:45:53.975           136.704                Anadyr1          4272.000
       264   03 Jun 2027 14:50:45.463   03 Jun 2027 14:51:25.806            40.343                Anadyr2          1260.719
       265   03 Jun 2027 16:10:27.475   03 Jun 2027 16:11:57.324            89.849              Murmansk1          2807.781
       266   03 Jun 2027 16:11:57.324   03 Jun 2027 16:12:29.189            31.865              Murmansk2           995.781
       267   03 Jun 2027 16:13:42.780   03 Jun 2027 16:14:26.075            43.295              Murmansk1          1352.969
       268   03 Jun 2027 16:19:19.030   03 Jun 2027 16:21:04.774           105.744                Anadyr2          3304.500
       269   03 Jun 2027 16:21:10.264   03 Jun 2027 16:21:32.270            22.006                Anadyr1           687.688
       270   03 Jun 2027 16:22:16.565   03 Jun 2027 16:22:27.338            10.773                Anadyr1           336.656
       271   03 Jun 2027 16:22:40.875   03 Jun 2027 16:25:59.736           198.861               Magadan2          6214.406
       272   03 Jun 2027 17:55:14.463   03 Jun 2027 17:58:02.950           168.487                Anadyr2          5265.219
       273   03 Jun 2027 17:58:17.031   03 Jun 2027 17:58:36.305            19.274                Anadyr2           602.312
       274   03 Jun 2027 17:58:57.194   03 Jun 2027 18:01:00.217           123.023               Magadan2          3844.469
       275   03 Jun 2027 18:01:10.284   03 Jun 2027 18:01:58.110            47.826               Magadan2          1494.562
       276   03 Jun 2027 18:50:54.164   03 Jun 2027 18:53:53.827           179.663            RioGallegos          5614.469
       277   03 Jun 2027 18:57:33.797   03 Jun 2027 18:57:58.812            25.015            RioGallegos           781.719
       278   03 Jun 2027 19:33:11.497   03 Jun 2027 19:37:10.257           238.760                Norilsk          7461.250
       279   03 Jun 2027 19:37:54.305   03 Jun 2027 19:39:00.462            66.157                Irkutsk          2067.406
       280   03 Jun 2027 19:39:54.649   03 Jun 2027 19:40:44.356            49.707                Irkutsk          1553.344
       281   03 Jun 2027 19:41:14.383   03 Jun 2027 19:41:24.509            10.126                Irkutsk           316.438
       282   03 Jun 2027 19:41:57.688   03 Jun 2027 19:43:04.114            66.426                Irkutsk          2075.813
       283   03 Jun 2027 19:55:04.531   03 Jun 2027 19:57:39.220           154.689                Sumatra          4834.031
       284   03 Jun 2027 19:59:00.768   03 Jun 2027 20:00:00.027            59.259                Sumatra          1851.844
       285   03 Jun 2027 21:10:13.180   03 Jun 2027 21:10:41.810            28.630                Norilsk           894.688
       286   03 Jun 2027 21:13:25.853   03 Jun 2027 21:14:28.846            62.993                Novosib          1968.531
       287   03 Jun 2027 21:15:03.497   03 Jun 2027 21:15:32.968            29.471                Novosib           920.969
       288   03 Jun 2027 21:22:19.173   03 Jun 2027 21:23:21.621            62.448                Novosib          1951.500
       289   03 Jun 2027 21:23:39.830   03 Jun 2027 21:25:04.578            84.748                  Delhi          2648.375
       290   03 Jun 2027 21:27:52.874   03 Jun 2027 21:28:34.353            41.479                  Delhi          1296.219
       291   03 Jun 2027 22:45:29.607   03 Jun 2027 22:46:20.588            50.981               Magadan2          1593.156
       292   03 Jun 2027 22:46:37.266   03 Jun 2027 22:47:06.018            28.752               Magadan2           898.500
       293   03 Jun 2027 22:47:46.738   03 Jun 2027 22:51:30.541           223.803              Murmansk1          6993.844
       294   03 Jun 2027 22:52:23.098   03 Jun 2027 22:53:55.248            92.150              Murmansk2          2879.687
       295   04 Jun 2027 00:13:29.247   04 Jun 2027 00:13:44.203            14.956                Anadyr2           467.375
       296   04 Jun 2027 00:15:59.569   04 Jun 2027 00:16:10.934            11.365                Anadyr2           355.156
       297   04 Jun 2027 00:16:27.560   04 Jun 2027 00:16:39.651            12.091                Anadyr2           377.844
       298   04 Jun 2027 00:19:10.805   04 Jun 2027 00:19:30.157            19.352                Anadyr2           604.750
       299   04 Jun 2027 00:20:14.854   04 Jun 2027 00:21:57.306           102.452               Magadan1          3201.625
       300   04 Jun 2027 00:22:34.087   04 Jun 2027 00:22:43.259             9.172               Magadan1           286.625
       301   04 Jun 2027 00:23:09.350   04 Jun 2027 00:26:07.739           178.389              Murmansk1          5574.656
       302   04 Jun 2027 00:26:50.018   04 Jun 2027 00:28:49.859           119.841                 Moscow          3745.031
       303   04 Jun 2027 00:29:20.130   04 Jun 2027 00:30:18.036            57.906                 Moscow          1809.563
       304   04 Jun 2027 00:52:26.834   04 Jun 2027 00:53:16.139            49.305               CapeTown          1540.781
       305   04 Jun 2027 00:54:13.751   04 Jun 2027 00:55:04.767            51.016               CapeTown          1594.250
       306   04 Jun 2027 00:58:29.655   04 Jun 2027 00:58:35.087             5.432               CapeTown           169.750
       307   04 Jun 2027 01:49:51.217   04 Jun 2027 01:50:03.297            12.080                Anadyr2           377.500
       308   04 Jun 2027 01:51:00.999   04 Jun 2027 01:52:16.256            75.257               Magadan2          2351.781
       309   04 Jun 2027 01:52:19.827   04 Jun 2027 01:52:53.646            33.819               Magadan2          1056.844
       310   04 Jun 2027 01:56:38.016   04 Jun 2027 01:56:46.254             8.238               Magadan1           257.438
       311   04 Jun 2027 01:58:34.786   04 Jun 2027 01:59:12.459            37.673                Norilsk          1177.281
       312   04 Jun 2027 01:59:48.668   04 Jun 2027 02:01:08.190            79.522              Murmansk1          2485.063
       313   04 Jun 2027 02:01:45.076   04 Jun 2027 02:02:38.495            53.419                Novosib          1669.344
       314   04 Jun 2027 02:03:41.477   04 Jun 2027 02:04:06.985            25.508                 Moscow           797.125
       315   04 Jun 2027 02:11:53.666   04 Jun 2027 02:12:06.313            12.647                 Moscow           395.219
       316   04 Jun 2027 02:26:13.339   04 Jun 2027 02:26:35.472            22.133               CapeTown           691.656
       317   04 Jun 2027 02:27:02.025   04 Jun 2027 02:28:23.862            81.837               CapeTown          2557.406
       318   04 Jun 2027 03:23:00.500   04 Jun 2027 03:23:32.054            31.554                Anadyr2           986.062
       319   04 Jun 2027 03:28:55.274   04 Jun 2027 03:33:16.980           261.706               Magadan2          8178.313
       320   04 Jun 2027 03:33:16.980   04 Jun 2027 03:33:20.157             3.177               Magadan1            99.281
       321   04 Jun 2027 03:33:30.883   04 Jun 2027 03:33:51.682            20.799               Magadan2           649.969
       322   04 Jun 2027 05:05:56.967   04 Jun 2027 05:07:40.815           103.848                Irkutsk          3245.250
       323   04 Jun 2027 05:07:56.039   04 Jun 2027 05:08:39.581            43.542                Irkutsk          1360.688
       324   04 Jun 2027 06:43:15.690   04 Jun 2027 06:43:51.346            35.656                Anadyr1          1114.250
       325   04 Jun 2027 06:43:57.943   04 Jun 2027 06:45:02.736            64.793                Anadyr1          2024.781
       326   04 Jun 2027 06:45:15.205   04 Jun 2027 06:45:31.614            16.409               Magadan1           512.781
       327   04 Jun 2027 06:45:57.449   04 Jun 2027 06:46:04.100             6.651                Norilsk           207.844
       328   04 Jun 2027 06:46:14.727   04 Jun 2027 06:46:43.091            28.364               Magadan2           886.375
       329   04 Jun 2027 06:46:59.106   04 Jun 2027 06:47:01.294             2.188               Magadan2            68.375
       330   04 Jun 2027 06:47:14.301   04 Jun 2027 06:48:04.645            50.344              Murmansk2          1573.250
       331   04 Jun 2027 08:19:31.129   04 Jun 2027 08:19:53.824            22.695                Irkutsk           709.219
       332   04 Jun 2027 08:20:11.325   04 Jun 2027 08:20:48.353            37.028                Irkutsk          1157.125
       333   04 Jun 2027 08:21:33.189   04 Jun 2027 08:21:56.413            23.224                Irkutsk           725.750
       334   04 Jun 2027 08:22:23.300   04 Jun 2027 08:22:28.542             5.242                Irkutsk           163.812
       335   04 Jun 2027 08:26:15.560   04 Jun 2027 08:26:44.629            29.069                Norilsk           908.406
       336   04 Jun 2027 08:58:47.691   04 Jun 2027 08:58:55.755             8.064            RioGallegos           252.000
       337   04 Jun 2027 09:00:44.414   04 Jun 2027 09:00:49.959             5.545            RioGallegos           173.281
       338   04 Jun 2027 09:02:28.791   04 Jun 2027 09:02:45.569            16.778            RioGallegos           524.313
       339   04 Jun 2027 09:03:31.629   04 Jun 2027 09:03:49.531            17.902            RioGallegos           559.438
       340   04 Jun 2027 09:33:04.163   04 Jun 2027 09:34:31.056            86.893                Sumatra          2715.406
       341   04 Jun 2027 09:55:50.534   04 Jun 2027 09:55:53.993             3.459                Irkutsk           108.094
       342   04 Jun 2027 09:56:56.829   04 Jun 2027 09:58:01.685            64.856                Irkutsk          2026.750
       343   04 Jun 2027 09:58:25.645   04 Jun 2027 09:58:50.925            25.280                Novosib           790.000
       344   04 Jun 2027 11:17:54.176   04 Jun 2027 11:21:16.569           202.393                  Delhi          6324.781
       345   04 Jun 2027 11:30:39.396   04 Jun 2027 11:30:50.898            11.502                Novosib           359.438
       346   04 Jun 2027 11:32:11.322   04 Jun 2027 11:32:37.484            26.162                Novosib           817.563
       347   04 Jun 2027 11:34:23.151   04 Jun 2027 11:34:37.771            14.620                Novosib           456.875
       348   04 Jun 2027 11:36:05.716   04 Jun 2027 11:36:10.148             4.432                Norilsk           138.500
       349   04 Jun 2027 13:01:24.633   04 Jun 2027 13:01:44.596            19.963                 Moscow           623.844
       350   04 Jun 2027 13:02:21.888   04 Jun 2027 13:03:05.873            43.985                 Moscow          1374.531
       351   04 Jun 2027 13:04:11.022   04 Jun 2027 13:06:01.924           110.902                 Moscow          3465.687
       352   04 Jun 2027 13:06:39.927   04 Jun 2027 13:08:02.704            82.777              Murmansk1          2586.781
       353   04 Jun 2027 13:08:58.631   04 Jun 2027 13:09:46.661            48.030              Murmansk2          1500.937
       354   04 Jun 2027 13:11:16.559   04 Jun 2027 13:11:42.535            25.976                Norilsk           811.750
       355   04 Jun 2027 13:12:48.108   04 Jun 2027 13:13:50.017            61.909                Norilsk          1934.656
       356   04 Jun 2027 13:21:19.240   04 Jun 2027 13:23:48.812           149.572                Anadyr2          4674.125
       357   04 Jun 2027 14:16:27.735   04 Jun 2027 14:17:35.407            67.672               CapeTown          2114.750
       358   04 Jun 2027 14:42:45.194   04 Jun 2027 14:43:55.124            69.930              Murmansk2          2185.313
       359   04 Jun 2027 14:46:01.546   04 Jun 2027 14:46:28.003            26.457              Murmansk2           826.781
       360   04 Jun 2027 14:47:41.299   04 Jun 2027 14:48:03.965            22.666              Murmansk2           708.312
       361   04 Jun 2027 14:50:04.192   04 Jun 2027 14:51:29.625            85.433              Murmansk1          2669.781
       362   04 Jun 2027 14:55:34.849   04 Jun 2027 14:56:32.012            57.163                Anadyr1          1786.344
       363   04 Jun 2027 14:57:26.642   04 Jun 2027 14:57:43.465            16.823                Anadyr2           525.719
       364   04 Jun 2027 15:51:14.143   04 Jun 2027 15:51:37.468            23.325               CapeTown           728.906
       365   04 Jun 2027 15:56:22.795   04 Jun 2027 15:56:28.149             5.354               CapeTown           167.312
       366   04 Jun 2027 16:02:02.182   04 Jun 2027 16:02:11.292             9.110               CapeTown           284.687
       367   04 Jun 2027 16:23:17.689   04 Jun 2027 16:25:44.710           147.021              Murmansk2          4594.406
       368   04 Jun 2027 16:26:21.852   04 Jun 2027 16:27:23.786            61.934              Murmansk2          1935.438
       369   04 Jun 2027 16:31:20.141   04 Jun 2027 16:31:37.860            17.719                Anadyr2           553.719
       370   04 Jun 2027 16:32:51.265   04 Jun 2027 16:33:04.718            13.453                Anadyr2           420.406
       371   04 Jun 2027 16:33:15.410   04 Jun 2027 16:34:17.607            62.197                Anadyr1          1943.656
       372   04 Jun 2027 16:34:22.783   04 Jun 2027 16:37:09.341           166.558               Magadan2          5204.938
       373   04 Jun 2027 16:42:45.309   04 Jun 2027 16:44:16.775            91.466               Magadan2          2858.312
       374   04 Jun 2027 18:07:15.582   04 Jun 2027 18:10:01.255           165.673                Anadyr1          5177.281
       375   04 Jun 2027 18:11:23.077   04 Jun 2027 18:11:54.313            31.236               Magadan1           976.125
       376   04 Jun 2027 18:12:33.494   04 Jun 2027 18:13:32.726            59.232               Magadan1          1851.000
       377   04 Jun 2027 18:16:34.370   04 Jun 2027 18:16:56.041            21.671               Magadan2           677.219
       378   04 Jun 2027 18:17:02.308   04 Jun 2027 18:17:05.850             3.542               Magadan2           110.688
       379   04 Jun 2027 18:21:29.033   04 Jun 2027 18:21:53.337            24.304               Magadan1           759.500
       380   04 Jun 2027 19:02:25.472   04 Jun 2027 19:05:41.970           196.498            RioGallegos          6140.563
       381   04 Jun 2027 19:08:22.128   04 Jun 2027 19:09:11.346            49.218            RioGallegos          1538.063
       382   04 Jun 2027 19:42:59.721   04 Jun 2027 19:43:06.246             6.525                Anadyr2           203.906
       383   04 Jun 2027 19:45:31.325   04 Jun 2027 19:47:16.280           104.955               Magadan2          3279.844
       384   04 Jun 2027 19:47:27.501   04 Jun 2027 19:49:10.590           103.089                Norilsk          3221.531
       385   04 Jun 2027 19:49:40.405   04 Jun 2027 19:53:18.353           217.948                Irkutsk          6810.875
       386   04 Jun 2027 20:03:52.673   04 Jun 2027 20:04:35.415            42.742                Sumatra          1335.687
       387   04 Jun 2027 20:04:52.848   04 Jun 2027 20:07:00.926           128.078                Sumatra          4002.437
       388   04 Jun 2027 20:10:30.046   04 Jun 2027 20:10:49.531            19.485                Sumatra           608.906
       389   04 Jun 2027 21:24:53.055   04 Jun 2027 21:25:26.465            33.410                Irkutsk          1044.062
       390   04 Jun 2027 21:25:45.779   04 Jun 2027 21:28:09.323           143.544                Novosib          4485.750
       391   04 Jun 2027 21:33:53.965   04 Jun 2027 21:36:15.363           141.398                  Delhi          4418.688
       392   04 Jun 2027 21:40:29.991   04 Jun 2027 21:41:21.877            51.886                  Delhi          1621.437
       393   04 Jun 2027 22:57:51.056   04 Jun 2027 22:58:23.363            32.307               Magadan2          1009.594
       394   04 Jun 2027 22:58:50.089   04 Jun 2027 22:59:41.475            51.386               Magadan1          1605.812
       395   04 Jun 2027 22:59:46.841   04 Jun 2027 23:03:27.814           220.973              Murmansk1          6905.406
       396   04 Jun 2027 23:03:47.611   04 Jun 2027 23:06:12.392           144.781              Murmansk2          4524.406
       397   05 Jun 2027 00:30:53.452   05 Jun 2027 00:31:56.311            62.859               Magadan1          1964.344
       398   05 Jun 2027 00:32:10.412   05 Jun 2027 00:32:29.420            19.008               Magadan1           594.000
       399   05 Jun 2027 00:33:01.260   05 Jun 2027 00:33:04.402             3.142               Magadan2            98.187
       400   05 Jun 2027 00:33:18.695   05 Jun 2027 00:33:25.299             6.604               Magadan2           206.375
       401   05 Jun 2027 00:34:06.798   05 Jun 2027 00:34:30.048            23.250               Magadan2           726.562
       402   05 Jun 2027 00:35:10.090   05 Jun 2027 00:37:10.090           120.000              Murmansk1          3750.000
       403   05 Jun 2027 00:38:09.401   05 Jun 2027 00:39:44.803            95.402              Murmansk1          2981.313
       404   05 Jun 2027 00:40:17.353   05 Jun 2027 00:40:54.392            37.039                 Moscow          1157.469
       405   05 Jun 2027 00:45:08.328   05 Jun 2027 00:45:22.028            13.700                 Moscow           428.125
       406   05 Jun 2027 00:45:49.190   05 Jun 2027 00:47:17.256            88.066                 Moscow          2752.063
       407   05 Jun 2027 01:03:50.855   05 Jun 2027 01:04:09.851            18.996               CapeTown           593.625
       408   05 Jun 2027 01:04:39.079   05 Jun 2027 01:05:25.543            46.464               CapeTown          1452.000
       409   05 Jun 2027 02:00:19.027   05 Jun 2027 02:01:01.453            42.426                Anadyr2          1325.813
       410   05 Jun 2027 02:01:41.020   05 Jun 2027 02:01:59.015            17.995                Anadyr1           562.344
       411   05 Jun 2027 02:02:32.670   05 Jun 2027 02:03:28.673            56.003               Magadan1          1750.094
       412   05 Jun 2027 02:04:21.403   05 Jun 2027 02:04:56.224            34.821               Magadan2          1088.156
       413   05 Jun 2027 02:10:03.648   05 Jun 2027 02:10:17.965            14.317                Norilsk           447.406
       414   05 Jun 2027 02:11:07.162   05 Jun 2027 02:12:29.681            82.519              Murmansk1          2578.719
       415   05 Jun 2027 02:13:13.858   05 Jun 2027 02:13:19.859             6.001              Murmansk2           187.531
       416   05 Jun 2027 02:14:01.596   05 Jun 2027 02:14:57.001            55.405                Novosib          1731.406
       417   05 Jun 2027 02:17:44.421   05 Jun 2027 02:17:55.681            11.260                Novosib           351.875
       418   05 Jun 2027 02:18:15.689   05 Jun 2027 02:18:48.366            32.677                Novosib          1021.156
       419   05 Jun 2027 02:38:22.164   05 Jun 2027 02:39:25.159            62.995               CapeTown          1968.594
       420   05 Jun 2027 02:48:07.699   05 Jun 2027 02:48:30.920            23.221               CapeTown           725.656
       421   05 Jun 2027 02:49:37.304   05 Jun 2027 02:49:53.722            16.418               CapeTown           513.063
       422   05 Jun 2027 03:40:56.190   05 Jun 2027 03:43:25.849           149.659               Magadan1          4676.844
       423   05 Jun 2027 03:43:53.342   05 Jun 2027 03:47:51.918           238.576                Anadyr1          7455.500
       424   05 Jun 2027 05:16:45.714   05 Jun 2027 05:17:35.450            49.736                Irkutsk          1554.250
       425   05 Jun 2027 05:20:23.501   05 Jun 2027 05:21:16.629            53.128                Anadyr2          1660.250
       426   05 Jun 2027 05:21:28.515   05 Jun 2027 05:21:36.491             7.976                Irkutsk           249.250
       427   05 Jun 2027 05:21:38.889   05 Jun 2027 05:23:12.491            93.602                Anadyr2          2925.062
       428   05 Jun 2027 06:55:13.025   05 Jun 2027 06:55:18.384             5.359               Magadan2           167.469
       429   05 Jun 2027 06:55:24.665   05 Jun 2027 06:55:34.377             9.712               Magadan1           303.500
       430   05 Jun 2027 06:55:47.709   05 Jun 2027 06:57:15.602            87.893               Magadan1          2746.656
       431   05 Jun 2027 06:57:34.764   05 Jun 2027 06:58:30.222            55.458               Magadan2          1733.063
       432   05 Jun 2027 06:58:34.670   05 Jun 2027 06:58:36.047             1.377               Magadan2            43.031
       433   05 Jun 2027 07:04:19.170   05 Jun 2027 07:04:27.084             7.914              Murmansk2           247.312
       434   05 Jun 2027 07:04:35.212   05 Jun 2027 07:04:46.284            11.072              Murmansk2           346.000
       435   05 Jun 2027 08:16:23.819   05 Jun 2027 08:17:09.850            46.031                Sumatra          1438.469
       436   05 Jun 2027 08:29:34.282   05 Jun 2027 08:30:25.421            51.139                Irkutsk          1598.094
       437   05 Jun 2027 08:30:47.551   05 Jun 2027 08:30:56.067             8.516                Norilsk           266.125
       438   05 Jun 2027 08:31:13.078   05 Jun 2027 08:31:56.453            43.375                Irkutsk          1355.469
       439   05 Jun 2027 08:31:59.290   05 Jun 2027 08:32:54.158            54.868                Irkutsk          1714.625
       440   05 Jun 2027 08:33:26.463   05 Jun 2027 08:33:47.815            21.352                Irkutsk           667.250
       441   05 Jun 2027 08:33:59.268   05 Jun 2027 08:34:33.682            34.414                Irkutsk          1075.437
       442   05 Jun 2027 09:11:14.296   05 Jun 2027 09:11:39.169            24.873            RioGallegos           777.281
       443   05 Jun 2027 09:12:36.860   05 Jun 2027 09:13:32.470            55.610            RioGallegos          1737.812
       444   05 Jun 2027 09:45:26.701   05 Jun 2027 09:46:25.905            59.204                Sumatra          1850.125
       445   05 Jun 2027 10:04:05.132   05 Jun 2027 10:04:23.615            18.483                  Delhi           577.594
       446   05 Jun 2027 10:07:32.725   05 Jun 2027 10:07:33.485             0.760                Novosib            23.750
       447   05 Jun 2027 10:08:25.163   05 Jun 2027 10:08:41.731            16.568                Novosib           517.750
       448   05 Jun 2027 10:09:08.756   05 Jun 2027 10:09:08.831             0.075                Norilsk             2.344
       449   05 Jun 2027 10:09:32.504   05 Jun 2027 10:10:01.382            28.878                Irkutsk           902.437
       450   05 Jun 2027 10:10:09.376   05 Jun 2027 10:10:36.585            27.209                Norilsk           850.281
       451   05 Jun 2027 10:10:39.205   05 Jun 2027 10:10:46.582             7.377                Norilsk           230.531
       452   05 Jun 2027 11:30:30.466   05 Jun 2027 11:31:03.067            32.601                  Delhi          1018.781
       453   05 Jun 2027 11:31:13.120   05 Jun 2027 11:32:58.719           105.599                  Delhi          3299.969
       454   05 Jun 2027 11:33:46.537   05 Jun 2027 11:35:08.910            82.373                  Delhi          2574.156
       455   05 Jun 2027 11:44:23.480   05 Jun 2027 11:44:26.671             3.191                Norilsk            99.719
       456   05 Jun 2027 11:44:56.454   05 Jun 2027 11:45:30.276            33.822                Norilsk          1056.938
       457   05 Jun 2027 11:46:28.572   05 Jun 2027 11:46:54.955            26.383                Norilsk           824.469
       458   05 Jun 2027 11:48:06.871   05 Jun 2027 11:48:08.306             1.435                Norilsk            44.844
       459   05 Jun 2027 13:13:34.403   05 Jun 2027 13:14:17.321            42.918                 Moscow          1341.188
       460   05 Jun 2027 13:14:33.367   05 Jun 2027 13:14:46.296            12.929                 Moscow           404.031
       461   05 Jun 2027 13:15:57.689   05 Jun 2027 13:16:16.735            19.046                 Moscow           595.188
       462   05 Jun 2027 13:17:04.981   05 Jun 2027 13:18:37.575            92.594              Murmansk2          2893.563
       463   05 Jun 2027 13:18:48.674   05 Jun 2027 13:19:23.263            34.589              Murmansk2          1080.906
       464   05 Jun 2027 13:20:02.952   05 Jun 2027 13:20:33.128            30.176              Murmansk1           943.000
       465   05 Jun 2027 13:20:33.128   05 Jun 2027 13:20:53.695            20.567              Murmansk2           642.719
       466   05 Jun 2027 13:21:48.184   05 Jun 2027 13:22:15.685            27.501              Murmansk1           859.406
       467   05 Jun 2027 13:24:31.656   05 Jun 2027 13:25:00.201            28.545              Murmansk1           892.031
       468   05 Jun 2027 13:25:49.510   05 Jun 2027 13:26:27.365            37.855                Norilsk          1182.969
       469   05 Jun 2027 13:32:47.805   05 Jun 2027 13:34:35.281           107.476                Anadyr1          3358.625
       470   05 Jun 2027 13:34:35.737   05 Jun 2027 13:36:09.739            94.002                Anadyr2          2937.562
       471   05 Jun 2027 14:26:57.013   05 Jun 2027 14:28:06.943            69.930               CapeTown          2185.313
       472   05 Jun 2027 14:55:10.422   05 Jun 2027 14:56:31.829            81.407              Murmansk2          2543.969
       473   05 Jun 2027 14:59:43.204   05 Jun 2027 15:00:03.634            20.430              Murmansk1           638.438
       474   05 Jun 2027 15:01:47.691   05 Jun 2027 15:02:03.060            15.369              Murmansk2           480.281
       475   05 Jun 2027 15:03:53.105   05 Jun 2027 15:04:17.717            24.612              Murmansk1           769.125
       476   05 Jun 2027 15:07:33.260   05 Jun 2027 15:09:35.909           122.649                Anadyr2          3832.781
       477   05 Jun 2027 15:12:36.734   05 Jun 2027 15:12:46.240             9.506                Anadyr1           297.062
       478   05 Jun 2027 15:13:10.052   05 Jun 2027 15:13:42.473            32.421                Anadyr1          1013.156
       479   05 Jun 2027 15:17:25.822   05 Jun 2027 15:18:05.540            39.718                Anadyr2          1241.188
       480   05 Jun 2027 16:09:19.445   05 Jun 2027 16:09:30.459            11.014               CapeTown           344.187
       481   05 Jun 2027 16:13:25.313   05 Jun 2027 16:13:36.835            11.522               CapeTown           360.062
       482   05 Jun 2027 16:36:16.403   05 Jun 2027 16:39:23.518           187.115              Murmansk2          5847.344
