uniorb/output/strategy_4/Drop/Drop_KinoSat_111902.txt

KinoSat_111902
-------------------------
    Access    *     Start Time (UTCG)     *     Stop Time (UTCG)  *   Duration (s)        *       Station  *  Data (Mbytes)
         1   01 Jun 2027 03:31:39.081   01 Jun 2027 03:32:01.655            22.574                Norilsk           705.437
         2   01 Jun 2027 03:32:26.875   01 Jun 2027 03:38:37.592           370.717                Norilsk         11584.906
         3   01 Jun 2027 03:38:42.536   01 Jun 2027 03:39:41.163            58.627                Irkutsk          1832.094
         4   01 Jun 2027 03:39:46.803   01 Jun 2027 03:39:57.736            10.933                Irkutsk           341.656
         5   01 Jun 2027 04:20:29.094   01 Jun 2027 04:22:21.053           111.959            RioGallegos          3498.719
         6   01 Jun 2027 05:10:16.616   01 Jun 2027 05:11:05.331            48.715                Norilsk          1522.344
         7   01 Jun 2027 05:11:10.040   01 Jun 2027 05:13:16.677           126.637                Norilsk          3957.406
         8   01 Jun 2027 05:13:21.184   01 Jun 2027 05:13:50.645            29.461                Norilsk           920.656
         9   01 Jun 2027 05:13:56.376   01 Jun 2027 05:14:38.962            42.586                 Moscow          1330.812
        10   01 Jun 2027 05:14:53.571   01 Jun 2027 05:15:11.946            18.375              Murmansk1           574.219
        11   01 Jun 2027 05:15:25.687   01 Jun 2027 05:15:54.450            28.763                Novosib           898.844
        12   01 Jun 2027 05:16:29.061   01 Jun 2027 05:17:50.073            81.012                 Moscow          2531.625
        13   01 Jun 2027 05:31:58.136   01 Jun 2027 05:35:02.067           183.931               CapeTown          5747.844
        14   01 Jun 2027 05:37:50.922   01 Jun 2027 05:38:35.022            44.100               CapeTown          1378.125
        15   01 Jun 2027 06:47:37.307   01 Jun 2027 06:48:38.296            60.989                 Moscow          1905.906
        16   01 Jun 2027 06:48:45.139   01 Jun 2027 06:50:23.524            98.385              Murmansk1          3074.531
        17   01 Jun 2027 07:07:15.206   01 Jun 2027 07:12:10.208           295.002               CapeTown          9218.812
        18   01 Jun 2027 08:12:07.964   01 Jun 2027 08:12:35.055            27.091                Anadyr1           846.594
        19   01 Jun 2027 08:12:35.055   01 Jun 2027 08:13:38.579            63.524                Anadyr2          1985.125
        20   01 Jun 2027 08:14:29.263   01 Jun 2027 08:15:31.178            61.915                Anadyr2          1934.844
        21   01 Jun 2027 08:15:31.178   01 Jun 2027 08:16:30.985            59.807                Anadyr1          1868.969
        22   01 Jun 2027 09:46:08.220   01 Jun 2027 09:47:52.967           104.747                Anadyr2          3273.344
        23   01 Jun 2027 09:48:22.607   01 Jun 2027 09:52:06.065           223.458                Anadyr1          6983.063
        24   01 Jun 2027 11:21:18.093   01 Jun 2027 11:23:23.992           125.899               Magadan1          3934.344
        25   01 Jun 2027 11:23:51.341   01 Jun 2027 11:27:25.912           214.571               Magadan1          6705.344
        26   01 Jun 2027 16:00:01.732   01 Jun 2027 16:04:23.581           261.849                  Delhi          8182.781
        27   01 Jun 2027 16:08:32.067   01 Jun 2027 16:12:46.021           253.954                Novosib          7936.062
        28   01 Jun 2027 19:22:55.752   01 Jun 2027 19:26:52.175           236.423                 Moscow          7388.219
        29   01 Jun 2027 19:28:00.453   01 Jun 2027 19:28:42.026            41.573                 Moscow          1299.156
        30   01 Jun 2027 20:33:59.994   01 Jun 2027 20:34:12.203            12.209               CapeTown           381.531
        31   01 Jun 2027 20:36:08.771   01 Jun 2027 20:38:32.902           144.131               CapeTown          4504.094
        32   01 Jun 2027 21:06:05.071   01 Jun 2027 21:08:51.279           166.208              Murmansk2          5194.000
        33   02 Jun 2027 00:50:03.788   02 Jun 2027 00:50:27.710            23.922                Sumatra           747.563
        34   02 Jun 2027 00:53:57.903   02 Jun 2027 00:56:02.746           124.843                Sumatra          3901.344
        35   02 Jun 2027 02:00:38.138   02 Jun 2027 02:00:56.119            17.981                Anadyr1           561.906
        36   02 Jun 2027 02:01:41.909   02 Jun 2027 02:02:51.250            69.341                Norilsk          2166.906
        37   02 Jun 2027 02:03:04.014   02 Jun 2027 02:03:06.982             2.968                Norilsk            92.750
        38   02 Jun 2027 02:03:28.220   02 Jun 2027 02:03:58.429            30.209               Magadan2           944.031
        39   02 Jun 2027 02:05:10.935   02 Jun 2027 02:05:13.106             2.171                Norilsk            67.844
        40   02 Jun 2027 02:05:34.747   02 Jun 2027 02:07:50.346           135.599                Irkutsk          4237.469
        41   02 Jun 2027 02:12:27.230   02 Jun 2027 02:13:30.566            63.336                Irkutsk          1979.250
        42   02 Jun 2027 02:19:43.902   02 Jun 2027 02:20:01.559            17.657                  Delhi           551.781
        43   02 Jun 2027 02:21:02.336   02 Jun 2027 02:25:42.316           279.980                Sumatra          8749.375
        44   02 Jun 2027 03:44:48.721   02 Jun 2027 03:47:08.240           139.519                Novosib          4359.969
        45   02 Jun 2027 03:47:12.236   02 Jun 2027 03:50:19.711           187.475                Norilsk          5858.594
        46   02 Jun 2027 03:50:22.299   02 Jun 2027 03:51:26.791            64.492                Irkutsk          2015.375
        47   02 Jun 2027 03:54:04.252   02 Jun 2027 03:54:07.881             3.629                Novosib           113.406
        48   02 Jun 2027 03:56:05.907   02 Jun 2027 04:00:49.656           283.749                  Delhi          8867.156
        49   02 Jun 2027 05:23:08.710   02 Jun 2027 05:23:56.105            47.395                Norilsk          1481.094
        50   02 Jun 2027 05:24:34.938   02 Jun 2027 05:27:26.817           171.879                Novosib          5371.219
        51   02 Jun 2027 06:47:22.577   02 Jun 2027 06:48:41.212            78.635                Anadyr1          2457.344
        52   02 Jun 2027 07:00:56.003   02 Jun 2027 07:01:12.840            16.837                 Moscow           526.156
        53   02 Jun 2027 07:01:19.510   02 Jun 2027 07:02:34.356            74.846              Murmansk1          2338.937
        54   02 Jun 2027 07:02:56.794   02 Jun 2027 07:07:31.782           274.988                 Moscow          8593.375
        55   02 Jun 2027 07:19:36.919   02 Jun 2027 07:24:46.059           309.140               CapeTown          9660.625
        56   02 Jun 2027 08:22:29.773   02 Jun 2027 08:25:36.271           186.498               Magadan2          5828.063
        57   02 Jun 2027 08:25:52.658   02 Jun 2027 08:26:46.015            53.357                Anadyr2          1667.406
        58   02 Jun 2027 08:27:18.085   02 Jun 2027 08:28:31.978            73.893                Anadyr1          2309.156
        59   02 Jun 2027 09:59:16.463   02 Jun 2027 10:00:15.071            58.608               Magadan2          1831.500
        60   02 Jun 2027 10:00:30.262   02 Jun 2027 10:00:40.939            10.677               Magadan2           333.656
        61   02 Jun 2027 10:01:13.451   02 Jun 2027 10:02:09.598            56.147               Magadan2          1754.594
        62   02 Jun 2027 10:41:32.569   02 Jun 2027 10:42:13.907            41.338            RioGallegos          1291.812
        63   02 Jun 2027 11:30:25.423   02 Jun 2027 11:36:25.965           360.542               Magadan2         11266.937
        64   02 Jun 2027 11:37:06.284   02 Jun 2027 11:37:30.493            24.209                Irkutsk           756.531
        65   02 Jun 2027 11:37:35.932   02 Jun 2027 11:38:17.503            41.571                Norilsk          1299.094
        66   02 Jun 2027 11:38:37.639   02 Jun 2027 11:38:39.472             1.833                Irkutsk            57.281
        67   02 Jun 2027 11:38:42.378   02 Jun 2027 11:39:15.070            32.692               Magadan2          1021.625
        68   02 Jun 2027 11:39:19.849   02 Jun 2027 11:39:50.432            30.583                Irkutsk           955.719
        69   02 Jun 2027 11:40:28.935   02 Jun 2027 11:40:49.651            20.716                Norilsk           647.375
        70   02 Jun 2027 12:14:34.079   02 Jun 2027 12:15:39.834            65.755            RioGallegos          2054.844
        71   02 Jun 2027 12:17:50.541   02 Jun 2027 12:18:05.216            14.675            RioGallegos           458.594
        72   02 Jun 2027 12:49:39.669   02 Jun 2027 12:52:18.122           158.453                Sumatra          4951.656
        73   02 Jun 2027 13:03:14.460   02 Jun 2027 13:06:13.433           178.973                Irkutsk          5592.906
        74   02 Jun 2027 13:53:06.299   02 Jun 2027 13:55:40.510           154.211            RioGallegos          4819.094
        75   02 Jun 2027 14:27:29.199   02 Jun 2027 14:31:56.416           267.217                Sumatra          8350.531
        76   02 Jun 2027 14:43:17.966   02 Jun 2027 14:47:21.583           243.617                Irkutsk          7613.031
        77   02 Jun 2027 16:13:17.288   02 Jun 2027 16:19:10.056           352.768                  Delhi         11024.000
        78   02 Jun 2027 16:21:42.063   02 Jun 2027 16:27:02.108           320.045                Novosib         10001.406
        79   02 Jun 2027 19:07:29.748   02 Jun 2027 19:10:20.514           170.766               CapeTown          5336.438
        80   02 Jun 2027 19:36:33.375   02 Jun 2027 19:39:40.671           187.296                 Moscow          5853.000
        81   02 Jun 2027 19:39:48.053   02 Jun 2027 19:42:04.238           136.185              Murmansk2          4255.781
        82   02 Jun 2027 20:45:13.335   02 Jun 2027 20:50:01.398           288.063               CapeTown          9001.969
        83   02 Jun 2027 20:51:27.564   02 Jun 2027 20:52:01.275            33.711               CapeTown          1053.469
        84   02 Jun 2027 20:52:16.361   02 Jun 2027 20:52:34.784            18.423               CapeTown           575.719
        85   02 Jun 2027 21:26:50.158   02 Jun 2027 21:27:23.924            33.766               Magadan1          1055.188
        86   02 Jun 2027 21:29:09.045   02 Jun 2027 21:29:35.300            26.255               Magadan2           820.469
        87   02 Jun 2027 21:29:35.300   02 Jun 2027 21:30:25.432            50.132               Magadan1          1566.625
        88   02 Jun 2027 21:35:08.928   02 Jun 2027 21:35:14.818             5.890               Magadan1           184.063
        89   02 Jun 2027 22:59:56.968   02 Jun 2027 23:05:09.936           312.968                Anadyr1          9780.250
        90   02 Jun 2027 23:05:20.082   02 Jun 2027 23:05:52.663            32.581                Norilsk          1018.156
        91   02 Jun 2027 23:06:21.853   02 Jun 2027 23:07:20.288            58.435               Magadan2          1826.094
        92   02 Jun 2027 23:07:41.107   02 Jun 2027 23:08:20.714            39.607               Magadan1          1237.719
        93   02 Jun 2027 23:09:11.607   02 Jun 2027 23:09:12.416             0.809                Irkutsk            25.281
        94   02 Jun 2027 23:09:50.298   02 Jun 2027 23:11:00.095            69.797                Irkutsk          2181.156
        95   02 Jun 2027 23:54:14.290   02 Jun 2027 23:57:26.112           191.822            RioGallegos          5994.438
        96   03 Jun 2027 00:00:06.063   03 Jun 2027 00:00:17.973            11.910            RioGallegos           372.188
        97   03 Jun 2027 00:03:09.881   03 Jun 2027 00:03:42.326            32.445            RioGallegos          1013.906
        98   03 Jun 2027 00:35:31.010   03 Jun 2027 00:36:22.561            51.551                Anadyr1          1610.969
        99   03 Jun 2027 00:36:40.484   03 Jun 2027 00:36:59.418            18.934                Anadyr2           591.687
       100   03 Jun 2027 00:37:40.428   03 Jun 2027 00:38:32.001            51.573                Anadyr2          1611.656
       101   03 Jun 2027 00:38:43.446   03 Jun 2027 00:39:37.482            54.036                Norilsk          1688.625
       102   03 Jun 2027 00:39:57.956   03 Jun 2027 00:41:40.235           102.279               Magadan1          3196.219
       103   03 Jun 2027 00:42:56.949   03 Jun 2027 00:43:29.659            32.710                Irkutsk          1022.187
       104   03 Jun 2027 00:44:33.046   03 Jun 2027 00:45:48.312            75.266                Novosib          2352.062
       105   03 Jun 2027 00:52:00.578   03 Jun 2027 00:52:36.906            36.328                Irkutsk          1135.250
       106   03 Jun 2027 00:55:35.295   03 Jun 2027 00:56:20.768            45.473                Sumatra          1421.031
       107   03 Jun 2027 00:59:07.917   03 Jun 2027 01:00:46.063            98.146                Sumatra          3067.063
       108   03 Jun 2027 01:33:19.002   03 Jun 2027 01:33:36.299            17.297            RioGallegos           540.531
       109   03 Jun 2027 01:38:14.528   03 Jun 2027 01:38:36.922            22.394            RioGallegos           699.813
       110   03 Jun 2027 01:39:42.095   03 Jun 2027 01:40:13.749            31.654            RioGallegos           989.188
       111   03 Jun 2027 02:10:08.597   03 Jun 2027 02:10:53.756            45.159                Anadyr1          1411.219
       112   03 Jun 2027 02:12:01.470   03 Jun 2027 02:12:26.332            24.862                Anadyr2           776.937
       113   03 Jun 2027 02:13:44.374   03 Jun 2027 02:14:44.769            60.395                Norilsk          1887.344
       114   03 Jun 2027 02:15:02.593   03 Jun 2027 02:15:06.591             3.998                Norilsk           124.937
       115   03 Jun 2027 02:15:21.739   03 Jun 2027 02:16:08.483            46.744               Magadan1          1460.750
       116   03 Jun 2027 02:17:38.334   03 Jun 2027 02:19:59.619           141.285                Irkutsk          4415.156
       117   03 Jun 2027 02:25:39.685   03 Jun 2027 02:26:01.992            22.307                  Delhi           697.094
       118   03 Jun 2027 02:31:54.678   03 Jun 2027 02:32:16.189            21.511                  Delhi           672.219
       119   03 Jun 2027 02:32:25.335   03 Jun 2027 02:32:27.032             1.697                  Delhi            53.031
       120   03 Jun 2027 02:34:02.989   03 Jun 2027 02:38:13.179           250.190                Sumatra          7818.437
       121   03 Jun 2027 03:10:23.326   03 Jun 2027 03:10:32.753             9.427            RioGallegos           294.594
       122   03 Jun 2027 03:56:50.949   03 Jun 2027 04:02:00.468           309.519                Irkutsk          9672.469
       123   03 Jun 2027 04:03:10.744   03 Jun 2027 04:05:37.148           146.404                  Delhi          4575.125
       124   03 Jun 2027 04:05:38.092   03 Jun 2027 04:05:59.173            21.081                Novosib           658.781
       125   03 Jun 2027 04:06:43.382   03 Jun 2027 04:09:25.003           161.621                  Delhi          5050.656
       126   03 Jun 2027 04:11:19.542   03 Jun 2027 04:12:12.469            52.927                  Delhi          1653.969
       127   03 Jun 2027 05:35:20.444   03 Jun 2027 05:36:41.687            81.243                Norilsk          2538.844
       128   03 Jun 2027 05:36:55.786   03 Jun 2027 05:38:56.270           120.484                Novosib          3765.125
       129   03 Jun 2027 05:40:38.580   03 Jun 2027 05:42:02.240            83.660                 Moscow          2614.375
       130   03 Jun 2027 05:55:20.519   03 Jun 2027 05:57:21.632           121.113               CapeTown          3784.781
       131   03 Jun 2027 06:58:26.845   03 Jun 2027 06:58:57.699            30.854               Magadan1           964.187
       132   03 Jun 2027 06:58:57.699   03 Jun 2027 06:59:27.106            29.407               Magadan2           918.969
       133   03 Jun 2027 06:59:33.436   03 Jun 2027 07:00:35.056            61.620                Anadyr1          1925.625
       134   03 Jun 2027 07:00:35.056   03 Jun 2027 07:00:43.019             7.963                Anadyr2           248.844
       135   03 Jun 2027 07:01:53.880   03 Jun 2027 07:02:36.922            43.042                Anadyr1          1345.062
       136   03 Jun 2027 07:11:09.215   03 Jun 2027 07:11:19.155             9.940                Norilsk           310.625
       137   03 Jun 2027 07:14:09.581   03 Jun 2027 07:15:02.988            53.407                 Moscow          1668.969
       138   03 Jun 2027 07:32:06.202   03 Jun 2027 07:36:07.941           241.739               CapeTown          7554.344
       139   03 Jun 2027 08:32:28.732   03 Jun 2027 08:32:41.946            13.214                Anadyr2           412.937
       140   03 Jun 2027 08:32:47.793   03 Jun 2027 08:33:14.233            26.440               Magadan1           826.250
       141   03 Jun 2027 08:33:31.375   03 Jun 2027 08:33:35.146             3.771               Magadan1           117.844
       142   03 Jun 2027 08:33:40.664   03 Jun 2027 08:34:45.475            64.811                Anadyr1          2025.344
       143   03 Jun 2027 08:35:02.735   03 Jun 2027 08:36:09.874            67.139               Magadan2          2098.094
       144   03 Jun 2027 08:36:16.853   03 Jun 2027 08:37:06.041            49.188               Magadan1          1537.125
       145   03 Jun 2027 08:37:12.038   03 Jun 2027 08:37:58.295            46.257               Magadan1          1445.531
       146   03 Jun 2027 08:38:58.450   03 Jun 2027 08:40:32.632            94.182                Anadyr2          2943.188
       147   03 Jun 2027 10:07:49.921   03 Jun 2027 10:08:01.750            11.829               Magadan1           369.656
       148   03 Jun 2027 10:08:12.275   03 Jun 2027 10:09:05.736            53.461               Magadan2          1670.656
       149   03 Jun 2027 10:09:36.969   03 Jun 2027 10:10:17.813            40.844               Magadan2          1276.375
       150   03 Jun 2027 10:11:00.991   03 Jun 2027 10:12:59.269           118.278               Magadan1          3696.188
       151   03 Jun 2027 10:13:25.611   03 Jun 2027 10:13:34.765             9.154               Magadan2           286.063
       152   03 Jun 2027 10:13:53.091   03 Jun 2027 10:16:07.393           134.302               Magadan2          4196.937
       153   03 Jun 2027 11:44:29.785   03 Jun 2027 11:47:37.495           187.710               Magadan2          5865.938
       154   03 Jun 2027 11:48:56.498   03 Jun 2027 11:49:58.438            61.940                Irkutsk          1935.625
       155   03 Jun 2027 11:50:02.481   03 Jun 2027 11:50:48.852            46.371                Irkutsk          1449.094
       156   03 Jun 2027 11:50:49.943   03 Jun 2027 11:51:00.090            10.147               Magadan1           317.094
       157   03 Jun 2027 11:51:11.817   03 Jun 2027 11:51:38.119            26.302                Norilsk           821.937
       158   03 Jun 2027 11:51:57.719   03 Jun 2027 11:52:16.608            18.889                Novosib           590.281
       159   03 Jun 2027 12:26:40.477   03 Jun 2027 12:27:35.514            55.037            RioGallegos          1719.906
       160   03 Jun 2027 12:35:32.803   03 Jun 2027 12:35:39.974             7.171            RioGallegos           224.094
       161   03 Jun 2027 13:01:32.404   03 Jun 2027 13:04:36.795           184.391                Sumatra          5762.219
       162   03 Jun 2027 13:15:28.477   03 Jun 2027 13:18:11.574           163.097                Irkutsk          5096.781
       163   03 Jun 2027 13:31:51.607   03 Jun 2027 13:32:37.864            46.257                Norilsk          1445.531
       164   03 Jun 2027 14:05:56.197   03 Jun 2027 14:09:47.189           230.992            RioGallegos          7218.500
       165   03 Jun 2027 14:40:48.592   03 Jun 2027 14:44:33.183           224.591                Sumatra          7018.469
       166   03 Jun 2027 14:56:44.412   03 Jun 2027 15:00:54.090           249.678                Irkutsk          7802.437
       167   03 Jun 2027 16:35:37.103   03 Jun 2027 16:37:44.033           126.930                Novosib          3966.563
       168   03 Jun 2027 16:37:46.278   03 Jun 2027 16:38:15.368            29.090                Norilsk           909.063
       169   03 Jun 2027 16:42:00.184   03 Jun 2027 16:42:31.555            31.371                Norilsk           980.344
       170   03 Jun 2027 17:45:08.286   03 Jun 2027 17:45:25.993            17.707               CapeTown           553.344
       171   03 Jun 2027 17:46:05.223   03 Jun 2027 17:47:03.250            58.027               CapeTown          1813.344
       172   03 Jun 2027 18:07:04.425   03 Jun 2027 18:07:20.593            16.168                 Moscow           505.250
       173   03 Jun 2027 18:09:04.485   03 Jun 2027 18:12:03.912           179.427                 Moscow          5607.094
       174   03 Jun 2027 18:14:38.418   03 Jun 2027 18:15:05.249            26.831              Murmansk1           838.469
       175   03 Jun 2027 18:16:43.599   03 Jun 2027 18:18:03.283            79.684              Murmansk1          2490.125
       176   03 Jun 2027 19:19:32.297   03 Jun 2027 19:22:05.776           153.479               CapeTown          4796.219
       177   03 Jun 2027 19:31:08.366   03 Jun 2027 19:32:13.049            64.683               CapeTown          2021.344
       178   03 Jun 2027 19:49:21.123   03 Jun 2027 19:57:29.975           488.852              Murmansk1         15276.625
       179   03 Jun 2027 19:58:00.982   03 Jun 2027 19:58:15.180            14.198              Murmansk2           443.687
       180   03 Jun 2027 20:58:06.444   03 Jun 2027 21:03:18.740           312.296               CapeTown          9759.250
       181   03 Jun 2027 23:11:57.633   03 Jun 2027 23:15:44.512           226.879                Anadyr1          7089.969
       182   03 Jun 2027 23:15:55.972   03 Jun 2027 23:17:43.004           107.032                Norilsk          3344.750
       183   03 Jun 2027 23:18:06.025   03 Jun 2027 23:19:13.129            67.104               Magadan2          2097.000
       184   03 Jun 2027 23:19:13.129   03 Jun 2027 23:19:18.022             4.893               Magadan1           152.906
       185   03 Jun 2027 23:19:50.770   03 Jun 2027 23:20:23.154            32.384               Magadan2          1012.000
       186   03 Jun 2027 23:20:41.240   03 Jun 2027 23:21:13.823            32.583                Irkutsk          1018.219
       187   03 Jun 2027 23:21:56.586   03 Jun 2027 23:22:01.006             4.420                Irkutsk           138.125
       188   03 Jun 2027 23:22:39.576   03 Jun 2027 23:23:02.972            23.396                Irkutsk           731.125
       189   03 Jun 2027 23:24:31.559   03 Jun 2027 23:25:08.539            36.980                Irkutsk          1155.625
       190   03 Jun 2027 23:38:05.699   03 Jun 2027 23:38:44.711            39.012                Sumatra          1219.125
       191   04 Jun 2027 00:06:06.702   04 Jun 2027 00:07:26.352            79.650            RioGallegos          2489.063
       192   04 Jun 2027 00:08:10.567   04 Jun 2027 00:08:17.061             6.494            RioGallegos           202.938
       193   04 Jun 2027 00:09:00.489   04 Jun 2027 00:09:29.309            28.820            RioGallegos           900.625
       194   04 Jun 2027 00:12:46.268   04 Jun 2027 00:12:50.529             4.261            RioGallegos           133.156
       195   04 Jun 2027 00:13:36.328   04 Jun 2027 00:14:07.104            30.776            RioGallegos           961.750
       196   04 Jun 2027 00:17:40.605   04 Jun 2027 00:17:50.354             9.749            RioGallegos           304.656
       197   04 Jun 2027 00:47:26.833   04 Jun 2027 00:48:10.563            43.730                Anadyr1          1366.563
       198   04 Jun 2027 00:48:31.727   04 Jun 2027 00:49:44.368            72.641                Anadyr2          2270.031
       199   04 Jun 2027 00:49:46.751   04 Jun 2027 00:50:49.195            62.444                Norilsk          1951.375
       200   04 Jun 2027 00:50:52.787   04 Jun 2027 00:51:41.741            48.954               Magadan1          1529.812
       201   04 Jun 2027 00:52:01.718   04 Jun 2027 00:52:13.981            12.263               Magadan1           383.219
       202   04 Jun 2027 00:53:08.635   04 Jun 2027 00:53:31.138            22.503               Magadan1           703.219
       203   04 Jun 2027 00:53:49.243   04 Jun 2027 00:55:03.061            73.818                Irkutsk          2306.813
       204   04 Jun 2027 00:55:58.636   04 Jun 2027 00:56:23.381            24.745                Irkutsk           773.281
       205   04 Jun 2027 00:58:08.446   04 Jun 2027 00:58:13.718             5.272                Novosib           164.750
       206   04 Jun 2027 00:58:27.954   04 Jun 2027 00:58:30.486             2.532                Novosib            79.125
       207   04 Jun 2027 00:59:36.585   04 Jun 2027 01:00:25.383            48.798                Novosib          1524.937
       208   04 Jun 2027 01:07:30.955   04 Jun 2027 01:10:27.584           176.629                Sumatra          5519.656
       209   04 Jun 2027 01:51:20.486   04 Jun 2027 01:51:23.100             2.614            RioGallegos            81.688
       210   04 Jun 2027 01:53:45.419   04 Jun 2027 01:53:54.942             9.523            RioGallegos           297.594
       211   04 Jun 2027 02:21:54.714   04 Jun 2027 02:22:52.781            58.067                Anadyr1          1814.594
       212   04 Jun 2027 02:25:46.831   04 Jun 2027 02:27:14.030            87.199                Norilsk          2724.969
       213   04 Jun 2027 02:27:38.227   04 Jun 2027 02:27:39.389             1.162                Norilsk            36.312
       214   04 Jun 2027 02:28:42.657   04 Jun 2027 02:28:51.615             8.958               Magadan2           279.937
       215   04 Jun 2027 02:29:39.596   04 Jun 2027 02:31:52.853           133.257                Novosib          4164.281
       216   04 Jun 2027 02:31:59.089   04 Jun 2027 02:32:23.217            24.128                Irkutsk           754.000
       217   04 Jun 2027 02:34:48.929   04 Jun 2027 02:36:04.169            75.240                Novosib          2351.250
       218   04 Jun 2027 02:43:54.091   04 Jun 2027 02:43:59.733             5.642                  Delhi           176.312
       219   04 Jun 2027 02:44:42.432   04 Jun 2027 02:44:51.689             9.257                  Delhi           289.281
       220   04 Jun 2027 02:45:34.783   04 Jun 2027 02:46:37.852            63.069                  Delhi          1970.906
       221   04 Jun 2027 02:48:06.118   04 Jun 2027 02:50:35.770           149.652                Sumatra          4676.625
       222   04 Jun 2027 04:08:41.717   04 Jun 2027 04:11:32.929           171.212                Norilsk          5350.375
       223   04 Jun 2027 04:11:53.507   04 Jun 2027 04:14:12.216           138.709                Irkutsk          4334.656
       224   04 Jun 2027 04:17:09.104   04 Jun 2027 04:17:47.733            38.629                Novosib          1207.156
       225   04 Jun 2027 05:47:12.542   04 Jun 2027 05:48:47.421            94.879                Norilsk          2964.969
       226   04 Jun 2027 05:49:06.801   04 Jun 2027 05:50:22.657            75.856                Novosib          2370.500
       227   04 Jun 2027 05:51:35.080   04 Jun 2027 05:52:44.071            68.991                 Moscow          2155.969
       228   04 Jun 2027 05:54:16.803   04 Jun 2027 05:54:38.143            21.340                 Moscow           666.875
       229   04 Jun 2027 06:07:09.923   04 Jun 2027 06:08:10.415            60.492               CapeTown          1890.375
       230   04 Jun 2027 06:09:46.770   04 Jun 2027 06:10:52.611            65.841               CapeTown          2057.531
       231   04 Jun 2027 07:10:02.688   04 Jun 2027 07:10:56.661            53.973                Anadyr2          1686.656
       232   04 Jun 2027 07:11:09.957   04 Jun 2027 07:11:43.637            33.680               Magadan1          1052.500
       233   04 Jun 2027 07:11:50.847   04 Jun 2027 07:12:11.787            20.940               Magadan2           654.375
       234   04 Jun 2027 07:12:35.060   04 Jun 2027 07:12:44.916             9.856                Anadyr1           308.000
       235   04 Jun 2027 07:13:19.953   04 Jun 2027 07:13:47.105            27.152                Anadyr1           848.500
       236   04 Jun 2027 07:13:58.560   04 Jun 2027 07:14:21.788            23.228               Magadan2           725.875
       237   04 Jun 2027 07:23:10.066   04 Jun 2027 07:23:12.379             2.313                Norilsk            72.281
       238   04 Jun 2027 07:25:33.135   04 Jun 2027 07:26:49.565            76.430                 Moscow          2388.437
       239   04 Jun 2027 07:44:45.010   04 Jun 2027 07:47:18.633           153.623               CapeTown          4800.719
       240   04 Jun 2027 08:45:04.088   04 Jun 2027 08:45:53.421            49.333                Anadyr1          1541.656
       241   04 Jun 2027 08:46:33.988   04 Jun 2027 08:46:45.386            11.398               Magadan2           356.188
       242   04 Jun 2027 08:47:09.033   04 Jun 2027 08:48:08.536            59.503               Magadan1          1859.469
       243   04 Jun 2027 08:48:19.844   04 Jun 2027 08:48:59.334            39.490               Magadan2          1234.062
       244   04 Jun 2027 08:49:02.268   04 Jun 2027 08:50:21.304            79.036               Magadan2          2469.875
       245   04 Jun 2027 10:19:39.811   04 Jun 2027 10:20:35.710            55.899               Magadan1          1746.844
       246   04 Jun 2027 10:20:44.413   04 Jun 2027 10:21:15.631            31.218               Magadan2           975.562
       247   04 Jun 2027 10:22:15.096   04 Jun 2027 10:22:38.739            23.643               Magadan2           738.844
       248   04 Jun 2027 10:22:38.739   04 Jun 2027 10:24:16.750            98.011               Magadan1          3062.844
       249   04 Jun 2027 10:25:32.943   04 Jun 2027 10:25:45.539            12.596               Magadan1           393.625
       250   04 Jun 2027 10:25:46.829   04 Jun 2027 10:26:42.771            55.942               Magadan1          1748.188
       251   04 Jun 2027 10:30:42.978   04 Jun 2027 10:30:44.643             1.665                Norilsk            52.031
       252   04 Jun 2027 11:03:22.499   04 Jun 2027 11:04:01.844            39.345            RioGallegos          1229.531
       253   04 Jun 2027 11:05:13.944   04 Jun 2027 11:05:47.094            33.150            RioGallegos          1035.937
       254   04 Jun 2027 11:11:54.811   04 Jun 2027 11:12:46.012            51.201            RioGallegos          1600.031
       255   04 Jun 2027 11:46:16.465   04 Jun 2027 11:46:40.950            24.485                Sumatra           765.156
       256   04 Jun 2027 11:56:07.677   04 Jun 2027 11:58:35.492           147.815               Magadan2          4619.219
       257   04 Jun 2027 11:59:30.810   04 Jun 2027 12:02:38.515           187.705               Magadan1          5865.781
       258   04 Jun 2027 12:45:15.120   04 Jun 2027 12:47:33.977           138.857            RioGallegos          4339.281
       259   04 Jun 2027 13:20:12.388   04 Jun 2027 13:22:13.080           120.692                Sumatra          3771.625
       260   04 Jun 2027 13:32:38.343   04 Jun 2027 13:33:00.560            22.217                Irkutsk           694.281
       261   04 Jun 2027 13:33:39.629   04 Jun 2027 13:33:53.400            13.771                Irkutsk           430.344
       262   04 Jun 2027 13:35:56.421   04 Jun 2027 13:36:51.175            54.754                Irkutsk          1711.063
       263   04 Jun 2027 13:37:38.179   04 Jun 2027 13:38:02.878            24.699                Irkutsk           771.844
       264   04 Jun 2027 13:42:30.652   04 Jun 2027 13:43:02.178            31.526                Norilsk           985.188
       265   04 Jun 2027 14:19:00.354   04 Jun 2027 14:22:59.934           239.580            RioGallegos          7486.875
       266   04 Jun 2027 15:05:38.975   04 Jun 2027 15:06:00.425            21.450                Novosib           670.312
       267   04 Jun 2027 15:07:33.046   04 Jun 2027 15:10:45.690           192.644                Novosib          6020.125
       268   04 Jun 2027 16:42:07.299   04 Jun 2027 16:44:34.248           146.949                 Moscow          4592.156
       269   04 Jun 2027 16:47:00.261   04 Jun 2027 16:47:09.861             9.600              Murmansk2           300.000
       270   04 Jun 2027 16:48:54.749   04 Jun 2027 16:49:34.411            39.662              Murmansk2          1239.438
       271   04 Jun 2027 16:49:34.776   04 Jun 2027 16:51:41.318           126.542                Norilsk          3954.437
       272   04 Jun 2027 16:53:20.294   04 Jun 2027 16:55:26.524           126.230                Norilsk          3944.687
       273   04 Jun 2027 18:01:02.011   04 Jun 2027 18:01:20.729            18.718               CapeTown           584.937
       274   04 Jun 2027 18:05:31.360   04 Jun 2027 18:05:37.928             6.568               CapeTown           205.250
       275   04 Jun 2027 18:06:27.342   04 Jun 2027 18:07:03.099            35.757               CapeTown          1117.406
       276   04 Jun 2027 18:19:30.044   04 Jun 2027 18:20:14.058            44.014                 Moscow          1375.438
       277   04 Jun 2027 18:22:38.243   04 Jun 2027 18:24:09.587            91.344              Murmansk2          2854.500
       278   04 Jun 2027 18:24:25.043   04 Jun 2027 18:24:43.224            18.181                 Moscow           568.156
       279   04 Jun 2027 18:26:15.471   04 Jun 2027 18:26:37.947            22.476              Murmansk2           702.375
       280   04 Jun 2027 18:27:24.175   04 Jun 2027 18:27:25.810             1.635              Murmansk1            51.094
       281   04 Jun 2027 18:30:13.767   04 Jun 2027 18:32:27.361           133.594              Murmansk2          4174.812
       282   04 Jun 2027 18:45:11.284   04 Jun 2027 18:45:32.396            21.112                Anadyr2           659.750
       283   04 Jun 2027 19:31:37.640   04 Jun 2027 19:33:15.376            97.736               CapeTown          3054.250
       284   04 Jun 2027 19:40:20.906   04 Jun 2027 19:40:25.003             4.097               CapeTown           128.031
       285   04 Jun 2027 20:01:58.273   04 Jun 2027 20:03:16.747            78.474              Murmansk1          2452.312
       286   04 Jun 2027 20:03:55.861   04 Jun 2027 20:10:12.687           376.826              Murmansk2         11775.812
       287   04 Jun 2027 21:48:06.004   04 Jun 2027 21:51:15.812           189.808                Anadyr1          5931.500
       288   04 Jun 2027 21:51:30.834   04 Jun 2027 21:53:56.385           145.551               Magadan1          4548.469
       289   04 Jun 2027 21:57:47.093   04 Jun 2027 21:58:07.006            19.913               Magadan2           622.281
       290   04 Jun 2027 21:58:27.936   04 Jun 2027 21:58:31.900             3.964               Magadan1           123.875
       291   04 Jun 2027 21:58:59.364   04 Jun 2027 21:59:25.049            25.685               Magadan1           802.656
       292   04 Jun 2027 22:01:20.551   04 Jun 2027 22:01:40.813            20.262               Magadan2           633.188
       293   04 Jun 2027 22:45:46.394   04 Jun 2027 22:47:13.475            87.081            RioGallegos          2721.281
       294   04 Jun 2027 23:23:57.932   04 Jun 2027 23:26:12.074           134.142                Anadyr2          4191.938
       295   04 Jun 2027 23:26:15.241   04 Jun 2027 23:26:39.743            24.502                Anadyr2           765.687
       296   04 Jun 2027 23:26:44.711   04 Jun 2027 23:28:03.232            78.521               Magadan1          2453.781
       297   04 Jun 2027 23:28:13.850   04 Jun 2027 23:29:27.157            73.307               Magadan2          2290.844
       298   04 Jun 2027 23:30:35.173   04 Jun 2027 23:31:17.133            41.960               Magadan1          1311.250
       299   04 Jun 2027 23:31:24.985   04 Jun 2027 23:31:47.396            22.411                Irkutsk           700.344
       300   04 Jun 2027 23:32:33.842   04 Jun 2027 23:33:16.053            42.211                Irkutsk          1319.094
       301   04 Jun 2027 23:36:46.013   04 Jun 2027 23:37:47.033            61.020                Irkutsk          1906.875
       302   04 Jun 2027 23:47:12.431   04 Jun 2027 23:48:32.359            79.928                Sumatra          2497.750
       303   05 Jun 2027 00:19:07.809   05 Jun 2027 00:19:37.802            29.993            RioGallegos           937.281
       304   05 Jun 2027 00:21:08.975   05 Jun 2027 00:21:40.965            31.990            RioGallegos           999.688
       305   05 Jun 2027 00:27:32.462   05 Jun 2027 00:27:49.305            16.843            RioGallegos           526.344
       306   05 Jun 2027 00:59:21.649   05 Jun 2027 00:59:40.699            19.050                Anadyr2           595.312
       307   05 Jun 2027 00:59:47.012   05 Jun 2027 01:00:24.517            37.505                Anadyr2          1172.031
       308   05 Jun 2027 01:00:56.264   05 Jun 2027 01:01:38.035            41.771                Anadyr2          1305.344
       309   05 Jun 2027 01:01:48.530   05 Jun 2027 01:03:42.094           113.564                Norilsk          3548.875
       310   05 Jun 2027 01:04:01.984   05 Jun 2027 01:04:36.467            34.483               Magadan2          1077.594
       311   05 Jun 2027 01:05:47.225   05 Jun 2027 01:08:43.601           176.376                Irkutsk          5511.750
       312   05 Jun 2027 01:18:22.196   05 Jun 2027 01:18:27.546             5.350                Irkutsk           167.188
       313   05 Jun 2027 01:19:32.322   05 Jun 2027 01:21:29.747           117.425                Sumatra          3669.531
       314   05 Jun 2027 01:28:43.831   05 Jun 2027 01:29:11.709            27.878                Sumatra           871.188
       315   05 Jun 2027 01:58:35.394   05 Jun 2027 01:58:46.627            11.233            RioGallegos           351.031
       316   05 Jun 2027 01:59:07.822   05 Jun 2027 01:59:24.126            16.304            RioGallegos           509.500
       317   05 Jun 2027 02:00:04.484   05 Jun 2027 02:00:27.294            22.810            RioGallegos           712.812
       318   05 Jun 2027 02:02:39.205   05 Jun 2027 02:03:00.261            21.056            RioGallegos           658.000
       319   05 Jun 2027 02:03:25.063   05 Jun 2027 02:05:08.247           103.184            RioGallegos          3224.500
       320   05 Jun 2027 02:37:49.252   05 Jun 2027 02:38:33.785            44.533                Norilsk          1391.656
       321   05 Jun 2027 02:41:02.663   05 Jun 2027 02:42:08.282            65.619              Murmansk1          2050.594
       322   05 Jun 2027 02:42:55.933   05 Jun 2027 02:43:50.820            54.887                Novosib          1715.219
       323   05 Jun 2027 02:44:12.804   05 Jun 2027 02:45:30.644            77.840                Irkutsk          2432.500
       324   05 Jun 2027 02:55:11.614   05 Jun 2027 02:55:59.322            47.708                  Delhi          1490.875
       325   05 Jun 2027 03:30:38.355   05 Jun 2027 03:31:54.398            76.043            RioGallegos          2376.344
       326   05 Jun 2027 03:32:13.593   05 Jun 2027 03:32:53.814            40.221            RioGallegos          1256.906
       327   05 Jun 2027 03:37:42.992   05 Jun 2027 03:38:43.400            60.408            RioGallegos          1887.750
       328   05 Jun 2027 04:19:58.089   05 Jun 2027 04:20:29.338            31.249                Irkutsk           976.531
       329   05 Jun 2027 04:21:24.972   05 Jun 2027 04:21:34.072             9.100              Murmansk2           284.375
       330   05 Jun 2027 04:21:51.009   05 Jun 2027 04:22:14.695            23.686              Murmansk2           740.188
       331   05 Jun 2027 04:22:46.881   05 Jun 2027 04:23:15.306            28.425                Norilsk           888.281
       332   05 Jun 2027 04:23:16.775   05 Jun 2027 04:23:29.712            12.937                Novosib           404.281
       333   05 Jun 2027 04:23:37.204   05 Jun 2027 04:24:29.998            52.794              Murmansk1          1649.812
       334   05 Jun 2027 04:24:39.876   05 Jun 2027 04:25:27.010            47.134                Irkutsk          1472.937
       335   05 Jun 2027 04:26:08.448   05 Jun 2027 04:32:19.226           370.778                  Delhi         11586.812
       336   05 Jun 2027 04:32:48.483   05 Jun 2027 04:35:09.188           140.705                  Delhi          4397.031
       337   05 Jun 2027 05:56:35.546   05 Jun 2027 05:58:20.446           104.900                Novosib          3278.125
       338   05 Jun 2027 06:00:37.420   05 Jun 2027 06:01:16.173            38.753                Novosib          1211.031
       339   05 Jun 2027 06:01:24.264   05 Jun 2027 06:01:45.721            21.457                Novosib           670.531
       340   05 Jun 2027 06:02:51.254   05 Jun 2027 06:03:49.603            58.349                 Moscow          1823.406
       341   05 Jun 2027 06:04:42.593   05 Jun 2027 06:05:46.657            64.064                 Moscow          2002.000
       342   05 Jun 2027 06:06:25.654   05 Jun 2027 06:07:01.984            36.330                 Moscow          1135.312
       343   05 Jun 2027 06:19:04.445   05 Jun 2027 06:20:03.491            59.046               CapeTown          1845.187
       344   05 Jun 2027 07:22:12.409   05 Jun 2027 07:23:55.121           102.712                Anadyr1          3209.750
       345   05 Jun 2027 07:57:37.175   05 Jun 2027 08:01:57.442           260.267               CapeTown          8133.344
       346   05 Jun 2027 08:58:06.028   05 Jun 2027 08:58:08.602             2.574                Anadyr2            80.437
       347   05 Jun 2027 08:58:08.602   05 Jun 2027 08:58:43.252            34.650                Anadyr1          1082.813
       348   05 Jun 2027 08:59:18.042   05 Jun 2027 09:00:06.317            48.275               Magadan2          1508.594
       349   05 Jun 2027 09:00:06.317   05 Jun 2027 09:00:22.676            16.359               Magadan1           511.219
       350   05 Jun 2027 09:00:34.932   05 Jun 2027 09:00:41.720             6.788               Magadan2           212.125
       351   05 Jun 2027 09:01:00.872   05 Jun 2027 09:02:21.900            81.028               Magadan1          2532.125
       352   05 Jun 2027 10:33:03.085   05 Jun 2027 10:33:28.431            25.346               Magadan1           792.063
       353   05 Jun 2027 10:33:35.034   05 Jun 2027 10:34:03.146            28.112               Magadan2           878.500
       354   05 Jun 2027 10:34:03.146   05 Jun 2027 10:36:16.786           133.640               Magadan1          4176.250
       355   05 Jun 2027 10:37:32.378   05 Jun 2027 10:37:34.815             2.437                Irkutsk            76.156
       356   05 Jun 2027 10:37:38.347   05 Jun 2027 10:38:06.552            28.205               Magadan2           881.406
       357   05 Jun 2027 10:38:12.089   05 Jun 2027 10:40:04.323           112.234               Magadan2          3507.313
       358   05 Jun 2027 11:52:33.374   05 Jun 2027 11:54:24.486           111.112                Sumatra          3472.250
       359   05 Jun 2027 12:09:19.220   05 Jun 2027 12:14:04.170           284.950               Magadan1          8904.688
       360   05 Jun 2027 13:31:14.821   05 Jun 2027 13:31:55.233            40.412                Sumatra          1262.875
       361   05 Jun 2027 13:40:09.036   05 Jun 2027 13:40:39.896            30.860                Irkutsk           964.375
       362   05 Jun 2027 13:44:55.715   05 Jun 2027 13:45:28.368            32.653                Norilsk          1020.406
       363   05 Jun 2027 13:47:54.306   05 Jun 2027 13:49:51.198           116.892                Irkutsk          3652.875
       364   05 Jun 2027 14:32:35.083   05 Jun 2027 14:35:52.544           197.461            RioGallegos          6170.656
       365   05 Jun 2027 15:18:05.585   05 Jun 2027 15:18:56.474            50.889                Novosib          1590.281
       366   05 Jun 2027 15:22:04.544   05 Jun 2027 15:22:25.987            21.443                Norilsk           670.094
       367   05 Jun 2027 15:22:51.791   05 Jun 2027 15:25:19.403           147.612                Novosib          4612.875
       368   05 Jun 2027 16:54:08.595   05 Jun 2027 16:57:12.875           184.280                 Moscow          5758.750
       369   05 Jun 2027 17:02:08.012   05 Jun 2027 17:02:48.886            40.874              Murmansk1          1277.313
       370   05 Jun 2027 17:04:35.545   05 Jun 2027 17:08:31.597           236.052                Norilsk          7376.625
       371   05 Jun 2027 18:32:00.575   05 Jun 2027 18:33:22.897            82.322                 Moscow          2572.562
       372   05 Jun 2027 18:34:57.286   05 Jun 2027 18:36:55.870           118.584              Murmansk1          3705.750
       373   05 Jun 2027 18:38:52.104   05 Jun 2027 18:39:40.974            48.870              Murmansk2          1527.187
       374   05 Jun 2027 18:45:27.594   05 Jun 2027 18:46:31.401            63.807              Murmansk1          1993.969
       375   05 Jun 2027 18:56:53.346   05 Jun 2027 18:56:58.085             4.739                Anadyr2           148.094
       376   05 Jun 2027 19:43:45.901   05 Jun 2027 19:46:26.419           160.518               CapeTown          5016.188
       377   05 Jun 2027 20:14:39.091   05 Jun 2027 20:20:42.330           363.239              Murmansk1         11351.219
       378   05 Jun 2027 22:00:07.824   05 Jun 2027 22:03:15.667           187.843                Anadyr2          5870.094
       379   05 Jun 2027 22:03:22.093   05 Jun 2027 22:03:35.405            13.312                Anadyr2           416.000
       380   05 Jun 2027 22:03:46.659   05 Jun 2027 22:06:29.842           163.183               Magadan1          5099.469
       381   05 Jun 2027 22:07:00.839   05 Jun 2027 22:07:25.750            24.911               Magadan2           778.469
       382   05 Jun 2027 22:07:47.829   05 Jun 2027 22:08:10.126            22.297               Magadan2           696.781
       383   05 Jun 2027 22:10:44.754   05 Jun 2027 22:10:51.190             6.436               Magadan2           201.125
       384   05 Jun 2027 22:11:19.997   05 Jun 2027 22:12:03.444            43.447               Magadan1          1357.719
       385   05 Jun 2027 22:56:19.576   05 Jun 2027 22:58:33.141           133.565            RioGallegos          4173.906
       386   05 Jun 2027 23:01:09.691   05 Jun 2027 23:01:53.969            44.278            RioGallegos          1383.688
       387   05 Jun 2027 23:35:57.806   05 Jun 2027 23:37:48.725           110.919                Anadyr1          3466.219
       388   05 Jun 2027 23:38:03.662   05 Jun 2027 23:39:44.368           100.706                Norilsk          3147.062
       389   05 Jun 2027 23:40:00.985   05 Jun 2027 23:40:02.223             1.238               Magadan1            38.687
       390   05 Jun 2027 23:40:18.623   05 Jun 2027 23:41:20.858            62.235               Magadan2          1944.844
       391   05 Jun 2027 23:42:21.503   05 Jun 2027 23:42:37.728            16.225               Magadan2           507.031
       392   05 Jun 2027 23:42:48.178   05 Jun 2027 23:43:17.255            29.077               Magadan2           908.656
       393   05 Jun 2027 23:44:49.597   05 Jun 2027 23:45:19.065            29.468                Irkutsk           920.875
       394   05 Jun 2027 23:58:02.426   06 Jun 2027 00:00:00.668           118.242                Sumatra          3695.063
       395   06 Jun 2027 00:04:04.164   06 Jun 2027 00:06:03.329           119.165                Sumatra          3723.906
       396   06 Jun 2027 01:11:15.375   06 Jun 2027 01:11:21.756             6.381                Anadyr2           199.406
       397   06 Jun 2027 01:12:06.237   06 Jun 2027 01:12:18.925            12.688                Anadyr2           396.500
       398   06 Jun 2027 01:12:55.488   06 Jun 2027 01:13:29.319            33.831                Anadyr2          1057.219
       399   06 Jun 2027 01:13:50.534   06 Jun 2027 01:14:29.941            39.407                Norilsk          1231.469
       400   06 Jun 2027 01:14:42.537   06 Jun 2027 01:15:44.387            61.850                Norilsk          1932.812
       401   06 Jun 2027 01:15:52.102   06 Jun 2027 01:16:29.301            37.199               Magadan1          1162.469
       402   06 Jun 2027 01:17:46.409   06 Jun 2027 01:20:37.020           170.611                Irkutsk          5331.594
       403   06 Jun 2027 01:26:35.289   06 Jun 2027 01:26:54.346            19.057                Novosib           595.531
       404   06 Jun 2027 01:28:30.759   06 Jun 2027 01:28:57.515            26.756                  Delhi           836.125
       405   06 Jun 2027 01:30:37.261   06 Jun 2027 01:30:58.657            21.396                  Delhi           668.625
       406   06 Jun 2027 01:31:39.460   06 Jun 2027 01:34:35.617           176.157                Sumatra          5504.906
       407   06 Jun 2027 02:15:30.535   06 Jun 2027 02:17:00.356            89.821            RioGallegos          2806.906
       408   06 Jun 2027 02:49:51.622   06 Jun 2027 02:50:27.462            35.840                Norilsk          1120.000
       409   06 Jun 2027 02:51:03.440   06 Jun 2027 02:51:15.849            12.409               Magadan2           387.781
       410   06 Jun 2027 02:51:27.650   06 Jun 2027 02:51:52.756            25.106                Norilsk           784.563
       411   06 Jun 2027 02:52:44.821   06 Jun 2027 02:53:32.010            47.189              Murmansk1          1474.656
       412   06 Jun 2027 02:53:32.010   06 Jun 2027 02:53:36.787             4.777              Murmansk2           149.281
       413   06 Jun 2027 02:53:39.576   06 Jun 2027 02:54:52.244            72.668                Novosib          2270.875
       414   06 Jun 2027 02:56:05.134   06 Jun 2027 02:56:38.229            33.095                Irkutsk          1034.219
       415   06 Jun 2027 03:00:29.206   06 Jun 2027 03:02:11.026           101.820                Novosib          3181.875
       416   06 Jun 2027 03:02:12.804   06 Jun 2027 03:03:01.809            49.005                Irkutsk          1531.406
       417   06 Jun 2027 03:42:55.693   06 Jun 2027 03:44:44.084           108.391            RioGallegos          3387.219
       418   06 Jun 2027 03:46:19.321   06 Jun 2027 03:47:49.626            90.305            RioGallegos          2822.031
       419   06 Jun 2027 04:34:12.199   06 Jun 2027 04:34:53.147            40.948              Murmansk2          1279.625
       420   06 Jun 2027 04:34:55.389   06 Jun 2027 04:34:56.453             1.064                Novosib            33.250
       421   06 Jun 2027 04:35:09.845   06 Jun 2027 04:36:34.079            84.234                Irkutsk          2632.312
       422   06 Jun 2027 04:36:43.881   06 Jun 2027 04:37:37.202            53.321                Novosib          1666.281
       423   06 Jun 2027 04:38:46.588   06 Jun 2027 04:44:14.398           327.810                  Delhi         10244.062
       424   06 Jun 2027 06:14:16.637   06 Jun 2027 06:14:30.982            14.345                 Moscow           448.281
       425   06 Jun 2027 06:17:20.291   06 Jun 2027 06:17:21.373             1.082                 Moscow            33.813
       426   06 Jun 2027 06:31:04.003   06 Jun 2027 06:34:17.742           193.739               CapeTown          6054.344
       427   06 Jun 2027 07:34:06.534   06 Jun 2027 07:34:59.777            53.243                Anadyr2          1663.844
       428   06 Jun 2027 07:34:59.777   06 Jun 2027 07:35:17.136            17.359                Anadyr1           542.469
       429   06 Jun 2027 07:35:25.373   06 Jun 2027 07:35:37.311            11.938               Magadan2           373.062
       430   06 Jun 2027 07:35:43.709   06 Jun 2027 07:35:48.512             4.803               Magadan2           150.094
       431   06 Jun 2027 07:36:09.500   06 Jun 2027 07:36:33.388            23.888                Anadyr1           746.500
       432   06 Jun 2027 07:37:24.385   06 Jun 2027 07:37:28.499             4.114                Anadyr2           128.563
       433   06 Jun 2027 07:37:28.499   06 Jun 2027 07:37:34.889             6.390                Anadyr1           199.688
       434   06 Jun 2027 07:37:55.773   06 Jun 2027 07:38:14.770            18.997               Magadan1           593.656
       435   06 Jun 2027 07:38:46.273   06 Jun 2027 07:39:44.087            57.814                Anadyr2          1806.688
       436   06 Jun 2027 08:10:52.478   06 Jun 2027 08:14:38.923           226.445               CapeTown          7076.406
       437   06 Jun 2027 09:10:34.433   06 Jun 2027 09:10:36.901             2.468               Magadan1            77.125
       438   06 Jun 2027 09:10:57.302   06 Jun 2027 09:10:58.130             0.828                Anadyr1            25.875
       439   06 Jun 2027 09:11:29.899   06 Jun 2027 09:12:03.033            33.134               Magadan2          1035.437
       440   06 Jun 2027 09:12:13.434   06 Jun 2027 09:12:57.080            43.646                Anadyr2          1363.937
       441   06 Jun 2027 09:13:01.919   06 Jun 2027 09:14:21.961            80.042               Magadan2          2501.313
       442   06 Jun 2027 10:42:29.551   06 Jun 2027 10:43:06.445            36.894               Magadan1          1152.937
       443   06 Jun 2027 10:45:34.872   06 Jun 2027 10:45:44.283             9.411               Magadan2           294.094
       444   06 Jun 2027 10:46:05.670   06 Jun 2027 10:46:37.462            31.792               Magadan2           993.500
       445   06 Jun 2027 10:46:55.136   06 Jun 2027 10:48:16.162            81.026               Magadan1          2532.062
       446   06 Jun 2027 10:48:16.162   06 Jun 2027 10:49:26.827            70.665               Magadan2          2208.281
       447   06 Jun 2027 10:50:31.258   06 Jun 2027 10:50:58.029            26.771               Magadan2           836.594
       448   06 Jun 2027 10:51:10.793   06 Jun 2027 10:51:26.224            15.431                Norilsk           482.219
       449   06 Jun 2027 10:51:27.279   06 Jun 2027 10:51:40.792            13.513                Norilsk           422.281
       450   06 Jun 2027 10:52:05.579   06 Jun 2027 10:52:20.774            15.195                Norilsk           474.844
       451   06 Jun 2027 11:26:59.335   06 Jun 2027 11:28:04.984            65.649            RioGallegos          2051.531
       452   06 Jun 2027 12:03:36.959   06 Jun 2027 12:05:32.030           115.071                Sumatra          3595.969
       453   06 Jun 2027 12:15:11.714   06 Jun 2027 12:16:27.460            75.746                Irkutsk          2367.063
       454   06 Jun 2027 12:23:26.975   06 Jun 2027 12:24:36.630            69.655               Magadan1          2176.719
       455   06 Jun 2027 13:03:22.519   06 Jun 2027 13:03:27.798             5.279            RioGallegos           164.969
       456   06 Jun 2027 13:05:44.556   06 Jun 2027 13:08:14.950           150.394            RioGallegos          4699.812
       457   06 Jun 2027 13:37:45.308   06 Jun 2027 13:37:52.568             7.260                Sumatra           226.875
       458   06 Jun 2027 13:40:31.023   06 Jun 2027 13:42:28.254           117.231                Sumatra          3663.469
       459   06 Jun 2027 13:45:25.685   06 Jun 2027 13:46:23.979            58.294                Sumatra          1821.688
       460   06 Jun 2027 13:52:36.502   06 Jun 2027 13:53:43.827            67.325                Irkutsk          2103.906
       461   06 Jun 2027 14:07:52.351   06 Jun 2027 14:08:42.474            50.123                Norilsk          1566.344
       462   06 Jun 2027 15:22:24.847   06 Jun 2027 15:23:47.104            82.257                  Delhi          2570.531
       463   06 Jun 2027 15:27:29.294   06 Jun 2027 15:27:41.330            12.036                  Delhi           376.125
       464   06 Jun 2027 15:29:10.757   06 Jun 2027 15:32:20.927           190.170                  Delhi          5942.812
       465   06 Jun 2027 15:34:20.546   06 Jun 2027 15:36:11.274           110.728                Novosib          3460.250
       466   06 Jun 2027 15:39:13.504   06 Jun 2027 15:39:29.835            16.331                Norilsk           510.344
       467   06 Jun 2027 15:42:42.533   06 Jun 2027 15:43:59.636            77.103                Norilsk          2409.469
       468   06 Jun 2027 17:06:12.871   06 Jun 2027 17:06:39.849            26.978                 Moscow           843.063
       469   06 Jun 2027 17:07:21.597   06 Jun 2027 17:07:48.235            26.638                 Moscow           832.437
       470   06 Jun 2027 17:09:28.594   06 Jun 2027 17:09:40.708            12.114                 Moscow           378.563
       471   06 Jun 2027 17:09:43.998   06 Jun 2027 17:10:27.986            43.988              Murmansk2          1374.625
       472   06 Jun 2027 17:15:12.276   06 Jun 2027 17:19:27.993           255.717                Norilsk          7991.156
       473   06 Jun 2027 18:26:39.994   06 Jun 2027 18:26:57.359            17.365               CapeTown           542.656
       474   06 Jun 2027 18:30:31.665   06 Jun 2027 18:31:18.839            47.174               CapeTown          1474.187
       475   06 Jun 2027 18:44:36.845   06 Jun 2027 18:47:22.925           166.080                 Moscow          5190.000
       476   06 Jun 2027 18:47:50.627   06 Jun 2027 18:49:19.876            89.249                 Moscow          2789.031
       477   06 Jun 2027 19:55:57.377   06 Jun 2027 19:58:10.281           132.904               CapeTown          4153.250
       478   06 Jun 2027 20:27:24.267   06 Jun 2027 20:33:34.200           369.933              Murmansk2         11560.406
       479   06 Jun 2027 22:12:09.557   06 Jun 2027 22:17:10.029           300.472                Anadyr2          9389.750
       480   06 Jun 2027 22:17:32.653   06 Jun 2027 22:19:29.523           116.870               Magadan1          3652.188
       481   06 Jun 2027 22:19:29.523   06 Jun 2027 22:20:05.819            36.296               Magadan2          1134.250
       482   06 Jun 2027 22:23:30.567   06 Jun 2027 22:23:57.971            27.404               Magadan2           856.375
