uniorb/output/strategy_4/Drop/Drop_KinoSat_110509.txt

KinoSat_110509
-------------------------
    Access    *     Start Time (UTCG)     *     Stop Time (UTCG)  *   Duration (s)        *       Station  *  Data (Mbytes)
         1   01 Jun 2027 03:11:02.121   01 Jun 2027 03:11:34.269            32.148                Anadyr2          4018.500
         2   01 Jun 2027 03:11:50.304   01 Jun 2027 03:12:20.037            29.733               Magadan1          3716.625
         3   01 Jun 2027 03:12:25.598   01 Jun 2027 03:12:47.740            22.142               Magadan2          2767.750
         4   01 Jun 2027 03:13:05.032   01 Jun 2027 03:13:14.215             9.183               Magadan2          1147.875
         5   01 Jun 2027 03:13:27.124   01 Jun 2027 03:14:19.730            52.606                Anadyr1          6575.750
         6   01 Jun 2027 03:16:14.608   01 Jun 2027 03:16:26.047            11.439               Magadan1          1429.875
         7   01 Jun 2027 04:46:45.440   01 Jun 2027 04:46:52.521             7.081                Irkutsk           885.125
         8   01 Jun 2027 04:47:00.269   01 Jun 2027 04:47:05.873             5.604                Irkutsk           700.500
         9   01 Jun 2027 04:47:27.123   01 Jun 2027 04:48:29.389            62.266               Magadan1          7783.250
        10   01 Jun 2027 04:48:41.811   01 Jun 2027 04:49:51.921            70.110                Irkutsk          8763.750
        11   01 Jun 2027 04:50:20.620   01 Jun 2027 04:51:32.817            72.197                Irkutsk          9024.625
        12   01 Jun 2027 04:51:55.037   01 Jun 2027 04:52:08.529            13.492                Norilsk          1686.500
        13   01 Jun 2027 04:53:09.707   01 Jun 2027 04:53:24.236            14.529                Norilsk          1816.125
        14   01 Jun 2027 05:26:50.943   01 Jun 2027 05:27:13.310            22.367            RioGallegos          2795.875
        15   01 Jun 2027 05:28:52.569   01 Jun 2027 05:29:25.333            32.764            RioGallegos          4095.500
        16   01 Jun 2027 06:02:30.957   01 Jun 2027 06:04:10.569            99.612                Sumatra         12451.500
        17   01 Jun 2027 06:24:10.521   01 Jun 2027 06:24:23.580            13.059                Irkutsk          1632.375
        18   01 Jun 2027 06:24:24.561   01 Jun 2027 06:24:27.212             2.651                Norilsk           331.375
        19   01 Jun 2027 06:24:35.817   01 Jun 2027 06:24:57.590            21.773                Irkutsk          2721.625
        20   01 Jun 2027 06:25:02.997   01 Jun 2027 06:25:51.298            48.301                Novosib          6037.625
        21   01 Jun 2027 06:25:58.655   01 Jun 2027 06:26:05.599             6.944                Norilsk           868.000
        22   01 Jun 2027 06:26:08.875   01 Jun 2027 06:26:34.990            26.115              Murmansk2          3264.375
        23   01 Jun 2027 06:26:58.133   01 Jun 2027 06:28:02.916            64.783                Novosib          8097.875
        24   01 Jun 2027 06:28:03.393   01 Jun 2027 06:28:42.304            38.911                Norilsk          4863.875
        25   01 Jun 2027 07:04:17.090   01 Jun 2027 07:05:15.137            58.047            RioGallegos          7255.875
        26   01 Jun 2027 07:46:09.397   01 Jun 2027 07:46:16.485             7.088                  Delhi           886.000
        27   01 Jun 2027 07:47:51.076   01 Jun 2027 07:48:11.072            19.996                  Delhi          2499.500
        28   01 Jun 2027 07:49:01.930   01 Jun 2027 07:49:57.097            55.167                  Delhi          6895.875
        29   01 Jun 2027 08:02:00.917   01 Jun 2027 08:03:03.361            62.444                 Moscow          7805.500
        30   01 Jun 2027 08:03:27.657   01 Jun 2027 08:05:33.596           125.939                Novosib         15742.375
        31   01 Jun 2027 08:05:34.339   01 Jun 2027 08:06:05.041            30.702                Norilsk          3837.750
        32   01 Jun 2027 09:38:13.055   01 Jun 2027 09:39:10.458            57.403                Novosib          7175.375
        33   01 Jun 2027 09:39:36.680   01 Jun 2027 09:43:10.874           214.194                 Moscow         26774.250
        34   01 Jun 2027 09:43:12.648   01 Jun 2027 09:44:59.739           107.091                Norilsk         13386.375
        35   01 Jun 2027 09:45:28.258   01 Jun 2027 09:46:43.100            74.842              Murmansk2          9355.250
        36   01 Jun 2027 11:06:33.547   01 Jun 2027 11:12:03.800           330.253                 Moscow         41281.625
        37   01 Jun 2027 11:25:40.993   01 Jun 2027 11:29:26.727           225.734                Anadyr1         28216.750
        38   01 Jun 2027 11:31:04.283   01 Jun 2027 11:31:11.894             7.611                Anadyr2           951.375
        39   01 Jun 2027 14:38:57.403   01 Jun 2027 14:41:18.646           141.243               Magadan2         17655.375
        40   01 Jun 2027 14:43:43.263   01 Jun 2027 14:45:44.112           120.849               Magadan2         15106.125
        41   01 Jun 2027 14:46:57.985   01 Jun 2027 14:47:45.229            47.244               Magadan2          5905.500
        42   01 Jun 2027 17:09:11.914   01 Jun 2027 17:13:16.373           244.459            RioGallegos         30557.375
        43   01 Jun 2027 18:02:04.748   01 Jun 2027 18:03:53.634           108.886                Irkutsk         13610.750
        44   01 Jun 2027 18:14:08.708   01 Jun 2027 18:14:51.374            42.666                Sumatra          5333.250
        45   01 Jun 2027 19:41:08.321   01 Jun 2027 19:45:07.772           239.451                  Delhi         29931.375
        46   01 Jun 2027 21:05:32.472   01 Jun 2027 21:06:05.071            32.599              Murmansk2          4074.875
        47   01 Jun 2027 21:06:51.662   01 Jun 2027 21:10:01.743           190.081              Murmansk1         23760.125
        48   01 Jun 2027 21:10:08.278   01 Jun 2027 21:11:50.787           102.509                 Moscow         12813.625
        49   01 Jun 2027 22:44:44.203   01 Jun 2027 22:45:20.575            36.372              Murmansk1          1771.498
        50   02 Jun 2027 05:02:19.455   02 Jun 2027 05:02:32.188            12.733               Magadan2          1591.625
        51   02 Jun 2027 05:02:37.367   02 Jun 2027 05:02:41.010             3.643               Magadan2           455.375
        52   02 Jun 2027 05:02:41.010   02 Jun 2027 05:03:18.017            37.007               Magadan1          4625.875
        53   02 Jun 2027 05:03:48.700   02 Jun 2027 05:04:06.127            17.427                Irkutsk          2178.375
        54   02 Jun 2027 05:04:54.187   02 Jun 2027 05:05:14.717            20.530                Novosib          2566.250
        55   02 Jun 2027 05:07:22.446   02 Jun 2027 05:09:16.188           113.742              Murmansk1         14217.750
        56   02 Jun 2027 05:10:48.324   02 Jun 2027 05:12:57.277           128.953              Murmansk2         16119.125
        57   02 Jun 2027 05:46:33.339   02 Jun 2027 05:51:43.720           310.381            RioGallegos         38797.625
        58   02 Jun 2027 06:25:10.416   02 Jun 2027 06:26:19.647            69.231                Sumatra          8653.875
        59   02 Jun 2027 06:27:24.695   02 Jun 2027 06:30:32.799           188.104                Irkutsk         23513.000
        60   02 Jun 2027 06:40:05.199   02 Jun 2027 06:45:08.066           302.867                Norilsk         37858.375
        61   02 Jun 2027 06:46:28.870   02 Jun 2027 06:47:35.289            66.419              Murmansk1          8302.375
        62   02 Jun 2027 07:20:31.524   02 Jun 2027 07:26:44.337           372.813            RioGallegos         46601.625
        63   02 Jun 2027 07:51:26.128   02 Jun 2027 08:00:28.323           542.195                Sumatra         67774.375
        64   02 Jun 2027 08:05:05.316   02 Jun 2027 08:05:43.543            38.227                Novosib          4778.375
        65   02 Jun 2027 08:06:00.121   02 Jun 2027 08:09:08.541           188.420                  Delhi         23552.500
        66   02 Jun 2027 08:15:33.800   02 Jun 2027 08:17:31.735           117.935                Novosib         14741.875
        67   02 Jun 2027 08:17:32.001   02 Jun 2027 08:21:07.919           215.918                Norilsk         26989.750
        68   02 Jun 2027 08:22:23.301   02 Jun 2027 08:22:56.422            33.121              Murmansk2          4140.125
        69   02 Jun 2027 09:36:28.661   02 Jun 2027 09:44:22.697           474.036                  Delhi         59254.500
        70   02 Jun 2027 09:45:01.804   02 Jun 2027 09:47:19.671           137.867                Novosib         17233.375
        71   02 Jun 2027 09:51:23.238   02 Jun 2027 09:51:35.992            12.754                Novosib          1594.250
        72   02 Jun 2027 09:52:39.145   02 Jun 2027 09:56:58.848           259.703                Norilsk         32462.875
        73   02 Jun 2027 09:57:07.306   02 Jun 2027 09:58:44.257            96.951              Murmansk2         12118.875
        74   02 Jun 2027 11:03:22.109   02 Jun 2027 11:04:40.317            78.208               CapeTown          9776.000
        75   02 Jun 2027 11:25:06.251   02 Jun 2027 11:25:57.844            51.593              Murmansk2          6449.125
        76   02 Jun 2027 11:26:14.489   02 Jun 2027 11:34:42.066           507.577              Murmansk1         63447.125
        77   02 Jun 2027 11:37:23.434   02 Jun 2027 11:39:14.423           110.989                Anadyr2         13873.625
        78   02 Jun 2027 11:41:10.157   02 Jun 2027 11:41:21.240            11.083                Anadyr1          1385.375
        79   02 Jun 2027 11:43:27.996   02 Jun 2027 11:43:45.785            17.789                Anadyr2          2223.625
        80   02 Jun 2027 13:18:01.879   02 Jun 2027 13:19:50.300           108.421               Magadan1         13552.625
        81   02 Jun 2027 14:50:52.689   02 Jun 2027 14:52:50.949           118.260               Magadan2         14782.500
        82   02 Jun 2027 14:56:23.329   02 Jun 2027 14:57:59.366            96.037               Magadan1         12004.625
        83   02 Jun 2027 17:22:29.762   02 Jun 2027 17:24:44.091           134.329            RioGallegos         16791.125
        84   02 Jun 2027 18:08:25.159   02 Jun 2027 18:13:14.640           289.481                Novosib         36185.125
        85   02 Jun 2027 19:54:41.497   02 Jun 2027 19:56:16.463            94.966                  Delhi         11870.750
        86   02 Jun 2027 21:17:39.747   02 Jun 2027 21:18:36.522            56.775              Murmansk1          7096.875
        87   02 Jun 2027 21:19:00.347   02 Jun 2027 21:21:51.995           171.648              Murmansk2         21456.000
        88   02 Jun 2027 21:22:21.442   02 Jun 2027 21:24:41.087           139.645                 Moscow         17455.625
        89   02 Jun 2027 21:26:55.292   02 Jun 2027 21:27:46.249            50.957                 Moscow          6369.625
        90   03 Jun 2027 05:16:15.630   03 Jun 2027 05:17:00.175            44.545                Novosib          5568.125
        91   03 Jun 2027 05:18:11.270   03 Jun 2027 05:19:01.572            50.302              Murmansk2          6287.750
        92   03 Jun 2027 05:19:13.350   03 Jun 2027 05:21:03.761           110.411              Murmansk1         13801.375
        93   03 Jun 2027 05:22:46.329   03 Jun 2027 05:24:46.400           120.071              Murmansk2         15008.875
        94   03 Jun 2027 05:58:29.947   03 Jun 2027 06:03:43.528           313.581            RioGallegos         39197.625
        95   03 Jun 2027 06:33:19.884   03 Jun 2027 06:38:29.322           309.438                Sumatra         38679.750
        96   03 Jun 2027 06:40:50.105   03 Jun 2027 06:46:09.331           319.226                Irkutsk         39903.250
        97   03 Jun 2027 06:52:07.060   03 Jun 2027 06:57:09.720           302.660                Norilsk         37832.500
        98   03 Jun 2027 06:58:29.722   03 Jun 2027 06:59:30.129            60.407              Murmansk2          7550.875
        99   03 Jun 2027 07:31:37.959   03 Jun 2027 07:38:26.199           408.240            RioGallegos         51030.000
       100   03 Jun 2027 08:03:53.067   03 Jun 2027 08:11:32.682           459.615                Sumatra         57451.875
       101   03 Jun 2027 08:17:19.784   03 Jun 2027 08:17:40.809            21.025                Novosib          2628.125
       102   03 Jun 2027 08:18:11.869   03 Jun 2027 08:22:45.761           273.892                  Delhi         34236.500
       103   03 Jun 2027 08:22:46.275   03 Jun 2027 08:24:00.236            73.961                Irkutsk          9245.125
       104   03 Jun 2027 08:27:39.347   03 Jun 2027 08:29:28.806           109.459                Novosib         13682.375
       105   03 Jun 2027 08:29:31.223   03 Jun 2027 08:33:09.582           218.359                Norilsk         27294.875
       106   03 Jun 2027 08:34:24.344   03 Jun 2027 08:34:55.653            31.309              Murmansk1          3913.625
       107   03 Jun 2027 09:49:48.134   03 Jun 2027 09:55:15.950           327.816                  Delhi         40977.000
       108   03 Jun 2027 10:03:07.820   03 Jun 2027 10:03:08.352             0.532                Novosib            66.500
       109   03 Jun 2027 10:05:17.606   03 Jun 2027 10:08:57.057           219.451                Norilsk         27431.375
       110   03 Jun 2027 10:09:13.144   03 Jun 2027 10:10:45.563            92.419              Murmansk2         11552.375
       111   03 Jun 2027 11:33:25.073   03 Jun 2027 11:34:16.901            51.828                 Moscow          6478.500
       112   03 Jun 2027 11:37:07.842   03 Jun 2027 11:37:50.410            42.568              Murmansk1          5321.000
       113   03 Jun 2027 11:38:20.924   03 Jun 2027 11:42:56.374           275.450                 Moscow         34431.250
       114   03 Jun 2027 11:43:14.385   03 Jun 2027 11:46:43.586           209.201              Murmansk2         26150.125
       115   03 Jun 2027 11:53:43.351   03 Jun 2027 11:57:13.388           210.037                Anadyr2         26254.625
       116   03 Jun 2027 12:51:03.639   03 Jun 2027 12:56:36.255           332.616               CapeTown         41577.000
       117   03 Jun 2027 13:13:11.811   03 Jun 2027 13:22:31.806           559.995              Murmansk2         69999.375
       118   03 Jun 2027 13:24:28.787   03 Jun 2027 13:31:12.995           404.208                Anadyr2         50526.000
       119   03 Jun 2027 16:45:31.129   03 Jun 2027 16:48:31.081           179.952                Irkutsk         22494.000
       120   03 Jun 2027 18:19:43.888   03 Jun 2027 18:26:28.872           404.984                Novosib         50623.000
       121   03 Jun 2027 21:29:20.314   03 Jun 2027 21:30:05.724            45.410              Murmansk1          5676.250
       122   03 Jun 2027 21:31:14.621   03 Jun 2027 21:33:45.480           150.859              Murmansk2         18857.375
       123   03 Jun 2027 21:34:20.135   03 Jun 2027 21:40:45.100           384.965                 Moscow         48120.625
       124   04 Jun 2027 03:50:37.892   04 Jun 2027 03:52:00.791            82.899                Novosib         10362.375
       125   04 Jun 2027 03:52:01.032   04 Jun 2027 03:52:06.006             4.974                Anadyr2           621.750
       126   04 Jun 2027 03:52:09.410   04 Jun 2027 03:52:24.693            15.283               Magadan1          1910.375
       127   04 Jun 2027 03:52:25.212   04 Jun 2027 03:53:01.622            36.410              Murmansk1          4551.250
       128   04 Jun 2027 03:53:13.169   04 Jun 2027 03:57:31.480           258.311                Norilsk         32288.875
       129   04 Jun 2027 05:29:21.047   04 Jun 2027 05:29:28.379             7.332                Novosib           916.500
       130   04 Jun 2027 05:30:07.608   04 Jun 2027 05:30:55.390            47.782              Murmansk1          5972.750
       131   04 Jun 2027 05:31:04.988   04 Jun 2027 05:32:49.714           104.726              Murmansk2         13090.750
       132   04 Jun 2027 05:32:54.111   04 Jun 2027 05:33:16.123            22.012                Norilsk          2751.500
       133   04 Jun 2027 05:34:44.821   04 Jun 2027 05:36:36.157           111.336              Murmansk1         13917.000
       134   04 Jun 2027 06:10:24.969   04 Jun 2027 06:15:42.252           317.283            RioGallegos         39660.375
       135   04 Jun 2027 06:45:08.666   04 Jun 2027 06:50:33.169           324.503                Sumatra         40562.875
       136   04 Jun 2027 06:53:16.453   04 Jun 2027 06:57:37.982           261.529                Irkutsk         32691.125
       137   04 Jun 2027 06:57:40.255   04 Jun 2027 06:58:16.253            35.998                Novosib          4499.750
       138   04 Jun 2027 07:04:21.821   04 Jun 2027 07:09:11.474           289.653                Norilsk         36206.625
       139   04 Jun 2027 07:10:30.789   04 Jun 2027 07:11:25.647            54.858              Murmansk2          6857.250
       140   04 Jun 2027 07:42:22.626   04 Jun 2027 07:50:01.065           458.439            RioGallegos         57304.875
       141   04 Jun 2027 08:17:15.985   04 Jun 2027 08:22:03.033           287.048                Sumatra         35881.000
       142   04 Jun 2027 08:29:08.778   04 Jun 2027 08:34:42.768           333.990                  Delhi         41748.750
       143   04 Jun 2027 08:34:43.487   04 Jun 2027 08:36:07.801            84.314                Irkutsk         10539.250
       144   04 Jun 2027 08:39:44.352   04 Jun 2027 08:41:24.611           100.259                Novosib         12532.375
       145   04 Jun 2027 08:41:30.341   04 Jun 2027 08:45:11.106           220.765                Norilsk         27595.625
       146   04 Jun 2027 08:46:25.559   04 Jun 2027 08:46:55.266            29.707              Murmansk1          3713.375
       147   04 Jun 2027 10:09:08.348   04 Jun 2027 10:09:35.617            27.269                 Moscow          3408.625
       148   04 Jun 2027 10:16:14.972   04 Jun 2027 10:16:39.575            24.603                Norilsk          3075.375
       149   04 Jun 2027 10:17:03.607   04 Jun 2027 10:20:54.050           230.443                Norilsk         28805.375
       150   04 Jun 2027 10:21:18.271   04 Jun 2027 10:22:47.000            88.729              Murmansk2         11091.125
       151   04 Jun 2027 11:45:20.881   04 Jun 2027 11:54:50.979           570.098                 Moscow         71262.250
       152   04 Jun 2027 11:55:12.498   04 Jun 2027 11:58:44.992           212.494              Murmansk2         26561.750
       153   04 Jun 2027 12:01:02.713   04 Jun 2027 12:09:53.972           531.259                Anadyr1         66407.375
       154   04 Jun 2027 13:02:44.559   04 Jun 2027 13:08:30.873           346.314               CapeTown         43289.250
       155   04 Jun 2027 13:25:45.733   04 Jun 2027 13:34:29.541           523.808              Murmansk2         65476.000
       156   04 Jun 2027 13:40:14.351   04 Jun 2027 13:43:49.686           215.335               Magadan1         26916.875
       157   04 Jun 2027 13:46:00.971   04 Jun 2027 13:46:51.630            50.659               Magadan2          6332.375
       158   04 Jun 2027 16:56:21.611   04 Jun 2027 17:02:13.282           351.671                Irkutsk         43958.875
       159   04 Jun 2027 17:13:41.038   04 Jun 2027 17:15:47.986           126.948                Sumatra         15868.500
       160   04 Jun 2027 18:31:17.828   04 Jun 2027 18:37:33.641           375.813                Novosib         46976.625
       161   04 Jun 2027 20:07:30.170   04 Jun 2027 20:07:34.565             4.395              Murmansk1           549.375
       162   04 Jun 2027 21:40:33.620   04 Jun 2027 21:42:08.961            95.341              Murmansk2         11917.625
       163   04 Jun 2027 21:43:57.173   04 Jun 2027 21:46:13.684           136.511              Murmansk2         17063.875
       164   04 Jun 2027 21:46:16.048   04 Jun 2027 21:47:49.896            93.848                 Moscow         11731.000
       165   04 Jun 2027 21:49:55.422   04 Jun 2027 21:51:07.966            72.544                 Moscow          8438.500
       166   05 Jun 2027 04:03:04.271   05 Jun 2027 04:03:44.941            40.670                Anadyr2          5083.750
       167   05 Jun 2027 04:04:04.399   05 Jun 2027 04:09:36.177           331.778                Norilsk         41472.250
       168   05 Jun 2027 04:09:52.884   05 Jun 2027 04:11:21.883            88.999              Murmansk1         11124.875
       169   05 Jun 2027 05:18:14.099   05 Jun 2027 05:19:26.851            72.752                Sumatra          9094.000
       170   05 Jun 2027 05:40:36.794   05 Jun 2027 05:41:34.753            57.959                Norilsk          7244.875
       171   05 Jun 2027 05:42:04.546   05 Jun 2027 05:42:48.125            43.579              Murmansk1          5447.375
       172   05 Jun 2027 05:42:57.377   05 Jun 2027 05:45:04.333           126.956              Murmansk2         15869.500
       173   05 Jun 2027 05:46:43.756   05 Jun 2027 05:48:26.600           102.844              Murmansk1         12855.500
       174   05 Jun 2027 06:22:18.101   05 Jun 2027 06:27:39.741           321.640            RioGallegos         40205.000
       175   05 Jun 2027 06:56:50.945   05 Jun 2027 07:02:31.432           340.487                Sumatra         42560.875
       176   05 Jun 2027 07:04:55.535   05 Jun 2027 07:09:48.953           293.418                Novosib         36677.250
       177   05 Jun 2027 07:15:30.820   05 Jun 2027 07:16:13.620            42.800                Novosib          5350.000
       178   05 Jun 2027 07:16:36.512   05 Jun 2027 07:21:13.298           276.786                Norilsk         34598.250
       179   05 Jun 2027 07:22:32.031   05 Jun 2027 07:23:21.815            49.784              Murmansk2          6223.000
       180   05 Jun 2027 07:55:28.926   05 Jun 2027 08:01:23.550           354.624            RioGallegos         44328.000
       181   05 Jun 2027 08:40:49.650   05 Jun 2027 08:46:36.182           346.532                  Delhi         43316.500
       182   05 Jun 2027 08:47:36.851   05 Jun 2027 08:48:12.179            35.328                Norilsk          4416.000
       183   05 Jun 2027 08:52:00.984   05 Jun 2027 08:52:15.044            14.060              Murmansk2          1757.500
       184   05 Jun 2027 08:52:47.137   05 Jun 2027 08:57:12.426           265.289                Norilsk         33161.125
       185   05 Jun 2027 08:57:46.294   05 Jun 2027 08:58:55.214            68.920              Murmansk2          8615.000
       186   05 Jun 2027 10:27:11.856   05 Jun 2027 10:32:49.323           337.467                Norilsk         42183.375
       187   05 Jun 2027 10:33:16.094   05 Jun 2027 10:34:48.529            92.435              Murmansk1         11554.375
       188   05 Jun 2027 12:00:39.172   05 Jun 2027 12:10:46.226           607.054              Murmansk2         75881.750
       189   05 Jun 2027 12:12:56.399   05 Jun 2027 12:22:29.831           573.432                Anadyr2         71679.000
       190   05 Jun 2027 13:10:54.653   05 Jun 2027 13:20:20.503           565.850               CapeTown         70731.250
       191   05 Jun 2027 13:38:22.955   05 Jun 2027 13:45:34.027           431.072              Murmansk2         53884.000
       192   05 Jun 2027 13:51:52.919   05 Jun 2027 13:55:42.313           229.394               Magadan2         28674.250
       193   05 Jun 2027 13:56:23.187   05 Jun 2027 13:58:11.581           108.394               Magadan1         13549.250
       194   05 Jun 2027 16:22:06.959   05 Jun 2027 16:23:50.406           103.447            RioGallegos         12930.875
       195   05 Jun 2027 17:07:45.043   05 Jun 2027 17:13:41.085           356.042                Irkutsk         44505.250
       196   05 Jun 2027 17:15:18.804   05 Jun 2027 17:15:19.367             0.563                Irkutsk            70.375
       197   05 Jun 2027 17:23:24.120   05 Jun 2027 17:25:13.728           109.608                Sumatra         13701.000
       198   05 Jun 2027 17:26:51.164   05 Jun 2027 17:29:04.671           133.507                Sumatra         16688.375
       199   05 Jun 2027 18:44:44.104   05 Jun 2027 18:46:19.309            95.205                Novosib         11900.625
       200   05 Jun 2027 18:49:37.817   05 Jun 2027 18:51:13.467            95.650                Novosib         11956.250
       201   05 Jun 2027 20:18:54.878   05 Jun 2027 20:19:12.475            17.597              Murmansk2          2199.625
       202   05 Jun 2027 21:53:16.421   05 Jun 2027 21:54:24.898            68.477              Murmansk1          8559.625
       203   05 Jun 2027 21:56:19.187   05 Jun 2027 21:58:06.994           107.807                 Moscow         13475.875
       204   05 Jun 2027 21:59:06.415   05 Jun 2027 21:59:51.004            44.589                 Moscow          5573.625
       205   05 Jun 2027 22:02:20.054   05 Jun 2027 22:03:09.802            49.748                 Moscow          3288.624
       206   06 Jun 2027 04:15:12.329   06 Jun 2027 04:15:21.798             9.469                Irkutsk          1183.625
       207   06 Jun 2027 04:16:28.114   06 Jun 2027 04:24:09.443           461.329              Murmansk2         57666.125
       208   06 Jun 2027 05:28:46.800   06 Jun 2027 05:30:41.387           114.587                Sumatra         14323.375
       209   06 Jun 2027 05:53:16.106   06 Jun 2027 05:53:39.424            23.318                Novosib          2914.750
       210   06 Jun 2027 05:54:02.053   06 Jun 2027 05:54:50.514            48.461              Murmansk1          6057.625
       211   06 Jun 2027 05:54:50.514   06 Jun 2027 05:57:14.926           144.412              Murmansk2         18051.500
       212   06 Jun 2027 05:58:43.109   06 Jun 2027 06:00:17.761            94.652              Murmansk1         11831.500
       213   06 Jun 2027 06:34:08.877   06 Jun 2027 06:39:35.805           326.928            RioGallegos         40866.000
       214   06 Jun 2027 07:08:25.566   06 Jun 2027 07:14:24.035           358.469                Sumatra         44808.625
       215   06 Jun 2027 07:16:29.504   06 Jun 2027 07:17:50.684            81.180                Irkutsk         10147.500
       216   06 Jun 2027 07:18:08.888   06 Jun 2027 07:19:19.545            70.657                Novosib          8832.125
       217   06 Jun 2027 07:19:33.542   06 Jun 2027 07:22:15.425           161.883                Novosib         20235.375
       218   06 Jun 2027 07:28:12.708   06 Jun 2027 07:33:15.167           302.459                Norilsk         37807.375
       219   06 Jun 2027 07:34:33.419   06 Jun 2027 07:35:18.593            45.174              Murmansk1          5646.750
       220   06 Jun 2027 08:09:12.373   06 Jun 2027 08:12:12.057           179.684            RioGallegos         22460.500
       221   06 Jun 2027 08:52:23.245   06 Jun 2027 08:58:25.546           362.301                  Delhi         45287.625
       222   06 Jun 2027 08:58:42.951   06 Jun 2027 08:59:08.107            25.156                Novosib          3144.500
       223   06 Jun 2027 09:03:52.866   06 Jun 2027 09:05:11.195            78.329                Novosib          9791.125
       224   06 Jun 2027 09:05:29.745   06 Jun 2027 09:09:13.492           223.747                Norilsk         27968.375
       225   06 Jun 2027 09:10:28.394   06 Jun 2027 09:10:55.463            27.069              Murmansk2          3383.625
       226   06 Jun 2027 10:38:54.607   06 Jun 2027 10:43:20.031           265.424                 Moscow         33178.000
       227   06 Jun 2027 10:43:22.467   06 Jun 2027 10:44:42.050            79.583                Norilsk          9947.875
       228   06 Jun 2027 10:45:14.419   06 Jun 2027 10:46:50.133            95.714              Murmansk1         11964.250
       229   06 Jun 2027 12:09:07.486   06 Jun 2027 12:18:34.156           566.670                 Moscow         70833.750
       230   06 Jun 2027 12:19:10.162   06 Jun 2027 12:22:47.255           217.093              Murmansk1         27136.625
       231   06 Jun 2027 12:25:02.005   06 Jun 2027 12:35:01.652           599.647                Anadyr1         74955.875
       232   06 Jun 2027 13:22:43.261   06 Jun 2027 13:32:04.949           561.688               CapeTown         70211.000
       233   06 Jun 2027 13:51:03.975   06 Jun 2027 13:53:01.495           117.520              Murmansk2         14690.000
       234   06 Jun 2027 14:03:37.772   06 Jun 2027 14:08:53.044           315.272               Magadan1         39409.000
       235   06 Jun 2027 14:10:19.420   06 Jun 2027 14:11:56.637            97.217               Magadan1         12152.125
       236   06 Jun 2027 16:32:39.844   06 Jun 2027 16:35:33.734           173.890            RioGallegos         21736.250
       237   06 Jun 2027 17:19:20.548   06 Jun 2027 17:23:03.266           222.718                Irkutsk         27839.750
       238   06 Jun 2027 17:25:44.254   06 Jun 2027 17:26:01.866            17.612                Irkutsk          2201.500
       239   06 Jun 2027 17:34:16.868   06 Jun 2027 17:38:43.436           266.568                Sumatra         33321.000
       240   06 Jun 2027 18:57:50.210   06 Jun 2027 18:58:20.539            30.329                Novosib          3791.125
       241   06 Jun 2027 18:58:47.311   06 Jun 2027 19:00:43.357           116.046                Novosib         14505.750
       242   06 Jun 2027 19:04:46.199   06 Jun 2027 19:05:43.245            57.046                  Delhi          7130.750
       243   06 Jun 2027 20:30:23.590   06 Jun 2027 20:31:22.135            58.545              Murmansk1          7318.125
       244   06 Jun 2027 22:06:29.454   06 Jun 2027 22:09:10.756           161.302              Murmansk2         20117.251
       245   07 Jun 2027 04:27:59.405   07 Jun 2027 04:28:01.888             2.483                Irkutsk           310.375
       246   07 Jun 2027 04:28:22.998   07 Jun 2027 04:37:19.169           536.171              Murmansk1         67021.375
       247   07 Jun 2027 05:39:52.045   07 Jun 2027 05:41:22.440            90.395                Sumatra         11299.375
       248   07 Jun 2027 05:45:31.196   07 Jun 2027 05:47:09.244            98.048                Sumatra         12256.000
       249   07 Jun 2027 06:04:14.705   07 Jun 2027 06:05:49.098            94.393                Norilsk         11799.125
       250   07 Jun 2027 06:06:00.083   07 Jun 2027 06:07:08.591            68.508              Murmansk1          8563.500
       251   07 Jun 2027 06:07:08.591   07 Jun 2027 06:09:06.449           117.858              Murmansk2         14732.250
       252   07 Jun 2027 06:10:42.828   07 Jun 2027 06:12:09.660            86.832              Murmansk1         10854.000
       253   07 Jun 2027 06:45:56.622   07 Jun 2027 06:51:30.195           333.573            RioGallegos         41696.625
       254   07 Jun 2027 07:19:50.444   07 Jun 2027 07:26:10.597           380.153                Sumatra         47519.125
       255   07 Jun 2027 07:30:22.598   07 Jun 2027 07:35:12.462           289.864                Novosib         36233.000
       256   07 Jun 2027 07:39:54.176   07 Jun 2027 07:41:49.308           115.132                Novosib         14391.500
       257   07 Jun 2027 07:41:55.335   07 Jun 2027 07:45:17.060           201.725                Norilsk         25215.625
       258   07 Jun 2027 07:46:34.933   07 Jun 2027 07:47:15.944            41.011              Murmansk2          5126.375
       259   07 Jun 2027 09:03:46.207   07 Jun 2027 09:10:10.116           383.909                  Delhi         47988.625
       260   07 Jun 2027 09:10:22.760   07 Jun 2027 09:11:10.613            47.853                Novosib          5981.625
       261   07 Jun 2027 09:15:43.106   07 Jun 2027 09:17:01.037            77.931                Novosib          9741.375
       262   07 Jun 2027 09:17:02.752   07 Jun 2027 09:21:14.236           251.484                Norilsk         31435.500
       263   07 Jun 2027 09:21:25.093   07 Jun 2027 09:22:55.990            90.897              Murmansk1         11362.125
       264   07 Jun 2027 10:45:45.551   07 Jun 2027 10:47:39.941           114.390                 Moscow         14298.750
       265   07 Jun 2027 10:50:33.441   07 Jun 2027 10:55:20.028           286.587                 Moscow         35823.375
       266   07 Jun 2027 10:55:24.374   07 Jun 2027 10:56:30.562            66.188                Norilsk          8273.500
       267   07 Jun 2027 10:56:34.368   07 Jun 2027 10:58:51.782           137.414              Murmansk2         17176.750
       268   07 Jun 2027 11:03:33.195   07 Jun 2027 11:04:48.820            75.625                Anadyr2          9453.125
       269   07 Jun 2027 12:07:57.935   07 Jun 2027 12:08:21.539            23.604               CapeTown          2950.500
       270   07 Jun 2027 12:20:58.476   07 Jun 2027 12:30:21.447           562.971                 Moscow         70371.375
       271   07 Jun 2027 12:30:24.327   07 Jun 2027 12:32:16.813           112.486              Murmansk2         14060.750
       272   07 Jun 2027 12:37:33.076   07 Jun 2027 12:38:33.622            60.546                Anadyr2          7568.250
       273   07 Jun 2027 14:15:26.623   07 Jun 2027 14:19:32.675           246.052               Magadan1         30756.500
       274   07 Jun 2027 14:19:32.675   07 Jun 2027 14:21:16.457           103.782               Magadan2         12972.750
       275   07 Jun 2027 16:43:59.208   07 Jun 2027 16:47:21.255           202.047            RioGallegos         25255.875
       276   07 Jun 2027 16:49:48.630   07 Jun 2027 16:51:22.878            94.248            RioGallegos         11781.000
       277   07 Jun 2027 17:33:30.042   07 Jun 2027 17:34:56.739            86.697                Irkutsk         10837.125
       278   07 Jun 2027 17:37:01.783   07 Jun 2027 17:37:44.195            42.412                Irkutsk          5301.500
       279   07 Jun 2027 17:45:31.115   07 Jun 2027 17:49:21.738           230.623                Sumatra         28827.875
       280   07 Jun 2027 17:50:17.382   07 Jun 2027 17:51:28.754            71.372                Sumatra          8921.500
       281   07 Jun 2027 17:53:13.640   07 Jun 2027 17:53:26.129            12.489                Sumatra          1561.125
       282   07 Jun 2027 19:15:40.038   07 Jun 2027 19:17:50.432           130.394                  Delhi         16299.250
       283   07 Jun 2027 19:20:18.423   07 Jun 2027 19:22:33.201           134.778                  Delhi         16847.250
       284   07 Jun 2027 20:44:00.883   07 Jun 2027 20:44:44.164            43.281              Murmansk1          5410.125
       285   07 Jun 2027 22:19:26.632   07 Jun 2027 22:20:00.775            34.143              Murmansk1          4267.875
       286   07 Jun 2027 22:22:48.991   07 Jun 2027 22:23:07.905            18.914              Murmansk1          2279.874
       287   08 Jun 2027 04:40:22.974   08 Jun 2027 04:45:31.512           308.538                Norilsk         38567.250
       288   08 Jun 2027 04:47:08.844   08 Jun 2027 04:49:35.127           146.283              Murmansk1         18285.375
       289   08 Jun 2027 05:15:09.075   08 Jun 2027 05:17:28.508           139.433            RioGallegos         17429.125
       290   08 Jun 2027 05:54:13.486   08 Jun 2027 05:54:35.566            22.080                Sumatra          2760.000
       291   08 Jun 2027 06:16:16.333   08 Jun 2027 06:17:49.854            93.521                Norilsk         11690.125
       292   08 Jun 2027 06:17:58.595   08 Jun 2027 06:19:37.163            98.568              Murmansk1         12321.000
       293   08 Jun 2027 06:19:37.163   08 Jun 2027 06:21:03.694            86.531              Murmansk2         10816.375
       294   08 Jun 2027 06:21:09.168   08 Jun 2027 06:21:19.763            10.595                Norilsk          1324.375
       295   08 Jun 2027 06:22:42.884   08 Jun 2027 06:24:02.315            79.431              Murmansk1          9928.875
       296   08 Jun 2027 06:57:40.269   08 Jun 2027 07:03:22.545           342.276            RioGallegos         42784.500
       297   08 Jun 2027 07:31:01.400   08 Jun 2027 07:37:50.325           408.925                Sumatra         51115.625
       298   08 Jun 2027 07:41:30.164   08 Jun 2027 07:42:01.365            31.201                Irkutsk          3900.125
       299   08 Jun 2027 07:43:22.130   08 Jun 2027 07:47:23.486           241.356                Novosib         30169.500
       300   08 Jun 2027 07:51:39.591   08 Jun 2027 07:53:49.147           129.556                Novosib         16194.500
       301   08 Jun 2027 07:53:52.517   08 Jun 2027 07:57:18.938           206.421                Norilsk         25802.625
       302   08 Jun 2027 07:58:36.544   08 Jun 2027 07:59:13.829            37.285              Murmansk1          4660.625
       303   08 Jun 2027 09:14:50.488   08 Jun 2027 09:21:48.655           418.167                  Delhi         52270.875
       304   08 Jun 2027 09:22:11.272   08 Jun 2027 09:23:27.506            76.234                Novosib          9529.250
       305   08 Jun 2027 09:27:41.985   08 Jun 2027 09:28:47.544            65.559                Novosib          8194.875
       306   08 Jun 2027 09:28:51.800   08 Jun 2027 09:33:14.555           262.755                Norilsk         32844.375
       307   08 Jun 2027 09:33:15.641   08 Jun 2027 09:34:56.754           101.113              Murmansk2         12639.125
       308   08 Jun 2027 10:57:45.394   08 Jun 2027 10:59:39.803           114.409                 Moscow         14301.125
       309   08 Jun 2027 11:00:53.277   08 Jun 2027 11:10:53.449           600.172              Murmansk1         75021.500
       310   08 Jun 2027 11:16:05.421   08 Jun 2027 11:18:40.439           155.018                Anadyr1         19377.250
       311   08 Jun 2027 12:15:44.151   08 Jun 2027 12:17:30.672           106.521               CapeTown         13315.125
       312   08 Jun 2027 14:27:18.255   08 Jun 2027 14:31:07.454           229.199               Magadan2         28649.875
       313   08 Jun 2027 14:31:11.283   08 Jun 2027 14:32:58.695           107.412               Magadan2         13426.500
       314   08 Jun 2027 16:55:32.547   08 Jun 2027 17:00:44.594           312.047            RioGallegos         39005.875
       315   08 Jun 2027 17:01:51.428   08 Jun 2027 17:02:24.174            32.746            RioGallegos          4093.250
       316   08 Jun 2027 17:40:37.710   08 Jun 2027 17:41:33.067            55.357                Norilsk          6919.625
       317   08 Jun 2027 17:46:42.474   08 Jun 2027 17:46:52.010             9.536                Irkutsk          1192.000
       318   08 Jun 2027 18:01:13.451   08 Jun 2027 18:03:59.816           166.365                Sumatra         20795.625
       319   08 Jun 2027 19:26:58.194   08 Jun 2027 19:30:14.126           195.932                  Delhi         24491.500
       320   08 Jun 2027 19:32:41.467   08 Jun 2027 19:34:33.828           112.361                  Delhi         14045.125
       321   08 Jun 2027 20:54:15.682   08 Jun 2027 20:54:56.402            40.720              Murmansk2          5090.000
       322   08 Jun 2027 20:56:36.150   08 Jun 2027 20:56:45.432             9.282              Murmansk2          1160.250
       323   08 Jun 2027 23:01:53.328   08 Jun 2027 23:03:52.157           118.829               CapeTown         14853.625
       324   09 Jun 2027 04:55:46.762   09 Jun 2027 04:57:02.603            75.841              Murmansk2          9480.125
       325   09 Jun 2027 04:57:03.331   09 Jun 2027 04:57:30.804            27.473                Norilsk          3434.125
       326   09 Jun 2027 04:59:05.762   09 Jun 2027 05:01:23.196           137.434              Murmansk1         17179.250
       327   09 Jun 2027 05:34:50.011   09 Jun 2027 05:39:57.549           307.538            RioGallegos         38442.250
       328   09 Jun 2027 06:13:47.016   09 Jun 2027 06:14:18.363            31.347                Sumatra          3918.375
       329   09 Jun 2027 06:17:35.616   09 Jun 2027 06:22:55.791           320.175                Irkutsk         40021.875
       330   09 Jun 2027 06:28:18.056   09 Jun 2027 06:33:21.163           303.107                Norilsk         37888.375
       331   09 Jun 2027 06:34:43.236   09 Jun 2027 06:35:55.714            72.478              Murmansk2          9059.750
       332   09 Jun 2027 07:09:17.927   09 Jun 2027 07:15:12.331           354.404            RioGallegos         44300.500
       333   09 Jun 2027 07:41:47.489   09 Jun 2027 07:49:21.791           454.302                Sumatra         56787.750
       334   09 Jun 2027 07:53:09.003   09 Jun 2027 07:54:03.206            54.203                Novosib          6775.375
       335   09 Jun 2027 07:54:27.867   09 Jun 2027 07:56:30.005           122.138                  Delhi         15267.250
       336   09 Jun 2027 08:04:17.810   09 Jun 2027 08:09:20.779           302.969                Norilsk         37871.125
       337   09 Jun 2027 08:10:37.187   09 Jun 2027 08:11:12.203            35.016              Murmansk1          4377.000
       338   09 Jun 2027 09:24:54.479   09 Jun 2027 09:33:18.981           504.502                  Delhi         63062.750
       339   09 Jun 2027 09:33:26.628   09 Jun 2027 09:35:56.645           150.017                Novosib         18752.125
       340   09 Jun 2027 09:40:16.811   09 Jun 2027 09:43:25.533           188.722                 Moscow         23590.250
       341   09 Jun 2027 09:43:27.897   09 Jun 2027 09:45:14.345           106.448                Norilsk         13306.000
       342   09 Jun 2027 09:45:43.363   09 Jun 2027 09:46:57.732            74.369              Murmansk1          9296.125
       343   09 Jun 2027 11:08:35.300   09 Jun 2027 11:08:50.124            14.824                 Moscow          1853.000
       344   09 Jun 2027 11:12:54.204   09 Jun 2027 11:22:55.098           600.894              Murmansk1         75111.750
       345   09 Jun 2027 11:25:55.366   09 Jun 2027 11:29:04.650           189.284                Anadyr1         23660.500
       346   09 Jun 2027 14:39:11.958   09 Jun 2027 14:41:32.750           140.792               Magadan2         17599.000
       347   09 Jun 2027 17:09:27.756   09 Jun 2027 17:13:30.533           242.777            RioGallegos         30347.125
       348   09 Jun 2027 18:02:20.938   09 Jun 2027 18:04:08.172           107.234                Irkutsk         13404.250
       349   09 Jun 2027 18:14:24.051   09 Jun 2027 18:15:05.447            41.396                Sumatra          5174.500
       350   09 Jun 2027 19:41:24.601   09 Jun 2027 19:45:21.617           237.016                  Delhi         29627.000
       351   09 Jun 2027 21:05:47.840   09 Jun 2027 21:09:02.901           195.061              Murmansk1         24382.625
       352   09 Jun 2027 21:09:04.581   09 Jun 2027 21:10:10.890            66.309              Murmansk2          8288.625
       353   09 Jun 2027 21:10:22.133   09 Jun 2027 21:12:24.412           122.279                 Moscow         15284.875
       354   09 Jun 2027 23:14:31.559   09 Jun 2027 23:14:37.834             6.275               CapeTown           784.375
       355   10 Jun 2027 05:05:08.639   10 Jun 2027 05:05:29.430            20.791                Novosib          2598.875
       356   10 Jun 2027 05:07:36.965   10 Jun 2027 05:09:30.679           113.714              Murmansk1         14214.250
       357   10 Jun 2027 05:11:03.250   10 Jun 2027 05:13:11.763           128.513              Murmansk2         16064.125
       358   10 Jun 2027 05:46:47.945   10 Jun 2027 05:51:58.341           310.396            RioGallegos         38799.500
       359   10 Jun 2027 06:25:24.754   10 Jun 2027 06:26:34.418            69.664                Sumatra          8708.000
       360   10 Jun 2027 06:28:58.781   10 Jun 2027 06:34:15.180           316.399                Irkutsk         39549.875
       361   10 Jun 2027 06:40:19.862   10 Jun 2027 06:45:22.703           302.841                Norilsk         37855.125
       362   10 Jun 2027 06:46:43.865   10 Jun 2027 06:47:49.843            65.978              Murmansk2          8247.250
       363   10 Jun 2027 07:20:45.672   10 Jun 2027 07:26:58.763           373.091            RioGallegos         46636.375
       364   10 Jun 2027 07:51:40.314   10 Jun 2027 08:00:42.385           542.071                Sumatra         67758.875
       365   10 Jun 2027 08:05:20.091   10 Jun 2027 08:05:58.200            38.109                Novosib          4763.625
       366   10 Jun 2027 08:06:14.943   10 Jun 2027 08:11:00.049           285.106                  Delhi         35638.250
       367   10 Jun 2027 08:11:20.869   10 Jun 2027 08:12:07.979            47.110                Irkutsk          5888.750
       368   10 Jun 2027 08:15:49.177   10 Jun 2027 08:17:46.325           117.148                Novosib         14643.500
       369   10 Jun 2027 08:17:47.353   10 Jun 2027 08:19:07.919            80.566              Murmansk2         10070.750
       370   10 Jun 2027 08:19:07.919   10 Jun 2027 08:21:22.804           134.885              Murmansk1         16860.625
       371   10 Jun 2027 08:22:38.023   10 Jun 2027 08:23:11.029            33.006              Murmansk1          4125.750
       372   10 Jun 2027 09:36:44.034   10 Jun 2027 09:44:36.694           472.660                  Delhi         59082.500
       373   10 Jun 2027 09:45:17.184   10 Jun 2027 09:47:21.436           124.252                Novosib         15531.500
       374   10 Jun 2027 09:51:40.343   10 Jun 2027 09:51:50.768            10.425                Novosib          1303.125
       375   10 Jun 2027 09:52:53.788   10 Jun 2027 09:57:13.444           259.656                Norilsk         32457.000
       376   10 Jun 2027 09:57:22.788   10 Jun 2027 09:58:58.890            96.102              Murmansk2         12012.750
       377   10 Jun 2027 11:21:42.579   10 Jun 2027 11:22:17.506            34.927                 Moscow          4365.875
       378   10 Jun 2027 11:25:20.886   10 Jun 2027 11:26:07.483            46.597              Murmansk1          5824.625
       379   10 Jun 2027 11:26:42.780   10 Jun 2027 11:31:14.869           272.089                 Moscow         34011.125
       380   10 Jun 2027 11:31:32.693   10 Jun 2027 11:34:56.700           204.007              Murmansk1         25500.875
       381   10 Jun 2027 11:41:04.759   10 Jun 2027 11:44:42.161           217.402                Anadyr2         27175.250
       382   10 Jun 2027 12:39:31.817   10 Jun 2027 12:43:29.437           237.620               CapeTown         29702.500
       383   10 Jun 2027 13:18:14.660   10 Jun 2027 13:20:07.236           112.576               Magadan2         14072.000
       384   10 Jun 2027 14:51:07.261   10 Jun 2027 14:53:15.751           128.490               Magadan1         16061.250
       385   10 Jun 2027 17:22:45.217   10 Jun 2027 17:24:58.416           133.199            RioGallegos         16649.875
       386   10 Jun 2027 18:04:05.582   10 Jun 2027 18:06:50.972           165.390                Norilsk         20673.750
       387   10 Jun 2027 18:08:39.133   10 Jun 2027 18:13:30.323           291.190                Novosib         36398.750
       388   10 Jun 2027 19:54:57.024   10 Jun 2027 19:56:30.594            93.570                  Delhi         11696.250
       389   10 Jun 2027 21:17:56.181   10 Jun 2027 21:18:50.648            54.467              Murmansk1          6808.375
       390   10 Jun 2027 21:19:15.496   10 Jun 2027 21:21:02.533           107.037              Murmansk2         13379.625
       391   10 Jun 2027 21:21:35.682   10 Jun 2027 21:23:30.928           115.246              Murmansk1         14405.750
       392   10 Jun 2027 21:24:04.513   10 Jun 2027 21:24:55.588            51.075                 Moscow          6384.375
       393   11 Jun 2027 05:15:11.481   11 Jun 2027 05:15:30.314            18.833                Irkutsk          2354.125
       394   11 Jun 2027 05:16:29.809   11 Jun 2027 05:17:14.465            44.656                Novosib          5582.000
       395   11 Jun 2027 05:18:26.018   11 Jun 2027 05:19:17.060            51.042              Murmansk2          6380.250
       396   11 Jun 2027 05:19:27.879   11 Jun 2027 05:21:18.256           110.377              Murmansk1         13797.125
       397   11 Jun 2027 05:23:01.266   11 Jun 2027 05:25:00.894           119.628              Murmansk2         14953.500
       398   11 Jun 2027 05:58:44.535   11 Jun 2027 06:03:58.135           313.600            RioGallegos         39200.000
       399   11 Jun 2027 06:33:34.420   11 Jun 2027 06:38:44.019           309.599                Sumatra         38699.875
       400   11 Jun 2027 06:41:07.118   11 Jun 2027 06:46:23.940           316.822                Irkutsk         39602.750
       401   11 Jun 2027 06:52:21.723   11 Jun 2027 06:57:24.357           302.634                Norilsk         37829.250
       402   11 Jun 2027 06:58:44.726   11 Jun 2027 06:59:44.691            59.965              Murmansk1          7495.625
       403   11 Jun 2027 07:31:51.650   11 Jun 2027 07:38:40.556           408.906            RioGallegos         51113.250
       404   11 Jun 2027 08:04:08.419   11 Jun 2027 08:11:46.486           458.067                Sumatra         57258.375
       405   11 Jun 2027 08:17:34.598   11 Jun 2027 08:17:55.506            20.908                Novosib          2613.500
       406   11 Jun 2027 08:18:26.634   11 Jun 2027 08:23:00.362           273.728                  Delhi         34216.000
       407   11 Jun 2027 08:23:01.175   11 Jun 2027 08:24:16.611            75.436                Irkutsk          9429.500
       408   11 Jun 2027 08:27:54.702   11 Jun 2027 08:29:43.382           108.680                Novosib         13585.000
       409   11 Jun 2027 08:29:47.168   11 Jun 2027 08:33:24.216           217.048                Norilsk         27131.000
       410   11 Jun 2027 08:34:39.070   11 Jun 2027 08:35:10.266            31.196              Murmansk2          3899.500
       411   11 Jun 2027 09:50:04.002   11 Jun 2027 09:55:29.476           325.474                  Delhi         40684.250
       412   11 Jun 2027 10:05:33.647   11 Jun 2027 10:09:11.638           217.991                Norilsk         27248.875
       413   11 Jun 2027 10:09:36.138   11 Jun 2027 10:11:00.197            84.059              Murmansk1         10507.375
       414   11 Jun 2027 11:33:39.645   11 Jun 2027 11:34:32.507            52.862                 Moscow          6607.750
       415   11 Jun 2027 11:37:22.475   11 Jun 2027 11:38:14.096            51.621              Murmansk1          6452.625
       416   11 Jun 2027 11:38:54.598   11 Jun 2027 11:43:10.933           256.335                 Moscow         32041.875
       417   11 Jun 2027 11:43:30.286   11 Jun 2027 11:46:58.218           207.932              Murmansk2         25991.500
       418   11 Jun 2027 11:53:58.382   11 Jun 2027 11:57:28.518           210.136                Anadyr1         26267.000
       419   11 Jun 2027 12:51:18.073   11 Jun 2027 12:56:50.833           332.760               CapeTown         41595.000
       420   11 Jun 2027 13:13:26.821   11 Jun 2027 13:22:46.396           559.575              Murmansk1         69946.875
       421   11 Jun 2027 13:24:43.405   11 Jun 2027 13:31:27.941           404.536                Anadyr2         50567.000
       422   11 Jun 2027 16:45:44.395   11 Jun 2027 16:48:47.463           183.068                Irkutsk         22883.500
       423   11 Jun 2027 18:19:58.138   11 Jun 2027 18:26:44.237           406.099                Novosib         50762.375
       424   11 Jun 2027 21:29:35.538   11 Jun 2027 21:31:22.423           106.885              Murmansk1         13360.625
       425   11 Jun 2027 21:31:29.813   11 Jun 2027 21:34:00.079           150.266              Murmansk1         18783.250
       426   11 Jun 2027 21:34:35.060   11 Jun 2027 21:41:00.337           385.277                 Moscow         48159.625
       427   12 Jun 2027 03:50:52.656   12 Jun 2027 03:52:19.431            86.775                Novosib         10846.875
       428   12 Jun 2027 03:52:20.194   12 Jun 2027 03:52:20.487             0.293                Anadyr2            36.625
       429   12 Jun 2027 03:52:24.730   12 Jun 2027 03:52:39.290            14.560               Magadan1          1820.000
       430   12 Jun 2027 03:52:42.492   12 Jun 2027 03:56:27.853           225.361              Murmansk1         28170.125
       431   12 Jun 2027 05:29:36.006   12 Jun 2027 05:29:43.074             7.068                Novosib           883.500
       432   12 Jun 2027 05:30:22.369   12 Jun 2027 05:31:10.835            48.466              Murmansk2          6058.250
       433   12 Jun 2027 05:31:19.527   12 Jun 2027 05:33:06.205           106.678              Murmansk1         13334.750
       434   12 Jun 2027 05:33:09.143   12 Jun 2027 05:33:30.745            21.602                Norilsk          2700.250
       435   12 Jun 2027 05:34:59.769   12 Jun 2027 05:36:50.659           110.890              Murmansk2         13861.250
       436   12 Jun 2027 06:10:39.534   12 Jun 2027 06:15:56.845           317.311            RioGallegos         39663.875
       437   12 Jun 2027 06:45:23.125   12 Jun 2027 06:50:47.798           324.673                Sumatra         40584.125
       438   12 Jun 2027 06:53:33.054   12 Jun 2027 06:57:53.033           259.979                Irkutsk         32497.375
       439   12 Jun 2027 06:57:55.482   12 Jun 2027 06:58:32.863            37.381                Novosib          4672.625
       440   12 Jun 2027 07:04:37.258   12 Jun 2027 07:09:26.111           288.853                Norilsk         36106.625
       441   12 Jun 2027 07:10:45.795   12 Jun 2027 07:11:40.218            54.423              Murmansk2          6802.875
       442   12 Jun 2027 07:42:37.935   12 Jun 2027 07:50:15.312           457.377            RioGallegos         57172.125
       443   12 Jun 2027 08:17:32.021   12 Jun 2027 08:22:16.134           284.113                Sumatra         35514.125
       444   12 Jun 2027 08:29:23.214   12 Jun 2027 08:34:57.327           334.113                  Delhi         41764.125
       445   12 Jun 2027 08:35:20.210   12 Jun 2027 08:36:24.121            63.911                Irkutsk          7988.875
       446   12 Jun 2027 08:39:59.693   12 Jun 2027 08:41:39.166            99.473                Novosib         12434.125
       447   12 Jun 2027 08:41:46.300   12 Jun 2027 08:45:25.736           219.436                Norilsk         27429.500
       448   12 Jun 2027 08:46:40.286   12 Jun 2027 08:47:09.882            29.596              Murmansk1          3699.500
       449   12 Jun 2027 10:09:23.022   12 Jun 2027 10:09:50.465            27.443                 Moscow          3430.375
       450   12 Jun 2027 10:16:31.313   12 Jun 2027 10:21:08.611           277.298                Norilsk         34662.250
       451   12 Jun 2027 10:21:33.423   12 Jun 2027 10:23:01.634            88.211              Murmansk1         11026.375
       452   12 Jun 2027 11:45:35.435   12 Jun 2027 11:55:05.516           570.081                 Moscow         71260.125
       453   12 Jun 2027 11:55:28.420   12 Jun 2027 11:58:59.621           211.201              Murmansk2         26400.125
       454   12 Jun 2027 12:01:17.249   12 Jun 2027 12:10:09.040           531.791                Anadyr2         66473.875
       455   12 Jun 2027 13:02:58.922   12 Jun 2027 13:08:45.391           346.469               CapeTown         43308.625
       456   12 Jun 2027 13:26:00.783   12 Jun 2027 13:34:44.115           523.332              Murmansk1         65416.500
       457   12 Jun 2027 13:40:28.670   12 Jun 2027 13:44:03.602           214.932               Magadan2         26866.500
       458   12 Jun 2027 16:56:35.687   12 Jun 2027 17:02:28.816           353.129                Irkutsk         44141.125
       459   12 Jun 2027 17:13:52.167   12 Jun 2027 17:16:06.005           133.838                Sumatra         16729.750
       460   12 Jun 2027 18:31:32.196   12 Jun 2027 18:37:48.563           376.367                Novosib         47045.875
       461   12 Jun 2027 20:07:45.468   12 Jun 2027 20:07:56.213            10.745              Murmansk1          1343.125
       462   12 Jun 2027 21:40:39.990   12 Jun 2027 21:42:04.056            84.066              Murmansk2         10508.250
       463   12 Jun 2027 21:44:12.310   12 Jun 2027 21:46:28.612           136.302              Murmansk1         17037.750
       464   12 Jun 2027 21:46:30.914   12 Jun 2027 21:48:04.734            93.820                 Moscow         11727.500
       465   12 Jun 2027 21:48:38.926   12 Jun 2027 21:50:10.398            91.472                 Moscow         11410.375
       466   13 Jun 2027 04:03:19.496   13 Jun 2027 04:04:00.923            41.427                Anadyr2          5178.375
       467   13 Jun 2027 04:04:21.686   13 Jun 2027 04:04:45.196            23.510                Novosib          2938.750
       468   13 Jun 2027 04:05:03.181   13 Jun 2027 04:11:36.742           393.561              Murmansk2         49195.125
       469   13 Jun 2027 05:18:27.281   13 Jun 2027 05:19:41.135            73.854                Sumatra          9231.750
       470   13 Jun 2027 05:40:52.023   13 Jun 2027 05:41:49.542            57.519                Norilsk          7189.875
       471   13 Jun 2027 05:42:19.318   13 Jun 2027 05:43:03.530            44.212              Murmansk1          5526.500
       472   13 Jun 2027 05:43:11.926   13 Jun 2027 05:45:23.198           131.272              Murmansk2         16409.000
       473   13 Jun 2027 05:46:58.716   13 Jun 2027 05:48:41.111           102.395              Murmansk1         12799.375
       474   13 Jun 2027 06:22:32.640   13 Jun 2027 06:27:54.317           321.677            RioGallegos         40209.625
       475   13 Jun 2027 06:57:05.316   13 Jun 2027 07:02:45.994           340.678                Sumatra         42584.750
       476   13 Jun 2027 07:05:10.123   13 Jun 2027 07:07:06.613           116.490                Novosib         14561.250
       477   13 Jun 2027 07:07:42.559   13 Jun 2027 07:10:02.989           140.430                Irkutsk         17553.750
       478   13 Jun 2027 07:15:47.050   13 Jun 2027 07:16:28.110            41.060                Novosib          5132.500
       479   13 Jun 2027 07:16:53.237   13 Jun 2027 07:21:27.935           274.698                Norilsk         34337.250
       480   13 Jun 2027 07:22:47.042   13 Jun 2027 07:23:36.393            49.351              Murmansk2          6168.875
       481   13 Jun 2027 07:55:44.489   13 Jun 2027 08:01:37.580           353.091            RioGallegos         44136.375
       482   13 Jun 2027 08:41:04.008   13 Jun 2027 08:46:50.694           346.686                  Delhi         43335.750
