uniorb/output/strategy_4/Drop/Drop_KinoSat_110602.txt

KinoSat_110602
-------------------------
    Access    *     Start Time (UTCG)     *     Stop Time (UTCG)  *   Duration (s)        *       Station  *  Data (Mbytes)
         1   01 Jun 2027 04:13:05.682   01 Jun 2027 04:13:07.901             2.219               Magadan2            69.344
         2   01 Jun 2027 04:13:21.893   01 Jun 2027 04:18:32.801           310.908                Anadyr2          9715.875
         3   01 Jun 2027 04:19:03.383   01 Jun 2027 04:19:06.945             3.562               Magadan2           111.313
         4   01 Jun 2027 05:49:39.095   01 Jun 2027 05:50:08.280            29.185               Magadan1           912.031
         5   01 Jun 2027 05:50:22.707   01 Jun 2027 05:51:06.835            44.128                Norilsk          1379.000
         6   01 Jun 2027 05:51:26.787   01 Jun 2027 05:55:04.519           217.732                Norilsk          6804.125
         7   01 Jun 2027 05:55:33.385   01 Jun 2027 05:55:47.238            13.853                Novosib           432.906
         8   01 Jun 2027 05:56:10.226   01 Jun 2027 05:56:16.060             5.834              Murmansk2           182.313
         9   01 Jun 2027 05:57:46.758   01 Jun 2027 05:58:11.129            24.371              Murmansk2           761.594
        10   01 Jun 2027 05:58:17.314   01 Jun 2027 05:58:39.832            22.518                Norilsk           703.687
        11   01 Jun 2027 05:59:46.107   01 Jun 2027 05:59:57.933            11.826              Murmansk1           369.563
        12   01 Jun 2027 06:29:36.647   01 Jun 2027 06:31:06.106            89.459            RioGallegos          2795.594
        13   01 Jun 2027 06:33:52.443   01 Jun 2027 06:34:35.744            43.301            RioGallegos          1353.156
        14   01 Jun 2027 07:04:36.430   01 Jun 2027 07:07:32.271           175.841                Sumatra          5495.031
        15   01 Jun 2027 07:15:56.921   01 Jun 2027 07:16:50.419            53.498                  Delhi          1671.812
        16   01 Jun 2027 07:19:47.723   01 Jun 2027 07:21:44.584           116.861                  Delhi          3651.906
        17   01 Jun 2027 07:25:31.438   01 Jun 2027 07:25:43.799            12.361                Irkutsk           386.281
        18   01 Jun 2027 07:27:15.790   01 Jun 2027 07:28:02.235            46.445                Novosib          1451.406
        19   01 Jun 2027 07:28:11.523   01 Jun 2027 07:30:42.007           150.484                Norilsk          4702.625
        20   01 Jun 2027 07:30:46.145   01 Jun 2027 07:32:00.126            73.981              Murmansk1          2311.906
        21   01 Jun 2027 08:42:55.099   01 Jun 2027 08:43:42.163            47.064                Sumatra          1470.750
        22   01 Jun 2027 08:48:40.297   01 Jun 2027 08:51:02.603           142.306                  Delhi          4447.062
        23   01 Jun 2027 09:05:35.002   01 Jun 2027 09:06:06.760            31.758                 Moscow           992.438
        24   01 Jun 2027 09:06:18.323   01 Jun 2027 09:08:09.116           110.793                Novosib          3462.281
        25   01 Jun 2027 09:09:20.567   01 Jun 2027 09:09:41.228            20.661                 Moscow           645.656
        26   01 Jun 2027 09:13:23.665   01 Jun 2027 09:13:36.943            13.278              Murmansk1           414.938
        27   01 Jun 2027 10:29:06.138   01 Jun 2027 10:31:14.971           128.833                  Delhi          4026.031
        28   01 Jun 2027 10:37:16.113   01 Jun 2027 10:37:30.385            14.272                 Moscow           446.000
        29   01 Jun 2027 10:37:48.771   01 Jun 2027 10:37:59.439            10.668              Murmansk1           333.375
        30   01 Jun 2027 10:38:33.909   01 Jun 2027 10:41:30.812           176.903                Novosib          5528.219
        31   01 Jun 2027 10:41:35.971   01 Jun 2027 10:45:50.188           254.217                 Moscow          7944.281
        32   01 Jun 2027 10:45:58.685   01 Jun 2027 10:47:17.666            78.981              Murmansk2          2468.156
        33   01 Jun 2027 10:47:17.666   01 Jun 2027 10:47:29.398            11.732              Murmansk1           366.625
        34   01 Jun 2027 11:50:08.023   01 Jun 2027 11:51:31.349            83.326               CapeTown          2603.938
        35   01 Jun 2027 11:55:32.715   01 Jun 2027 11:56:57.704            84.989               CapeTown          2655.906
        36   01 Jun 2027 12:09:52.273   01 Jun 2027 12:10:50.917            58.644                 Moscow          1832.625
        37   01 Jun 2027 12:13:13.230   01 Jun 2027 12:15:49.779           156.549              Murmansk2          4892.156
        38   01 Jun 2027 12:16:36.736   01 Jun 2027 12:17:25.250            48.514              Murmansk2          1516.063
        39   01 Jun 2027 12:27:49.794   01 Jun 2027 12:36:08.038           498.244                Anadyr1         15570.125
        40   01 Jun 2027 14:03:10.203   01 Jun 2027 14:04:32.094            81.891                Anadyr2          2559.094
        41   01 Jun 2027 14:04:43.055   01 Jun 2027 14:05:37.081            54.026                Anadyr1          1688.312
        42   01 Jun 2027 14:07:16.767   01 Jun 2027 14:12:48.011           331.244               Magadan2         10351.375
        43   01 Jun 2027 15:41:29.828   01 Jun 2027 15:43:09.018            99.190               Magadan1          3099.687
        44   01 Jun 2027 15:46:54.088   01 Jun 2027 15:46:59.760             5.672               Magadan2           177.250
        45   01 Jun 2027 15:48:00.347   01 Jun 2027 15:49:27.841            87.494               Magadan1          2734.187
        46   01 Jun 2027 17:14:55.912   01 Jun 2027 17:15:20.686            24.774                Anadyr2           774.187
        47   01 Jun 2027 17:15:43.424   01 Jun 2027 17:16:05.554            22.130                Anadyr2           691.562
        48   01 Jun 2027 17:17:14.782   01 Jun 2027 17:18:24.846            70.064               Magadan1          2189.500
        49   01 Jun 2027 17:19:15.673   01 Jun 2027 17:22:54.127           218.454                Norilsk          6826.687
        50   01 Jun 2027 17:23:43.571   01 Jun 2027 17:27:52.039           248.468                Irkutsk          7764.625
        51   01 Jun 2027 18:56:50.378   01 Jun 2027 18:57:12.713            22.335                Norilsk           697.969
        52   01 Jun 2027 18:57:44.142   01 Jun 2027 18:58:08.522            24.380                Norilsk           761.875
        53   01 Jun 2027 18:58:16.098   01 Jun 2027 19:05:29.188           433.090                Novosib         13534.063
        54   01 Jun 2027 19:18:24.846   01 Jun 2027 19:20:05.085           100.239                Sumatra          3132.469
        55   01 Jun 2027 19:22:39.761   01 Jun 2027 19:22:53.685            13.924                Sumatra           435.125
        56   01 Jun 2027 20:36:59.510   01 Jun 2027 20:37:12.735            13.225                Novosib           413.281
        57   01 Jun 2027 20:40:03.970   01 Jun 2027 20:40:16.902            12.932                Novosib           404.125
        58   01 Jun 2027 20:42:08.471   01 Jun 2027 20:44:25.443           136.972                  Delhi          4280.375
        59   01 Jun 2027 20:45:04.774   01 Jun 2027 20:45:13.307             8.533                  Delhi           266.656
        60   01 Jun 2027 20:47:32.038   01 Jun 2027 20:49:08.868            96.830                  Delhi          3025.937
        61   01 Jun 2027 20:51:30.623   01 Jun 2027 20:52:26.963            56.340                  Delhi          1760.625
        62   01 Jun 2027 22:07:03.875   01 Jun 2027 22:12:31.220           327.345              Murmansk1         10229.531
        63   01 Jun 2027 22:12:36.333   01 Jun 2027 22:19:15.156           398.823                 Moscow         12463.219
        64   01 Jun 2027 22:40:34.162   01 Jun 2027 22:43:05.318           151.156               CapeTown          4723.625
        65   02 Jun 2027 00:13:06.179   02 Jun 2027 00:13:53.172            46.993               CapeTown          1468.531
        66   02 Jun 2027 00:21:39.726   02 Jun 2027 00:21:40.516             0.790               CapeTown            24.688
        67   02 Jun 2027 01:13:30.056   02 Jun 2027 01:13:50.174            20.118               Magadan2           628.687
        68   02 Jun 2027 01:14:04.052   02 Jun 2027 01:14:43.375            39.323               Magadan1          1228.844
        69   02 Jun 2027 01:18:39.665   02 Jun 2027 01:18:51.595            11.930               Magadan2           372.812
        70   02 Jun 2027 01:19:10.214   02 Jun 2027 01:19:56.210            45.996              Murmansk1          1437.375
        71   02 Jun 2027 01:21:07.707   02 Jun 2027 01:21:26.426            18.719              Murmansk1           584.969
        72   02 Jun 2027 01:22:07.271   02 Jun 2027 01:24:14.567           127.296                 Moscow          3978.000
        73   02 Jun 2027 01:31:30.376   02 Jun 2027 01:31:40.904            10.528                 Moscow           329.000
        74   02 Jun 2027 01:32:53.194   02 Jun 2027 01:33:32.330            39.136                 Moscow          1223.000
        75   02 Jun 2027 01:51:11.208   02 Jun 2027 01:51:20.644             9.436               CapeTown           294.875
        76   02 Jun 2027 01:52:41.319   02 Jun 2027 01:54:07.104            85.785               CapeTown          2680.781
        77   02 Jun 2027 02:42:33.421   02 Jun 2027 02:44:25.241           111.820               Magadan1          3494.375
        78   02 Jun 2027 02:44:25.241   02 Jun 2027 02:44:32.493             7.252               Magadan2           226.625
        79   02 Jun 2027 02:45:40.376   02 Jun 2027 02:46:06.670            26.294               Magadan1           821.687
        80   02 Jun 2027 02:48:05.876   02 Jun 2027 02:48:28.780            22.904               Magadan2           715.750
        81   02 Jun 2027 02:51:20.201   02 Jun 2027 02:51:45.481            25.280                Norilsk           790.000
        82   02 Jun 2027 02:54:03.440   02 Jun 2027 02:54:30.721            27.281                Norilsk           852.531
        83   02 Jun 2027 02:54:40.296   02 Jun 2027 02:56:36.478           116.182              Murmansk2          3630.687
        84   02 Jun 2027 03:35:01.385   02 Jun 2027 03:37:40.164           158.779            RioGallegos          4961.844
        85   02 Jun 2027 03:39:56.974   02 Jun 2027 03:40:53.529            56.555            RioGallegos          1767.344
        86   02 Jun 2027 04:23:43.475   02 Jun 2027 04:23:55.130            11.655               Magadan1           364.219
        87   02 Jun 2027 04:23:55.130   02 Jun 2027 04:24:06.044            10.914               Magadan2           341.063
        88   02 Jun 2027 04:24:13.502   02 Jun 2027 04:24:41.171            27.669               Magadan2           864.656
        89   02 Jun 2027 04:25:02.295   02 Jun 2027 04:27:14.575           132.280               Magadan2          4133.750
        90   02 Jun 2027 04:27:19.391   02 Jun 2027 04:27:59.213            39.822                Novosib          1244.437
        91   02 Jun 2027 04:28:04.334   02 Jun 2027 04:28:14.092             9.758               Magadan1           304.938
        92   02 Jun 2027 04:28:24.477   02 Jun 2027 04:29:40.609            76.132               Magadan2          2379.125
        93   02 Jun 2027 04:30:10.643   02 Jun 2027 04:30:17.692             7.049                Irkutsk           220.281
        94   02 Jun 2027 04:30:33.722   02 Jun 2027 04:30:44.039            10.317                Anadyr1           322.406
        95   02 Jun 2027 04:30:44.515   02 Jun 2027 04:30:48.574             4.059                Novosib           126.844
        96   02 Jun 2027 04:30:53.624   02 Jun 2027 04:31:05.686            12.062               Magadan1           376.938
        97   02 Jun 2027 04:31:20.031   02 Jun 2027 04:32:16.477            56.446                Norilsk          1763.937
        98   02 Jun 2027 04:34:45.106   02 Jun 2027 04:35:11.169            26.063              Murmansk2           814.469
        99   02 Jun 2027 05:06:31.039   02 Jun 2027 05:10:02.506           211.467            RioGallegos          6608.344
       100   02 Jun 2027 05:10:13.200   02 Jun 2027 05:11:18.275            65.075            RioGallegos          2033.594
       101   02 Jun 2027 06:02:01.667   02 Jun 2027 06:02:11.465             9.798               Magadan2           306.187
       102   02 Jun 2027 06:02:34.000   02 Jun 2027 06:02:54.803            20.803               Magadan1           650.094
       103   02 Jun 2027 06:02:54.803   02 Jun 2027 06:04:00.768            65.965               Magadan2          2061.406
       104   02 Jun 2027 06:04:21.458   02 Jun 2027 06:05:52.557            91.099                Novosib          2846.844
       105   02 Jun 2027 06:06:27.446   02 Jun 2027 06:06:57.116            29.670                Irkutsk           927.187
       106   02 Jun 2027 06:07:36.884   02 Jun 2027 06:08:11.690            34.806                Novosib          1087.687
       107   02 Jun 2027 06:08:29.748   02 Jun 2027 06:08:50.412            20.664              Murmansk2           645.750
       108   02 Jun 2027 07:16:31.063   02 Jun 2027 07:17:22.721            51.658                Sumatra          1614.312
       109   02 Jun 2027 07:36:53.718   02 Jun 2027 07:37:17.596            23.878                Novosib           746.187
       110   02 Jun 2027 07:39:31.402   02 Jun 2027 07:40:34.657            63.255              Murmansk2          1976.719
       111   02 Jun 2027 07:40:43.926   02 Jun 2027 07:41:19.019            35.093                Irkutsk          1096.656
       112   02 Jun 2027 07:41:26.116   02 Jun 2027 07:41:51.402            25.286                 Moscow           790.188
       113   02 Jun 2027 07:42:43.898   02 Jun 2027 07:43:45.221            61.323                Norilsk          1916.344
       114   02 Jun 2027 07:44:11.741   02 Jun 2027 07:44:16.694             4.953                Novosib           154.781
       115   02 Jun 2027 07:44:43.675   02 Jun 2027 07:44:46.102             2.427              Murmansk1            75.844
       116   02 Jun 2027 07:45:06.340   02 Jun 2027 07:45:26.694            20.354              Murmansk1           636.062
       117   02 Jun 2027 08:57:55.921   02 Jun 2027 08:59:03.040            67.119                Sumatra          2097.469
       118   02 Jun 2027 09:16:35.309   02 Jun 2027 09:16:39.837             4.528                Novosib           141.500
       119   02 Jun 2027 09:18:15.081   02 Jun 2027 09:18:18.742             3.661                Novosib           114.406
       120   02 Jun 2027 09:18:59.230   02 Jun 2027 09:19:57.816            58.586                Novosib          1830.812
       121   02 Jun 2027 10:56:45.580   02 Jun 2027 10:57:01.434            15.854              Murmansk2           495.437
       122   02 Jun 2027 12:25:28.552   02 Jun 2027 12:28:28.702           180.150              Murmansk1          5629.687
       123   02 Jun 2027 12:28:56.536   02 Jun 2027 12:29:18.620            22.084              Murmansk1           690.125
       124   02 Jun 2027 12:29:43.846   02 Jun 2027 12:30:16.894            33.048              Murmansk1          1032.750
       125   02 Jun 2027 12:33:15.479   02 Jun 2027 12:33:40.261            24.782              Murmansk2           774.438
       126   02 Jun 2027 12:34:26.666   02 Jun 2027 12:35:20.282            53.616              Murmansk2          1675.500
       127   02 Jun 2027 12:39:41.969   02 Jun 2027 12:45:25.806           343.837                Anadyr1         10744.906
       128   02 Jun 2027 12:46:12.671   02 Jun 2027 12:48:47.062           154.391                Anadyr2          4824.719
       129   02 Jun 2027 14:15:10.382   02 Jun 2027 14:17:00.400           110.018                Anadyr2          3438.062
       130   02 Jun 2027 14:18:48.214   02 Jun 2027 14:25:51.099           422.885               Magadan2         13215.156
       131   02 Jun 2027 15:53:27.692   02 Jun 2027 15:54:56.312            88.620               Magadan2          2769.375
       132   02 Jun 2027 15:57:20.913   02 Jun 2027 15:58:33.733            72.820               Magadan2          2275.625
       133   02 Jun 2027 17:26:55.877   02 Jun 2027 17:27:56.784            60.907                Anadyr1          1903.344
       134   02 Jun 2027 17:29:15.355   02 Jun 2027 17:29:27.768            12.413                Norilsk           387.906
       135   02 Jun 2027 17:30:40.681   02 Jun 2027 17:31:37.715            57.034               Magadan1          1782.312
       136   02 Jun 2027 17:32:52.485   02 Jun 2027 17:34:33.397           100.912                Norilsk          3153.500
       137   02 Jun 2027 17:34:49.769   02 Jun 2027 17:41:17.532           387.763                Irkutsk         12117.594
       138   02 Jun 2027 17:51:20.659   02 Jun 2027 17:55:28.887           248.228                Sumatra          7757.125
       139   02 Jun 2027 19:09:52.898   02 Jun 2027 19:17:25.282           452.384                Novosib         14137.000
       140   02 Jun 2027 20:46:02.648   02 Jun 2027 20:47:07.773            65.125              Murmansk2          2035.156
       141   02 Jun 2027 20:54:55.326   02 Jun 2027 20:55:19.798            24.472                  Delhi           764.750
       142   02 Jun 2027 21:03:09.705   02 Jun 2027 21:04:19.905            70.200                  Delhi          2193.750
       143   02 Jun 2027 22:19:02.746   02 Jun 2027 22:24:51.731           348.985              Murmansk1         10905.781
       144   02 Jun 2027 22:25:12.041   02 Jun 2027 22:29:24.094           252.053                 Moscow          7876.656
       145   02 Jun 2027 22:50:39.338   02 Jun 2027 22:56:34.073           354.735               CapeTown         11085.469
       146   03 Jun 2027 01:28:08.054   03 Jun 2027 01:29:06.309            58.255               Magadan1          1820.469
       147   03 Jun 2027 01:30:52.124   03 Jun 2027 01:31:16.522            24.398              Murmansk1           762.437
       148   03 Jun 2027 01:31:32.038   03 Jun 2027 01:33:00.566            88.528              Murmansk1          2766.500
       149   03 Jun 2027 01:35:54.057   03 Jun 2027 01:36:09.239            15.182                 Moscow           474.437
       150   03 Jun 2027 01:38:26.513   03 Jun 2027 01:38:29.113             2.600                 Moscow            81.250
       151   03 Jun 2027 01:38:47.278   03 Jun 2027 01:39:07.016            19.738                 Moscow           616.812
       152   03 Jun 2027 01:42:52.651   03 Jun 2027 01:43:38.329            45.678                 Moscow          1427.438
       153   03 Jun 2027 02:00:04.017   03 Jun 2027 02:00:27.013            22.996               CapeTown           718.625
       154   03 Jun 2027 02:03:59.062   03 Jun 2027 02:04:23.760            24.698               CapeTown           771.813
       155   03 Jun 2027 02:07:28.117   03 Jun 2027 02:07:47.459            19.342               CapeTown           604.437
       156   03 Jun 2027 02:54:28.518   03 Jun 2027 02:57:00.450           151.932               Magadan2          4747.875
       157   03 Jun 2027 02:58:06.799   03 Jun 2027 02:58:43.869            37.070               Magadan2          1158.437
       158   03 Jun 2027 03:00:05.728   03 Jun 2027 03:00:24.027            18.299               Magadan2           571.844
       159   03 Jun 2027 03:00:40.884   03 Jun 2027 03:01:28.282            47.398               Magadan2          1481.188
       160   03 Jun 2027 03:01:54.386   03 Jun 2027 03:02:58.425            64.039               Magadan2          2001.219
       161   03 Jun 2027 03:02:58.425   03 Jun 2027 03:05:56.025           177.600               Magadan1          5550.000
       162   03 Jun 2027 03:05:57.282   03 Jun 2027 03:06:52.040            54.758                Anadyr2          1711.187
       163   03 Jun 2027 04:35:12.195   03 Jun 2027 04:35:56.643            44.448                Irkutsk          1389.000
       164   03 Jun 2027 04:36:36.340   03 Jun 2027 04:36:48.022            11.682                Norilsk           365.063
       165   03 Jun 2027 04:36:54.226   03 Jun 2027 04:38:27.268            93.042                Irkutsk          2907.562
       166   03 Jun 2027 04:38:37.100   03 Jun 2027 04:38:47.828            10.728                Novosib           335.250
       167   03 Jun 2027 04:39:08.249   03 Jun 2027 04:42:01.228           172.979                Irkutsk          5405.594
       168   03 Jun 2027 04:42:36.920   03 Jun 2027 04:43:03.636            26.716               Magadan2           834.875
       169   03 Jun 2027 04:44:34.477   03 Jun 2027 04:44:41.494             7.017              Murmansk2           219.281
       170   03 Jun 2027 06:13:09.148   03 Jun 2027 06:13:49.222            40.074               Magadan1          1252.312
       171   03 Jun 2027 06:14:03.395   03 Jun 2027 06:14:06.813             3.418               Magadan1           106.813
       172   03 Jun 2027 06:14:14.698   03 Jun 2027 06:14:39.321            24.623               Magadan1           769.469
       173   03 Jun 2027 06:14:53.227   03 Jun 2027 06:16:02.018            68.791               Magadan1          2149.719
       174   03 Jun 2027 06:16:10.954   03 Jun 2027 06:16:36.758            25.804               Magadan1           806.375
       175   03 Jun 2027 06:16:36.758   03 Jun 2027 06:16:57.906            21.148               Magadan2           660.875
       176   03 Jun 2027 06:19:01.884   03 Jun 2027 06:19:43.621            41.737                Norilsk          1304.281
       177   03 Jun 2027 07:51:16.476   03 Jun 2027 07:51:38.342            21.866                Novosib           683.313
       178   03 Jun 2027 07:51:47.070   03 Jun 2027 07:52:09.130            22.060                Novosib           689.375
       179   03 Jun 2027 07:52:30.514   03 Jun 2027 07:52:56.025            25.511              Murmansk1           797.219
       180   03 Jun 2027 07:53:25.713   03 Jun 2027 07:53:38.912            13.199                 Moscow           412.469
       181   03 Jun 2027 07:55:36.846   03 Jun 2027 07:56:29.471            52.625                Novosib          1644.531
       182   03 Jun 2027 07:56:45.634   03 Jun 2027 07:57:01.441            15.807                 Moscow           493.969
       183   03 Jun 2027 08:35:27.444   03 Jun 2027 08:36:02.663            35.219            RioGallegos          1100.594
       184   03 Jun 2027 09:30:45.861   03 Jun 2027 09:31:03.294            17.433                Novosib           544.781
       185   03 Jun 2027 11:08:42.550   03 Jun 2027 11:08:52.310             9.760                Norilsk           305.000
       186   03 Jun 2027 12:34:41.947   03 Jun 2027 12:35:33.263            51.316                 Moscow          1603.625
       187   03 Jun 2027 12:35:47.870   03 Jun 2027 12:35:54.466             6.596                 Moscow           206.125
       188   03 Jun 2027 12:36:42.869   03 Jun 2027 12:37:26.014            43.145                 Moscow          1348.281
       189   03 Jun 2027 12:37:45.910   03 Jun 2027 12:39:07.134            81.224              Murmansk2          2538.250
       190   03 Jun 2027 12:39:14.185   03 Jun 2027 12:39:52.583            38.398              Murmansk1          1199.938
       191   03 Jun 2027 12:41:38.046   03 Jun 2027 12:42:28.524            50.478              Murmansk1          1577.437
       192   03 Jun 2027 12:46:25.127   03 Jun 2027 12:47:00.927            35.800              Murmansk1          1118.750
       193   03 Jun 2027 12:47:13.018   03 Jun 2027 12:47:35.121            22.103              Murmansk1           690.719
       194   03 Jun 2027 12:51:36.250   03 Jun 2027 12:54:02.957           146.707                Anadyr2          4584.594
       195   03 Jun 2027 12:55:04.316   03 Jun 2027 12:57:17.209           132.893                Anadyr1          4152.906
       196   03 Jun 2027 12:58:22.560   03 Jun 2027 13:00:12.320           109.760                Anadyr1          3430.000
       197   03 Jun 2027 14:27:10.881   03 Jun 2027 14:29:41.661           150.780                Anadyr1          4711.875
       198   03 Jun 2027 14:30:29.109   03 Jun 2027 14:38:41.906           492.797               Magadan2         15399.906
       199   03 Jun 2027 16:05:26.353   03 Jun 2027 16:06:41.559            75.206               Magadan1          2350.188
       200   03 Jun 2027 16:09:33.194   03 Jun 2027 16:09:46.477            13.283               Magadan2           415.094
       201   03 Jun 2027 17:00:08.963   03 Jun 2027 17:03:44.710           215.747            RioGallegos          6742.094
       202   03 Jun 2027 17:41:09.757   03 Jun 2027 17:41:10.220             0.463                Norilsk            14.469
       203   03 Jun 2027 17:41:37.192   03 Jun 2027 17:42:19.057            41.865                Norilsk          1308.281
       204   03 Jun 2027 17:46:17.909   03 Jun 2027 17:53:34.335           436.426                Irkutsk         13638.313
       205   03 Jun 2027 18:01:41.317   03 Jun 2027 18:09:01.342           440.025                Sumatra         13750.781
       206   03 Jun 2027 19:23:59.036   03 Jun 2027 19:27:46.446           227.410                Novosib          7106.563
       207   03 Jun 2027 19:33:01.835   03 Jun 2027 19:35:14.293           132.458                  Delhi          4139.313
       208   03 Jun 2027 20:56:03.008   03 Jun 2027 21:00:24.379           261.371              Murmansk1          8167.844
       209   03 Jun 2027 22:31:02.288   03 Jun 2027 22:32:29.064            86.776              Murmansk2          2711.750
       210   03 Jun 2027 22:33:15.567   03 Jun 2027 22:36:25.280           189.713              Murmansk1          5928.531
       211   03 Jun 2027 22:36:27.133   03 Jun 2027 22:38:12.253           105.120                 Moscow          3285.000
       212   03 Jun 2027 22:38:26.646   03 Jun 2027 22:43:01.136           274.490                 Moscow          8577.812
       213   03 Jun 2027 23:01:31.078   03 Jun 2027 23:09:19.382           468.304               CapeTown         14634.500
       214   04 Jun 2027 03:07:10.629   04 Jun 2027 03:07:42.156            31.527               Magadan1           985.219
       215   04 Jun 2027 03:11:28.693   04 Jun 2027 03:11:35.508             6.815               Magadan1           212.969
       216   04 Jun 2027 03:12:55.798   04 Jun 2027 03:13:56.085            60.287                Anadyr2          1883.969
       217   04 Jun 2027 03:13:56.085   04 Jun 2027 03:16:36.667           160.582                Anadyr1          5018.188
       218   04 Jun 2027 04:49:30.820   04 Jun 2027 04:53:45.591           254.771                Irkutsk          7961.594
       219   04 Jun 2027 04:54:40.708   04 Jun 2027 04:55:00.643            19.935               Magadan2           622.969
       220   04 Jun 2027 06:25:54.013   04 Jun 2027 06:26:04.824            10.811               Magadan1           337.844
       221   04 Jun 2027 06:26:10.858   04 Jun 2027 06:26:17.952             7.094               Magadan1           221.688
       222   04 Jun 2027 06:26:47.303   04 Jun 2027 06:27:40.278            52.975               Magadan2          1655.469
       223   04 Jun 2027 06:27:55.208   04 Jun 2027 06:27:59.217             4.009               Magadan2           125.281
       224   04 Jun 2027 06:28:05.949   04 Jun 2027 06:28:07.330             1.381               Magadan2            43.156
       225   04 Jun 2027 06:30:52.158   04 Jun 2027 06:30:59.390             7.232                Norilsk           226.000
       226   04 Jun 2027 08:04:27.006   04 Jun 2027 08:04:43.496            16.490              Murmansk1           515.312
       227   04 Jun 2027 08:06:38.954   04 Jun 2027 08:06:46.799             7.845                Novosib           245.156
       228   04 Jun 2027 08:09:14.123   04 Jun 2027 08:09:14.500             0.377                 Moscow            11.781
       229   04 Jun 2027 08:09:26.855   04 Jun 2027 08:09:29.956             3.101              Murmansk1            96.906
       230   04 Jun 2027 08:49:10.295   04 Jun 2027 08:49:47.684            37.389            RioGallegos          1168.406
       231   04 Jun 2027 09:30:53.200   04 Jun 2027 09:31:21.900            28.700                  Delhi           896.875
       232   04 Jun 2027 09:38:11.492   04 Jun 2027 09:39:10.094            58.602                Novosib          1831.312
       233   04 Jun 2027 09:42:32.872   04 Jun 2027 09:42:49.707            16.835                Novosib           526.094
       234   04 Jun 2027 11:22:49.214   04 Jun 2027 11:23:13.434            24.220                Norilsk           756.875
       235   04 Jun 2027 12:47:14.207   04 Jun 2027 12:47:44.369            30.162                 Moscow           942.563
       236   04 Jun 2027 12:49:25.095   04 Jun 2027 12:50:14.695            49.600                 Moscow          1550.000
       237   04 Jun 2027 12:50:35.628   04 Jun 2027 12:51:53.720            78.092              Murmansk2          2440.375
       238   04 Jun 2027 12:51:53.720   04 Jun 2027 12:52:21.648            27.928              Murmansk1           872.750
       239   04 Jun 2027 12:53:32.988   04 Jun 2027 12:54:30.005            57.017              Murmansk1          1781.781
       240   04 Jun 2027 13:00:44.345   04 Jun 2027 13:01:27.408            43.063              Murmansk2          1345.719
       241   04 Jun 2027 13:03:32.085   04 Jun 2027 13:05:35.262           123.177                Anadyr2          3849.281
       242   04 Jun 2027 13:07:49.513   04 Jun 2027 13:09:05.082            75.569                Anadyr2          2361.531
       243   04 Jun 2027 14:29:59.059   04 Jun 2027 14:30:57.819            58.760              Murmansk2          1836.250
       244   04 Jun 2027 14:31:14.020   04 Jun 2027 14:32:17.806            63.786              Murmansk1          1993.313
       245   04 Jun 2027 14:39:11.642   04 Jun 2027 14:40:25.120            73.478                Anadyr2          2296.187
       246   04 Jun 2027 14:40:38.193   04 Jun 2027 14:41:48.913            70.720                Anadyr1          2210.000
       247   04 Jun 2027 14:42:06.039   04 Jun 2027 14:42:15.984             9.945                Anadyr1           310.781
       248   04 Jun 2027 14:43:22.632   04 Jun 2027 14:48:16.850           294.218               Magadan1          9194.312
       249   04 Jun 2027 14:48:21.331   04 Jun 2027 14:51:24.591           183.260               Magadan2          5726.875
       250   04 Jun 2027 16:17:25.692   04 Jun 2027 16:18:52.361            86.669               Magadan2          2708.406
       251   04 Jun 2027 16:19:54.343   04 Jun 2027 16:21:25.590            91.247               Magadan1          2851.469
       252   04 Jun 2027 17:11:06.373   04 Jun 2027 17:17:18.785           372.412            RioGallegos         11637.875
       253   04 Jun 2027 17:54:34.430   04 Jun 2027 17:55:18.658            44.228                Norilsk          1382.125
       254   04 Jun 2027 17:57:55.902   04 Jun 2027 18:05:36.697           460.795                Irkutsk         14399.844
       255   04 Jun 2027 18:12:42.372   04 Jun 2027 18:21:42.955           540.583                Sumatra         16893.219
       256   04 Jun 2027 19:37:08.614   04 Jun 2027 19:39:20.327           131.713                Novosib          4116.031
       257   04 Jun 2027 19:43:02.868   04 Jun 2027 19:49:27.348           384.480                  Delhi         12015.000
       258   04 Jun 2027 21:07:46.049   04 Jun 2027 21:13:22.824           336.775              Murmansk1         10524.219
       259   04 Jun 2027 22:46:15.193   04 Jun 2027 22:47:10.370            55.177              Murmansk1          1724.281
       260   04 Jun 2027 22:54:24.128   04 Jun 2027 22:55:04.644            40.516                 Moscow          1266.125
       261   04 Jun 2027 23:12:40.055   04 Jun 2027 23:12:48.254             8.199               CapeTown           256.219
       262   04 Jun 2027 23:14:27.343   04 Jun 2027 23:20:28.565           361.222               CapeTown         11288.188
       263   05 Jun 2027 01:58:20.111   05 Jun 2027 01:58:26.728             6.617                 Moscow           206.781
       264   05 Jun 2027 02:00:05.954   05 Jun 2027 02:00:46.585            40.631                 Moscow          1269.719
       265   05 Jun 2027 02:06:04.366   05 Jun 2027 02:07:25.545            81.179                 Moscow          2536.844
       266   05 Jun 2027 03:20:35.334   05 Jun 2027 03:21:15.828            40.494                Anadyr1          1265.437
       267   05 Jun 2027 03:22:46.026   05 Jun 2027 03:23:05.382            19.356                Anadyr1           604.875
       268   05 Jun 2027 03:25:01.734   05 Jun 2027 03:26:14.711            72.977                Anadyr2          2280.531
       269   05 Jun 2027 03:26:21.642   05 Jun 2027 03:28:37.163           135.521                Anadyr1          4235.031
       270   05 Jun 2027 03:29:41.410   05 Jun 2027 03:29:55.580            14.170                Anadyr2           442.813
       271   05 Jun 2027 04:14:10.176   05 Jun 2027 04:15:04.332            54.156            RioGallegos          1692.375
       272   05 Jun 2027 04:59:21.761   05 Jun 2027 05:00:02.419            40.658                Irkutsk          1270.562
       273   05 Jun 2027 05:02:02.628   05 Jun 2027 05:03:28.357            85.729                Irkutsk          2679.031
       274   05 Jun 2027 05:04:31.598   05 Jun 2027 05:04:52.171            20.573                Anadyr1           642.906
       275   05 Jun 2027 05:04:59.656   05 Jun 2027 05:05:31.260            31.604                Anadyr1           987.625
       276   05 Jun 2027 05:05:41.609   05 Jun 2027 05:06:37.665            56.056               Magadan2          1751.750
       277   05 Jun 2027 06:43:28.636   05 Jun 2027 06:43:56.873            28.237                Novosib           882.406
       278   05 Jun 2027 06:45:34.331   05 Jun 2027 06:46:02.770            28.439              Murmansk1           888.719
       279   05 Jun 2027 08:16:13.710   05 Jun 2027 08:16:24.084            10.374              Murmansk1           324.188
       280   05 Jun 2027 08:16:30.760   05 Jun 2027 08:16:50.262            19.502              Murmansk1           609.438
       281   05 Jun 2027 08:17:50.213   05 Jun 2027 08:18:12.416            22.203                Irkutsk           693.844
       282   05 Jun 2027 08:21:19.343   05 Jun 2027 08:21:25.252             5.909                 Moscow           184.656
       283   05 Jun 2027 09:42:14.108   05 Jun 2027 09:43:51.488            97.380                  Delhi          3043.125
       284   05 Jun 2027 09:54:45.606   05 Jun 2027 09:55:18.268            32.662                Norilsk          1020.687
       285   05 Jun 2027 11:33:41.405   05 Jun 2027 11:34:03.072            21.667                Norilsk           677.094
       286   05 Jun 2027 12:59:52.624   05 Jun 2027 13:00:03.416            10.792                 Moscow           337.250
       287   05 Jun 2027 13:00:53.873   05 Jun 2027 13:02:02.442            68.569                 Moscow          2142.781
       288   05 Jun 2027 13:02:27.086   05 Jun 2027 13:02:36.916             9.830              Murmansk1           307.188
       289   05 Jun 2027 13:03:02.589   05 Jun 2027 13:03:54.618            52.029              Murmansk1          1625.906
       290   05 Jun 2027 13:03:54.618   05 Jun 2027 13:04:11.929            17.311              Murmansk2           540.969
       291   05 Jun 2027 13:04:36.449   05 Jun 2027 13:05:01.617            25.168              Murmansk2           786.500
       292   05 Jun 2027 13:05:28.648   05 Jun 2027 13:06:31.590            62.942              Murmansk2          1966.937
       293   05 Jun 2027 13:19:15.651   05 Jun 2027 13:21:59.622           163.971                Anadyr2          5124.094
       294   05 Jun 2027 14:10:59.858   05 Jun 2027 14:11:44.529            44.671               CapeTown          1395.969
       295   05 Jun 2027 14:18:57.146   05 Jun 2027 14:19:07.916            10.770               CapeTown           336.563
       296   05 Jun 2027 14:20:04.552   05 Jun 2027 14:20:43.869            39.317               CapeTown          1228.656
       297   05 Jun 2027 14:42:46.367   05 Jun 2027 14:43:00.595            14.228              Murmansk1           444.625
       298   05 Jun 2027 14:44:09.756   05 Jun 2027 14:45:15.600            65.844              Murmansk1          2057.625
       299   05 Jun 2027 14:46:21.117   05 Jun 2027 14:46:24.906             3.789              Murmansk2           118.406
       300   05 Jun 2027 14:48:27.509   05 Jun 2027 14:48:50.470            22.961              Murmansk2           717.531
       301   05 Jun 2027 14:51:12.602   05 Jun 2027 14:52:24.294            71.692                Anadyr1          2240.375
       302   05 Jun 2027 14:53:45.749   05 Jun 2027 14:54:12.618            26.869                Anadyr2           839.656
       303   05 Jun 2027 14:54:24.376   05 Jun 2027 14:55:36.919            72.543                Anadyr1          2266.969
       304   05 Jun 2027 14:55:38.489   05 Jun 2027 15:00:10.902           272.413               Magadan2          8512.906
       305   05 Jun 2027 15:00:10.902   05 Jun 2027 15:04:01.084           230.182               Magadan1          7193.187
       306   05 Jun 2027 16:29:25.603   05 Jun 2027 16:31:04.745            99.142               Magadan2          3098.188
       307   05 Jun 2027 17:22:31.282   05 Jun 2027 17:30:10.614           459.332            RioGallegos         14354.125
       308   05 Jun 2027 18:09:39.814   05 Jun 2027 18:12:48.663           188.849                Irkutsk          5901.531
       309   05 Jun 2027 18:12:55.600   05 Jun 2027 18:17:40.972           285.372                Irkutsk          8917.875
       310   05 Jun 2027 18:26:57.006   05 Jun 2027 18:31:27.309           270.303                Sumatra          8446.969
       311   05 Jun 2027 19:54:06.693   05 Jun 2027 20:02:35.612           508.919                  Delhi         15903.719
       312   05 Jun 2027 21:19:35.458   05 Jun 2027 21:20:20.788            45.330              Murmansk2          1416.562
       313   05 Jun 2027 21:20:55.168   05 Jun 2027 21:25:31.587           276.419              Murmansk1          8638.094
       314   05 Jun 2027 22:59:05.945   05 Jun 2027 23:00:45.060            99.115              Murmansk1          3097.344
       315   05 Jun 2027 23:05:27.276   05 Jun 2027 23:07:08.636           101.360                 Moscow          3167.500
       316   05 Jun 2027 23:23:59.933   05 Jun 2027 23:24:43.172            43.239               CapeTown          1351.219
       317   05 Jun 2027 23:26:31.841   05 Jun 2027 23:31:11.546           279.705               CapeTown          8740.781
       318   06 Jun 2027 01:54:56.964   06 Jun 2027 01:55:01.277             4.313                Anadyr2           134.781
       319   06 Jun 2027 01:55:29.339   06 Jun 2027 01:56:19.858            50.519               Magadan1          1578.719
       320   06 Jun 2027 01:56:19.858   06 Jun 2027 01:56:53.308            33.450               Magadan2          1045.313
       321   06 Jun 2027 01:59:13.173   06 Jun 2027 01:59:21.443             8.270               Magadan1           258.438
       322   06 Jun 2027 02:00:33.076   06 Jun 2027 02:01:04.247            31.171               Magadan1           974.094
       323   06 Jun 2027 02:04:49.268   06 Jun 2027 02:05:54.266            64.998               Magadan1          2031.188
       324   06 Jun 2027 02:06:54.884   06 Jun 2027 02:08:03.289            68.405              Murmansk1          2137.656
       325   06 Jun 2027 02:10:25.408   06 Jun 2027 02:11:37.468            72.060                 Moscow          2251.875
       326   06 Jun 2027 03:31:56.852   06 Jun 2027 03:33:46.618           109.766               Magadan2          3430.188
       327   06 Jun 2027 03:35:13.666   06 Jun 2027 03:35:25.952            12.286               Magadan2           383.937
       328   06 Jun 2027 03:37:12.365   06 Jun 2027 03:38:07.715            55.350               Magadan2          1729.688
       329   06 Jun 2027 03:38:11.334   06 Jun 2027 03:39:47.011            95.677               Magadan2          2989.906
       330   06 Jun 2027 03:39:47.011   06 Jun 2027 03:40:05.981            18.970               Magadan1           592.812
       331   06 Jun 2027 03:40:19.834   06 Jun 2027 03:43:21.794           181.960               Magadan1          5686.250
       332   06 Jun 2027 04:23:55.600   06 Jun 2027 04:24:38.207            42.607            RioGallegos          1331.469
       333   06 Jun 2027 04:25:13.384   06 Jun 2027 04:26:55.852           102.468            RioGallegos          3202.125
       334   06 Jun 2027 05:12:41.602   06 Jun 2027 05:13:30.309            48.707                Irkutsk          1522.094
       335   06 Jun 2027 05:14:07.387   06 Jun 2027 05:14:13.661             6.274                Irkutsk           196.062
       336   06 Jun 2027 05:15:12.312   06 Jun 2027 05:16:13.324            61.012                Irkutsk          1906.625
       337   06 Jun 2027 05:17:29.869   06 Jun 2027 05:18:36.978            67.109               Magadan2          2097.156
       338   06 Jun 2027 05:18:51.842   06 Jun 2027 05:18:52.632             0.790                Irkutsk            24.687
       339   06 Jun 2027 06:54:51.237   06 Jun 2027 06:54:53.209             1.972                Norilsk            61.625
       340   06 Jun 2027 06:55:28.124   06 Jun 2027 06:55:44.698            16.574                Norilsk           517.937
       341   06 Jun 2027 08:09:55.620   06 Jun 2027 08:11:52.885           117.265                Sumatra          3664.531
       342   06 Jun 2027 08:27:32.624   06 Jun 2027 08:27:50.811            18.187                Novosib           568.344
       343   06 Jun 2027 08:28:03.348   06 Jun 2027 08:28:17.936            14.588              Murmansk1           455.875
       344   06 Jun 2027 08:28:21.721   06 Jun 2027 08:28:39.416            17.695              Murmansk1           552.969
       345   06 Jun 2027 08:29:40.868   06 Jun 2027 08:29:49.232             8.364                Irkutsk           261.375
       346   06 Jun 2027 08:30:08.931   06 Jun 2027 08:30:30.132            21.201                Novosib           662.531
       347   06 Jun 2027 08:33:22.998   06 Jun 2027 08:33:34.439            11.441                 Moscow           357.531
       348   06 Jun 2027 09:53:14.116   06 Jun 2027 09:55:38.040           143.924                  Delhi          4497.625
       349   06 Jun 2027 10:04:03.287   06 Jun 2027 10:04:21.009            17.722              Murmansk2           553.813
       350   06 Jun 2027 10:06:53.036   06 Jun 2027 10:07:04.257            11.221                Novosib           350.656
       351   06 Jun 2027 11:55:22.149   06 Jun 2027 11:56:22.200            60.051                Anadyr1          1876.594
       352   06 Jun 2027 13:14:58.381   06 Jun 2027 13:15:37.993            39.612              Murmansk2          1237.875
       353   06 Jun 2027 13:15:55.196   06 Jun 2027 13:16:03.081             7.885              Murmansk2           246.406
       354   06 Jun 2027 13:16:37.159   06 Jun 2027 13:17:23.749            46.590              Murmansk1          1455.938
       355   06 Jun 2027 13:18:28.122   06 Jun 2027 13:18:47.512            19.390              Murmansk2           605.937
       356   06 Jun 2027 13:19:27.072   06 Jun 2027 13:19:32.476             5.404              Murmansk2           168.875
       357   06 Jun 2027 13:27:27.067   06 Jun 2027 13:29:06.115            99.048                Anadyr1          3095.250
       358   06 Jun 2027 13:30:35.594   06 Jun 2027 13:31:16.943            41.349                Anadyr1          1292.156
       359   06 Jun 2027 13:34:37.605   06 Jun 2027 13:36:02.205            84.600                Anadyr2          2643.750
       360   06 Jun 2027 14:26:43.183   06 Jun 2027 14:26:57.783            14.600               CapeTown           456.250
       361   06 Jun 2027 14:27:30.054   06 Jun 2027 14:28:05.781            35.727               CapeTown          1116.469
       362   06 Jun 2027 14:55:40.546   06 Jun 2027 14:58:22.967           162.421              Murmansk2          5075.656
       363   06 Jun 2027 15:03:13.724   06 Jun 2027 15:04:23.989            70.265                Anadyr2          2195.781
       364   06 Jun 2027 15:05:29.402   06 Jun 2027 15:06:46.150            76.748                Anadyr2          2398.375
       365   06 Jun 2027 15:06:58.550   06 Jun 2027 15:07:11.362            12.812                Anadyr2           400.375
       366   06 Jun 2027 15:07:38.256   06 Jun 2027 15:08:35.746            57.490                Anadyr2          1796.563
       367   06 Jun 2027 15:09:28.688   06 Jun 2027 15:11:58.365           149.677               Magadan2          4677.406
       368   06 Jun 2027 15:12:18.135   06 Jun 2027 15:12:48.442            30.307               Magadan2           947.094
       369   06 Jun 2027 15:13:40.740   06 Jun 2027 15:16:32.477           171.737               Magadan2          5366.781
       370   06 Jun 2027 16:41:25.993   06 Jun 2027 16:43:45.288           139.295               Magadan2          4352.969
       371   06 Jun 2027 16:51:01.149   06 Jun 2027 16:51:02.672             1.523               Magadan2            47.594
       372   06 Jun 2027 16:51:20.827   06 Jun 2027 16:52:16.913            56.086               Magadan1          1752.687
       373   06 Jun 2027 17:34:07.409   06 Jun 2027 17:40:42.578           395.169            RioGallegos         12349.031
       374   06 Jun 2027 18:17:02.701   06 Jun 2027 18:22:14.266           311.565                Norilsk          9736.406
       375   06 Jun 2027 18:22:42.995   06 Jun 2027 18:23:24.055            41.060                Irkutsk          1283.125
       376   06 Jun 2027 18:24:50.814   06 Jun 2027 18:25:22.654            31.840                Irkutsk           995.000
       377   06 Jun 2027 18:28:30.950   06 Jun 2027 18:29:46.030            75.080                Irkutsk          2346.250
       378   06 Jun 2027 18:35:31.373   06 Jun 2027 18:36:58.958            87.585                Sumatra          2737.031
       379   06 Jun 2027 18:39:06.642   06 Jun 2027 18:42:19.764           193.122                Sumatra          6035.063
       380   06 Jun 2027 19:58:33.690   06 Jun 2027 19:59:38.013            64.323                Novosib          2010.094
       381   06 Jun 2027 20:05:29.438   06 Jun 2027 20:12:49.320           439.882                  Delhi         13746.313
       382   06 Jun 2027 21:31:28.425   06 Jun 2027 21:37:11.374           342.949              Murmansk2         10717.156
       383   06 Jun 2027 21:37:18.502   06 Jun 2027 21:38:57.228            98.726              Murmansk1          3085.187
       384   06 Jun 2027 23:12:31.415   06 Jun 2027 23:14:18.580           107.165                 Moscow          3348.906
       385   06 Jun 2027 23:35:28.025   06 Jun 2027 23:36:42.742            74.717               CapeTown          2334.906
       386   06 Jun 2027 23:38:47.223   06 Jun 2027 23:40:56.019           128.796               CapeTown          4024.875
       387   06 Jun 2027 23:41:01.302   06 Jun 2027 23:42:16.003            74.701               CapeTown          2334.406
       388   07 Jun 2027 01:10:21.826   07 Jun 2027 01:11:32.643            70.817               CapeTown          2213.031
       389   07 Jun 2027 01:13:09.329   07 Jun 2027 01:13:54.836            45.507               CapeTown          1422.094
       390   07 Jun 2027 02:07:05.270   07 Jun 2027 02:07:56.493            51.223                Anadyr1          1600.719
       391   07 Jun 2027 02:08:19.899   07 Jun 2027 02:08:46.774            26.875               Magadan1           839.844
       392   07 Jun 2027 02:08:51.535   07 Jun 2027 02:09:48.165            56.630               Magadan2          1769.687
       393   07 Jun 2027 02:12:14.272   07 Jun 2027 02:12:34.172            19.900               Magadan1           621.875
       394   07 Jun 2027 02:15:03.080   07 Jun 2027 02:15:28.114            25.034               Magadan2           782.313
       395   07 Jun 2027 02:17:45.409   07 Jun 2027 02:17:46.338             0.929                Norilsk            29.031
       396   07 Jun 2027 02:18:45.647   07 Jun 2027 02:18:51.941             6.294                Norilsk           196.688
       397   07 Jun 2027 02:18:55.352   07 Jun 2027 02:19:36.905            41.553              Murmansk2          1298.531
       398   07 Jun 2027 02:20:18.381   07 Jun 2027 02:20:48.921            30.540              Murmansk2           954.375
       399   07 Jun 2027 02:21:32.918   07 Jun 2027 02:21:34.514             1.596              Murmansk1            49.875
       400   07 Jun 2027 02:22:00.498   07 Jun 2027 02:22:27.302            26.804              Murmansk2           837.625
       401   07 Jun 2027 02:22:31.275   07 Jun 2027 02:23:20.182            48.907                 Moscow          1528.344
       402   07 Jun 2027 02:26:02.737   07 Jun 2027 02:26:07.260             4.523                 Moscow           141.344
       403   07 Jun 2027 02:26:08.639   07 Jun 2027 02:27:16.101            67.462                 Moscow          2108.188
       404   07 Jun 2027 03:46:37.917   07 Jun 2027 03:46:44.926             7.009                Anadyr1           219.031
       405   07 Jun 2027 03:46:53.608   07 Jun 2027 03:47:27.461            33.853               Magadan2          1057.906
       406   07 Jun 2027 03:47:38.549   07 Jun 2027 03:47:46.458             7.909               Magadan2           247.156
       407   07 Jun 2027 03:49:34.136   07 Jun 2027 03:54:48.767           314.631                Anadyr2          9832.219
       408   07 Jun 2027 03:54:48.767   07 Jun 2027 03:55:21.073            32.306                Anadyr1          1009.562
       409   07 Jun 2027 04:34:58.078   07 Jun 2027 04:36:28.260            90.182            RioGallegos          2818.187
       410   07 Jun 2027 04:37:06.602   07 Jun 2027 04:37:21.106            14.504            RioGallegos           453.250
       411   07 Jun 2027 05:22:30.774   07 Jun 2027 05:22:57.359            26.585                Irkutsk           830.781
       412   07 Jun 2027 05:27:12.703   07 Jun 2027 05:30:30.823           198.120                Irkutsk          6191.250
       413   07 Jun 2027 05:30:48.611   07 Jun 2027 05:30:58.635            10.024                Irkutsk           313.250
       414   07 Jun 2027 07:03:27.262   07 Jun 2027 07:03:29.685             2.423                Novosib            75.719
       415   07 Jun 2027 07:03:59.075   07 Jun 2027 07:05:05.762            66.687              Murmansk1          2083.969
       416   07 Jun 2027 07:05:07.781   07 Jun 2027 07:05:15.375             7.594                Irkutsk           237.312
       417   07 Jun 2027 07:07:04.182   07 Jun 2027 07:07:15.972            11.790                Novosib           368.438
       418   07 Jun 2027 07:48:19.352   07 Jun 2027 07:49:08.906            49.554            RioGallegos          1548.562
       419   07 Jun 2027 08:20:42.907   07 Jun 2027 08:20:51.462             8.555                Sumatra           267.344
       420   07 Jun 2027 08:26:01.606   07 Jun 2027 08:27:18.877            77.271                Sumatra          2414.719
       421   07 Jun 2027 08:39:52.303   07 Jun 2027 08:40:05.142            12.839              Murmansk1           401.219
       422   07 Jun 2027 08:40:16.820   07 Jun 2027 08:40:22.659             5.839                Novosib           182.469
       423   07 Jun 2027 08:40:29.207   07 Jun 2027 08:40:46.189            16.982              Murmansk1           530.688
       424   07 Jun 2027 08:41:01.122   07 Jun 2027 08:41:32.284            31.162                Novosib           973.813
       425   07 Jun 2027 08:41:37.528   07 Jun 2027 08:41:45.263             7.735                Novosib           241.719
       426   07 Jun 2027 08:43:07.016   07 Jun 2027 08:44:29.194            82.178                Novosib          2568.063
       427   07 Jun 2027 10:02:47.076   07 Jun 2027 10:05:06.170           139.094                  Delhi          4346.687
       428   07 Jun 2027 10:16:04.163   07 Jun 2027 10:16:31.555            27.392              Murmansk1           856.000
       429   07 Jun 2027 10:21:00.416   07 Jun 2027 10:21:00.880             0.464                Norilsk            14.500
       430   07 Jun 2027 12:04:30.571   07 Jun 2027 12:07:26.157           175.586                Anadyr2          5487.063
       431   07 Jun 2027 12:07:28.293   07 Jun 2027 12:08:15.055            46.762                Anadyr1          1461.312
       432   07 Jun 2027 13:32:56.265   07 Jun 2027 13:33:15.372            19.107              Murmansk1           597.094
       433   07 Jun 2027 13:34:29.286   07 Jun 2027 13:34:35.127             5.841              Murmansk2           182.531
       434   07 Jun 2027 13:34:55.582   07 Jun 2027 13:35:14.445            18.863              Murmansk2           589.469
       435   07 Jun 2027 13:36:41.073   07 Jun 2027 13:36:50.662             9.589              Murmansk2           299.656
       436   07 Jun 2027 13:37:03.213   07 Jun 2027 13:37:15.112            11.899              Murmansk2           371.844
       437   07 Jun 2027 13:39:25.767   07 Jun 2027 13:41:13.490           107.723                Anadyr1          3366.344
       438   07 Jun 2027 13:41:37.304   07 Jun 2027 13:41:51.399            14.095                Anadyr1           440.469
       439   07 Jun 2027 13:43:18.104   07 Jun 2027 13:44:14.993            56.889                Anadyr2          1777.781
       440   07 Jun 2027 13:45:35.303   07 Jun 2027 13:46:31.391            56.088                Anadyr2          1752.750
       441   07 Jun 2027 13:48:03.441   07 Jun 2027 13:49:50.497           107.056                Anadyr2          3345.500
       442   07 Jun 2027 15:08:46.708   07 Jun 2027 15:10:24.883            98.175              Murmansk2          3067.969
       443   07 Jun 2027 15:10:44.770   07 Jun 2027 15:11:13.578            28.808              Murmansk2           900.250
       444   07 Jun 2027 15:15:14.951   07 Jun 2027 15:15:55.494            40.543                Anadyr1          1266.969
       445   07 Jun 2027 15:15:55.494   07 Jun 2027 15:17:16.786            81.292                Anadyr2          2540.375
       446   07 Jun 2027 15:17:51.804   07 Jun 2027 15:23:29.066           337.262               Magadan1         10539.437
       447   07 Jun 2027 15:26:48.844   07 Jun 2027 15:28:59.474           130.630               Magadan2          4082.188
       448   07 Jun 2027 16:53:26.807   07 Jun 2027 16:54:14.623            47.816               Magadan1          1494.250
       449   07 Jun 2027 16:57:33.407   07 Jun 2027 16:57:42.918             9.511               Magadan1           297.219
       450   07 Jun 2027 17:02:23.803   07 Jun 2027 17:05:01.379           157.576               Magadan2          4924.250
       451   07 Jun 2027 17:45:50.061   07 Jun 2027 17:46:59.583            69.522            RioGallegos          2172.562
       452   07 Jun 2027 17:48:56.121   07 Jun 2027 17:52:01.811           185.690            RioGallegos          5802.813
       453   07 Jun 2027 18:29:02.255   07 Jun 2027 18:32:48.551           226.296                Norilsk          7071.750
       454   07 Jun 2027 18:33:18.668   07 Jun 2027 18:34:28.212            69.544                Irkutsk          2173.250
       455   07 Jun 2027 18:34:47.717   07 Jun 2027 18:35:29.773            42.056                Irkutsk          1314.250
       456   07 Jun 2027 18:36:13.906   07 Jun 2027 18:38:53.985           160.079                Novosib          5002.469
       457   07 Jun 2027 18:47:10.086   07 Jun 2027 18:48:45.843            95.757                Sumatra          2992.406
       458   07 Jun 2027 18:51:05.715   07 Jun 2027 18:53:15.117           129.402                Sumatra          4043.813
       459   07 Jun 2027 20:17:02.891   07 Jun 2027 20:20:34.807           211.916                  Delhi          6622.375
       460   07 Jun 2027 20:21:03.412   07 Jun 2027 20:23:42.848           159.436                  Delhi          4982.375
       461   07 Jun 2027 21:43:23.672   07 Jun 2027 21:47:37.493           253.821              Murmansk2          7931.906
       462   07 Jun 2027 21:47:37.493   07 Jun 2027 21:48:59.227            81.734              Murmansk1          2554.188
       463   07 Jun 2027 21:49:35.244   07 Jun 2027 21:51:37.260           122.016              Murmansk2          3813.000
       464   07 Jun 2027 21:53:18.419   07 Jun 2027 21:53:51.720            33.301                 Moscow          1040.656
       465   07 Jun 2027 23:22:29.934   07 Jun 2027 23:24:52.344           142.410                 Moscow          4450.313
       466   07 Jun 2027 23:47:02.885   07 Jun 2027 23:48:42.132            99.247               CapeTown          3101.469
       467   07 Jun 2027 23:50:39.923   07 Jun 2027 23:52:18.094            98.171               CapeTown          3067.844
       468   08 Jun 2027 00:55:02.581   08 Jun 2027 00:55:59.471            56.890              Murmansk2          1777.813
       469   08 Jun 2027 00:57:33.213   08 Jun 2027 00:57:39.543             6.330              Murmansk1           197.812
       470   08 Jun 2027 00:58:15.788   08 Jun 2027 00:59:14.264            58.476                 Moscow          1827.375
       471   08 Jun 2027 01:02:29.502   08 Jun 2027 01:02:43.360            13.858                 Moscow           433.062
       472   08 Jun 2027 01:05:09.834   08 Jun 2027 01:05:21.704            11.870                 Moscow           370.938
       473   08 Jun 2027 01:07:37.149   08 Jun 2027 01:08:14.574            37.425                 Moscow          1169.531
       474   08 Jun 2027 01:22:39.365   08 Jun 2027 01:23:22.474            43.109               CapeTown          1347.156
       475   08 Jun 2027 01:27:28.618   08 Jun 2027 01:28:19.752            51.134               CapeTown          1597.937
       476   08 Jun 2027 02:19:04.403   08 Jun 2027 02:21:29.422           145.019               Magadan2          4531.844
       477   08 Jun 2027 02:22:26.216   08 Jun 2027 02:22:42.399            16.183               Magadan1           505.719
       478   08 Jun 2027 02:24:03.034   08 Jun 2027 02:24:16.320            13.286               Magadan2           415.187
       479   08 Jun 2027 02:26:17.781   08 Jun 2027 02:26:30.922            13.141               Magadan2           410.656
       480   08 Jun 2027 02:26:55.509   08 Jun 2027 02:26:58.470             2.961                Norilsk            92.531
       481   08 Jun 2027 02:27:22.742   08 Jun 2027 02:27:45.654            22.912                Norilsk           716.000
       482   08 Jun 2027 02:28:46.819   08 Jun 2027 02:28:53.609             6.790                Norilsk           212.187
