uniorb/output/strategy_4/Drop/Drop_KinoSat_111708.txt

KinoSat_111708
-------------------------
    Access    *     Start Time (UTCG)     *     Stop Time (UTCG)  *   Duration (s)        *       Station  *  Data (Mbytes)
         1   01 Jun 2027 04:21:08.546   01 Jun 2027 04:22:20.287            71.741                Norilsk          2241.906
         2   01 Jun 2027 04:22:27.516   01 Jun 2027 04:22:37.954            10.438                Norilsk           326.188
         3   01 Jun 2027 04:22:42.073   01 Jun 2027 04:25:26.086           164.013              Murmansk1          5125.406
         4   01 Jun 2027 04:25:26.086   01 Jun 2027 04:25:41.597            15.511              Murmansk2           484.719
         5   01 Jun 2027 04:46:52.043   01 Jun 2027 04:47:54.017            61.974               CapeTown          1936.687
         6   01 Jun 2027 05:58:11.129   01 Jun 2027 05:58:50.997            39.868              Murmansk1          1245.875
         7   01 Jun 2027 05:59:00.090   01 Jun 2027 06:00:42.363           102.273                 Moscow          3196.031
         8   01 Jun 2027 07:22:04.552   01 Jun 2027 07:24:26.291           141.739                Anadyr2          4429.344
         9   01 Jun 2027 07:25:49.740   01 Jun 2027 07:26:15.974            26.234               Magadan1           819.812
        10   01 Jun 2027 08:57:53.774   01 Jun 2027 08:59:17.875            84.101                Anadyr2          2628.156
        11   01 Jun 2027 08:59:58.120   01 Jun 2027 09:00:13.589            15.469               Magadan1           483.406
        12   01 Jun 2027 09:00:32.452   01 Jun 2027 09:02:10.837            98.385                Anadyr1          3074.531
        13   01 Jun 2027 10:31:18.119   01 Jun 2027 10:32:53.153            95.034               Magadan2          2969.812
        14   01 Jun 2027 10:33:56.325   01 Jun 2027 10:36:07.849           131.524               Magadan1          4110.125
        15   01 Jun 2027 10:37:17.789   01 Jun 2027 10:37:26.724             8.935                Novosib           279.219
        16   01 Jun 2027 10:37:48.771   01 Jun 2027 10:37:59.439            10.668              Murmansk1           333.375
        17   01 Jun 2027 10:38:48.481   01 Jun 2027 10:39:17.922            29.441                Norilsk           920.031
        18   01 Jun 2027 11:12:37.190   01 Jun 2027 11:15:28.210           171.020            RioGallegos          5344.375
        19   01 Jun 2027 11:47:57.205   01 Jun 2027 11:49:43.116           105.911                Sumatra          3309.719
        20   01 Jun 2027 12:01:57.363   01 Jun 2027 12:03:05.946            68.583                Irkutsk          2143.219
        21   01 Jun 2027 12:04:19.858   01 Jun 2027 12:04:56.481            36.623                Irkutsk          1144.469
        22   01 Jun 2027 12:53:39.339   01 Jun 2027 12:55:34.672           115.333            RioGallegos          3604.156
        23   01 Jun 2027 13:26:44.097   01 Jun 2027 13:28:30.074           105.977                Sumatra          3311.781
        24   01 Jun 2027 13:29:49.676   01 Jun 2027 13:31:06.010            76.334                Sumatra          2385.437
        25   01 Jun 2027 13:34:12.232   01 Jun 2027 13:34:15.528             3.296                Sumatra           103.000
        26   01 Jun 2027 13:40:29.216   01 Jun 2027 13:41:54.926            85.710                Irkutsk          2678.438
        27   01 Jun 2027 13:45:04.238   01 Jun 2027 13:47:40.709           156.471                Irkutsk          4889.719
        28   01 Jun 2027 15:10:14.755   01 Jun 2027 15:12:35.148           140.393                  Delhi          4387.281
        29   01 Jun 2027 15:18:45.523   01 Jun 2027 15:23:11.426           265.903                Novosib          8309.469
        30   01 Jun 2027 15:25:10.607   01 Jun 2027 15:25:40.002            29.395                Novosib           918.594
        31   01 Jun 2027 17:02:40.390   01 Jun 2027 17:03:05.853            25.463              Murmansk1           795.719
        32   01 Jun 2027 17:04:40.420   01 Jun 2027 17:05:23.589            43.169              Murmansk1          1349.031
        33   01 Jun 2027 17:07:55.249   01 Jun 2027 17:08:29.646            34.397              Murmansk1          1074.906
        34   01 Jun 2027 17:11:18.980   01 Jun 2027 17:12:00.744            41.764                Anadyr1          1305.125
        35   01 Jun 2027 17:16:50.514   01 Jun 2027 17:17:01.853            11.339                Anadyr1           354.344
        36   01 Jun 2027 17:17:01.853   01 Jun 2027 17:17:10.462             8.609                Anadyr2           269.031
        37   01 Jun 2027 18:05:35.739   01 Jun 2027 18:06:21.057            45.318               CapeTown          1416.188
        38   01 Jun 2027 18:14:18.347   01 Jun 2027 18:14:36.609            18.262               CapeTown           570.687
        39   01 Jun 2027 18:15:43.091   01 Jun 2027 18:17:35.043           111.952               CapeTown          3498.500
        40   01 Jun 2027 18:33:11.285   01 Jun 2027 18:37:19.636           248.351                 Moscow          7760.969
        41   01 Jun 2027 18:40:04.622   01 Jun 2027 18:40:37.428            32.806              Murmansk1          1025.188
        42   01 Jun 2027 19:42:47.168   01 Jun 2027 19:44:02.117            74.949               CapeTown          2342.156
        43   01 Jun 2027 19:46:18.160   01 Jun 2027 19:47:58.547           100.387               CapeTown          3137.094
        44   01 Jun 2027 20:16:24.542   01 Jun 2027 20:18:48.551           144.009              Murmansk1          4500.281
        45   01 Jun 2027 20:24:37.800   01 Jun 2027 20:25:42.397            64.597               Magadan1          2018.656
        46   01 Jun 2027 20:25:51.659   01 Jun 2027 20:26:13.556            21.897               Magadan1           684.281
        47   01 Jun 2027 20:28:35.130   01 Jun 2027 20:29:17.794            42.664               Magadan2          1333.250
        48   01 Jun 2027 20:30:44.442   01 Jun 2027 20:30:56.419            11.977               Magadan2           374.281
        49   01 Jun 2027 20:32:37.047   01 Jun 2027 20:33:06.923            29.876               Magadan2           933.625
        50   01 Jun 2027 21:58:01.741   01 Jun 2027 22:03:04.571           302.830                Anadyr2          9463.438
        51   01 Jun 2027 22:03:23.010   01 Jun 2027 22:03:47.529            24.519                Norilsk           766.219
        52   01 Jun 2027 22:03:53.071   01 Jun 2027 22:06:22.451           149.380               Magadan1          4668.125
        53   01 Jun 2027 22:11:12.640   01 Jun 2027 22:11:20.297             7.657               Magadan2           239.281
        54   01 Jun 2027 22:52:29.515   01 Jun 2027 22:54:11.115           101.600            RioGallegos          3175.000
        55   01 Jun 2027 22:54:35.043   01 Jun 2027 22:55:24.927            49.884            RioGallegos          1558.875
        56   01 Jun 2027 23:01:02.377   01 Jun 2027 23:01:41.417            39.040            RioGallegos          1220.000
        57   01 Jun 2027 23:33:39.332   01 Jun 2027 23:34:29.693            50.361                Anadyr1          1573.781
        58   01 Jun 2027 23:34:35.075   01 Jun 2027 23:35:30.064            54.989                Anadyr2          1718.406
        59   01 Jun 2027 23:35:50.577   01 Jun 2027 23:37:31.206           100.629                Norilsk          3144.656
        60   01 Jun 2027 23:37:32.510   01 Jun 2027 23:37:36.372             3.862               Magadan2           120.688
        61   01 Jun 2027 23:37:40.298   01 Jun 2027 23:37:48.928             8.630               Magadan2           269.687
        62   01 Jun 2027 23:37:58.833   01 Jun 2027 23:38:09.834            11.001               Magadan2           343.781
        63   01 Jun 2027 23:39:19.667   01 Jun 2027 23:39:53.671            34.004               Magadan2          1062.625
        64   01 Jun 2027 23:40:03.129   01 Jun 2027 23:41:23.200            80.071                Irkutsk          2502.219
        65   01 Jun 2027 23:42:05.276   01 Jun 2027 23:42:22.398            17.122                Novosib           535.062
        66   01 Jun 2027 23:46:27.925   01 Jun 2027 23:46:59.904            31.979                Novosib           999.344
        67   01 Jun 2027 23:53:49.998   01 Jun 2027 23:54:29.945            39.947                Sumatra          1248.344
        68   01 Jun 2027 23:55:55.383   01 Jun 2027 23:56:01.723             6.340                Sumatra           198.125
        69   01 Jun 2027 23:56:27.508   01 Jun 2027 23:57:18.624            51.116                Sumatra          1597.375
        70   02 Jun 2027 00:03:56.258   02 Jun 2027 00:05:54.260           118.002                Sumatra          3687.563
        71   02 Jun 2027 01:08:25.046   02 Jun 2027 01:08:58.371            33.325                Anadyr1          1041.406
        72   02 Jun 2027 01:09:23.536   02 Jun 2027 01:10:03.998            40.462                Anadyr2          1264.437
        73   02 Jun 2027 01:10:03.998   02 Jun 2027 01:10:39.542            35.544                Anadyr1          1110.750
        74   02 Jun 2027 01:11:48.195   02 Jun 2027 01:13:31.634           103.439                Norilsk          3232.469
        75   02 Jun 2027 01:13:39.606   02 Jun 2027 01:13:58.033            18.427               Magadan1           575.844
        76   02 Jun 2027 01:15:40.865   02 Jun 2027 01:17:37.569           116.704                Irkutsk          3647.000
        77   02 Jun 2027 01:18:10.705   02 Jun 2027 01:18:14.778             4.073                Novosib           127.281
        78   02 Jun 2027 01:18:51.804   02 Jun 2027 01:20:30.035            98.231                Irkutsk          3069.719
        79   02 Jun 2027 01:31:13.563   02 Jun 2027 01:31:30.177            16.614                Sumatra           519.188
        80   02 Jun 2027 01:31:49.290   02 Jun 2027 01:34:27.103           157.813                Sumatra          4931.656
        81   02 Jun 2027 02:13:39.428   02 Jun 2027 02:13:50.925            11.497            RioGallegos           359.281
        82   02 Jun 2027 02:41:58.453   02 Jun 2027 02:42:08.642            10.189                Anadyr2           318.406
        83   02 Jun 2027 02:43:01.697   02 Jun 2027 02:43:48.415            46.718                Anadyr2          1459.937
        84   02 Jun 2027 02:47:48.182   02 Jun 2027 02:49:23.418            95.236                Norilsk          2976.125
        85   02 Jun 2027 02:50:08.869   02 Jun 2027 02:50:27.062            18.193              Murmansk2           568.531
        86   02 Jun 2027 02:51:05.386   02 Jun 2027 02:51:48.555            43.169              Murmansk2          1349.031
        87   02 Jun 2027 02:51:50.970   02 Jun 2027 02:52:27.288            36.318                Novosib          1134.937
        88   02 Jun 2027 02:52:37.779   02 Jun 2027 02:54:40.409           122.630                Irkutsk          3832.188
        89   02 Jun 2027 02:59:12.453   02 Jun 2027 03:01:34.538           142.085                  Delhi          4440.156
        90   02 Jun 2027 04:33:01.803   02 Jun 2027 04:33:38.379            36.576                Novosib          1143.000
        91   02 Jun 2027 04:33:56.877   02 Jun 2027 04:35:17.283            80.406              Murmansk2          2512.687
        92   02 Jun 2027 04:35:17.283   02 Jun 2027 04:37:12.300           115.017              Murmansk1          3594.281
        93   02 Jun 2027 04:37:44.443   02 Jun 2027 04:38:50.638            66.195                 Moscow          2068.594
        94   02 Jun 2027 04:53:40.137   02 Jun 2027 04:54:57.609            77.472               CapeTown          2421.000
        95   02 Jun 2027 04:55:58.022   02 Jun 2027 04:56:54.503            56.481               CapeTown          1765.031
        96   02 Jun 2027 07:32:56.095   02 Jun 2027 07:36:09.456           193.361               Magadan2          6042.531
        97   02 Jun 2027 07:36:25.155   02 Jun 2027 07:36:39.752            14.597                Anadyr1           456.156
        98   02 Jun 2027 07:36:39.752   02 Jun 2027 07:37:16.873            37.121                Anadyr2          1160.031
        99   02 Jun 2027 07:37:19.376   02 Jun 2027 07:38:37.671            78.295                Anadyr1          2446.719
       100   02 Jun 2027 09:09:52.097   02 Jun 2027 09:10:31.376            39.279                Irkutsk          1227.469
       101   02 Jun 2027 09:10:33.544   02 Jun 2027 09:11:20.815            47.271               Magadan1          1477.219
       102   02 Jun 2027 09:11:54.872   02 Jun 2027 09:12:52.975            58.103               Magadan1          1815.719
       103   02 Jun 2027 10:44:23.419   02 Jun 2027 10:45:34.511            71.092               Magadan2          2221.625
       104   02 Jun 2027 10:45:57.225   02 Jun 2027 10:46:26.606            29.381               Magadan1           918.156
       105   02 Jun 2027 10:46:46.389   02 Jun 2027 10:48:07.260            80.871               Magadan2          2527.219
       106   02 Jun 2027 10:48:07.260   02 Jun 2027 10:49:18.763            71.503               Magadan1          2234.469
       107   02 Jun 2027 10:50:02.646   02 Jun 2027 10:50:29.521            26.875                Norilsk           839.844
       108   02 Jun 2027 11:25:38.377   02 Jun 2027 11:26:50.864            72.487            RioGallegos          2265.219
       109   02 Jun 2027 11:59:44.399   02 Jun 2027 12:00:25.334            40.935                Sumatra          1279.219
       110   02 Jun 2027 12:13:21.697   02 Jun 2027 12:15:02.929           101.232                Irkutsk          3163.500
       111   02 Jun 2027 12:16:18.938   02 Jun 2027 12:17:03.883            44.945                Irkutsk          1404.531
       112   02 Jun 2027 12:25:30.236   02 Jun 2027 12:25:42.642            12.406              Murmansk2           387.687
       113   02 Jun 2027 12:28:43.594   02 Jun 2027 12:28:54.340            10.746                Norilsk           335.813
       114   02 Jun 2027 12:30:52.065   02 Jun 2027 12:30:53.886             1.821              Murmansk1            56.906
       115   02 Jun 2027 12:31:15.631   02 Jun 2027 12:31:18.022             2.391              Murmansk1            74.719
       116   02 Jun 2027 12:31:34.123   02 Jun 2027 12:31:59.249            25.126              Murmansk1           785.188
       117   02 Jun 2027 13:03:17.488   02 Jun 2027 13:05:35.907           138.419            RioGallegos          4325.594
       118   02 Jun 2027 13:37:41.630   02 Jun 2027 13:40:22.645           161.015                Sumatra          5031.719
       119   02 Jun 2027 13:53:32.467   02 Jun 2027 13:57:06.423           213.956                Irkutsk          6686.125
       120   02 Jun 2027 15:23:34.573   02 Jun 2027 15:27:21.811           227.238                  Delhi          7101.187
       121   02 Jun 2027 15:31:58.297   02 Jun 2027 15:34:13.539           135.242                Novosib          4226.312
       122   02 Jun 2027 15:38:25.831   02 Jun 2027 15:39:04.787            38.956                Norilsk          1217.375
       123   02 Jun 2027 16:45:36.969   02 Jun 2027 16:46:18.986            42.017               CapeTown          1313.031
       124   02 Jun 2027 17:04:51.225   02 Jun 2027 17:05:24.209            32.984                 Moscow          1030.750
       125   02 Jun 2027 17:07:13.135   02 Jun 2027 17:07:40.725            27.590                 Moscow           862.188
       126   02 Jun 2027 17:08:13.894   02 Jun 2027 17:08:50.919            37.025              Murmansk2          1157.031
       127   02 Jun 2027 17:09:34.856   02 Jun 2027 17:10:20.218            45.362              Murmansk1          1417.562
       128   02 Jun 2027 17:16:42.601   02 Jun 2027 17:16:57.840            15.239              Murmansk2           476.219
       129   02 Jun 2027 17:22:54.635   02 Jun 2027 17:24:48.298           113.663                Anadyr1          3551.969
       130   02 Jun 2027 17:25:15.054   02 Jun 2027 17:25:21.606             6.552                Anadyr2           204.750
       131   02 Jun 2027 17:26:12.154   02 Jun 2027 17:26:29.428            17.274                Anadyr1           539.813
       132   02 Jun 2027 18:17:35.676   02 Jun 2027 18:19:58.194           142.518               CapeTown          4453.688
       133   02 Jun 2027 18:46:57.053   02 Jun 2027 18:50:26.013           208.960              Murmansk2          6530.000
       134   02 Jun 2027 18:51:23.907   02 Jun 2027 18:52:02.512            38.605              Murmansk2          1206.406
       135   02 Jun 2027 19:02:27.727   02 Jun 2027 19:02:54.649            26.922               Magadan2           841.313
       136   02 Jun 2027 19:03:16.008   02 Jun 2027 19:03:39.591            23.583               Magadan2           736.969
       137   02 Jun 2027 19:04:48.214   02 Jun 2027 19:05:13.494            25.280               Magadan1           790.000
       138   02 Jun 2027 19:06:34.892   02 Jun 2027 19:07:08.456            33.564               Magadan1          1048.875
       139   02 Jun 2027 19:55:23.235   02 Jun 2027 19:55:47.961            24.726               CapeTown           772.687
       140   02 Jun 2027 19:59:09.087   02 Jun 2027 19:59:56.258            47.171               CapeTown          1474.094
       141   02 Jun 2027 20:34:08.175   02 Jun 2027 20:37:24.044           195.869                Anadyr1          6120.906
       142   02 Jun 2027 20:37:26.437   02 Jun 2027 20:38:58.454            92.017               Magadan1          2875.531
       143   02 Jun 2027 20:38:58.454   02 Jun 2027 20:39:08.724            10.270               Magadan2           320.937
       144   02 Jun 2027 20:40:03.729   02 Jun 2027 20:40:14.419            10.690               Magadan2           334.062
       145   02 Jun 2027 20:42:27.634   02 Jun 2027 20:42:30.043             2.409               Magadan2            75.281
       146   02 Jun 2027 20:43:41.681   02 Jun 2027 20:44:11.075            29.394               Magadan2           918.563
       147   02 Jun 2027 22:10:02.583   02 Jun 2027 22:13:45.101           222.518                Anadyr1          6953.688
       148   02 Jun 2027 22:13:45.740   02 Jun 2027 22:16:45.197           179.457                Norilsk          5608.031
       149   02 Jun 2027 22:18:24.545   02 Jun 2027 22:18:26.528             1.983               Magadan1            61.969
       150   02 Jun 2027 22:18:37.305   02 Jun 2027 22:19:11.796            34.491               Magadan2          1077.844
       151   02 Jun 2027 22:19:23.461   02 Jun 2027 22:20:27.058            63.597                Irkutsk          1987.406
       152   02 Jun 2027 23:04:19.427   02 Jun 2027 23:05:37.983            78.556            RioGallegos          2454.875
       153   02 Jun 2027 23:06:04.282   02 Jun 2027 23:07:30.778            86.496            RioGallegos          2703.000
       154   02 Jun 2027 23:45:35.872   02 Jun 2027 23:46:19.111            43.239                Anadyr1          1351.219
       155   02 Jun 2027 23:46:49.906   02 Jun 2027 23:47:27.952            38.046                Anadyr1          1188.938
       156   02 Jun 2027 23:47:51.616   02 Jun 2027 23:50:07.439           135.823                Norilsk          4244.469
       157   02 Jun 2027 23:52:56.317   02 Jun 2027 23:53:59.282            62.965                Irkutsk          1967.656
       158   02 Jun 2027 23:54:32.244   02 Jun 2027 23:55:41.342            69.098                Novosib          2159.313
       159   02 Jun 2027 23:59:35.975   03 Jun 2027 00:00:05.331            29.356                Novosib           917.375
       160   03 Jun 2027 00:05:40.322   03 Jun 2027 00:08:21.240           160.918                Sumatra          5028.688
       161   03 Jun 2027 00:45:33.398   03 Jun 2027 00:45:43.567            10.169            RioGallegos           317.781
       162   03 Jun 2027 00:47:34.726   03 Jun 2027 00:48:15.602            40.876            RioGallegos          1277.375
       163   03 Jun 2027 01:20:12.269   03 Jun 2027 01:20:49.943            37.674                Anadyr2          1177.312
       164   03 Jun 2027 01:20:58.289   03 Jun 2027 01:21:24.066            25.777                Anadyr1           805.531
       165   03 Jun 2027 01:22:05.340   03 Jun 2027 01:22:59.440            54.100                Anadyr1          1690.625
       166   03 Jun 2027 01:23:50.562   03 Jun 2027 01:25:33.390           102.828                Norilsk          3213.375
       167   03 Jun 2027 01:25:46.117   03 Jun 2027 01:26:06.647            20.530               Magadan2           641.562
       168   03 Jun 2027 01:27:44.425   03 Jun 2027 01:29:37.758           113.333                Irkutsk          3541.656
       169   03 Jun 2027 01:31:20.683   03 Jun 2027 01:31:23.924             3.241                Novosib           101.281
       170   03 Jun 2027 01:32:49.368   03 Jun 2027 01:34:38.182           108.814                Novosib          3400.438
       171   03 Jun 2027 01:44:17.343   03 Jun 2027 01:46:16.641           119.298                Sumatra          3728.063
       172   03 Jun 2027 02:19:43.899   03 Jun 2027 02:20:16.249            32.350            RioGallegos          1010.937
       173   03 Jun 2027 02:23:17.946   03 Jun 2027 02:23:22.363             4.417            RioGallegos           138.031
       174   03 Jun 2027 02:53:39.480   03 Jun 2027 02:53:43.779             4.299                Anadyr1           134.344
       175   03 Jun 2027 02:55:02.291   03 Jun 2027 02:56:15.020            72.729                Anadyr1          2272.781
       176   03 Jun 2027 02:59:07.815   03 Jun 2027 02:59:37.186            29.371                Anadyr1           917.844
       177   03 Jun 2027 03:01:06.312   03 Jun 2027 03:01:28.282            21.970               Magadan2           686.563
       178   03 Jun 2027 03:05:02.666   03 Jun 2027 03:06:27.128            84.462                Norilsk          2639.437
       179   03 Jun 2027 03:06:31.326   03 Jun 2027 03:06:42.221            10.895                Norilsk           340.469
       180   03 Jun 2027 03:06:49.283   03 Jun 2027 03:08:48.595           119.312                Irkutsk          3728.500
       181   03 Jun 2027 03:08:50.256   03 Jun 2027 03:08:59.746             9.490                Novosib           296.563
       182   03 Jun 2027 03:09:07.650   03 Jun 2027 03:09:28.547            20.897                 Moscow           653.031
       183   03 Jun 2027 03:09:33.361   03 Jun 2027 03:09:59.725            26.364                Irkutsk           823.875
       184   03 Jun 2027 03:10:04.922   03 Jun 2027 03:10:32.151            27.229              Murmansk1           850.906
       185   03 Jun 2027 03:10:45.928   03 Jun 2027 03:11:13.511            27.583                Novosib           861.969
       186   03 Jun 2027 03:11:28.078   03 Jun 2027 03:12:51.975            83.897                  Delhi          2621.781
       187   03 Jun 2027 04:45:34.566   03 Jun 2027 04:45:50.309            15.743              Murmansk1           491.969
       188   03 Jun 2027 04:45:57.189   03 Jun 2027 04:46:04.804             7.615              Murmansk1           237.969
       189   03 Jun 2027 04:46:18.881   03 Jun 2027 04:47:18.630            59.749                Novosib          1867.156
       190   03 Jun 2027 04:47:24.805   03 Jun 2027 04:47:38.291            13.486                Norilsk           421.438
       191   03 Jun 2027 04:48:14.028   03 Jun 2027 04:48:42.468            28.440                 Moscow           888.750
       192   03 Jun 2027 04:49:07.513   03 Jun 2027 04:49:21.799            14.286                 Moscow           446.437
       193   03 Jun 2027 04:49:29.305   03 Jun 2027 04:51:14.510           105.205                 Moscow          3287.656
       194   03 Jun 2027 05:05:24.798   03 Jun 2027 05:07:15.006           110.208               CapeTown          3444.000
       195   03 Jun 2027 06:01:50.375   03 Jun 2027 06:05:09.150           198.775                Anadyr1          6211.719
       196   03 Jun 2027 06:08:55.362   03 Jun 2027 06:10:31.377            96.015                Anadyr2          3000.469
       197   03 Jun 2027 06:21:05.213   03 Jun 2027 06:22:04.479            59.266                 Moscow          1852.063
       198   03 Jun 2027 06:42:15.810   03 Jun 2027 06:42:59.525            43.715               CapeTown          1366.094
       199   03 Jun 2027 06:46:08.482   03 Jun 2027 06:47:21.388            72.906               CapeTown          2278.312
       200   03 Jun 2027 07:42:24.505   03 Jun 2027 07:42:33.970             9.465                Anadyr1           295.781
       201   03 Jun 2027 07:42:55.255   03 Jun 2027 07:43:26.567            31.312               Magadan2           978.500
       202   03 Jun 2027 07:43:56.821   03 Jun 2027 07:44:45.658            48.837                Anadyr1          1526.156
       203   03 Jun 2027 07:44:59.495   03 Jun 2027 07:46:06.350            66.855               Magadan2          2089.219
       204   03 Jun 2027 07:46:30.581   03 Jun 2027 07:46:42.711            12.130               Magadan1           379.062
       205   03 Jun 2027 07:46:52.290   03 Jun 2027 07:47:37.551            45.261                Anadyr2          1414.406
       206   03 Jun 2027 07:57:16.306   03 Jun 2027 07:57:52.330            36.024                 Moscow          1125.750
       207   03 Jun 2027 09:17:53.331   03 Jun 2027 09:18:12.640            19.309               Magadan1           603.406
       208   03 Jun 2027 09:18:38.953   03 Jun 2027 09:19:21.005            42.052               Magadan1          1314.125
       209   03 Jun 2027 09:19:35.504   03 Jun 2027 09:20:18.055            42.551               Magadan2          1329.719
       210   03 Jun 2027 09:20:58.469   03 Jun 2027 09:21:01.582             3.113               Magadan2            97.281
       211   03 Jun 2027 09:21:01.582   03 Jun 2027 09:22:28.999            87.417               Magadan1          2731.781
       212   03 Jun 2027 09:22:53.879   03 Jun 2027 09:23:24.636            30.757               Magadan1           961.156
       213   03 Jun 2027 09:23:33.616   03 Jun 2027 09:24:33.091            59.475                Anadyr2          1858.594
       214   03 Jun 2027 09:25:36.584   03 Jun 2027 09:25:56.747            20.163                Anadyr1           630.094
       215   03 Jun 2027 10:01:42.587   03 Jun 2027 10:02:24.178            41.591            RioGallegos          1299.719
       216   03 Jun 2027 10:03:47.148   03 Jun 2027 10:03:53.729             6.581            RioGallegos           205.656
       217   03 Jun 2027 10:55:10.091   03 Jun 2027 10:55:45.030            34.939                Irkutsk          1091.844
       218   03 Jun 2027 10:56:14.433   03 Jun 2027 10:56:42.822            28.389                Irkutsk           887.156
       219   03 Jun 2027 10:57:42.479   03 Jun 2027 10:57:59.868            17.389                Irkutsk           543.406
       220   03 Jun 2027 10:58:01.420   03 Jun 2027 10:59:52.012           110.592               Magadan2          3456.000
       221   03 Jun 2027 10:59:57.290   03 Jun 2027 11:01:11.713            74.423                Irkutsk          2325.719
       222   03 Jun 2027 11:01:24.337   03 Jun 2027 11:02:10.827            46.490                Novosib          1452.813
       223   03 Jun 2027 11:36:47.172   03 Jun 2027 11:37:32.959            45.787            RioGallegos          1430.844
       224   03 Jun 2027 12:11:37.712   03 Jun 2027 12:13:22.287           104.575                Sumatra          3267.969
       225   03 Jun 2027 12:25:36.083   03 Jun 2027 12:26:39.049            62.966                Irkutsk          1967.688
       226   03 Jun 2027 12:26:46.731   03 Jun 2027 12:27:36.693            49.962                Novosib          1561.313
       227   03 Jun 2027 12:34:57.896   03 Jun 2027 12:35:06.341             8.445                Norilsk           263.906
       228   03 Jun 2027 12:35:48.812   03 Jun 2027 12:36:53.247            64.435                Norilsk          2013.594
       229   03 Jun 2027 13:16:51.302   03 Jun 2027 13:17:30.763            39.461            RioGallegos          1233.156
       230   03 Jun 2027 13:23:21.980   03 Jun 2027 13:23:51.405            29.425            RioGallegos           919.531
       231   03 Jun 2027 13:51:06.814   03 Jun 2027 13:54:48.481           221.667                Sumatra          6927.094
       232   03 Jun 2027 14:03:54.231   03 Jun 2027 14:04:34.522            40.291                Novosib          1259.094
       233   03 Jun 2027 14:07:04.338   03 Jun 2027 14:09:48.039           163.701                Irkutsk          5115.656
       234   03 Jun 2027 15:40:14.260   03 Jun 2027 15:41:22.922            68.662                 Moscow          2145.687
       235   03 Jun 2027 15:41:54.790   03 Jun 2027 15:42:24.388            29.598                 Moscow           924.938
       236   03 Jun 2027 15:43:29.148   03 Jun 2027 15:43:56.844            27.696                 Moscow           865.500
       237   03 Jun 2027 15:44:43.009   03 Jun 2027 15:44:54.961            11.952              Murmansk1           373.500
       238   03 Jun 2027 15:45:01.983   03 Jun 2027 15:45:43.862            41.879              Murmansk1          1308.719
       239   03 Jun 2027 15:46:14.298   03 Jun 2027 15:47:22.235            67.937                Novosib          2123.031
       240   03 Jun 2027 15:49:32.530   03 Jun 2027 15:50:51.773            79.243                Norilsk          2476.344
       241   03 Jun 2027 15:51:53.220   03 Jun 2027 15:52:32.440            39.220                Norilsk          1225.625
       242   03 Jun 2027 16:55:10.893   03 Jun 2027 16:56:05.063            54.170               CapeTown          1692.813
       243   03 Jun 2027 16:58:56.941   03 Jun 2027 16:59:09.253            12.312               CapeTown           384.750
       244   03 Jun 2027 17:01:02.086   03 Jun 2027 17:01:20.172            18.086               CapeTown           565.188
       245   03 Jun 2027 17:17:12.899   03 Jun 2027 17:17:13.785             0.886                 Moscow            27.688
       246   03 Jun 2027 17:17:26.471   03 Jun 2027 17:18:10.998            44.527                 Moscow          1391.469
       247   03 Jun 2027 17:20:28.951   03 Jun 2027 17:20:52.032            23.081              Murmansk2           721.281
       248   03 Jun 2027 17:22:16.353   03 Jun 2027 17:24:33.698           137.345              Murmansk2          4292.031
       249   03 Jun 2027 17:34:46.819   03 Jun 2027 17:35:24.836            38.017                Anadyr1          1188.031
       250   03 Jun 2027 17:35:51.599   03 Jun 2027 17:36:01.378             9.779                Anadyr1           305.594
       251   03 Jun 2027 17:38:10.602   03 Jun 2027 17:38:13.079             2.477                Anadyr1            77.406
       252   03 Jun 2027 17:38:18.531   03 Jun 2027 17:38:45.838            27.307                Anadyr1           853.344
       253   03 Jun 2027 17:39:45.175   03 Jun 2027 17:40:07.809            22.634                Anadyr2           707.313
       254   03 Jun 2027 18:29:38.415   03 Jun 2027 18:31:48.180           129.765               CapeTown          4055.156
       255   03 Jun 2027 18:59:31.268   03 Jun 2027 19:00:09.908            38.640              Murmansk2          1207.500
       256   03 Jun 2027 19:00:49.939   03 Jun 2027 19:03:57.070           187.131              Murmansk1          5847.844
       257   03 Jun 2027 19:05:44.219   03 Jun 2027 19:06:30.696            46.477              Murmansk2          1452.406
       258   03 Jun 2027 19:13:56.617   03 Jun 2027 19:14:25.050            28.433               Magadan2           888.531
       259   03 Jun 2027 19:16:49.710   03 Jun 2027 19:17:00.744            11.034               Magadan1           344.813
       260   03 Jun 2027 19:18:13.489   03 Jun 2027 19:18:23.871            10.382               Magadan1           324.438
       261   03 Jun 2027 19:19:14.530   03 Jun 2027 19:19:52.140            37.610               Magadan2          1175.313
       262   03 Jun 2027 20:09:40.614   03 Jun 2027 20:10:45.815            65.201               CapeTown          2037.531
       263   03 Jun 2027 20:46:09.987   03 Jun 2027 20:49:21.997           192.010                Anadyr2          6000.313
       264   03 Jun 2027 20:49:27.646   03 Jun 2027 20:50:13.701            46.055                Anadyr2          1439.219
       265   03 Jun 2027 20:50:15.365   03 Jun 2027 20:50:57.614            42.249               Magadan1          1320.281
       266   03 Jun 2027 20:51:14.072   03 Jun 2027 20:51:33.109            19.037               Magadan1           594.906
       267   03 Jun 2027 20:54:21.618   03 Jun 2027 20:54:30.100             8.482               Magadan2           265.063
       268   03 Jun 2027 20:57:58.531   03 Jun 2027 20:58:42.901            44.370               Magadan2          1386.562
       269   03 Jun 2027 22:22:03.108   03 Jun 2027 22:24:02.240           119.132                Anadyr2          3722.875
       270   03 Jun 2027 22:24:05.847   03 Jun 2027 22:26:14.456           128.609                Anadyr1          4019.031
       271   03 Jun 2027 22:26:15.270   03 Jun 2027 22:29:31.884           196.614               Magadan1          6144.188
       272   03 Jun 2027 22:30:40.382   03 Jun 2027 22:31:14.776            34.394                Irkutsk          1074.813
       273   03 Jun 2027 22:32:00.030   03 Jun 2027 22:32:14.228            14.198                Irkutsk           443.687
       274   03 Jun 2027 22:34:35.761   03 Jun 2027 22:35:22.539            46.778                Irkutsk          1461.813
       275   03 Jun 2027 22:47:22.885   03 Jun 2027 22:47:27.046             4.161                Sumatra           130.031
       276   03 Jun 2027 22:49:16.279   03 Jun 2027 22:49:38.614            22.335                Sumatra           697.969
       277   03 Jun 2027 23:16:11.982   03 Jun 2027 23:16:57.609            45.627            RioGallegos          1425.844
       278   03 Jun 2027 23:24:22.909   03 Jun 2027 23:25:14.321            51.412            RioGallegos          1606.625
       279   03 Jun 2027 23:57:31.498   03 Jun 2027 23:58:55.139            83.641                Anadyr2          2613.781
       280   03 Jun 2027 23:59:26.443   03 Jun 2027 23:59:47.260            20.817                Anadyr2           650.531
       281   03 Jun 2027 23:59:53.022   04 Jun 2027 00:01:35.520           102.498                Norilsk          3203.063
       282   04 Jun 2027 00:01:38.059   04 Jun 2027 00:01:52.520            14.461               Magadan1           451.906
       283   04 Jun 2027 00:02:03.062   04 Jun 2027 00:02:23.897            20.835               Magadan1           651.094
       284   04 Jun 2027 00:03:54.830   04 Jun 2027 00:04:17.610            22.780                Irkutsk           711.875
       285   04 Jun 2027 00:05:00.012   04 Jun 2027 00:05:27.983            27.971                Irkutsk           874.094
       286   04 Jun 2027 00:06:37.450   04 Jun 2027 00:06:56.806            19.356                Irkutsk           604.875
       287   04 Jun 2027 00:07:29.366   04 Jun 2027 00:08:09.932            40.566                Novosib          1267.687
       288   04 Jun 2027 00:09:19.391   04 Jun 2027 00:09:27.768             8.377                Novosib           261.781
       289   04 Jun 2027 00:09:53.368   04 Jun 2027 00:10:29.451            36.083                Novosib          1127.594
       290   04 Jun 2027 00:17:36.537   04 Jun 2027 00:18:40.906            64.369                Sumatra          2011.531
       291   04 Jun 2027 00:21:32.102   04 Jun 2027 00:21:41.642             9.540                Sumatra           298.125
       292   04 Jun 2027 00:23:35.521   04 Jun 2027 00:24:19.001            43.480                Sumatra          1358.750
       293   04 Jun 2027 00:26:23.150   04 Jun 2027 00:27:11.846            48.696                Sumatra          1521.750
       294   04 Jun 2027 01:01:26.526   04 Jun 2027 01:01:46.904            20.378            RioGallegos           636.813
       295   04 Jun 2027 01:31:58.209   04 Jun 2027 01:32:50.157            51.948                Anadyr1          1623.375
       296   04 Jun 2027 01:32:57.268   04 Jun 2027 01:33:24.285            27.017                Anadyr2           844.281
       297   04 Jun 2027 01:34:06.426   04 Jun 2027 01:34:50.776            44.350                Anadyr2          1385.938
       298   04 Jun 2027 01:35:52.920   04 Jun 2027 01:37:46.047           113.127                Norilsk          3535.219
       299   04 Jun 2027 01:39:43.347   04 Jun 2027 01:39:55.847            12.500              Murmansk1           390.625
       300   04 Jun 2027 01:40:31.300   04 Jun 2027 01:41:22.863            51.563                Novosib          1611.344
       301   04 Jun 2027 01:41:33.188   04 Jun 2027 01:41:58.684            25.496              Murmansk2           796.750
       302   04 Jun 2027 01:42:35.176   04 Jun 2027 01:43:23.857            48.681                Novosib          1521.281
       303   04 Jun 2027 01:44:31.513   04 Jun 2027 01:46:44.521           133.008                Novosib          4156.500
       304   04 Jun 2027 01:58:47.651   04 Jun 2027 02:00:04.405            76.754                Sumatra          2398.562
       305   04 Jun 2027 02:29:36.072   04 Jun 2027 02:29:55.035            18.963            RioGallegos           592.594
       306   04 Jun 2027 02:30:29.558   04 Jun 2027 02:31:26.538            56.980            RioGallegos          1780.625
       307   04 Jun 2027 03:19:16.852   04 Jun 2027 03:19:24.567             7.715                Norilsk           241.094
       308   04 Jun 2027 03:19:35.694   04 Jun 2027 03:21:27.264           111.570                Novosib          3486.562
       309   04 Jun 2027 03:22:10.297   04 Jun 2027 03:23:10.594            60.297                Irkutsk          1884.281
       310   04 Jun 2027 03:23:46.940   04 Jun 2027 03:24:14.876            27.936                Norilsk           873.000
       311   04 Jun 2027 03:24:30.075   04 Jun 2027 03:25:20.619            50.544                Novosib          1579.500
       312   04 Jun 2027 03:26:47.900   04 Jun 2027 03:28:55.944           128.044                  Delhi          4001.375
       313   04 Jun 2027 04:55:33.604   04 Jun 2027 04:56:24.645            51.041                Novosib          1595.031
       314   04 Jun 2027 04:57:52.646   04 Jun 2027 04:57:56.755             4.109                Novosib           128.406
       315   04 Jun 2027 04:58:03.480   04 Jun 2027 04:58:34.707            31.227                Novosib           975.844
       316   04 Jun 2027 04:59:21.697   04 Jun 2027 05:00:06.099            44.402                Novosib          1387.563
       317   04 Jun 2027 05:01:26.602   04 Jun 2027 05:01:40.217            13.615                 Moscow           425.469
       318   04 Jun 2027 05:01:52.095   04 Jun 2027 05:02:06.733            14.638                 Moscow           457.438
       319   04 Jun 2027 05:02:34.327   04 Jun 2027 05:02:42.956             8.629                 Moscow           269.656
       320   04 Jun 2027 05:03:25.856   04 Jun 2027 05:03:56.773            30.917                 Moscow           966.156
       321   04 Jun 2027 05:17:14.739   04 Jun 2027 05:18:33.540            78.801               CapeTown          2462.531
       322   04 Jun 2027 06:20:10.399   04 Jun 2027 06:20:57.006            46.607                Anadyr2          1456.469
       323   04 Jun 2027 06:21:24.723   04 Jun 2027 06:21:33.049             8.326               Magadan2           260.188
       324   04 Jun 2027 06:21:39.334   04 Jun 2027 06:21:44.269             4.935                Anadyr1           154.219
       325   04 Jun 2027 06:22:01.126   04 Jun 2027 06:22:16.236            15.110               Magadan1           472.187
       326   04 Jun 2027 06:22:31.308   04 Jun 2027 06:22:58.167            26.859                Anadyr2           839.344
       327   04 Jun 2027 06:33:45.971   04 Jun 2027 06:34:15.656            29.685              Murmansk2           927.656
       328   04 Jun 2027 06:54:55.761   04 Jun 2027 06:55:09.309            13.548               CapeTown           423.375
       329   04 Jun 2027 06:57:19.343   04 Jun 2027 06:58:05.398            46.055               CapeTown          1439.219
       330   04 Jun 2027 07:55:03.233   04 Jun 2027 07:55:11.713             8.480                Anadyr1           265.000
       331   04 Jun 2027 07:55:20.154   04 Jun 2027 07:56:10.189            50.035                Anadyr2          1563.594
       332   04 Jun 2027 07:56:34.392   04 Jun 2027 07:57:05.481            31.089               Magadan1           971.531
       333   04 Jun 2027 07:57:25.196   04 Jun 2027 07:58:53.316            88.120                Anadyr2          2753.750
       334   04 Jun 2027 07:59:05.596   04 Jun 2027 07:59:07.635             2.039               Magadan2            63.719
       335   04 Jun 2027 08:00:09.043   04 Jun 2027 08:00:20.299            11.256                Anadyr2           351.750
       336   04 Jun 2027 08:00:36.553   04 Jun 2027 08:00:43.540             6.987                Anadyr1           218.344
       337   04 Jun 2027 08:09:14.123   04 Jun 2027 08:09:43.256            29.133                 Moscow           910.406
       338   04 Jun 2027 08:42:01.746   04 Jun 2027 08:42:46.063            44.317            RioGallegos          1384.906
       339   04 Jun 2027 09:29:36.316   04 Jun 2027 09:30:35.134            58.818               Magadan1          1838.062
       340   04 Jun 2027 09:30:40.467   04 Jun 2027 09:31:31.642            51.175               Magadan1          1599.219
       341   04 Jun 2027 09:32:15.236   04 Jun 2027 09:32:36.793            21.557               Magadan2           673.656
       342   04 Jun 2027 09:33:01.158   04 Jun 2027 09:34:29.357            88.199               Magadan2          2756.219
       343   04 Jun 2027 09:35:27.023   04 Jun 2027 09:35:44.081            17.058               Magadan2           533.063
       344   04 Jun 2027 09:35:53.472   04 Jun 2027 09:36:32.730            39.258               Magadan1          1226.813
       345   04 Jun 2027 09:37:02.493   04 Jun 2027 09:38:11.548            69.055               Magadan2          2157.969
       346   04 Jun 2027 10:51:58.253   04 Jun 2027 10:52:20.035            21.782                Sumatra           680.688
       347   04 Jun 2027 10:52:23.634   04 Jun 2027 10:52:57.883            34.249                Sumatra          1070.281
       348   04 Jun 2027 11:08:48.893   04 Jun 2027 11:09:16.228            27.335                Irkutsk           854.219
       349   04 Jun 2027 11:09:37.778   04 Jun 2027 11:10:10.754            32.976                Irkutsk          1030.500
       350   04 Jun 2027 11:10:15.930   04 Jun 2027 11:12:03.561           107.631               Magadan2          3363.469
       351   04 Jun 2027 11:12:28.506   04 Jun 2027 11:13:10.836            42.330                Novosib          1322.813
       352   04 Jun 2027 11:13:13.695   04 Jun 2027 11:13:36.789            23.094                Norilsk           721.688
       353   04 Jun 2027 11:13:43.308   04 Jun 2027 11:14:04.997            21.689                Irkutsk           677.781
       354   04 Jun 2027 11:48:57.569   04 Jun 2027 11:49:54.992            57.423            RioGallegos          1794.469
       355   04 Jun 2027 11:52:36.929   04 Jun 2027 11:53:16.588            39.659            RioGallegos          1239.344
       356   04 Jun 2027 12:23:36.767   04 Jun 2027 12:24:08.521            31.754                Sumatra           992.313
       357   04 Jun 2027 12:26:03.972   04 Jun 2027 12:26:21.455            17.483                Sumatra           546.344
       358   04 Jun 2027 12:37:54.543   04 Jun 2027 12:39:06.570            72.027                Irkutsk          2250.844
       359   04 Jun 2027 12:39:43.018   04 Jun 2027 12:40:31.497            48.479                Novosib          1514.969
       360   04 Jun 2027 12:42:12.602   04 Jun 2027 12:43:07.595            54.993                Norilsk          1718.531
       361   04 Jun 2027 13:29:14.999   04 Jun 2027 13:32:39.472           204.473            RioGallegos          6389.781
       362   04 Jun 2027 14:15:47.463   04 Jun 2027 14:17:34.661           107.198                Novosib          3349.937
       363   04 Jun 2027 14:19:49.743   04 Jun 2027 14:20:41.256            51.513                Novosib          1609.781
       364   04 Jun 2027 14:21:26.091   04 Jun 2027 14:21:41.353            15.262                Norilsk           476.937
       365   04 Jun 2027 14:22:19.754   04 Jun 2027 14:22:59.070            39.316                Norilsk          1228.625
       366   04 Jun 2027 14:27:13.109   04 Jun 2027 14:28:53.816           100.707                Norilsk          3147.094
       367   04 Jun 2027 15:52:12.933   04 Jun 2027 15:53:22.430            69.497                 Moscow          2171.781
       368   04 Jun 2027 15:54:20.897   04 Jun 2027 15:54:38.798            17.901                 Moscow           559.406
       369   04 Jun 2027 15:55:39.884   04 Jun 2027 15:57:11.756            91.872              Murmansk1          2871.000
       370   04 Jun 2027 15:59:46.020   04 Jun 2027 16:01:31.761           105.741                Norilsk          3304.406
       371   04 Jun 2027 16:03:04.253   04 Jun 2027 16:05:27.493           143.240                Norilsk          4476.250
       372   04 Jun 2027 17:06:44.148   04 Jun 2027 17:07:14.388            30.240               CapeTown           945.000
       373   04 Jun 2027 17:29:38.957   04 Jun 2027 17:31:04.226            85.269                 Moscow          2664.656
       374   04 Jun 2027 17:32:46.040   04 Jun 2027 17:33:12.866            26.826              Murmansk2           838.312
       375   04 Jun 2027 17:33:20.002   04 Jun 2027 17:34:43.289            83.287                 Moscow          2602.719
       376   04 Jun 2027 17:46:41.253   04 Jun 2027 17:48:04.729            83.476                Anadyr2          2608.625
       377   04 Jun 2027 17:48:58.402   04 Jun 2027 17:49:07.898             9.496                Anadyr1           296.750
       378   04 Jun 2027 17:49:25.181   04 Jun 2027 17:49:49.471            24.290                Anadyr1           759.062
       379   04 Jun 2027 18:41:43.942   04 Jun 2027 18:43:00.587            76.645               CapeTown          2395.156
       380   04 Jun 2027 18:44:41.958   04 Jun 2027 18:45:20.133            38.175               CapeTown          1192.969
       381   04 Jun 2027 19:12:08.757   04 Jun 2027 19:13:09.290            60.533              Murmansk1          1891.656
       382   04 Jun 2027 19:14:16.547   04 Jun 2027 19:17:00.214           163.667              Murmansk2          5114.594
       383   04 Jun 2027 19:17:27.412   04 Jun 2027 19:18:32.310            64.898              Murmansk1          2028.063
       384   04 Jun 2027 19:25:36.492   04 Jun 2027 19:26:13.904            37.412               Magadan2          1169.125
       385   04 Jun 2027 19:26:13.904   04 Jun 2027 19:26:43.068            29.164               Magadan1           911.375
       386   04 Jun 2027 19:28:28.965   04 Jun 2027 19:28:50.679            21.714               Magadan1           678.563
       387   04 Jun 2027 19:28:50.679   04 Jun 2027 19:28:55.543             4.864               Magadan2           152.000
       388   04 Jun 2027 19:29:50.345   04 Jun 2027 19:31:18.023            87.678               Magadan2          2739.938
       389   04 Jun 2027 20:58:11.764   04 Jun 2027 20:59:48.624            96.860                Anadyr2          3026.875
       390   04 Jun 2027 21:00:07.394   04 Jun 2027 21:01:19.252            71.858                Anadyr1          2245.563
       391   04 Jun 2027 21:01:40.414   04 Jun 2027 21:04:00.551           140.137               Magadan1          4379.281
       392   04 Jun 2027 21:08:28.764   04 Jun 2027 21:08:36.089             7.325               Magadan2           228.906
       393   04 Jun 2027 21:08:56.638   04 Jun 2027 21:09:11.597            14.959               Magadan2           467.469
       394   04 Jun 2027 21:09:26.619   04 Jun 2027 21:09:28.146             1.527               Magadan2            47.719
       395   04 Jun 2027 21:10:52.442   04 Jun 2027 21:11:17.396            24.954               Magadan2           779.812
       396   04 Jun 2027 21:55:37.694   04 Jun 2027 21:57:15.086            97.392            RioGallegos          3043.500
       397   04 Jun 2027 22:34:03.267   04 Jun 2027 22:36:23.363           140.096                Anadyr1          4378.000
       398   04 Jun 2027 22:36:24.587   04 Jun 2027 22:38:21.499           116.912               Magadan1          3653.500
       399   04 Jun 2027 22:38:24.914   04 Jun 2027 22:39:49.943            85.029                Norilsk          2657.156
       400   04 Jun 2027 22:41:28.314   04 Jun 2027 22:41:43.838            15.524                Irkutsk           485.125
       401   04 Jun 2027 22:42:26.652   04 Jun 2027 22:42:46.264            19.612                Irkutsk           612.875
       402   04 Jun 2027 22:46:57.670   04 Jun 2027 22:47:45.032            47.362                Irkutsk          1480.062
       403   04 Jun 2027 22:57:08.834   04 Jun 2027 22:58:40.442            91.608                Sumatra          2862.750
       404   04 Jun 2027 22:58:45.115   04 Jun 2027 22:58:46.922             1.807                Sumatra            56.469
       405   04 Jun 2027 23:01:33.628   04 Jun 2027 23:02:10.934            37.306                Sumatra          1165.812
       406   05 Jun 2027 00:09:26.122   05 Jun 2027 00:11:22.992           116.870                Anadyr2          3652.188
       407   05 Jun 2027 00:11:54.715   05 Jun 2027 00:12:50.925            56.210                Norilsk          1756.563
       408   05 Jun 2027 00:13:16.623   05 Jun 2027 00:13:48.256            31.633               Magadan2           988.531
       409   05 Jun 2027 00:13:48.256   05 Jun 2027 00:14:16.704            28.448               Magadan1           889.000
       410   05 Jun 2027 00:14:56.168   05 Jun 2027 00:15:27.816            31.648               Magadan2           989.000
       411   05 Jun 2027 00:15:52.842   05 Jun 2027 00:17:00.432            67.590                Irkutsk          2112.187
       412   05 Jun 2027 00:17:02.722   05 Jun 2027 00:18:42.537            99.815                Novosib          3119.219
       413   05 Jun 2027 00:22:52.752   05 Jun 2027 00:23:04.927            12.175                Novosib           380.469
       414   05 Jun 2027 00:29:38.422   05 Jun 2027 00:29:42.043             3.621                Sumatra           113.156
       415   05 Jun 2027 00:31:33.819   05 Jun 2027 00:32:10.406            36.587                Sumatra          1143.344
       416   05 Jun 2027 00:38:32.758   05 Jun 2027 00:39:18.289            45.531                Sumatra          1422.844
       417   05 Jun 2027 01:03:53.117   05 Jun 2027 01:04:18.159            25.042            RioGallegos           782.562
       418   05 Jun 2027 01:06:51.716   05 Jun 2027 01:07:41.484            49.768            RioGallegos          1555.250
       419   05 Jun 2027 01:14:11.866   05 Jun 2027 01:14:30.154            18.288            RioGallegos           571.500
       420   05 Jun 2027 01:43:42.972   05 Jun 2027 01:44:04.321            21.349                Anadyr1           667.156
       421   05 Jun 2027 01:44:43.600   05 Jun 2027 01:45:24.119            40.519                Anadyr1          1266.219
       422   05 Jun 2027 01:45:49.478   05 Jun 2027 01:46:05.929            16.451                Anadyr2           514.094
       423   05 Jun 2027 01:46:05.929   05 Jun 2027 01:46:07.869             1.940                Anadyr1            60.625
       424   05 Jun 2027 01:46:21.828   05 Jun 2027 01:46:40.797            18.969                Anadyr2           592.781
       425   05 Jun 2027 01:47:55.243   05 Jun 2027 01:49:48.431           113.188                Norilsk          3537.125
       426   05 Jun 2027 01:51:07.548   05 Jun 2027 01:51:54.227            46.679              Murmansk2          1458.719
       427   05 Jun 2027 01:52:32.012   05 Jun 2027 01:53:40.904            68.892                Irkutsk          2152.875
       428   05 Jun 2027 01:53:58.640   05 Jun 2027 01:54:54.172            55.532              Murmansk1          1735.375
       429   05 Jun 2027 01:57:25.506   05 Jun 2027 01:57:33.025             7.519                Irkutsk           234.969
       430   05 Jun 2027 01:59:07.884   05 Jun 2027 01:59:55.391            47.507                  Delhi          1484.594
       431   05 Jun 2027 02:06:48.790   05 Jun 2027 02:07:36.410            47.620                  Delhi          1488.125
       432   05 Jun 2027 02:41:29.130   05 Jun 2027 02:42:02.651            33.521            RioGallegos          1047.531
       433   05 Jun 2027 02:42:31.583   05 Jun 2027 02:44:45.944           134.361            RioGallegos          4198.781
       434   05 Jun 2027 02:48:44.995   05 Jun 2027 02:48:45.108             0.113            RioGallegos             3.531
       435   05 Jun 2027 03:32:51.088   05 Jun 2027 03:33:17.732            26.644                Novosib           832.625
       436   05 Jun 2027 03:33:18.617   05 Jun 2027 03:33:27.401             8.784                Norilsk           274.500
       437   05 Jun 2027 03:33:37.671   05 Jun 2027 03:33:51.779            14.108                Novosib           440.875
       438   05 Jun 2027 03:33:59.139   05 Jun 2027 03:35:28.100            88.961                Irkutsk          2780.031
       439   05 Jun 2027 03:35:36.633   05 Jun 2027 03:36:02.653            26.020                Novosib           813.125
       440   05 Jun 2027 03:36:05.158   05 Jun 2027 03:38:19.830           134.672                Novosib          4208.500
       441   05 Jun 2027 03:39:52.823   05 Jun 2027 03:42:15.912           143.089                  Delhi          4471.531
       442   05 Jun 2027 05:09:54.923   05 Jun 2027 05:10:01.038             6.115                Novosib           191.094
       443   05 Jun 2027 05:11:27.231   05 Jun 2027 05:11:47.790            20.559                Novosib           642.469
       444   05 Jun 2027 05:13:36.755   05 Jun 2027 05:14:38.236            61.481                 Moscow          1921.281
       445   05 Jun 2027 05:15:46.920   05 Jun 2027 05:15:51.167             4.247                 Moscow           132.719
       446   05 Jun 2027 05:29:09.759   05 Jun 2027 05:32:05.898           176.139               CapeTown          5504.344
       447   05 Jun 2027 06:32:15.507   05 Jun 2027 06:32:45.711            30.204                Anadyr1           943.875
       448   05 Jun 2027 06:32:45.711   05 Jun 2027 06:32:48.178             2.467                Anadyr2            77.094
       449   05 Jun 2027 06:32:58.533   05 Jun 2027 06:33:51.026            52.493                Anadyr2          1640.406
       450   05 Jun 2027 06:33:51.026   05 Jun 2027 06:33:53.521             2.495                Anadyr1            77.969
       451   05 Jun 2027 06:34:30.722   05 Jun 2027 06:35:29.310            58.588                Anadyr1          1830.875
       452   05 Jun 2027 07:07:49.696   05 Jun 2027 07:09:58.955           129.259               CapeTown          4039.344
       453   05 Jun 2027 08:08:04.197   05 Jun 2027 08:08:06.631             2.434               Magadan1            76.063
       454   05 Jun 2027 08:08:26.013   05 Jun 2027 08:08:43.212            17.199                Anadyr2           537.469
       455   05 Jun 2027 08:09:14.162   05 Jun 2027 08:10:02.724            48.562               Magadan1          1517.562
       456   05 Jun 2027 08:10:09.012   05 Jun 2027 08:10:36.118            27.106               Magadan1           847.062
       457   05 Jun 2027 08:10:46.072   05 Jun 2027 08:11:06.456            20.384               Magadan2           637.000
       458   05 Jun 2027 08:12:16.081   05 Jun 2027 08:12:44.493            28.412                Anadyr1           887.875
       459   05 Jun 2027 08:13:47.996   05 Jun 2027 08:14:37.807            49.811                Anadyr1          1556.594
       460   05 Jun 2027 09:43:03.177   05 Jun 2027 09:43:24.628            21.451               Magadan1           670.344
       461   05 Jun 2027 09:43:38.531   05 Jun 2027 09:46:16.573           158.042                Anadyr2          4938.813
       462   05 Jun 2027 09:46:29.121   05 Jun 2027 09:47:35.687            66.566               Magadan2          2080.188
       463   05 Jun 2027 09:48:05.548   05 Jun 2027 09:48:14.805             9.257               Magadan1           289.281
       464   05 Jun 2027 09:48:22.615   05 Jun 2027 09:49:11.263            48.648               Magadan2          1520.250
       465   05 Jun 2027 09:49:40.450   05 Jun 2027 09:49:45.627             5.177                Norilsk           161.781
       466   05 Jun 2027 09:54:40.934   05 Jun 2027 09:54:45.606             4.672                Norilsk           146.000
       467   05 Jun 2027 10:25:13.579   05 Jun 2027 10:25:35.729            22.150            RioGallegos           692.187
       468   05 Jun 2027 10:26:00.747   05 Jun 2027 10:26:35.792            35.045            RioGallegos          1095.156
       469   05 Jun 2027 11:02:31.896   05 Jun 2027 11:04:08.422            96.526                Sumatra          3016.438
       470   05 Jun 2027 11:21:26.131   05 Jun 2027 11:22:42.225            76.094               Magadan1          2377.937
       471   05 Jun 2027 11:23:09.811   05 Jun 2027 11:23:19.075             9.264                Norilsk           289.500
       472   05 Jun 2027 11:23:25.800   05 Jun 2027 11:23:26.720             0.920                Novosib            28.750
       473   05 Jun 2027 11:23:30.264   05 Jun 2027 11:23:54.462            24.198                Norilsk           756.187
       474   05 Jun 2027 11:23:59.034   05 Jun 2027 11:24:48.367            49.333                Irkutsk          1541.656
       475   05 Jun 2027 11:24:58.468   05 Jun 2027 11:25:06.018             7.550                Novosib           235.937
       476   05 Jun 2027 11:25:11.549   05 Jun 2027 11:25:16.268             4.719                Irkutsk           147.469
       477   05 Jun 2027 11:25:27.399   05 Jun 2027 11:26:07.855            40.456                Irkutsk          1264.250
       478   05 Jun 2027 12:01:11.856   05 Jun 2027 12:01:59.561            47.705            RioGallegos          1490.781
       479   05 Jun 2027 12:35:41.513   05 Jun 2027 12:36:56.081            74.568                Sumatra          2330.250
       480   05 Jun 2027 12:48:19.603   05 Jun 2027 12:48:43.987            24.384                  Delhi           762.000
       481   05 Jun 2027 12:50:17.477   05 Jun 2027 12:51:13.426            55.949                Irkutsk          1748.406
       482   05 Jun 2027 12:51:48.758   05 Jun 2027 12:52:47.586            58.828                Novosib          1838.375
