uniorb/output/strategy_4/Drop/Drop_KinoSat_111105.txt

KinoSat_111105
-------------------------
    Access    *     Start Time (UTCG)     *     Stop Time (UTCG)  *   Duration (s)        *       Station  *  Data (Mbytes)
         1   01 Jun 2027 03:37:11.808   01 Jun 2027 03:37:37.329            25.521              Murmansk1           797.531
         2   01 Jun 2027 03:38:23.624   01 Jun 2027 03:45:12.404           408.780                 Moscow         12774.375
         3   01 Jun 2027 03:57:11.363   01 Jun 2027 03:58:28.974            77.611               CapeTown          2425.344
         4   01 Jun 2027 03:58:39.453   01 Jun 2027 03:59:01.106            21.653               CapeTown           676.656
         5   01 Jun 2027 03:59:20.300   01 Jun 2027 04:01:17.298           116.998               CapeTown          3656.187
         6   01 Jun 2027 04:59:30.560   01 Jun 2027 04:59:58.889            28.329               Magadan2           885.281
         7   01 Jun 2027 05:00:11.459   01 Jun 2027 05:00:51.928            40.469               Magadan1          1264.656
         8   01 Jun 2027 05:00:53.479   01 Jun 2027 05:01:02.720             9.241                Anadyr1           288.781
         9   01 Jun 2027 05:01:02.720   01 Jun 2027 05:02:20.634            77.914                Anadyr2          2434.813
        10   01 Jun 2027 05:02:24.647   01 Jun 2027 05:03:12.797            48.150                Anadyr1          1504.687
        11   01 Jun 2027 05:04:18.701   01 Jun 2027 05:04:23.419             4.718                Anadyr1           147.438
        12   01 Jun 2027 06:37:15.501   01 Jun 2027 06:39:33.506           138.005               Magadan1          4312.656
        13   01 Jun 2027 06:39:33.506   01 Jun 2027 06:40:29.544            56.038               Magadan2          1751.188
        14   01 Jun 2027 07:17:40.521   01 Jun 2027 07:18:22.352            41.831            RioGallegos          1307.219
        15   01 Jun 2027 08:12:10.465   01 Jun 2027 08:14:46.732           156.267               Magadan1          4883.344
        16   01 Jun 2027 08:14:49.117   01 Jun 2027 08:15:54.875            65.758                Novosib          2054.937
        17   01 Jun 2027 08:16:05.492   01 Jun 2027 08:16:41.528            36.036              Murmansk2          1126.125
        18   01 Jun 2027 08:16:41.528   01 Jun 2027 08:18:41.159           119.631              Murmansk1          3738.469
        19   01 Jun 2027 08:19:22.389   01 Jun 2027 08:19:35.007            12.618              Murmansk1           394.313
        20   01 Jun 2027 08:21:21.362   01 Jun 2027 08:21:45.354            23.992              Murmansk1           749.750
        21   01 Jun 2027 08:52:11.926   01 Jun 2027 08:52:42.980            31.054            RioGallegos           970.438
        22   01 Jun 2027 08:54:27.298   01 Jun 2027 08:55:00.272            32.974            RioGallegos          1030.438
        23   01 Jun 2027 09:27:20.423   01 Jun 2027 09:28:00.799            40.376                Sumatra          1261.750
        24   01 Jun 2027 09:29:52.528   01 Jun 2027 09:30:51.777            59.249                Sumatra          1851.531
        25   01 Jun 2027 09:39:14.376   01 Jun 2027 09:40:55.950           101.574                  Delhi          3174.187
        26   01 Jun 2027 09:49:30.707   01 Jun 2027 09:53:20.318           229.611                Irkutsk          7175.344
        27   01 Jun 2027 11:27:17.246   01 Jun 2027 11:28:22.561            65.315                Novosib          2041.094
        28   01 Jun 2027 11:28:35.465   01 Jun 2027 11:29:23.005            47.540                 Moscow          1485.625
        29   01 Jun 2027 12:50:40.380   01 Jun 2027 12:54:15.422           215.042                  Delhi          6720.063
        30   01 Jun 2027 12:59:08.410   01 Jun 2027 13:02:19.614           191.204              Murmansk1          5975.125
        31   01 Jun 2027 13:06:55.138   01 Jun 2027 13:07:03.090             7.952                Norilsk           248.500
        32   01 Jun 2027 14:11:38.206   01 Jun 2027 14:14:02.631           144.425               CapeTown          4513.281
        33   01 Jun 2027 14:15:28.838   01 Jun 2027 14:15:50.658            21.820               CapeTown           681.875
        34   01 Jun 2027 14:16:26.451   01 Jun 2027 14:17:20.593            54.142               CapeTown          1691.937
        35   01 Jun 2027 14:18:49.845   01 Jun 2027 14:18:59.092             9.247               CapeTown           288.969
        36   01 Jun 2027 14:35:42.985   01 Jun 2027 14:38:27.269           164.284              Murmansk1          5133.875
        37   01 Jun 2027 14:38:43.713   01 Jun 2027 14:39:16.895            33.182              Murmansk1          1036.938
        38   01 Jun 2027 14:50:32.791   01 Jun 2027 14:53:48.822           196.031                Anadyr1          6125.969
        39   01 Jun 2027 14:54:19.880   01 Jun 2027 14:54:53.202            33.322                Anadyr2          1041.312
        40   01 Jun 2027 14:55:29.603   01 Jun 2027 14:56:02.498            32.895                Anadyr2          1027.969
        41   01 Jun 2027 16:14:21.664   01 Jun 2027 16:15:29.945            68.281              Murmansk2          2133.781
        42   01 Jun 2027 16:15:35.479   01 Jun 2027 16:16:40.813            65.334              Murmansk1          2041.687
        43   01 Jun 2027 16:18:26.557   01 Jun 2027 16:19:59.104            92.547              Murmansk1          2892.094
        44   01 Jun 2027 16:25:48.063   01 Jun 2027 16:27:00.602            72.539                Anadyr2          2266.844
        45   01 Jun 2027 16:30:18.580   01 Jun 2027 16:30:40.338            21.758               Magadan1           679.937
        46   01 Jun 2027 16:30:56.451   01 Jun 2027 16:33:20.738           144.287               Magadan2          4508.969
        47   01 Jun 2027 16:33:41.329   01 Jun 2027 16:34:40.155            58.826               Magadan1          1838.312
        48   01 Jun 2027 18:01:40.296   01 Jun 2027 18:04:01.944           141.648                Anadyr1          4426.500
        49   01 Jun 2027 18:04:02.195   01 Jun 2027 18:05:34.905            92.710                Anadyr2          2897.187
        50   01 Jun 2027 18:05:35.178   01 Jun 2027 18:08:00.486           145.308               Magadan2          4540.875
        51   01 Jun 2027 19:37:34.263   01 Jun 2027 19:41:25.062           230.799                Anadyr2          7212.469
        52   01 Jun 2027 19:41:38.053   01 Jun 2027 19:44:07.549           149.496               Magadan1          4671.750
        53   01 Jun 2027 19:44:46.870   01 Jun 2027 19:45:01.946            15.076                Norilsk           471.125
        54   01 Jun 2027 19:47:33.648   01 Jun 2027 19:48:46.954            73.306                Irkutsk          2290.812
        55   01 Jun 2027 20:31:55.930   01 Jun 2027 20:35:10.855           194.925            RioGallegos          6091.406
        56   01 Jun 2027 20:42:07.679   01 Jun 2027 20:42:27.364            19.685            RioGallegos           615.156
        57   01 Jun 2027 21:15:25.423   01 Jun 2027 21:16:46.144            80.721                Norilsk          2522.531
        58   01 Jun 2027 21:17:02.981   01 Jun 2027 21:17:48.142            45.161               Magadan1          1411.281
        59   01 Jun 2027 21:18:07.049   01 Jun 2027 21:19:09.124            62.075               Magadan2          1939.844
        60   01 Jun 2027 21:19:32.896   01 Jun 2027 21:20:52.578            79.682                Irkutsk          2490.063
        61   01 Jun 2027 21:21:11.619   01 Jun 2027 21:21:51.171            39.552                Novosib          1236.000
        62   01 Jun 2027 21:22:26.531   01 Jun 2027 21:23:24.984            58.453                Novosib          1826.656
        63   01 Jun 2027 21:25:53.694   01 Jun 2027 21:27:30.904            97.210                Novosib          3037.813
        64   01 Jun 2027 21:33:15.342   01 Jun 2027 21:34:09.995            54.653                Sumatra          1707.906
        65   01 Jun 2027 22:47:46.834   01 Jun 2027 22:50:33.874           167.040                Anadyr1          5220.000
        66   01 Jun 2027 22:51:23.044   01 Jun 2027 22:51:41.083            18.039                Norilsk           563.719
        67   01 Jun 2027 22:52:00.748   01 Jun 2027 22:52:44.374            43.626               Magadan2          1363.312
        68   01 Jun 2027 22:52:44.374   01 Jun 2027 22:53:30.529            46.155               Magadan1          1442.344
        69   01 Jun 2027 22:55:15.603   01 Jun 2027 22:56:06.397            50.794                Irkutsk          1587.313
        70   01 Jun 2027 22:56:38.843   01 Jun 2027 22:57:46.194            67.351                Novosib          2104.719
        71   01 Jun 2027 23:00:45.087   01 Jun 2027 23:01:08.474            23.387                Novosib           730.844
        72   01 Jun 2027 23:03:00.934   01 Jun 2027 23:06:30.122           209.188                  Delhi          6537.125
        73   02 Jun 2027 00:21:16.259   02 Jun 2027 00:22:06.345            50.086                Anadyr2          1565.187
        74   02 Jun 2027 00:23:04.538   02 Jun 2027 00:23:47.202            42.664                Anadyr1          1333.250
        75   02 Jun 2027 00:23:47.202   02 Jun 2027 00:24:33.233            46.031                Anadyr2          1438.469
        76   02 Jun 2027 00:27:18.114   02 Jun 2027 00:27:25.279             7.165                Anadyr2           223.906
        77   02 Jun 2027 00:27:36.671   02 Jun 2027 00:30:10.983           154.312               Magadan2          4822.250
        78   02 Jun 2027 00:30:13.333   02 Jun 2027 00:31:57.321           103.988              Murmansk2          3249.625
        79   02 Jun 2027 00:32:23.215   02 Jun 2027 00:33:00.261            37.046                Novosib          1157.688
        80   02 Jun 2027 00:34:18.597   02 Jun 2027 00:35:45.134            86.537                 Moscow          2704.281
        81   02 Jun 2027 00:45:02.017   02 Jun 2027 00:46:20.256            78.239                  Delhi          2444.969
        82   02 Jun 2027 01:54:43.762   02 Jun 2027 01:56:27.249           103.487                Anadyr2          3233.969
        83   02 Jun 2027 01:57:16.154   02 Jun 2027 01:57:51.684            35.530                Anadyr2          1110.312
        84   02 Jun 2027 01:59:38.676   02 Jun 2027 02:00:56.674            77.998               Magadan2          2437.438
        85   02 Jun 2027 02:02:53.003   02 Jun 2027 02:03:20.201            27.198               Magadan2           849.937
        86   02 Jun 2027 02:04:45.809   02 Jun 2027 02:04:58.172            12.363                Norilsk           386.344
        87   02 Jun 2027 02:05:29.814   02 Jun 2027 02:06:47.558            77.744              Murmansk1          2429.500
        88   02 Jun 2027 02:07:35.578   02 Jun 2027 02:08:02.751            27.173                Novosib           849.156
        89   02 Jun 2027 02:10:56.725   02 Jun 2027 02:11:34.134            37.409                Novosib          1169.031
        90   02 Jun 2027 02:13:03.521   02 Jun 2027 02:13:05.285             1.764                Novosib            55.125
        91   02 Jun 2027 02:14:03.809   02 Jun 2027 02:14:10.953             7.144                Novosib           223.250
        92   02 Jun 2027 02:14:59.323   02 Jun 2027 02:16:11.450            72.127                Novosib          2253.969
        93   02 Jun 2027 02:39:20.511   02 Jun 2027 02:39:45.068            24.557               CapeTown           767.406
        94   02 Jun 2027 02:41:54.931   02 Jun 2027 02:42:25.944            31.013               CapeTown           969.156
        95   02 Jun 2027 03:36:08.687   02 Jun 2027 03:38:57.097           168.410               Magadan2          5262.813
        96   02 Jun 2027 03:39:06.556   02 Jun 2027 03:39:52.294            45.738               Magadan2          1429.313
        97   02 Jun 2027 03:40:34.322   02 Jun 2027 03:40:49.518            15.196               Magadan2           474.875
        98   02 Jun 2027 05:12:25.554   02 Jun 2027 05:14:11.225           105.671                Anadyr1          3302.219
        99   02 Jun 2027 05:14:11.225   02 Jun 2027 05:16:58.598           167.373                Anadyr2          5230.406
       100   02 Jun 2027 05:16:58.598   02 Jun 2027 05:18:09.867            71.269                Anadyr1          2227.156
       101   02 Jun 2027 06:48:41.212   02 Jun 2027 06:49:58.774            77.562                Anadyr1          2423.813
       102   02 Jun 2027 06:50:15.659   02 Jun 2027 06:53:44.194           208.535               Magadan1          6516.719
       103   02 Jun 2027 08:25:36.271   02 Jun 2027 08:26:53.924            77.653               Magadan2          2426.656
       104   02 Jun 2027 08:27:28.820   02 Jun 2027 08:28:38.308            69.488               Magadan1          2171.500
       105   02 Jun 2027 08:29:08.508   02 Jun 2027 08:29:33.082            24.574                Irkutsk           767.937
       106   02 Jun 2027 09:13:15.005   02 Jun 2027 09:13:38.015            23.010            RioGallegos           719.063
       107   02 Jun 2027 09:14:53.141   02 Jun 2027 09:15:11.830            18.689            RioGallegos           584.031
       108   02 Jun 2027 09:15:45.511   02 Jun 2027 09:16:57.644            72.133            RioGallegos          2254.156
       109   02 Jun 2027 09:40:01.206   02 Jun 2027 09:41:11.884            70.678                Sumatra          2208.688
       110   02 Jun 2027 09:47:01.560   02 Jun 2027 09:47:40.194            38.634                Sumatra          1207.313
       111   02 Jun 2027 09:51:42.940   02 Jun 2027 09:51:52.312             9.372                Sumatra           292.875
       112   02 Jun 2027 10:00:27.676   02 Jun 2027 10:00:31.822             4.146                Irkutsk           129.563
       113   02 Jun 2027 10:01:39.759   02 Jun 2027 10:01:39.921             0.162                Irkutsk             5.062
       114   02 Jun 2027 10:02:51.730   02 Jun 2027 10:03:17.978            26.248                Norilsk           820.250
       115   02 Jun 2027 10:03:21.724   02 Jun 2027 10:03:30.513             8.789                Norilsk           274.656
       116   02 Jun 2027 10:03:32.525   02 Jun 2027 10:03:38.192             5.667                Novosib           177.094
       117   02 Jun 2027 10:03:43.810   02 Jun 2027 10:04:37.860            54.050                Irkutsk          1689.062
       118   02 Jun 2027 10:04:50.598   02 Jun 2027 10:04:59.531             8.933                Norilsk           279.156
       119   02 Jun 2027 10:05:00.148   02 Jun 2027 10:05:08.088             7.940                Novosib           248.125
       120   02 Jun 2027 10:43:26.056   02 Jun 2027 10:43:44.722            18.666            RioGallegos           583.313
       121   02 Jun 2027 10:44:16.354   02 Jun 2027 10:44:33.594            17.240            RioGallegos           538.750
       122   02 Jun 2027 10:45:05.518   02 Jun 2027 10:45:37.116            31.598            RioGallegos           987.437
       123   02 Jun 2027 10:51:05.077   02 Jun 2027 10:51:13.058             7.981            RioGallegos           249.406
       124   02 Jun 2027 11:18:06.666   02 Jun 2027 11:19:10.662            63.996                Sumatra          1999.875
       125   02 Jun 2027 11:29:08.153   02 Jun 2027 11:29:37.754            29.601                  Delhi           925.031
       126   02 Jun 2027 11:37:27.127   02 Jun 2027 11:37:54.722            27.595                Novosib           862.344
       127   02 Jun 2027 11:38:15.295   02 Jun 2027 11:39:05.980            50.685                Novosib          1583.906
       128   02 Jun 2027 11:39:10.624   02 Jun 2027 11:39:12.125             1.501                Norilsk            46.906
       129   02 Jun 2027 11:39:22.557   02 Jun 2027 11:40:17.033            54.476                Novosib          1702.375
       130   02 Jun 2027 11:40:25.225   02 Jun 2027 11:40:42.820            17.595                Novosib           549.844
       131   02 Jun 2027 11:40:49.651   02 Jun 2027 11:40:53.955             4.304                Norilsk           134.500
       132   02 Jun 2027 11:40:59.492   02 Jun 2027 11:41:13.561            14.069                Novosib           439.656
       133   02 Jun 2027 13:05:01.283   02 Jun 2027 13:06:53.225           111.942                  Delhi          3498.187
       134   02 Jun 2027 13:08:56.393   02 Jun 2027 13:11:38.207           161.814                 Moscow          5056.688
       135   02 Jun 2027 13:12:13.950   02 Jun 2027 13:14:15.488           121.538              Murmansk1          3798.062
       136   02 Jun 2027 13:16:28.018   02 Jun 2027 13:16:54.601            26.583                Norilsk           830.719
       137   02 Jun 2027 14:22:54.811   02 Jun 2027 14:25:44.511           169.700               CapeTown          5303.125
       138   02 Jun 2027 14:29:10.102   02 Jun 2027 14:30:09.025            58.923               CapeTown          1841.344
       139   02 Jun 2027 14:47:57.235   02 Jun 2027 14:49:01.794            64.559              Murmansk1          2017.469
       140   02 Jun 2027 14:50:28.950   02 Jun 2027 14:50:44.992            16.042              Murmansk2           501.313
       141   02 Jun 2027 14:51:07.357   02 Jun 2027 14:51:08.076             0.719              Murmansk2            22.469
       142   02 Jun 2027 14:52:25.239   02 Jun 2027 14:52:34.133             8.894              Murmansk2           277.938
       143   02 Jun 2027 14:52:46.441   02 Jun 2027 14:53:00.099            13.658              Murmansk1           426.812
       144   02 Jun 2027 14:56:13.628   02 Jun 2027 14:56:35.228            21.600              Murmansk1           675.000
       145   02 Jun 2027 14:56:45.867   02 Jun 2027 14:57:44.470            58.603              Murmansk1          1831.344
       146   02 Jun 2027 15:02:23.576   02 Jun 2027 15:03:06.393            42.817                Anadyr2          1338.031
       147   02 Jun 2027 15:04:03.567   02 Jun 2027 15:05:20.489            76.922                Anadyr1          2403.812
       148   02 Jun 2027 15:07:30.939   02 Jun 2027 15:07:44.720            13.781                Anadyr2           430.656
       149   02 Jun 2027 15:57:31.543   02 Jun 2027 15:59:25.108           113.565               CapeTown          3548.906
       150   02 Jun 2027 16:26:54.800   02 Jun 2027 16:27:55.928            61.128              Murmansk2          1910.250
       151   02 Jun 2027 16:28:22.318   02 Jun 2027 16:28:23.002             0.684              Murmansk1            21.375
       152   02 Jun 2027 16:28:42.812   02 Jun 2027 16:30:00.821            78.009              Murmansk2          2437.781
       153   02 Jun 2027 16:37:48.171   02 Jun 2027 16:39:06.132            77.961                Anadyr1          2436.281
       154   02 Jun 2027 16:39:20.575   02 Jun 2027 16:39:47.429            26.854                Anadyr2           839.187
       155   02 Jun 2027 16:41:40.279   02 Jun 2027 16:43:38.024           117.745               Magadan2          3679.531
       156   02 Jun 2027 16:44:33.997   02 Jun 2027 16:44:48.049            14.052               Magadan2           439.125
       157   02 Jun 2027 16:45:33.257   02 Jun 2027 16:45:42.879             9.622               Magadan2           300.688
       158   02 Jun 2027 16:47:28.065   02 Jun 2027 16:47:55.027            26.962               Magadan1           842.562
       159   02 Jun 2027 18:13:41.783   02 Jun 2027 18:16:02.355           140.572                Anadyr2          4392.875
       160   02 Jun 2027 18:16:06.746   02 Jun 2027 18:19:48.839           222.093               Magadan1          6940.406
       161   02 Jun 2027 19:49:34.568   02 Jun 2027 19:53:24.318           229.750                Anadyr2          7179.688
       162   02 Jun 2027 19:53:29.878   02 Jun 2027 19:55:34.752           124.874                Norilsk          3902.313
       163   02 Jun 2027 19:55:36.860   02 Jun 2027 19:56:06.198            29.338               Magadan1           916.813
       164   02 Jun 2027 19:57:22.430   02 Jun 2027 19:57:50.208            27.778               Magadan1           868.063
       165   02 Jun 2027 19:57:53.782   02 Jun 2027 19:58:19.729            25.947                Irkutsk           810.844
       166   02 Jun 2027 19:59:22.755   02 Jun 2027 20:00:24.994            62.239                Irkutsk          1944.969
       167   02 Jun 2027 20:01:07.997   02 Jun 2027 20:01:15.244             7.247                Irkutsk           226.469
       168   02 Jun 2027 20:01:29.179   02 Jun 2027 20:01:59.522            30.343                Irkutsk           948.219
       169   02 Jun 2027 20:43:47.386   02 Jun 2027 20:44:46.492            59.106            RioGallegos          1847.062
       170   02 Jun 2027 20:52:07.805   02 Jun 2027 20:52:49.774            41.969            RioGallegos          1311.531
       171   02 Jun 2027 21:25:26.373   02 Jun 2027 21:27:20.283           113.910                Anadyr2          3559.687
       172   02 Jun 2027 21:27:58.457   02 Jun 2027 21:28:29.304            30.847               Magadan2           963.969
       173   02 Jun 2027 21:28:47.739   02 Jun 2027 21:29:28.453            40.714                Norilsk          1272.313
       174   02 Jun 2027 21:31:28.744   02 Jun 2027 21:32:09.822            41.078                Irkutsk          1283.688
       175   02 Jun 2027 21:32:42.801   02 Jun 2027 21:34:10.911            88.110                Novosib          2753.437
       176   02 Jun 2027 21:36:06.421   02 Jun 2027 21:36:28.895            22.474                Novosib           702.313
       177   02 Jun 2027 21:37:26.422   02 Jun 2027 21:38:16.747            50.325                Novosib          1572.656
       178   02 Jun 2027 21:45:09.561   02 Jun 2027 21:45:50.602            41.041                Sumatra          1282.531
       179   02 Jun 2027 21:52:00.420   02 Jun 2027 21:53:41.176           100.756                Sumatra          3148.625
       180   02 Jun 2027 23:03:25.083   02 Jun 2027 23:05:20.082           114.999                Norilsk          3593.719
       181   02 Jun 2027 23:05:32.774   02 Jun 2027 23:05:44.246            11.472               Magadan2           358.500
       182   02 Jun 2027 23:07:18.563   02 Jun 2027 23:08:48.435            89.872                Novosib          2808.500
       183   02 Jun 2027 23:12:38.044   02 Jun 2027 23:12:40.214             2.170                Novosib            67.812
       184   02 Jun 2027 23:13:51.714   02 Jun 2027 23:14:24.674            32.960                Novosib          1030.000
       185   02 Jun 2027 23:14:49.257   02 Jun 2027 23:16:57.868           128.611                  Delhi          4019.094
       186   02 Jun 2027 23:22:31.718   02 Jun 2027 23:22:58.489            26.771                  Delhi           836.594
       187   03 Jun 2027 00:32:57.286   03 Jun 2027 00:33:03.723             6.437                Anadyr1           201.156
       188   03 Jun 2027 00:33:07.649   03 Jun 2027 00:35:11.762           124.113                Anadyr2          3878.531
       189   03 Jun 2027 00:38:32.001   03 Jun 2027 00:38:47.850            15.849                Anadyr2           495.281
       190   03 Jun 2027 00:39:07.114   03 Jun 2027 00:41:40.235           153.121               Magadan2          4785.031
       191   03 Jun 2027 00:41:40.818   03 Jun 2027 00:44:24.482           163.664              Murmansk2          5114.500
       192   03 Jun 2027 00:45:57.264   03 Jun 2027 00:47:27.429            90.165                 Moscow          2817.656
       193   03 Jun 2027 01:14:15.378   03 Jun 2027 01:15:10.390            55.012               CapeTown          1719.125
       194   03 Jun 2027 01:16:38.442   03 Jun 2027 01:17:35.611            57.169               CapeTown          1786.531
       195   03 Jun 2027 02:06:30.546   03 Jun 2027 02:06:47.386            16.840                Anadyr2           526.250
       196   03 Jun 2027 02:08:49.111   03 Jun 2027 02:09:10.385            21.274                Anadyr1           664.813
       197   03 Jun 2027 02:11:06.685   03 Jun 2027 02:12:26.647            79.962               Magadan1          2498.813
       198   03 Jun 2027 02:12:58.261   03 Jun 2027 02:13:12.794            14.533               Magadan1           454.156
       199   03 Jun 2027 02:15:06.591   03 Jun 2027 02:15:37.712            31.121                Norilsk           972.531
       200   03 Jun 2027 02:17:31.452   03 Jun 2027 02:18:01.492            30.040              Murmansk1           938.750
       201   03 Jun 2027 02:18:33.721   03 Jun 2027 02:18:48.029            14.308              Murmansk2           447.125
       202   03 Jun 2027 02:19:06.803   03 Jun 2027 02:19:28.877            22.074              Murmansk1           689.812
       203   03 Jun 2027 02:19:43.650   03 Jun 2027 02:21:19.434            95.784                Novosib          2993.250
       204   03 Jun 2027 02:29:16.018   03 Jun 2027 02:29:25.682             9.664                 Moscow           302.000
       205   03 Jun 2027 02:30:22.465   03 Jun 2027 02:31:50.467            88.002                 Moscow          2750.063
       206   03 Jun 2027 02:53:19.144   03 Jun 2027 02:53:59.945            40.801               CapeTown          1275.031
       207   03 Jun 2027 03:47:18.492   03 Jun 2027 03:48:37.292            78.800                Anadyr2          2462.500
       208   03 Jun 2027 03:48:55.888   03 Jun 2027 03:53:18.027           262.139               Magadan1          8191.844
       209   03 Jun 2027 04:03:20.489   03 Jun 2027 04:03:46.053            25.564              Murmansk2           798.875
       210   03 Jun 2027 05:23:45.368   03 Jun 2027 05:23:59.061            13.693                Anadyr2           427.906
       211   03 Jun 2027 05:24:24.411   03 Jun 2027 05:25:51.254            86.843                Anadyr2          2713.844
       212   03 Jun 2027 05:25:51.254   03 Jun 2027 05:28:03.357           132.103                Anadyr1          4128.219
       213   03 Jun 2027 05:28:04.048   03 Jun 2027 05:29:16.090            72.042               Magadan1          2251.313
       214   03 Jun 2027 06:58:54.907   03 Jun 2027 06:59:33.436            38.529                Anadyr1          1204.031
       215   03 Jun 2027 06:59:33.436   03 Jun 2027 07:00:35.056            61.620                Anadyr2          1925.625
       216   03 Jun 2027 07:00:43.019   03 Jun 2027 07:01:53.880            70.861                Anadyr1          2214.406
       217   03 Jun 2027 07:01:58.911   03 Jun 2027 07:03:10.593            71.682               Magadan1          2240.063
       218   03 Jun 2027 07:03:12.362   03 Jun 2027 07:03:20.500             8.138               Magadan1           254.312
       219   03 Jun 2027 07:03:32.278   03 Jun 2027 07:04:03.998            31.720               Magadan2           991.250
       220   03 Jun 2027 07:04:08.189   03 Jun 2027 07:04:34.375            26.186               Magadan2           818.313
       221   03 Jun 2027 07:04:38.899   03 Jun 2027 07:05:18.487            39.588                Anadyr2          1237.125
       222   03 Jun 2027 08:34:32.018   03 Jun 2027 08:35:02.735            30.717               Magadan2           959.906
       223   03 Jun 2027 08:36:09.874   03 Jun 2027 08:36:16.853             6.979               Magadan2           218.094
       224   03 Jun 2027 08:36:51.496   03 Jun 2027 08:37:39.475            47.979                Irkutsk          1499.344
       225   03 Jun 2027 08:37:59.170   03 Jun 2027 08:38:20.253            21.083               Magadan1           658.844
       226   03 Jun 2027 08:38:28.663   03 Jun 2027 08:38:32.095             3.432                Irkutsk           107.250
       227   03 Jun 2027 08:39:54.111   03 Jun 2027 08:40:42.764            48.653                Irkutsk          1520.406
       228   03 Jun 2027 08:41:11.635   03 Jun 2027 08:41:21.726            10.091                Irkutsk           315.344
       229   03 Jun 2027 08:41:25.817   03 Jun 2027 08:41:36.305            10.488                Irkutsk           327.750
       230   03 Jun 2027 09:16:26.521   03 Jun 2027 09:17:16.724            50.203            RioGallegos          1568.844
       231   03 Jun 2027 09:17:38.441   03 Jun 2027 09:18:06.305            27.864            RioGallegos           870.750
       232   03 Jun 2027 09:51:08.796   03 Jun 2027 09:51:56.004            47.208                Sumatra          1475.250
       233   03 Jun 2027 10:01:26.631   03 Jun 2027 10:01:49.184            22.553                  Delhi           704.781
       234   03 Jun 2027 10:10:29.428   03 Jun 2027 10:10:31.852             2.424                  Delhi            75.750
       235   03 Jun 2027 10:11:58.290   03 Jun 2027 10:12:05.683             7.393                Irkutsk           231.031
       236   03 Jun 2027 10:12:29.227   03 Jun 2027 10:13:11.506            42.279                Irkutsk          1321.219
       237   03 Jun 2027 10:13:38.664   03 Jun 2027 10:13:47.655             8.991                Irkutsk           280.969
       238   03 Jun 2027 10:14:37.178   03 Jun 2027 10:15:08.683            31.505                Irkutsk           984.531
       239   03 Jun 2027 10:15:12.908   03 Jun 2027 10:15:13.772             0.864                Novosib            27.000
       240   03 Jun 2027 10:15:30.128   03 Jun 2027 10:15:48.993            18.865                Novosib           589.531
       241   03 Jun 2027 10:16:00.472   03 Jun 2027 10:16:05.491             5.019                Irkutsk           156.844
       242   03 Jun 2027 10:16:17.660   03 Jun 2027 10:16:41.836            24.176                Irkutsk           755.500
       243   03 Jun 2027 10:17:05.645   03 Jun 2027 10:17:20.116            14.471                Novosib           452.219
       244   03 Jun 2027 10:18:19.180   03 Jun 2027 10:18:52.725            33.545                Novosib          1048.281
       245   03 Jun 2027 10:56:27.030   03 Jun 2027 10:57:42.401            75.371            RioGallegos          2355.344
       246   03 Jun 2027 11:35:26.202   03 Jun 2027 11:35:31.564             5.362                  Delhi           167.563
       247   03 Jun 2027 11:37:07.887   03 Jun 2027 11:37:36.603            28.716                  Delhi           897.375
       248   03 Jun 2027 11:38:28.497   03 Jun 2027 11:39:58.733            90.236                  Delhi          2819.875
       249   03 Jun 2027 11:50:10.350   03 Jun 2027 11:50:52.742            42.392                Norilsk          1324.750
       250   03 Jun 2027 11:52:09.062   03 Jun 2027 11:52:30.899            21.837                Norilsk           682.406
       251   03 Jun 2027 11:52:50.685   03 Jun 2027 11:52:56.046             5.361                Norilsk           167.531
       252   03 Jun 2027 11:53:04.580   03 Jun 2027 11:53:07.466             2.886                Norilsk            90.188
       253   03 Jun 2027 11:53:14.918   03 Jun 2027 11:53:55.788            40.870                Novosib          1277.187
       254   03 Jun 2027 13:19:45.255   03 Jun 2027 13:21:01.892            76.637                 Moscow          2394.906
       255   03 Jun 2027 13:21:16.370   03 Jun 2027 13:23:14.199           117.829                 Moscow          3682.156
       256   03 Jun 2027 13:24:01.210   03 Jun 2027 13:24:46.246            45.036              Murmansk2          1407.375
       257   03 Jun 2027 13:24:46.246   03 Jun 2027 13:24:51.748             5.502              Murmansk1           171.938
       258   03 Jun 2027 13:25:34.717   03 Jun 2027 13:26:30.250            55.533              Murmansk2          1735.406
       259   03 Jun 2027 13:27:07.626   03 Jun 2027 13:28:14.730            67.104                Norilsk          2097.000
       260   03 Jun 2027 13:28:56.592   03 Jun 2027 13:29:38.827            42.235                Norilsk          1319.844
       261   03 Jun 2027 14:34:24.821   03 Jun 2027 14:37:25.061           180.240               CapeTown          5632.500
       262   03 Jun 2027 14:39:47.735   03 Jun 2027 14:40:09.196            21.461               CapeTown           670.656
       263   03 Jun 2027 15:00:13.479   03 Jun 2027 15:01:22.816            69.337              Murmansk1          2166.781
       264   03 Jun 2027 15:02:30.522   03 Jun 2027 15:02:46.470            15.948              Murmansk2           498.375
       265   03 Jun 2027 15:04:27.154   03 Jun 2027 15:04:44.987            17.833              Murmansk2           557.281
       266   03 Jun 2027 15:04:49.734   03 Jun 2027 15:04:55.864             6.130              Murmansk1           191.563
       267   03 Jun 2027 15:06:45.383   03 Jun 2027 15:07:02.635            17.252              Murmansk2           539.125
       268   03 Jun 2027 15:08:36.439   03 Jun 2027 15:08:38.886             2.447              Murmansk1            76.469
       269   03 Jun 2027 15:08:40.267   03 Jun 2027 15:09:00.827            20.560              Murmansk2           642.500
       270   03 Jun 2027 15:14:16.917   03 Jun 2027 15:17:09.308           172.391                Anadyr2          5387.219
       271   03 Jun 2027 15:22:48.142   03 Jun 2027 15:23:35.489            47.347                Anadyr2          1479.594
       272   03 Jun 2027 16:19:18.169   03 Jun 2027 16:19:31.988            13.819               CapeTown           431.844
       273   03 Jun 2027 16:39:31.126   03 Jun 2027 16:41:26.817           115.691              Murmansk1          3615.344
       274   03 Jun 2027 16:43:07.370   03 Jun 2027 16:44:06.539            59.169              Murmansk2          1849.031
       275   03 Jun 2027 16:49:48.647   03 Jun 2027 16:51:25.080            96.433                Anadyr2          3013.531
       276   03 Jun 2027 16:53:16.750   03 Jun 2027 16:54:34.593            77.843               Magadan2          2432.594
       277   03 Jun 2027 16:55:28.633   03 Jun 2027 16:56:19.706            51.073               Magadan1          1596.031
       278   03 Jun 2027 16:56:27.040   03 Jun 2027 16:56:34.247             7.207               Magadan1           225.219
       279   03 Jun 2027 16:56:57.544   03 Jun 2027 16:57:26.030            28.486               Magadan2           890.188
       280   03 Jun 2027 18:25:43.257   03 Jun 2027 18:29:47.445           244.188                Anadyr2          7630.875
       281   03 Jun 2027 18:30:21.365   03 Jun 2027 18:30:50.875            29.510               Magadan2           922.188
       282   03 Jun 2027 18:31:10.561   03 Jun 2027 18:31:35.117            24.556               Magadan1           767.375
       283   03 Jun 2027 18:31:35.117   03 Jun 2027 18:33:08.267            93.150               Magadan2          2910.937
       284   03 Jun 2027 18:37:10.588   03 Jun 2027 18:37:24.705            14.117               Magadan1           441.156
       285   03 Jun 2027 20:01:34.529   03 Jun 2027 20:03:36.378           121.849                Anadyr1          3807.781
       286   03 Jun 2027 20:03:49.727   03 Jun 2027 20:07:23.281           213.554                Norilsk          6673.563
       287   03 Jun 2027 20:07:47.167   03 Jun 2027 20:08:48.281            61.114               Magadan1          1909.812
       288   03 Jun 2027 20:08:52.402   03 Jun 2027 20:10:06.616            74.214                Norilsk          2319.187
       289   03 Jun 2027 20:11:56.466   03 Jun 2027 20:12:08.976            12.510                Irkutsk           390.937
       290   03 Jun 2027 20:12:37.549   03 Jun 2027 20:12:57.870            20.321                Irkutsk           635.031
       291   03 Jun 2027 20:13:12.203   03 Jun 2027 20:13:26.121            13.918                Irkutsk           434.937
       292   03 Jun 2027 20:13:59.194   03 Jun 2027 20:14:58.692            59.498                Irkutsk          1859.313
       293   03 Jun 2027 20:25:09.515   03 Jun 2027 20:26:31.012            81.497                Sumatra          2546.781
       294   03 Jun 2027 20:28:05.358   03 Jun 2027 20:29:24.878            79.520                Sumatra          2485.000
       295   03 Jun 2027 21:39:27.589   03 Jun 2027 21:41:27.843           120.254                Norilsk          3757.937
       296   03 Jun 2027 21:43:26.009   03 Jun 2027 21:44:54.686            88.677                Irkutsk          2771.156
       297   03 Jun 2027 21:47:49.354   03 Jun 2027 21:48:41.130            51.776                Novosib          1618.000
       298   03 Jun 2027 21:57:09.422   03 Jun 2027 21:57:28.894            19.472                Sumatra           608.500
       299   03 Jun 2027 22:01:36.626   03 Jun 2027 22:03:00.335            83.709                Sumatra          2615.906
       300   03 Jun 2027 23:11:18.021   03 Jun 2027 23:11:57.633            39.612                Anadyr1          1237.875
       301   03 Jun 2027 23:12:09.023   03 Jun 2027 23:13:28.434            79.411                Anadyr2          2481.594
       302   03 Jun 2027 23:15:27.101   03 Jun 2027 23:15:41.779            14.678                Norilsk           458.687
       303   03 Jun 2027 23:16:03.140   03 Jun 2027 23:17:16.432            73.292               Magadan1          2290.375
       304   03 Jun 2027 23:18:54.301   03 Jun 2027 23:20:09.275            74.974              Murmansk2          2342.937
       305   03 Jun 2027 23:20:47.727   03 Jun 2027 23:20:54.425             6.698                Novosib           209.312
       306   03 Jun 2027 23:20:59.784   03 Jun 2027 23:22:03.996            64.212              Murmansk1          2006.625
       307   03 Jun 2027 23:26:41.805   03 Jun 2027 23:27:49.048            67.243                  Delhi          2101.344
       308   03 Jun 2027 23:29:38.857   03 Jun 2027 23:29:48.055             9.198                  Delhi           287.438
       309   03 Jun 2027 23:30:29.800   03 Jun 2027 23:30:47.351            17.551                  Delhi           548.469
       310   03 Jun 2027 23:32:35.743   03 Jun 2027 23:32:44.084             8.341                  Delhi           260.656
       311   03 Jun 2027 23:33:40.496   03 Jun 2027 23:34:08.235            27.739                  Delhi           866.844
       312   03 Jun 2027 23:34:58.264   03 Jun 2027 23:35:56.835            58.571                  Delhi          1830.344
       313   04 Jun 2027 00:44:38.499   04 Jun 2027 00:45:09.765            31.266                Anadyr2           977.062
       314   04 Jun 2027 00:46:08.687   04 Jun 2027 00:47:12.544            63.857                Anadyr2          1995.531
       315   04 Jun 2027 00:49:44.368   04 Jun 2027 00:50:05.377            21.009                Anadyr1           656.531
       316   04 Jun 2027 00:50:47.779   04 Jun 2027 00:54:31.638           223.859               Magadan2          6995.594
       317   04 Jun 2027 00:56:23.381   04 Jun 2027 00:56:30.058             6.677                Irkutsk           208.656
       318   04 Jun 2027 00:57:20.382   04 Jun 2027 00:57:51.683            31.301                Novosib           978.156
       319   04 Jun 2027 00:58:20.367   04 Jun 2027 00:59:07.081            46.714                 Moscow          1459.812
       320   04 Jun 2027 01:02:05.148   04 Jun 2027 01:02:22.001            16.853                 Moscow           526.656
       321   04 Jun 2027 01:07:29.517   04 Jun 2027 01:07:41.738            12.221                  Delhi           381.906
       322   04 Jun 2027 01:09:38.153   04 Jun 2027 01:09:41.641             3.488                  Delhi           109.000
       323   04 Jun 2027 01:24:47.495   04 Jun 2027 01:26:17.296            89.801               CapeTown          2806.281
       324   04 Jun 2027 02:18:18.617   04 Jun 2027 02:19:50.699            92.082                Anadyr1          2877.562
       325   04 Jun 2027 02:20:49.651   04 Jun 2027 02:20:56.689             7.038                Anadyr2           219.937
       326   04 Jun 2027 02:21:12.977   04 Jun 2027 02:21:39.173            26.196                Anadyr1           818.625
       327   04 Jun 2027 02:22:35.200   04 Jun 2027 02:23:55.550            80.350               Magadan1          2510.937
       328   04 Jun 2027 02:28:48.311   04 Jun 2027 02:28:49.873             1.562                Norilsk            48.812
       329   04 Jun 2027 02:29:28.029   04 Jun 2027 02:30:19.616            51.587                Norilsk          1612.094
       330   04 Jun 2027 02:30:20.902   04 Jun 2027 02:31:12.000            51.098              Murmansk2          1596.813
       331   04 Jun 2027 02:31:52.853   04 Jun 2027 02:31:58.834             5.981                Novosib           186.906
       332   04 Jun 2027 02:32:35.558   04 Jun 2027 02:33:25.343            49.785                Novosib          1555.781
       333   04 Jun 2027 02:37:09.640   04 Jun 2027 02:37:25.851            16.211                Novosib           506.594
       334   04 Jun 2027 02:41:50.967   04 Jun 2027 02:42:18.788            27.821                 Moscow           869.406
       335   04 Jun 2027 02:56:42.870   04 Jun 2027 02:57:27.444            44.574               CapeTown          1392.937
       336   04 Jun 2027 03:02:55.449   04 Jun 2027 03:03:44.006            48.557               CapeTown          1517.406
       337   04 Jun 2027 03:58:41.755   04 Jun 2027 03:59:03.248            21.493                Anadyr1           671.656
       338   04 Jun 2027 03:59:36.945   04 Jun 2027 04:00:09.701            32.756               Magadan2          1023.625
       339   04 Jun 2027 04:00:09.701   04 Jun 2027 04:00:14.788             5.087               Magadan1           158.969
       340   04 Jun 2027 04:00:38.520   04 Jun 2027 04:06:19.895           341.375                Anadyr2         10667.969
       341   04 Jun 2027 05:35:56.337   04 Jun 2027 05:37:11.587            75.250               Magadan1          2351.562
       342   04 Jun 2027 05:37:17.076   04 Jun 2027 05:38:15.836            58.760                Anadyr1          1836.250
       343   04 Jun 2027 05:38:32.965   04 Jun 2027 05:41:57.267           204.302               Magadan1          6384.437
       344   04 Jun 2027 07:10:14.599   04 Jun 2027 07:10:30.118            15.519               Magadan1           484.969
       345   04 Jun 2027 07:10:41.548   04 Jun 2027 07:11:09.957            28.409               Magadan1           887.781
       346   04 Jun 2027 07:11:43.637   04 Jun 2027 07:12:11.787            28.150               Magadan1           879.688
       347   04 Jun 2027 07:12:20.552   04 Jun 2027 07:13:58.560            98.008               Magadan2          3062.750
       348   04 Jun 2027 07:14:21.788   04 Jun 2027 07:14:50.045            28.257               Magadan2           883.031
       349   04 Jun 2027 07:14:50.045   04 Jun 2027 07:15:05.082            15.037               Magadan1           469.906
       350   04 Jun 2027 07:15:08.298   04 Jun 2027 07:15:18.416            10.118                Anadyr2           316.187
       351   04 Jun 2027 07:15:18.416   04 Jun 2027 07:15:57.088            38.672                Anadyr1          1208.500
       352   04 Jun 2027 07:16:05.532   04 Jun 2027 07:16:42.163            36.631               Magadan1          1144.719
       353   04 Jun 2027 07:21:17.309   04 Jun 2027 07:21:17.367             0.058              Murmansk1             1.812
       354   04 Jun 2027 07:59:07.145   04 Jun 2027 07:59:30.970            23.825            RioGallegos           744.531
       355   04 Jun 2027 08:00:33.591   04 Jun 2027 08:01:08.026            34.435            RioGallegos          1076.094
       356   04 Jun 2027 08:30:26.105   04 Jun 2027 08:32:14.853           108.748                Sumatra          3398.375
       357   04 Jun 2027 08:48:08.536   04 Jun 2027 08:48:19.844            11.308               Magadan2           353.375
       358   04 Jun 2027 08:48:19.844   04 Jun 2027 08:48:59.334            39.490               Magadan1          1234.062
       359   04 Jun 2027 08:50:07.662   04 Jun 2027 08:50:24.339            16.677                Irkutsk           521.156
       360   04 Jun 2027 08:51:28.864   04 Jun 2027 08:51:52.755            23.891                Irkutsk           746.594
       361   04 Jun 2027 08:52:14.951   04 Jun 2027 08:52:52.989            38.038                Irkutsk          1188.688
       362   04 Jun 2027 08:52:59.294   04 Jun 2027 08:53:04.876             5.582                Irkutsk           174.437
       363   04 Jun 2027 08:53:10.186   04 Jun 2027 08:53:39.306            29.120                Irkutsk           910.000
       364   04 Jun 2027 09:28:39.377   04 Jun 2027 09:28:44.816             5.439            RioGallegos           169.969
       365   04 Jun 2027 09:29:42.697   04 Jun 2027 09:30:13.334            30.637            RioGallegos           957.406
       366   04 Jun 2027 09:31:33.351   04 Jun 2027 09:32:07.842            34.491            RioGallegos          1077.844
       367   04 Jun 2027 10:03:45.098   04 Jun 2027 10:05:40.226           115.128                Sumatra          3597.750
       368   04 Jun 2027 10:25:54.545   04 Jun 2027 10:26:12.274            17.729                Irkutsk           554.031
       369   04 Jun 2027 10:27:37.294   04 Jun 2027 10:27:47.978            10.684                Irkutsk           333.875
       370   04 Jun 2027 10:27:49.522   04 Jun 2027 10:27:55.758             6.236                Novosib           194.875
       371   04 Jun 2027 10:28:01.705   04 Jun 2027 10:29:10.611            68.906                Novosib          2153.313
       372   04 Jun 2027 10:29:18.130   04 Jun 2027 10:30:08.506            50.376                Novosib          1574.250
       373   04 Jun 2027 11:09:54.072   04 Jun 2027 11:10:19.843            25.771            RioGallegos           805.344
       374   04 Jun 2027 11:47:38.602   04 Jun 2027 11:48:28.325            49.723                  Delhi          1553.844
       375   04 Jun 2027 11:50:49.260   04 Jun 2027 11:52:29.134            99.874                  Delhi          3121.062
       376   04 Jun 2027 13:31:45.769   04 Jun 2027 13:35:04.652           198.883                 Moscow          6215.094
       377   04 Jun 2027 13:35:14.900   04 Jun 2027 13:35:33.650            18.750              Murmansk2           585.938
       378   04 Jun 2027 13:35:39.946   04 Jun 2027 13:35:51.535            11.589                 Moscow           362.156
       379   04 Jun 2027 13:36:46.910   04 Jun 2027 13:37:30.753            43.843              Murmansk2          1370.094
       380   04 Jun 2027 13:39:52.844   04 Jun 2027 13:40:32.808            39.964                Norilsk          1248.875
       381   04 Jun 2027 13:41:40.220   04 Jun 2027 13:42:30.652            50.432                Norilsk          1576.000
       382   04 Jun 2027 13:46:00.045   04 Jun 2027 13:46:05.929             5.884                Norilsk           183.875
       383   04 Jun 2027 14:46:03.159   04 Jun 2027 14:47:56.681           113.522               CapeTown          3547.562
       384   04 Jun 2027 14:49:22.501   04 Jun 2027 14:50:42.399            79.898               CapeTown          2496.813
       385   04 Jun 2027 15:09:32.647   04 Jun 2027 15:10:04.649            32.002                 Moscow          1000.062
       386   04 Jun 2027 15:12:31.801   04 Jun 2027 15:13:01.741            29.940              Murmansk1           935.625
       387   04 Jun 2027 15:14:31.930   04 Jun 2027 15:14:48.113            16.183              Murmansk2           505.719
       388   04 Jun 2027 15:16:29.058   04 Jun 2027 15:16:42.530            13.472              Murmansk2           421.000
       389   04 Jun 2027 15:16:50.637   04 Jun 2027 15:17:19.921            29.284              Murmansk2           915.125
       390   04 Jun 2027 15:20:31.933   04 Jun 2027 15:20:37.857             5.924              Murmansk1           185.125
       391   04 Jun 2027 15:22:18.650   04 Jun 2027 15:22:22.405             3.755              Murmansk2           117.344
       392   04 Jun 2027 15:23:12.919   04 Jun 2027 15:23:17.191             4.272              Murmansk1           133.500
       393   04 Jun 2027 15:26:12.092   04 Jun 2027 15:28:49.594           157.502                Anadyr2          4921.938
       394   04 Jun 2027 15:35:16.897   04 Jun 2027 15:35:33.136            16.239                Anadyr2           507.469
       395   04 Jun 2027 15:35:33.136   04 Jun 2027 15:35:41.702             8.566                Anadyr1           267.687
       396   04 Jun 2027 16:30:08.109   04 Jun 2027 16:30:46.353            38.244               CapeTown          1195.125
       397   04 Jun 2027 16:52:11.071   04 Jun 2027 16:54:31.882           140.811              Murmansk1          4400.344
       398   04 Jun 2027 16:56:05.275   04 Jun 2027 16:56:36.225            30.950              Murmansk1           967.187
       399   04 Jun 2027 17:01:49.406   04 Jun 2027 17:02:42.306            52.900                Anadyr1          1653.125
       400   04 Jun 2027 17:03:02.941   04 Jun 2027 17:03:13.285            10.344                Anadyr2           323.250
       401   04 Jun 2027 17:03:27.594   04 Jun 2027 17:04:11.694            44.100                Anadyr2          1378.125
       402   04 Jun 2027 17:05:00.441   04 Jun 2027 17:05:20.643            20.202               Magadan2           631.313
       403   04 Jun 2027 17:07:17.110   04 Jun 2027 17:08:26.697            69.587               Magadan2          2174.594
       404   04 Jun 2027 17:09:14.151   04 Jun 2027 17:09:28.728            14.577               Magadan1           455.531
       405   04 Jun 2027 18:37:44.675   04 Jun 2027 18:41:38.541           233.866                Anadyr1          7308.312
       406   04 Jun 2027 18:41:48.431   04 Jun 2027 18:43:02.734            74.303                Anadyr2          2321.969
       407   04 Jun 2027 18:43:09.600   04 Jun 2027 18:44:57.339           107.739               Magadan1          3366.844
       408   04 Jun 2027 18:51:17.902   04 Jun 2027 18:52:19.094            61.192               Magadan1          1912.250
       409   04 Jun 2027 19:34:13.850   04 Jun 2027 19:36:36.592           142.742            RioGallegos          4460.688
       410   04 Jun 2027 20:13:34.085   04 Jun 2027 20:16:00.756           146.671                Anadyr2          4583.469
       411   04 Jun 2027 20:16:15.127   04 Jun 2027 20:16:51.687            36.560                Norilsk          1142.500
       412   04 Jun 2027 20:18:45.073   04 Jun 2027 20:19:31.597            46.524                Norilsk          1453.875
       413   04 Jun 2027 20:20:45.484   04 Jun 2027 20:21:49.815            64.331                Irkutsk          2010.344
       414   04 Jun 2027 20:22:38.179   04 Jun 2027 20:23:52.388            74.209                Irkutsk          2319.031
       415   04 Jun 2027 20:35:52.424   04 Jun 2027 20:38:01.108           128.684                Sumatra          4021.375
       416   04 Jun 2027 20:40:25.370   04 Jun 2027 20:41:14.826            49.456                Sumatra          1545.500
       417   04 Jun 2027 21:51:49.748   04 Jun 2027 21:52:06.384            16.636                Norilsk           519.875
       418   04 Jun 2027 21:52:31.493   04 Jun 2027 21:52:42.163            10.670               Magadan2           333.437
       419   04 Jun 2027 21:52:50.498   04 Jun 2027 21:53:16.764            26.266                Norilsk           820.812
       420   04 Jun 2027 21:53:26.269   04 Jun 2027 21:53:27.924             1.655                Norilsk            51.719
       421   04 Jun 2027 21:54:03.841   04 Jun 2027 21:54:29.168            25.327               Magadan2           791.469
       422   04 Jun 2027 21:55:24.500   04 Jun 2027 21:56:51.006            86.506                Irkutsk          2703.313
       423   04 Jun 2027 21:56:52.514   04 Jun 2027 21:57:31.769            39.255                Novosib          1226.719
       424   04 Jun 2027 22:02:43.355   04 Jun 2027 22:03:28.739            45.384                Novosib          1418.250
       425   04 Jun 2027 22:06:32.610   04 Jun 2027 22:09:08.295           155.685                  Delhi          4865.156
       426   04 Jun 2027 23:23:35.146   04 Jun 2027 23:23:58.250            23.104                Anadyr1           722.000
       427   04 Jun 2027 23:27:29.071   04 Jun 2027 23:27:45.059            15.988                Norilsk           499.625
       428   04 Jun 2027 23:27:48.115   04 Jun 2027 23:27:59.714            11.599                Anadyr2           362.469
       429   04 Jun 2027 23:28:03.232   04 Jun 2027 23:29:07.358            64.126               Magadan1          2003.937
       430   04 Jun 2027 23:29:09.588   04 Jun 2027 23:29:24.209            14.621                Norilsk           456.906
       431   04 Jun 2027 23:29:48.203   04 Jun 2027 23:30:35.173            46.970               Magadan2          1467.812
       432   04 Jun 2027 23:30:58.730   04 Jun 2027 23:33:57.145           178.415              Murmansk2          5575.469
       433   04 Jun 2027 23:34:55.927   04 Jun 2027 23:35:24.106            28.179              Murmansk1           880.594
       434   04 Jun 2027 23:38:38.059   04 Jun 2027 23:38:52.007            13.948                  Delhi           435.875
       435   04 Jun 2027 23:45:35.106   04 Jun 2027 23:46:29.184            54.078                  Delhi          1689.938
       436   05 Jun 2027 00:23:27.499   05 Jun 2027 00:23:55.454            27.955            RioGallegos           873.594
       437   05 Jun 2027 00:56:20.070   05 Jun 2027 00:56:42.356            22.286                Anadyr1           696.437
       438   05 Jun 2027 00:56:43.219   05 Jun 2027 00:56:44.665             1.446                Anadyr2            45.188
       439   05 Jun 2027 00:57:08.179   05 Jun 2027 00:57:30.078            21.899                Anadyr2           684.344
       440   05 Jun 2027 00:58:09.988   05 Jun 2027 00:59:00.717            50.729                Anadyr2          1585.281
       441   05 Jun 2027 00:59:15.254   05 Jun 2027 00:59:18.143             2.889                Anadyr2            90.281
       442   05 Jun 2027 00:59:18.143   05 Jun 2027 00:59:26.179             8.036                Anadyr1           251.125
       443   05 Jun 2027 01:02:24.292   05 Jun 2027 01:05:00.804           156.512               Magadan1          4891.000
       444   05 Jun 2027 01:05:40.125   05 Jun 2027 01:07:47.782           127.657              Murmansk1          3989.281
       445   05 Jun 2027 01:09:58.221   05 Jun 2027 01:10:11.293            13.072                 Moscow           408.500
       446   05 Jun 2027 01:13:28.067   05 Jun 2027 01:13:46.459            18.392              Murmansk1           574.750
       447   05 Jun 2027 01:15:35.793   05 Jun 2027 01:15:39.009             3.216                 Moscow           100.500
       448   05 Jun 2027 01:16:43.903   05 Jun 2027 01:17:05.851            21.948                  Delhi           685.875
       449   05 Jun 2027 01:19:17.002   05 Jun 2027 01:21:08.508           111.506                  Delhi          3484.562
       450   05 Jun 2027 02:30:08.057   05 Jun 2027 02:32:44.284           156.227                Anadyr2          4882.094
       451   05 Jun 2027 02:34:45.911   05 Jun 2027 02:34:53.212             7.301               Magadan1           228.156
       452   05 Jun 2027 02:35:05.138   05 Jun 2027 02:35:23.621            18.483               Magadan2           577.594
       453   05 Jun 2027 02:37:50.991   05 Jun 2027 02:37:59.442             8.451               Magadan1           264.094
       454   05 Jun 2027 02:38:12.094   05 Jun 2027 02:38:21.706             9.612               Magadan1           300.375
       455   05 Jun 2027 02:39:02.306   05 Jun 2027 02:39:16.785            14.479                Norilsk           452.469
       456   05 Jun 2027 02:39:32.411   05 Jun 2027 02:40:01.148            28.737                Norilsk           898.031
       457   05 Jun 2027 02:41:34.979   05 Jun 2027 02:41:57.720            22.741              Murmansk2           710.656
       458   05 Jun 2027 02:42:08.282   05 Jun 2027 02:43:15.583            67.301              Murmansk1          2103.156
       459   05 Jun 2027 02:44:46.668   05 Jun 2027 02:45:31.879            45.211                Novosib          1412.844
       460   05 Jun 2027 02:47:17.150   05 Jun 2027 02:47:21.631             4.481                Novosib           140.031
       461   05 Jun 2027 02:48:35.256   05 Jun 2027 02:48:38.289             3.033                Novosib            94.781
       462   05 Jun 2027 02:48:47.469   05 Jun 2027 02:49:18.178            30.709                Novosib           959.656
       463   05 Jun 2027 03:09:03.433   05 Jun 2027 03:09:41.093            37.660               CapeTown          1176.875
       464   05 Jun 2027 03:14:05.591   05 Jun 2027 03:14:34.383            28.792               CapeTown           899.750
       465   05 Jun 2027 04:11:37.321   05 Jun 2027 04:11:57.146            19.825               Magadan2           619.531
       466   05 Jun 2027 04:12:12.187   05 Jun 2027 04:15:16.780           184.593               Magadan1          5768.531
       467   05 Jun 2027 05:50:05.382   05 Jun 2027 05:52:46.391           161.009                Anadyr1          5031.531
       468   05 Jun 2027 05:52:46.391   05 Jun 2027 05:53:31.462            45.071                Anadyr2          1408.469
       469   05 Jun 2027 07:23:12.522   05 Jun 2027 07:23:25.226            12.704               Magadan1           397.000
       470   05 Jun 2027 07:23:32.083   05 Jun 2027 07:23:45.052            12.969               Magadan1           405.281
       471   05 Jun 2027 07:24:00.053   05 Jun 2027 07:24:46.850            46.797                Anadyr2          1462.406
       472   05 Jun 2027 07:24:46.850   05 Jun 2027 07:25:23.204            36.354                Anadyr1          1136.063
       473   05 Jun 2027 07:25:37.708   05 Jun 2027 07:26:45.429            67.721                Anadyr1          2116.281
       474   05 Jun 2027 07:26:45.429   05 Jun 2027 07:27:37.423            51.994                Anadyr2          1624.812
       475   05 Jun 2027 07:28:04.182   05 Jun 2027 07:28:52.714            48.532               Magadan1          1516.625
       476   05 Jun 2027 07:28:59.379   05 Jun 2027 07:29:38.061            38.682               Magadan1          1208.813
       477   05 Jun 2027 08:04:38.277   05 Jun 2027 08:05:56.070            77.793            RioGallegos          2431.031
       478   05 Jun 2027 08:41:24.962   05 Jun 2027 08:41:41.353            16.391                Sumatra           512.219
       479   05 Jun 2027 08:44:43.714   05 Jun 2027 08:45:43.907            60.193                Sumatra          1881.031
       480   05 Jun 2027 09:00:41.720   05 Jun 2027 09:01:00.872            19.152               Magadan2           598.500
       481   05 Jun 2027 09:01:43.326   05 Jun 2027 09:01:46.529             3.203                Irkutsk           100.094
       482   05 Jun 2027 09:01:48.070   05 Jun 2027 09:02:04.807            16.737                Irkutsk           523.031
