uniorb/output/strategy_4/Drop/Drop_KinoSat_110802.txt

KinoSat_110802
-------------------------
    Access    *     Start Time (UTCG)     *     Stop Time (UTCG)  *   Duration (s)        *       Station  *  Data (Mbytes)
         1   01 Jun 2027 04:04:47.319   01 Jun 2027 04:05:15.332            28.013                Anadyr1           875.406
         2   01 Jun 2027 04:05:15.332   01 Jun 2027 04:06:45.248            89.916                Anadyr2          2809.875
         3   01 Jun 2027 04:06:50.606   01 Jun 2027 04:07:21.802            31.196                Anadyr2           974.875
         4   01 Jun 2027 04:07:25.521   01 Jun 2027 04:07:54.083            28.562               Magadan1           892.563
         5   01 Jun 2027 04:08:37.981   01 Jun 2027 04:10:23.040           105.059                Anadyr2          3283.094
         6   01 Jun 2027 04:10:33.298   01 Jun 2027 04:10:42.595             9.297               Magadan2           290.531
         7   01 Jun 2027 04:51:16.956   01 Jun 2027 04:51:19.614             2.658            RioGallegos            83.063
         8   01 Jun 2027 04:51:38.197   01 Jun 2027 04:51:55.693            17.496            RioGallegos           546.750
         9   01 Jun 2027 04:55:44.037   01 Jun 2027 04:56:37.842            53.805            RioGallegos          1681.406
        10   01 Jun 2027 05:38:41.224   01 Jun 2027 05:39:31.668            50.444               Magadan2          1576.375
        11   01 Jun 2027 05:40:07.460   01 Jun 2027 05:40:23.503            16.043               Magadan1           501.344
        12   01 Jun 2027 05:40:30.946   01 Jun 2027 05:45:56.453           325.507                Anadyr2         10172.094
        13   01 Jun 2027 05:46:03.162   01 Jun 2027 05:46:39.963            36.801                Novosib          1150.031
        14   01 Jun 2027 06:29:34.625   01 Jun 2027 06:29:36.647             2.022            RioGallegos            63.187
        15   01 Jun 2027 06:59:56.637   01 Jun 2027 07:01:20.819            84.182                Sumatra          2630.687
        16   01 Jun 2027 07:02:13.707   01 Jun 2027 07:02:24.146            10.439                Sumatra           326.219
        17   01 Jun 2027 07:17:03.774   01 Jun 2027 07:18:02.507            58.733               Magadan1          1835.406
        18   01 Jun 2027 07:18:12.662   01 Jun 2027 07:18:36.706            24.044                Irkutsk           751.375
        19   01 Jun 2027 07:18:51.370   01 Jun 2027 07:21:50.716           179.346                Norilsk          5604.563
        20   01 Jun 2027 07:21:57.645   01 Jun 2027 07:22:31.324            33.679                Norilsk          1052.469
        21   01 Jun 2027 07:22:43.464   01 Jun 2027 07:23:49.007            65.543              Murmansk2          2048.219
        22   01 Jun 2027 07:23:49.007   01 Jun 2027 07:24:45.387            56.380              Murmansk1          1761.875
        23   01 Jun 2027 07:57:18.586   01 Jun 2027 07:58:17.577            58.991            RioGallegos          1843.469
        24   01 Jun 2027 08:31:55.555   01 Jun 2027 08:32:33.123            37.568                Sumatra          1174.000
        25   01 Jun 2027 08:35:04.577   01 Jun 2027 08:35:39.477            34.900                Sumatra          1090.625
        26   01 Jun 2027 08:41:09.384   01 Jun 2027 08:41:18.041             8.657                Sumatra           270.531
        27   01 Jun 2027 08:41:53.963   01 Jun 2027 08:43:47.061           113.098                  Delhi          3534.312
        28   01 Jun 2027 08:46:32.802   01 Jun 2027 08:47:22.030            49.228                  Delhi          1538.375
        29   01 Jun 2027 08:54:23.479   01 Jun 2027 08:55:19.046            55.567                Irkutsk          1736.469
        30   01 Jun 2027 08:55:23.025   01 Jun 2027 08:56:24.667            61.642                 Moscow          1926.312
        31   01 Jun 2027 08:56:37.558   01 Jun 2027 08:57:45.267            67.709                Irkutsk          2115.906
        32   01 Jun 2027 08:58:07.235   01 Jun 2027 08:59:33.893            86.658                 Moscow          2708.063
        33   01 Jun 2027 08:59:43.464   01 Jun 2027 09:00:24.143            40.679                 Moscow          1271.219
        34   01 Jun 2027 09:37:51.867   01 Jun 2027 09:38:24.985            33.118            RioGallegos          1034.938
        35   01 Jun 2027 09:39:30.893   01 Jun 2027 09:40:37.719            66.826            RioGallegos          2088.313
        36   01 Jun 2027 10:16:17.709   01 Jun 2027 10:18:11.372           113.663                  Delhi          3551.969
        37   01 Jun 2027 10:20:56.952   01 Jun 2027 10:21:07.252            10.300                  Delhi           321.875
        38   01 Jun 2027 10:31:48.572   01 Jun 2027 10:32:42.055            53.483                Norilsk          1671.344
        39   01 Jun 2027 10:33:01.056   01 Jun 2027 10:33:27.426            26.370                Norilsk           824.063
        40   01 Jun 2027 10:33:51.725   01 Jun 2027 10:35:13.537            81.812                Norilsk          2556.625
        41   01 Jun 2027 10:35:17.954   01 Jun 2027 10:36:30.413            72.459              Murmansk2          2264.344
        42   01 Jun 2027 10:36:30.413   01 Jun 2027 10:37:45.640            75.227              Murmansk1          2350.844
        43   01 Jun 2027 12:07:46.596   01 Jun 2027 12:08:26.483            39.887                 Moscow          1246.469
        44   01 Jun 2027 12:09:01.319   01 Jun 2027 12:12:31.561           210.242                Norilsk          6570.062
        45   01 Jun 2027 13:15:39.946   01 Jun 2027 13:21:06.805           326.859               CapeTown         10214.344
        46   01 Jun 2027 13:50:13.883   01 Jun 2027 13:50:27.845            13.962              Murmansk1           436.312
        47   01 Jun 2027 13:50:49.643   01 Jun 2027 13:50:58.313             8.670              Murmansk1           270.937
        48   01 Jun 2027 13:55:01.084   01 Jun 2027 13:57:35.278           154.194                Anadyr2          4818.562
        49   01 Jun 2027 13:57:56.989   01 Jun 2027 13:58:51.116            54.127                Anadyr1          1691.469
        50   01 Jun 2027 14:00:18.472   01 Jun 2027 14:00:48.313            29.841                Anadyr1           932.531
        51   01 Jun 2027 15:20:37.089   01 Jun 2027 15:21:01.665            24.576              Murmansk2           768.000
        52   01 Jun 2027 15:21:53.691   01 Jun 2027 15:22:35.140            41.449              Murmansk2          1295.281
        53   01 Jun 2027 15:26:25.406   01 Jun 2027 15:26:41.397            15.991              Murmansk2           499.719
        54   01 Jun 2027 15:28:22.896   01 Jun 2027 15:28:31.380             8.484              Murmansk2           265.125
        55   01 Jun 2027 15:30:35.299   01 Jun 2027 15:31:04.396            29.097                Anadyr1           909.281
        56   01 Jun 2027 15:31:35.368   01 Jun 2027 15:32:48.114            72.746                Anadyr2          2273.313
        57   01 Jun 2027 15:33:42.038   01 Jun 2027 15:35:27.109           105.071                Anadyr2          3283.469
        58   01 Jun 2027 15:35:42.779   01 Jun 2027 15:40:31.162           288.383               Magadan1          9011.969
        59   01 Jun 2027 17:08:50.931   01 Jun 2027 17:09:32.766            41.835               Magadan2          1307.344
        60   01 Jun 2027 17:10:07.083   01 Jun 2027 17:10:43.405            36.322               Magadan2          1135.063
        61   01 Jun 2027 17:11:55.497   01 Jun 2027 17:12:05.273             9.776               Magadan2           305.500
        62   01 Jun 2027 17:12:52.719   01 Jun 2027 17:13:06.787            14.068               Magadan2           439.625
        63   01 Jun 2027 17:16:19.269   01 Jun 2027 17:16:32.781            13.512               Magadan1           422.250
        64   01 Jun 2027 18:03:42.889   01 Jun 2027 18:05:41.786           118.897            RioGallegos          3715.531
        65   01 Jun 2027 18:06:19.239   01 Jun 2027 18:06:56.469            37.230            RioGallegos          1163.438
        66   01 Jun 2027 18:42:20.168   01 Jun 2027 18:42:55.411            35.243                Anadyr1          1101.344
        67   01 Jun 2027 18:43:15.780   01 Jun 2027 18:43:37.878            22.098                Anadyr1           690.563
        68   01 Jun 2027 18:44:07.947   01 Jun 2027 18:45:20.805            72.858                Anadyr2          2276.812
        69   01 Jun 2027 18:45:21.670   01 Jun 2027 18:45:34.220            12.550               Magadan2           392.188
        70   01 Jun 2027 18:45:43.711   01 Jun 2027 18:48:34.467           170.756                Norilsk          5336.125
        71   01 Jun 2027 18:49:16.592   01 Jun 2027 18:50:17.209            60.617                Norilsk          1894.281
        72   01 Jun 2027 18:51:08.943   01 Jun 2027 18:51:51.884            42.941                Irkutsk          1341.906
        73   01 Jun 2027 18:53:00.853   01 Jun 2027 18:54:38.591            97.738                Irkutsk          3054.313
        74   01 Jun 2027 18:56:00.942   01 Jun 2027 18:56:50.265            49.323                Irkutsk          1541.344
        75   01 Jun 2027 19:05:13.065   01 Jun 2027 19:07:06.512           113.447                Sumatra          3545.219
        76   01 Jun 2027 19:10:25.436   01 Jun 2027 19:11:43.643            78.207                Sumatra          2443.969
        77   01 Jun 2027 20:25:02.029   01 Jun 2027 20:25:37.227            35.198                Novosib          1099.938
        78   01 Jun 2027 20:25:39.564   01 Jun 2027 20:27:03.052            83.488                Novosib          2609.000
        79   01 Jun 2027 20:29:48.209   01 Jun 2027 20:30:09.194            20.985                Novosib           655.781
        80   01 Jun 2027 20:30:38.250   01 Jun 2027 20:31:16.850            38.600                Novosib          1206.250
        81   01 Jun 2027 20:37:00.463   01 Jun 2027 20:38:03.084            62.621                  Delhi          1956.906
        82   01 Jun 2027 21:56:48.327   01 Jun 2027 21:58:18.956            90.629               Magadan2          2832.156
        83   01 Jun 2027 21:59:29.190   01 Jun 2027 22:03:00.827           211.637              Murmansk2          6613.656
        84   01 Jun 2027 22:07:25.724   01 Jun 2027 22:08:31.027            65.303                  Delhi          2040.719
        85   01 Jun 2027 22:10:08.311   01 Jun 2027 22:10:11.190             2.879                  Delhi            89.969
        86   01 Jun 2027 22:11:36.044   01 Jun 2027 22:12:22.313            46.269                  Delhi          1445.906
        87   01 Jun 2027 22:16:58.236   01 Jun 2027 22:17:07.267             9.031                  Delhi           282.219
        88   01 Jun 2027 22:18:01.087   01 Jun 2027 22:19:25.126            84.039                  Delhi          2626.219
        89   01 Jun 2027 23:31:21.001   01 Jun 2027 23:32:53.746            92.745               Magadan2          2898.281
        90   01 Jun 2027 23:33:36.281   01 Jun 2027 23:33:42.740             6.459                Norilsk           201.844
        91   01 Jun 2027 23:34:26.696   01 Jun 2027 23:38:35.256           248.560              Murmansk1          7767.500
        92   01 Jun 2027 23:39:06.034   01 Jun 2027 23:40:27.282            81.248                 Moscow          2539.000
        93   01 Jun 2027 23:40:36.792   01 Jun 2027 23:40:55.751            18.959                 Moscow           592.469
        94   01 Jun 2027 23:46:40.950   01 Jun 2027 23:48:25.172           104.222                 Moscow          3256.937
        95   02 Jun 2027 00:05:01.515   02 Jun 2027 00:06:18.427            76.912               CapeTown          2403.500
        96   02 Jun 2027 00:09:50.664   02 Jun 2027 00:10:15.377            24.713               CapeTown           772.281
        97   02 Jun 2027 00:12:14.482   02 Jun 2027 00:12:40.074            25.592               CapeTown           799.750
        98   02 Jun 2027 01:04:27.391   02 Jun 2027 01:05:13.452            46.061               Magadan1          1439.406
        99   02 Jun 2027 01:10:20.340   02 Jun 2027 01:11:38.091            77.751              Murmansk2          2429.719
       100   02 Jun 2027 01:12:36.488   02 Jun 2027 01:12:42.149             5.661              Murmansk1           176.906
       101   02 Jun 2027 01:12:43.171   02 Jun 2027 01:13:15.168            31.997                Novosib           999.906
       102   02 Jun 2027 01:13:34.274   02 Jun 2027 01:15:06.214            91.940                 Moscow          2873.125
       103   02 Jun 2027 01:37:27.520   02 Jun 2027 01:37:55.604            28.084               CapeTown           877.625
       104   02 Jun 2027 01:40:28.309   02 Jun 2027 01:40:40.146            11.837               CapeTown           369.906
       105   02 Jun 2027 01:41:33.135   02 Jun 2027 01:41:51.696            18.561               CapeTown           580.031
       106   02 Jun 2027 01:44:26.652   02 Jun 2027 01:45:30.933            64.281               CapeTown          2008.781
       107   02 Jun 2027 02:34:10.902   02 Jun 2027 02:35:36.555            85.653                Anadyr2          2676.656
       108   02 Jun 2027 02:35:51.035   02 Jun 2027 02:35:53.977             2.942                Anadyr2            91.938
       109   02 Jun 2027 02:36:03.046   02 Jun 2027 02:37:26.443            83.397               Magadan1          2606.156
       110   02 Jun 2027 02:37:26.443   02 Jun 2027 02:37:35.198             8.755               Magadan2           273.594
       111   02 Jun 2027 02:38:29.373   02 Jun 2027 02:39:04.981            35.608               Magadan2          1112.750
       112   02 Jun 2027 02:46:17.699   02 Jun 2027 02:46:33.951            16.252              Murmansk1           507.875
       113   02 Jun 2027 02:46:54.609   02 Jun 2027 02:47:56.493            61.884              Murmansk2          1933.875
       114   02 Jun 2027 02:49:23.143   02 Jun 2027 02:49:37.506            14.363              Murmansk1           448.844
       115   02 Jun 2027 02:49:39.535   02 Jun 2027 02:50:24.163            44.628                 Moscow          1394.625
       116   02 Jun 2027 02:50:56.365   02 Jun 2027 02:51:46.153            49.788                 Moscow          1555.875
       117   02 Jun 2027 03:16:20.706   02 Jun 2027 03:16:50.801            30.095               CapeTown           940.469
       118   02 Jun 2027 04:16:48.853   02 Jun 2027 04:18:54.819           125.966                Anadyr1          3936.437
       119   02 Jun 2027 04:18:54.819   02 Jun 2027 04:19:19.080            24.261                Anadyr2           758.156
       120   02 Jun 2027 04:19:24.581   02 Jun 2027 04:21:32.214           127.633               Magadan2          3988.531
       121   02 Jun 2027 05:03:15.401   02 Jun 2027 05:03:26.301            10.900            RioGallegos           340.625
       122   02 Jun 2027 05:52:12.744   02 Jun 2027 05:52:43.136            30.392                Irkutsk           949.750
       123   02 Jun 2027 05:53:28.898   02 Jun 2027 05:54:25.114            56.216                Irkutsk          1756.750
       124   02 Jun 2027 05:54:25.123   02 Jun 2027 05:58:08.955           223.832               Magadan1          6994.750
       125   02 Jun 2027 05:58:19.488   02 Jun 2027 05:58:25.636             6.148               Magadan2           192.125
       126   02 Jun 2027 07:30:24.366   02 Jun 2027 07:32:03.739            99.373               Magadan2          3105.406
       127   02 Jun 2027 07:32:37.397   02 Jun 2027 07:33:07.847            30.450                Norilsk           951.563
       128   02 Jun 2027 07:33:09.134   02 Jun 2027 07:34:26.467            77.333                Irkutsk          2416.656
       129   02 Jun 2027 07:35:11.301   02 Jun 2027 07:35:51.001            39.700              Murmansk2          1240.625
       130   02 Jun 2027 08:12:05.467   02 Jun 2027 08:12:57.778            52.311            RioGallegos          1634.719
       131   02 Jun 2027 08:44:00.896   02 Jun 2027 08:46:03.510           122.614                Sumatra          3831.687
       132   02 Jun 2027 09:07:59.338   02 Jun 2027 09:09:52.097           112.759                Irkutsk          3523.719
       133   02 Jun 2027 09:10:30.240   02 Jun 2027 09:11:26.813            56.573                Novosib          1767.906
       134   02 Jun 2027 09:52:07.258   02 Jun 2027 09:52:22.624            15.366            RioGallegos           480.187
       135   02 Jun 2027 09:52:55.694   02 Jun 2027 09:53:03.638             7.944            RioGallegos           248.250
       136   02 Jun 2027 10:28:33.069   02 Jun 2027 10:31:03.840           150.771                  Delhi          4711.594
       137   02 Jun 2027 10:31:28.392   02 Jun 2027 10:32:02.667            34.275                  Delhi          1071.094
       138   02 Jun 2027 10:42:43.561   02 Jun 2027 10:43:32.312            48.751                Novosib          1523.469
       139   02 Jun 2027 10:45:03.030   02 Jun 2027 10:45:25.169            22.139                Norilsk           691.844
       140   02 Jun 2027 10:45:27.209   02 Jun 2027 10:46:27.286            60.077                Novosib          1877.406
       141   02 Jun 2027 12:16:25.059   02 Jun 2027 12:19:02.176           157.117              Murmansk1          4909.906
       142   02 Jun 2027 12:20:14.732   02 Jun 2027 12:20:33.525            18.793              Murmansk1           587.281
       143   02 Jun 2027 12:20:51.762   02 Jun 2027 12:21:19.585            27.823              Murmansk2           869.469
       144   02 Jun 2027 12:21:21.013   02 Jun 2027 12:21:57.344            36.331                Norilsk          1135.344
       145   02 Jun 2027 13:26:41.166   02 Jun 2027 13:29:38.987           177.821               CapeTown          5556.906
       146   02 Jun 2027 13:30:19.760   02 Jun 2027 13:31:40.447            80.687               CapeTown          2521.469
       147   02 Jun 2027 13:53:27.865   02 Jun 2027 13:53:52.448            24.583              Murmansk2           768.219
       148   02 Jun 2027 13:54:04.674   02 Jun 2027 13:55:18.283            73.609              Murmansk1          2300.281
       149   02 Jun 2027 13:55:25.785   02 Jun 2027 13:55:56.462            30.677              Murmansk1           958.656
       150   02 Jun 2027 13:58:13.522   02 Jun 2027 13:58:24.398            10.876              Murmansk2           339.875
       151   02 Jun 2027 14:02:35.529   02 Jun 2027 14:02:49.825            14.296              Murmansk2           446.750
       152   02 Jun 2027 14:06:56.832   02 Jun 2027 14:07:19.734            22.902                Anadyr1           715.687
       153   02 Jun 2027 14:07:33.146   02 Jun 2027 14:09:13.810           100.664                Anadyr1          3145.750
       154   02 Jun 2027 14:09:29.350   02 Jun 2027 14:10:57.604            88.254                Anadyr2          2757.937
       155   02 Jun 2027 14:14:16.329   02 Jun 2027 14:15:10.382            54.053                Anadyr2          1689.156
       156   02 Jun 2027 15:33:19.016   02 Jun 2027 15:34:33.994            74.978              Murmansk2          2343.062
       157   02 Jun 2027 15:38:43.293   02 Jun 2027 15:39:18.240            34.947              Murmansk2          1092.094
       158   02 Jun 2027 15:42:36.075   02 Jun 2027 15:44:48.087           132.012                Anadyr1          4125.375
       159   02 Jun 2027 15:45:39.633   02 Jun 2027 15:45:53.125            13.492                Anadyr1           421.625
       160   02 Jun 2027 15:46:01.421   02 Jun 2027 15:46:05.034             3.613                Anadyr2           112.906
       161   02 Jun 2027 15:46:06.870   02 Jun 2027 15:50:31.713           264.843               Magadan1          8276.344
       162   02 Jun 2027 15:50:52.892   02 Jun 2027 15:51:15.350            22.458               Magadan1           701.813
       163   02 Jun 2027 17:19:17.781   02 Jun 2027 17:19:33.275            15.494                Anadyr1           484.188
       164   02 Jun 2027 17:19:45.758   02 Jun 2027 17:20:28.432            42.674                Anadyr1          1333.563
       165   02 Jun 2027 17:20:50.242   02 Jun 2027 17:22:38.066           107.824               Magadan1          3369.500
       166   02 Jun 2027 17:28:43.251   02 Jun 2027 17:28:44.096             0.845               Magadan2            26.406
       167   02 Jun 2027 17:28:52.131   02 Jun 2027 17:30:24.631            92.500               Magadan2          2890.625
       168   02 Jun 2027 18:14:34.987   02 Jun 2027 18:17:23.752           168.765            RioGallegos          5273.906
       169   02 Jun 2027 18:56:30.717   02 Jun 2027 18:59:16.218           165.501                Norilsk          5171.906
       170   02 Jun 2027 19:01:41.731   02 Jun 2027 19:02:44.313            62.582                Irkutsk          1955.687
       171   02 Jun 2027 19:03:24.849   02 Jun 2027 19:06:15.734           170.885                Irkutsk          5340.156
       172   02 Jun 2027 19:08:03.377   02 Jun 2027 19:08:48.883            45.506                Irkutsk          1422.063
       173   02 Jun 2027 19:16:11.709   02 Jun 2027 19:18:44.215           152.506                Sumatra          4765.812
       174   02 Jun 2027 19:20:10.885   02 Jun 2027 19:20:54.623            43.738                Sumatra          1366.813
       175   02 Jun 2027 19:22:30.484   02 Jun 2027 19:23:05.032            34.548                Sumatra          1079.625
       176   02 Jun 2027 19:23:47.451   02 Jun 2027 19:24:37.811            50.360                Sumatra          1573.750
       177   02 Jun 2027 20:37:34.457   02 Jun 2027 20:37:55.146            20.689                Novosib           646.531
       178   02 Jun 2027 20:38:49.868   02 Jun 2027 20:39:06.845            16.977                Novosib           530.531
       179   02 Jun 2027 20:39:25.107   02 Jun 2027 20:39:39.969            14.862                Novosib           464.438
       180   02 Jun 2027 20:46:34.439   02 Jun 2027 20:48:37.639           123.200                  Delhi          3850.000
       181   02 Jun 2027 20:51:36.999   02 Jun 2027 20:52:43.485            66.486                  Delhi          2077.688
       182   02 Jun 2027 22:11:11.484   02 Jun 2027 22:14:55.843           224.359              Murmansk1          7011.219
       183   02 Jun 2027 22:14:58.275   02 Jun 2027 22:16:42.510           104.235              Murmansk2          3257.344
       184   02 Jun 2027 23:41:58.008   02 Jun 2027 23:41:58.827             0.819                Anadyr1            25.594
       185   02 Jun 2027 23:42:13.499   02 Jun 2027 23:42:27.902            14.403                Anadyr2           450.094
       186   02 Jun 2027 23:42:51.253   02 Jun 2027 23:43:01.036             9.783                Anadyr2           305.719
       187   02 Jun 2027 23:43:36.523   02 Jun 2027 23:44:22.959            46.436               Magadan2          1451.125
       188   02 Jun 2027 23:44:34.948   02 Jun 2027 23:45:34.356            59.408               Magadan1          1856.500
       189   02 Jun 2027 23:45:35.509   02 Jun 2027 23:45:57.890            22.381               Magadan1           699.406
       190   02 Jun 2027 23:46:26.766   02 Jun 2027 23:49:13.201           166.435              Murmansk2          5201.094
       191   02 Jun 2027 23:50:12.328   02 Jun 2027 23:52:40.964           148.636                 Moscow          4644.875
       192   02 Jun 2027 23:52:56.673   02 Jun 2027 23:53:18.004            21.331                 Moscow           666.594
       193   03 Jun 2027 00:16:09.136   03 Jun 2027 00:16:52.081            42.945               CapeTown          1342.031
       194   03 Jun 2027 00:17:56.883   03 Jun 2027 00:18:37.616            40.733               CapeTown          1272.906
       195   03 Jun 2027 00:20:01.632   03 Jun 2027 00:20:29.045            27.413               CapeTown           856.656
       196   03 Jun 2027 00:22:06.618   03 Jun 2027 00:23:47.640           101.022               CapeTown          3156.938
       197   03 Jun 2027 01:21:05.583   03 Jun 2027 01:21:10.722             5.139               Magadan1           160.594
       198   03 Jun 2027 01:21:37.636   03 Jun 2027 01:22:24.053            46.417               Magadan1          1450.531
       199   03 Jun 2027 01:23:31.819   03 Jun 2027 01:23:52.216            20.397              Murmansk2           637.406
       200   03 Jun 2027 01:24:54.275   03 Jun 2027 01:25:25.663            31.388              Murmansk1           980.875
       201   03 Jun 2027 01:25:34.858   03 Jun 2027 01:26:36.395            61.537                 Moscow          1923.031
       202   03 Jun 2027 01:27:23.451   03 Jun 2027 01:28:46.044            82.593                 Moscow          2581.031
       203   03 Jun 2027 01:50:38.148   03 Jun 2027 01:51:46.619            68.471               CapeTown          2139.719
       204   03 Jun 2027 02:46:14.858   03 Jun 2027 02:47:23.298            68.440                Anadyr1          2138.750
       205   03 Jun 2027 02:47:26.041   03 Jun 2027 02:49:02.664            96.623               Magadan1          3019.469
       206   03 Jun 2027 02:49:44.825   03 Jun 2027 02:50:31.929            47.104               Magadan1          1472.000
       207   03 Jun 2027 02:55:22.623   03 Jun 2027 02:55:29.326             6.703                Norilsk           209.469
       208   03 Jun 2027 02:56:56.316   03 Jun 2027 02:56:56.782             0.466                Norilsk            14.562
       209   03 Jun 2027 02:57:09.228   03 Jun 2027 02:57:14.684             5.456                Norilsk           170.500
       210   03 Jun 2027 02:58:18.682   03 Jun 2027 02:59:48.093            89.411              Murmansk2          2794.094
       211   03 Jun 2027 04:30:14.498   03 Jun 2027 04:32:59.639           165.141                Anadyr2          5160.656
       212   03 Jun 2027 04:33:11.224   03 Jun 2027 04:33:17.431             6.207               Magadan2           193.969
       213   03 Jun 2027 04:37:11.133   03 Jun 2027 04:37:36.997            25.864              Murmansk2           808.250
       214   03 Jun 2027 05:12:20.757   03 Jun 2027 05:15:00.599           159.842            RioGallegos          4995.062
       215   03 Jun 2027 06:05:00.413   03 Jun 2027 06:06:26.954            86.541               Magadan2          2704.406
       216   03 Jun 2027 06:06:29.085   03 Jun 2027 06:06:50.554            21.469               Magadan2           670.906
       217   03 Jun 2027 06:07:04.986   03 Jun 2027 06:08:55.362           110.376                Anadyr1          3449.250
       218   03 Jun 2027 06:09:03.411   03 Jun 2027 06:09:11.753             8.342               Magadan2           260.687
       219   03 Jun 2027 06:09:11.753   03 Jun 2027 06:09:54.276            42.523               Magadan1          1328.844
       220   03 Jun 2027 06:10:14.798   03 Jun 2027 06:10:21.644             6.846               Magadan2           213.937
       221   03 Jun 2027 06:10:53.209   03 Jun 2027 06:11:07.077            13.868                Norilsk           433.375
       222   03 Jun 2027 07:43:46.013   03 Jun 2027 07:43:55.877             9.864                Irkutsk           308.250
       223   03 Jun 2027 07:45:04.669   03 Jun 2027 07:45:09.698             5.029                Irkutsk           157.156
       224   03 Jun 2027 07:45:13.166   03 Jun 2027 07:45:46.774            33.608                Irkutsk          1050.250
       225   03 Jun 2027 07:46:01.431   03 Jun 2027 07:46:27.889            26.458                Irkutsk           826.812
       226   03 Jun 2027 08:21:52.263   03 Jun 2027 08:22:35.284            43.021            RioGallegos          1344.406
       227   03 Jun 2027 08:25:14.578   03 Jun 2027 08:25:29.063            14.485            RioGallegos           452.656
       228   03 Jun 2027 08:56:12.190   03 Jun 2027 08:57:47.146            94.956                Sumatra          2967.375
       229   03 Jun 2027 09:20:49.285   03 Jun 2027 09:21:25.641            36.356                Novosib          1136.125
       230   03 Jun 2027 09:21:52.475   03 Jun 2027 09:22:00.195             7.720                Norilsk           241.250
       231   03 Jun 2027 10:40:55.294   03 Jun 2027 10:44:41.128           225.834                  Delhi          7057.312
       232   03 Jun 2027 10:55:27.622   03 Jun 2027 10:55:31.165             3.543                Novosib           110.719
       233   03 Jun 2027 10:55:37.197   03 Jun 2027 10:55:41.839             4.642                Novosib           145.062
       234   03 Jun 2027 10:56:52.705   03 Jun 2027 10:57:05.070            12.365                Norilsk           386.406
       235   03 Jun 2027 10:57:24.907   03 Jun 2027 10:57:27.274             2.367                Novosib            73.969
       236   03 Jun 2027 10:57:28.047   03 Jun 2027 10:57:46.321            18.274                Norilsk           571.063
       237   03 Jun 2027 12:24:38.001   03 Jun 2027 12:24:45.392             7.391                 Moscow           230.969
       238   03 Jun 2027 12:25:21.877   03 Jun 2027 12:26:18.144            56.267                 Moscow          1758.344
       239   03 Jun 2027 12:27:03.440   03 Jun 2027 12:27:51.652            48.212                 Moscow          1506.625
       240   03 Jun 2027 12:28:09.486   03 Jun 2027 12:30:16.998           127.512              Murmansk2          3984.750
       241   03 Jun 2027 12:30:51.808   03 Jun 2027 12:31:06.586            14.778              Murmansk2           461.813
       242   03 Jun 2027 12:31:22.359   03 Jun 2027 12:32:08.324            45.965              Murmansk1          1436.406
       243   03 Jun 2027 12:36:53.247   03 Jun 2027 12:37:09.750            16.503                Norilsk           515.719
       244   03 Jun 2027 12:45:11.946   03 Jun 2027 12:47:31.267           139.321                Anadyr2          4353.781
       245   03 Jun 2027 13:40:05.304   03 Jun 2027 13:41:52.700           107.396               CapeTown          3356.125
       246   03 Jun 2027 13:49:33.115   03 Jun 2027 13:50:31.422            58.307               CapeTown          1822.094
       247   03 Jun 2027 14:05:49.370   03 Jun 2027 14:06:52.062            62.692              Murmansk2          1959.125
       248   03 Jun 2027 14:07:11.259   03 Jun 2027 14:07:19.245             7.986              Murmansk2           249.563
       249   03 Jun 2027 14:08:50.889   03 Jun 2027 14:08:58.329             7.440              Murmansk1           232.500
       250   03 Jun 2027 14:10:05.768   03 Jun 2027 14:10:40.082            34.314              Murmansk1          1072.312
       251   03 Jun 2027 14:13:13.900   03 Jun 2027 14:13:57.209            43.309              Murmansk2          1353.406
       252   03 Jun 2027 14:18:53.800   03 Jun 2027 14:21:29.153           155.353                Anadyr2          4854.781
       253   03 Jun 2027 14:22:13.894   03 Jun 2027 14:23:20.853            66.959                Anadyr2          2092.469
       254   03 Jun 2027 15:46:05.771   03 Jun 2027 15:46:38.049            32.278              Murmansk1          1008.687
       255   03 Jun 2027 15:46:58.673   03 Jun 2027 15:47:28.184            29.511              Murmansk2           922.219
       256   03 Jun 2027 15:49:25.928   03 Jun 2027 15:49:32.021             6.093              Murmansk1           190.406
       257   03 Jun 2027 15:54:37.053   03 Jun 2027 15:56:12.281            95.228                Anadyr1          2975.875
       258   03 Jun 2027 15:56:44.097   03 Jun 2027 15:57:21.661            37.564                Anadyr2          1173.875
       259   03 Jun 2027 15:57:30.486   03 Jun 2027 16:00:55.581           205.095               Magadan2          6409.219
       260   03 Jun 2027 16:01:19.485   03 Jun 2027 16:02:46.105            86.620               Magadan1          2706.875
       261   03 Jun 2027 17:30:32.458   03 Jun 2027 17:32:16.735           104.277                Anadyr1          3258.656
       262   03 Jun 2027 17:32:50.137   03 Jun 2027 17:33:57.501            67.364               Magadan1          2105.125
       263   03 Jun 2027 17:36:21.909   03 Jun 2027 17:38:24.312           122.403               Magadan1          3825.094
       264   03 Jun 2027 18:25:58.421   03 Jun 2027 18:29:10.309           191.888            RioGallegos          5996.500
       265   03 Jun 2027 19:08:28.433   03 Jun 2027 19:12:34.037           245.604                Norilsk          7675.125
       266   03 Jun 2027 19:13:05.604   03 Jun 2027 19:14:03.780            58.176                Irkutsk          1818.000
       267   03 Jun 2027 19:15:18.906   03 Jun 2027 19:16:21.446            62.540                Irkutsk          1954.375
       268   03 Jun 2027 19:27:29.159   03 Jun 2027 19:29:53.049           143.890                Sumatra          4496.562
       269   03 Jun 2027 19:31:54.200   03 Jun 2027 19:33:11.542            77.342                Sumatra          2416.938
       270   03 Jun 2027 19:34:10.454   03 Jun 2027 19:34:47.996            37.542                Sumatra          1173.187
       271   03 Jun 2027 20:48:39.804   03 Jun 2027 20:50:15.928            96.124                Novosib          3003.875
       272   03 Jun 2027 20:51:11.108   03 Jun 2027 20:52:30.632            79.524                Novosib          2485.125
       273   03 Jun 2027 20:57:35.537   03 Jun 2027 21:00:17.581           162.044                  Delhi          5063.875
       274   03 Jun 2027 21:03:53.004   03 Jun 2027 21:05:30.181            97.177                  Delhi          3036.781
       275   03 Jun 2027 22:23:00.542   03 Jun 2027 22:26:52.527           231.985              Murmansk2          7249.531
       276   03 Jun 2027 22:27:21.718   03 Jun 2027 22:29:02.587           100.869              Murmansk1          3152.156
       277   03 Jun 2027 23:56:11.863   03 Jun 2027 23:56:24.568            12.705               Magadan1           397.031
       278   03 Jun 2027 23:56:58.691   03 Jun 2027 23:57:36.500            37.809               Magadan2          1181.531
       279   03 Jun 2027 23:58:27.266   04 Jun 2027 00:01:12.148           164.882              Murmansk1          5152.563
       280   04 Jun 2027 00:01:45.896   04 Jun 2027 00:02:37.608            51.712              Murmansk1          1616.000
       281   04 Jun 2027 00:02:53.413   04 Jun 2027 00:03:45.268            51.855                 Moscow          1620.469
       282   04 Jun 2027 00:04:45.617   04 Jun 2027 00:04:48.649             3.032                 Moscow            94.750
       283   04 Jun 2027 00:09:48.509   04 Jun 2027 00:10:09.771            21.262                 Moscow           664.437
       284   04 Jun 2027 00:27:28.079   04 Jun 2027 00:29:00.860            92.781               CapeTown          2899.406
       285   04 Jun 2027 00:31:58.120   04 Jun 2027 00:32:32.466            34.346               CapeTown          1073.313
       286   04 Jun 2027 00:34:02.817   04 Jun 2027 00:34:36.243            33.426               CapeTown          1044.562
       287   04 Jun 2027 01:26:06.233   04 Jun 2027 01:27:17.006            70.773               Magadan1          2211.656
       288   04 Jun 2027 01:30:01.288   04 Jun 2027 01:30:09.128             7.840               Magadan2           245.000
       289   04 Jun 2027 01:31:43.415   04 Jun 2027 01:32:03.009            19.594                Norilsk           612.313
       290   04 Jun 2027 01:33:47.680   04 Jun 2027 01:33:50.075             2.395                Norilsk            74.844
       291   04 Jun 2027 01:33:58.529   04 Jun 2027 01:34:17.084            18.555               Magadan2           579.844
       292   04 Jun 2027 01:34:23.742   04 Jun 2027 01:35:53.650            89.908              Murmansk2          2809.625
       293   04 Jun 2027 01:37:34.180   04 Jun 2027 01:37:40.900             6.720              Murmansk1           210.000
       294   04 Jun 2027 01:37:57.816   04 Jun 2027 01:37:59.755             1.939                Novosib            60.594
       295   04 Jun 2027 01:38:01.265   04 Jun 2027 01:38:15.827            14.562              Murmansk2           455.063
       296   04 Jun 2027 01:38:16.037   04 Jun 2027 01:38:26.265            10.228                 Moscow           319.625
       297   04 Jun 2027 01:39:01.701   04 Jun 2027 01:39:14.128            12.427                 Moscow           388.344
       298   04 Jun 2027 01:41:13.903   04 Jun 2027 01:41:30.806            16.903                 Moscow           528.219
       299   04 Jun 2027 01:44:43.286   04 Jun 2027 01:45:02.887            19.601                 Moscow           612.531
       300   04 Jun 2027 01:46:22.425   04 Jun 2027 01:47:06.863            44.438                 Moscow          1388.687
       301   04 Jun 2027 02:03:28.429   04 Jun 2027 02:04:39.384            70.955               CapeTown          2217.344
       302   04 Jun 2027 02:58:20.852   04 Jun 2027 03:00:21.616           120.764                Anadyr2          3773.875
       303   04 Jun 2027 03:00:30.035   04 Jun 2027 03:00:55.537            25.502               Magadan1           796.938
       304   04 Jun 2027 03:04:20.360   04 Jun 2027 03:07:42.156           201.796               Magadan2          6306.125
       305   04 Jun 2027 03:07:42.156   04 Jun 2027 03:08:18.827            36.671               Magadan1          1145.969
       306   04 Jun 2027 03:08:19.275   04 Jun 2027 03:09:55.922            96.647                Anadyr1          3020.219
       307   04 Jun 2027 03:10:45.152   04 Jun 2027 03:11:08.875            23.723                Anadyr1           741.344
       308   04 Jun 2027 04:43:56.471   04 Jun 2027 04:44:19.975            23.504               Magadan2           734.500
       309   04 Jun 2027 04:44:32.809   04 Jun 2027 04:44:35.127             2.318                Irkutsk            72.438
       310   04 Jun 2027 04:45:56.622   04 Jun 2027 04:46:11.792            15.170               Magadan1           474.062
       311   04 Jun 2027 04:46:25.425   04 Jun 2027 04:46:46.348            20.923               Magadan1           653.844
       312   04 Jun 2027 06:16:42.479   04 Jun 2027 06:17:06.273            23.794               Magadan1           743.563
       313   04 Jun 2027 06:17:27.539   04 Jun 2027 06:18:27.033            59.494               Magadan1          1859.187
       314   04 Jun 2027 06:18:30.659   04 Jun 2027 06:18:33.219             2.560               Magadan2            80.000
       315   04 Jun 2027 06:18:33.219   04 Jun 2027 06:19:01.712            28.493               Magadan1           890.406
       316   04 Jun 2027 06:19:17.851   04 Jun 2027 06:19:38.246            20.395               Magadan2           637.344
       317   04 Jun 2027 06:20:18.780   04 Jun 2027 06:20:30.808            12.028               Magadan2           375.875
       318   04 Jun 2027 06:21:24.723   04 Jun 2027 06:21:33.049             8.326               Magadan1           260.188
       319   04 Jun 2027 06:21:41.679   04 Jun 2027 06:22:01.126            19.447               Magadan2           607.719
       320   04 Jun 2027 07:56:58.476   04 Jun 2027 07:57:02.044             3.568                Irkutsk           111.500
       321   04 Jun 2027 07:57:21.880   04 Jun 2027 07:57:28.248             6.368                Irkutsk           199.000
       322   04 Jun 2027 07:57:57.642   04 Jun 2027 07:58:02.034             4.392                Norilsk           137.250
       323   04 Jun 2027 07:58:25.279   04 Jun 2027 07:58:28.449             3.170                Irkutsk            99.063
       324   04 Jun 2027 07:59:29.327   04 Jun 2027 07:59:51.862            22.535              Murmansk1           704.219
       325   04 Jun 2027 08:34:15.883   04 Jun 2027 08:34:35.267            19.384            RioGallegos           605.750
       326   04 Jun 2027 08:35:46.586   04 Jun 2027 08:35:58.931            12.345            RioGallegos           385.781
       327   04 Jun 2027 08:38:33.903   04 Jun 2027 08:39:06.383            32.480            RioGallegos          1015.000
       328   04 Jun 2027 09:08:30.203   04 Jun 2027 09:09:37.154            66.951                Sumatra          2092.219
       329   04 Jun 2027 09:33:12.157   04 Jun 2027 09:33:26.671            14.514                Irkutsk           453.562
       330   04 Jun 2027 09:33:29.606   04 Jun 2027 09:33:57.070            27.464                Novosib           858.250
       331   04 Jun 2027 10:53:25.763   04 Jun 2027 10:56:16.961           171.198                  Delhi          5349.938
       332   04 Jun 2027 11:09:26.552   04 Jun 2027 11:09:36.878            10.326                Novosib           322.688
       333   04 Jun 2027 11:11:15.497   04 Jun 2027 11:11:18.052             2.555                Norilsk            79.844
       334   04 Jun 2027 12:36:45.917   04 Jun 2027 12:37:13.464            27.547                 Moscow           860.844
       335   04 Jun 2027 12:37:53.442   04 Jun 2027 12:38:18.432            24.990                 Moscow           780.937
       336   04 Jun 2027 12:39:09.702   04 Jun 2027 12:41:24.617           134.915                 Moscow          4216.094
       337   04 Jun 2027 12:41:32.258   04 Jun 2027 12:41:39.303             7.045              Murmansk1           220.156
       338   04 Jun 2027 12:42:18.289   04 Jun 2027 12:42:39.071            20.782              Murmansk1           649.437
       339   04 Jun 2027 12:43:01.493   04 Jun 2027 12:43:24.060            22.567              Murmansk1           705.219
       340   04 Jun 2027 12:44:02.680   04 Jun 2027 12:44:54.333            51.653              Murmansk1          1614.156
       341   04 Jun 2027 12:47:05.008   04 Jun 2027 12:47:19.908            14.900                Norilsk           465.625
       342   04 Jun 2027 12:48:53.279   04 Jun 2027 12:49:12.721            19.442                Norilsk           607.563
       343   04 Jun 2027 12:56:21.507   04 Jun 2027 12:59:37.233           195.726                Anadyr1          6116.438
       344   04 Jun 2027 12:59:47.458   04 Jun 2027 13:00:48.395            60.937                Anadyr2          1904.281
       345   04 Jun 2027 13:53:00.260   04 Jun 2027 13:53:26.915            26.655               CapeTown           832.969
       346   04 Jun 2027 14:18:13.185   04 Jun 2027 14:19:19.894            66.709              Murmansk2          2084.656
       347   04 Jun 2027 14:20:52.545   04 Jun 2027 14:21:22.338            29.793              Murmansk2           931.031
       348   04 Jun 2027 14:30:51.715   04 Jun 2027 14:32:49.646           117.931                Anadyr1          3685.344
       349   04 Jun 2027 14:33:28.540   04 Jun 2027 14:34:00.059            31.519                Anadyr2           984.969
       350   04 Jun 2027 14:35:05.394   04 Jun 2027 14:35:22.430            17.036                Anadyr1           532.375
       351   04 Jun 2027 14:41:48.913   04 Jun 2027 14:42:06.039            17.126                Anadyr1           535.188
       352   04 Jun 2027 15:26:38.675   04 Jun 2027 15:26:43.100             4.425               CapeTown           138.281
       353   04 Jun 2027 15:30:18.009   04 Jun 2027 15:30:46.074            28.065               CapeTown           877.031
       354   04 Jun 2027 15:31:44.817   04 Jun 2027 15:32:01.026            16.209               CapeTown           506.531
       355   04 Jun 2027 15:32:08.975   04 Jun 2027 15:33:17.110            68.135               CapeTown          2129.219
       356   04 Jun 2027 15:58:59.107   04 Jun 2027 15:59:34.763            35.656              Murmansk2          1114.250
       357   04 Jun 2027 16:00:29.661   04 Jun 2027 16:00:42.281            12.620              Murmansk1           394.375
       358   04 Jun 2027 16:00:56.562   04 Jun 2027 16:01:26.312            29.750              Murmansk2           929.688
       359   04 Jun 2027 16:06:38.197   04 Jun 2027 16:08:12.255            94.058                Anadyr1          2939.312
       360   04 Jun 2027 16:08:25.324   04 Jun 2027 16:09:20.461            55.137                Anadyr2          1723.031
       361   04 Jun 2027 16:09:22.666   04 Jun 2027 16:12:11.289           168.623               Magadan2          5269.469
       362   04 Jun 2027 16:12:12.097   04 Jun 2027 16:13:16.522            64.425               Magadan1          2013.281
       363   04 Jun 2027 17:42:33.486   04 Jun 2027 17:44:56.721           143.235                Anadyr2          4476.094
       364   04 Jun 2027 17:45:35.237   04 Jun 2027 17:46:48.807            73.570               Magadan1          2299.063
       365   04 Jun 2027 17:46:48.807   04 Jun 2027 17:46:58.542             9.735               Magadan2           304.219
       366   04 Jun 2027 17:47:55.284   04 Jun 2027 17:48:39.692            44.408               Magadan2          1387.750
       367   04 Jun 2027 17:57:31.771   04 Jun 2027 17:57:39.978             8.207               Magadan1           256.469
       368   04 Jun 2027 18:37:33.795   04 Jun 2027 18:41:00.194           206.399            RioGallegos          6449.969
       369   04 Jun 2027 18:41:48.742   04 Jun 2027 18:42:53.422            64.680            RioGallegos          2021.250
       370   04 Jun 2027 19:20:49.864   04 Jun 2027 19:21:40.992            51.128               Magadan2          1597.750
       371   04 Jun 2027 19:21:40.992   04 Jun 2027 19:22:12.471            31.479               Magadan1           983.719
       372   04 Jun 2027 19:23:19.571   04 Jun 2027 19:23:54.131            34.560                Norilsk          1080.000
       373   04 Jun 2027 19:24:53.257   04 Jun 2027 19:27:25.136           151.879                Irkutsk          4746.219
       374   04 Jun 2027 19:27:33.027   04 Jun 2027 19:28:30.893            57.866                Irkutsk          1808.313
       375   04 Jun 2027 19:34:11.138   04 Jun 2027 19:34:20.142             9.004                Irkutsk           281.375
       376   04 Jun 2027 19:38:58.425   04 Jun 2027 19:40:02.726            64.301                Sumatra          2009.406
       377   04 Jun 2027 19:40:23.713   04 Jun 2027 19:42:20.123           116.410                Sumatra          3637.812
       378   04 Jun 2027 19:44:30.061   04 Jun 2027 19:45:46.109            76.048                Sumatra          2376.500
       379   04 Jun 2027 20:57:56.397   04 Jun 2027 20:58:22.038            25.641                Norilsk           801.281
       380   04 Jun 2027 21:00:11.048   04 Jun 2027 21:01:29.361            78.313                Irkutsk          2447.281
       381   04 Jun 2027 21:01:38.780   04 Jun 2027 21:03:15.869            97.089                Novosib          3034.031
       382   04 Jun 2027 21:08:56.981   04 Jun 2027 21:10:54.341           117.360                  Delhi          3667.500
       383   04 Jun 2027 21:10:58.183   04 Jun 2027 21:12:03.241            65.058                  Delhi          2033.062
       384   04 Jun 2027 21:15:58.964   04 Jun 2027 21:16:09.210            10.246                  Delhi           320.188
       385   04 Jun 2027 22:34:53.314   04 Jun 2027 22:38:50.409           237.095              Murmansk1          7409.219
       386   04 Jun 2027 22:39:42.873   04 Jun 2027 22:42:11.797           148.924              Murmansk2          4653.875
       387   05 Jun 2027 00:05:57.655   05 Jun 2027 00:06:11.848            14.193               Magadan1           443.531
       388   05 Jun 2027 00:06:56.476   05 Jun 2027 00:07:50.527            54.051               Magadan1          1689.094
       389   05 Jun 2027 00:09:00.954   05 Jun 2027 00:09:36.479            35.525               Magadan2          1110.156
       390   05 Jun 2027 00:10:28.109   05 Jun 2027 00:12:05.454            97.345              Murmansk1          3042.031
       391   05 Jun 2027 00:13:10.645   05 Jun 2027 00:14:39.050            88.405              Murmansk1          2762.656
       392   05 Jun 2027 00:15:51.592   05 Jun 2027 00:16:25.547            33.955                 Moscow          1061.094
       393   05 Jun 2027 00:17:41.317   05 Jun 2027 00:17:57.286            15.969                 Moscow           499.031
       394   05 Jun 2027 00:18:13.414   05 Jun 2027 00:20:12.039           118.625                 Moscow          3707.031
       395   05 Jun 2027 00:38:55.437   05 Jun 2027 00:40:01.626            66.189               CapeTown          2068.406
       396   05 Jun 2027 00:41:15.245   05 Jun 2027 00:42:03.179            47.934               CapeTown          1497.937
       397   05 Jun 2027 00:44:45.544   05 Jun 2027 00:45:06.144            20.600               CapeTown           643.750
       398   05 Jun 2027 01:38:36.537   05 Jun 2027 01:40:00.260            83.723               Magadan2          2616.344
       399   05 Jun 2027 01:45:26.619   05 Jun 2027 01:45:43.001            16.382               Magadan1           511.937
       400   05 Jun 2027 01:46:25.422   05 Jun 2027 01:47:55.220            89.798              Murmansk1          2806.188
       401   05 Jun 2027 01:49:27.451   05 Jun 2027 01:50:11.507            44.056                Novosib          1376.750
       402   05 Jun 2027 01:53:20.067   05 Jun 2027 01:53:23.411             3.344                 Moscow           104.500
       403   05 Jun 2027 01:53:52.499   05 Jun 2027 01:53:53.282             0.783                 Moscow            24.469
       404   05 Jun 2027 01:55:08.276   05 Jun 2027 01:56:37.372            89.096                 Moscow          2784.250
       405   05 Jun 2027 02:22:32.290   05 Jun 2027 02:23:32.628            60.338               CapeTown          1885.563
       406   05 Jun 2027 03:13:12.477   05 Jun 2027 03:13:21.569             9.092               Magadan2           284.125
       407   05 Jun 2027 03:14:32.249   05 Jun 2027 03:14:44.866            12.617               Magadan2           394.281
       408   05 Jun 2027 03:16:22.525   05 Jun 2027 03:18:24.200           121.675               Magadan2          3802.344
       409   05 Jun 2027 03:18:24.200   05 Jun 2027 03:19:57.230            93.030               Magadan1          2907.187
       410   05 Jun 2027 03:19:59.301   05 Jun 2027 03:20:30.560            31.259                Anadyr2           976.844
       411   05 Jun 2027 03:20:35.334   05 Jun 2027 03:20:47.617            12.283                Anadyr1           383.844
       412   05 Jun 2027 03:21:07.226   05 Jun 2027 03:21:45.487            38.261               Magadan1          1195.656
       413   05 Jun 2027 03:21:54.654   05 Jun 2027 03:22:46.026            51.372                Anadyr1          1605.375
       414   05 Jun 2027 04:55:36.631   05 Jun 2027 04:56:31.427            54.796               Magadan2          1712.375
       415   05 Jun 2027 04:56:42.403   05 Jun 2027 04:56:52.844            10.441                Anadyr1           326.281
       416   05 Jun 2027 04:57:05.424   05 Jun 2027 04:57:25.368            19.944               Magadan2           623.250
       417   05 Jun 2027 06:30:17.889   05 Jun 2027 06:30:24.021             6.132               Magadan1           191.625
       418   05 Jun 2027 06:30:32.070   05 Jun 2027 06:30:33.764             1.694               Magadan2            52.937
       419   05 Jun 2027 06:30:40.903   05 Jun 2027 06:32:19.085            98.182               Magadan2          3068.187
       420   05 Jun 2027 06:32:33.895   05 Jun 2027 06:33:31.213            57.318               Magadan2          1791.187
       421   05 Jun 2027 06:33:38.238   05 Jun 2027 06:33:40.745             2.507               Magadan2            78.344
       422   05 Jun 2027 06:34:07.483   05 Jun 2027 06:34:09.024             1.541               Magadan1            48.156
       423   05 Jun 2027 06:36:09.558   05 Jun 2027 06:36:38.056            28.498              Murmansk1           890.562
       424   05 Jun 2027 08:09:32.231   05 Jun 2027 08:10:28.068            55.837                Irkutsk          1744.906
       425   05 Jun 2027 08:46:44.802   05 Jun 2027 08:46:48.318             3.516            RioGallegos           109.875
       426   05 Jun 2027 08:47:50.338   05 Jun 2027 08:48:31.794            41.456            RioGallegos          1295.500
       427   05 Jun 2027 09:20:56.406   05 Jun 2027 09:21:32.974            36.568                Sumatra          1142.750
       428   05 Jun 2027 09:23:56.934   05 Jun 2027 09:24:31.063            34.129                Sumatra          1066.531
       429   05 Jun 2027 09:44:00.970   05 Jun 2027 09:44:11.614            10.644                Irkutsk           332.625
       430   05 Jun 2027 09:45:00.881   05 Jun 2027 09:45:33.094            32.213                Novosib          1006.656
       431   05 Jun 2027 09:45:36.323   05 Jun 2027 09:45:50.823            14.500                Novosib           453.125
       432   05 Jun 2027 09:46:13.259   05 Jun 2027 09:46:13.290             0.031                Novosib             0.969
       433   05 Jun 2027 11:06:06.994   05 Jun 2027 11:07:26.748            79.754                  Delhi          2492.312
       434   05 Jun 2027 11:07:59.161   05 Jun 2027 11:08:53.319            54.158                  Delhi          1692.437
       435   05 Jun 2027 11:14:38.005   05 Jun 2027 11:15:17.433            39.428                  Delhi          1232.125
       436   05 Jun 2027 11:19:21.061   05 Jun 2027 11:19:43.499            22.438                Novosib           701.188
       437   05 Jun 2027 11:22:35.138   05 Jun 2027 11:22:45.849            10.711                Norilsk           334.719
       438   05 Jun 2027 12:48:57.060   05 Jun 2027 12:49:46.872            49.812                 Moscow          1556.625
       439   05 Jun 2027 12:52:26.769   05 Jun 2027 12:53:30.357            63.588              Murmansk2          1987.125
       440   05 Jun 2027 12:53:36.886   05 Jun 2027 12:54:19.386            42.500              Murmansk2          1328.125
       441   05 Jun 2027 12:55:25.761   05 Jun 2027 12:55:57.771            32.010              Murmansk1          1000.312
       442   05 Jun 2027 12:56:55.835   05 Jun 2027 12:57:14.307            18.472              Murmansk1           577.250
       443   05 Jun 2027 12:57:40.265   05 Jun 2027 12:57:42.788             2.523              Murmansk1            78.844
       444   05 Jun 2027 12:59:33.013   05 Jun 2027 13:00:34.966            61.953              Murmansk2          1936.031
       445   05 Jun 2027 13:07:56.664   05 Jun 2027 13:14:06.843           370.179                Anadyr1         11568.094
       446   05 Jun 2027 14:30:39.439   05 Jun 2027 14:31:19.884            40.445              Murmansk2          1263.906
       447   05 Jun 2027 14:31:23.328   05 Jun 2027 14:32:07.111            43.783              Murmansk2          1368.219
       448   05 Jun 2027 14:42:50.392   05 Jun 2027 14:45:27.451           157.059                Anadyr2          4908.094
       449   05 Jun 2027 14:46:01.330   05 Jun 2027 14:46:48.986            47.656                Anadyr2          1489.250
       450   05 Jun 2027 16:12:03.508   05 Jun 2027 16:14:26.733           143.225              Murmansk2          4475.781
       451   05 Jun 2027 16:18:39.451   05 Jun 2027 16:20:12.608            93.157                Anadyr1          2911.156
       452   05 Jun 2027 16:20:37.094   05 Jun 2027 16:21:18.694            41.600                Anadyr2          1300.000
       453   05 Jun 2027 16:22:00.282   05 Jun 2027 16:25:14.295           194.013               Magadan1          6062.906
       454   05 Jun 2027 16:28:41.764   05 Jun 2027 16:29:25.603            43.839               Magadan2          1369.969
       455   05 Jun 2027 17:54:34.332   05 Jun 2027 17:56:06.924            92.592                Anadyr2          2893.500
       456   05 Jun 2027 17:56:19.918   05 Jun 2027 17:57:11.308            51.390                Anadyr1          1605.937
       457   05 Jun 2027 17:57:19.702   05 Jun 2027 17:59:32.785           133.083               Magadan2          4158.844
       458   05 Jun 2027 17:59:32.785   05 Jun 2027 17:59:55.690            22.905               Magadan1           715.781
       459   05 Jun 2027 18:00:19.963   05 Jun 2027 18:01:01.997            42.034               Magadan1          1313.562
       460   05 Jun 2027 18:49:15.987   05 Jun 2027 18:52:44.945           208.958            RioGallegos          6529.938
       461   05 Jun 2027 18:52:48.853   05 Jun 2027 18:55:32.235           163.382            RioGallegos          5105.688
       462   05 Jun 2027 19:34:47.695   05 Jun 2027 19:37:40.681           172.986                Norilsk          5405.812
       463   05 Jun 2027 19:38:09.705   05 Jun 2027 19:39:43.902            94.197                Irkutsk          2943.656
       464   05 Jun 2027 19:39:50.385   05 Jun 2027 19:41:41.595           111.210                Novosib          3475.313
       465   05 Jun 2027 19:50:36.417   05 Jun 2027 19:51:54.090            77.673                Sumatra          2427.281
       466   05 Jun 2027 19:52:48.239   05 Jun 2027 19:54:16.916            88.677                Sumatra          2771.156
       467   05 Jun 2027 21:12:27.250   05 Jun 2027 21:13:09.824            42.574                Novosib          1330.438
       468   05 Jun 2027 21:15:21.158   05 Jun 2027 21:16:13.584            52.426                Novosib          1638.312
       469   05 Jun 2027 21:18:40.256   05 Jun 2027 21:19:06.435            26.179                Novosib           818.094
       470   05 Jun 2027 21:20:29.625   05 Jun 2027 21:21:37.112            67.487                  Delhi          2108.969
       471   05 Jun 2027 21:23:04.250   05 Jun 2027 21:23:53.510            49.260                  Delhi          1539.375
       472   05 Jun 2027 21:26:40.066   05 Jun 2027 21:27:09.762            29.696                  Delhi           928.000
       473   05 Jun 2027 22:44:36.112   05 Jun 2027 22:46:02.241            86.129               Magadan2          2691.531
       474   05 Jun 2027 22:46:48.440   05 Jun 2027 22:50:49.205           240.765              Murmansk1          7523.906
       475   05 Jun 2027 22:52:15.048   05 Jun 2027 22:57:08.407           293.359                 Moscow          9167.469
       476   06 Jun 2027 00:22:29.208   06 Jun 2027 00:24:05.595            96.387              Murmansk2          3012.094
       477   06 Jun 2027 00:25:54.831   06 Jun 2027 00:27:29.194            94.363                 Moscow          2948.844
       478   06 Jun 2027 00:29:55.150   06 Jun 2027 00:29:56.324             1.174                 Moscow            36.687
       479   06 Jun 2027 00:31:35.608   06 Jun 2027 00:32:06.111            30.503                 Moscow           953.219
       480   06 Jun 2027 00:50:29.692   06 Jun 2027 00:52:22.436           112.744               CapeTown          3523.250
       481   06 Jun 2027 00:53:35.899   06 Jun 2027 00:53:53.827            17.928               CapeTown           560.250
       482   06 Jun 2027 00:58:50.447   06 Jun 2027 00:59:48.001            57.554               CapeTown          1798.563
