uniorb/output/strategy_4/Drop/Drop_KinoSat_111301.txt

KinoSat_111301
-------------------------
    Access    *     Start Time (UTCG)     *     Stop Time (UTCG)  *   Duration (s)        *       Station  *  Data (Mbytes)
         1   01 Jun 2027 04:09:05.450   01 Jun 2027 04:10:05.757            60.307              Murmansk1          1884.594
         2   01 Jun 2027 04:10:09.469   01 Jun 2027 04:11:10.145            60.676                 Moscow          1896.125
         3   01 Jun 2027 04:11:13.908   01 Jun 2027 04:11:49.777            35.869              Murmansk1          1120.906
         4   01 Jun 2027 04:11:49.777   01 Jun 2027 04:12:01.657            11.880              Murmansk2           371.250
         5   01 Jun 2027 04:14:12.029   01 Jun 2027 04:14:37.540            25.511                 Moscow           797.219
         6   01 Jun 2027 05:31:29.999   01 Jun 2027 05:36:33.096           303.097                Anadyr1          9471.781
         7   01 Jun 2027 07:08:30.301   01 Jun 2027 07:11:10.920           160.619                Anadyr2          5019.344
         8   01 Jun 2027 07:11:10.920   01 Jun 2027 07:11:45.918            34.998                Anadyr1          1093.687
         9   01 Jun 2027 07:11:55.072   01 Jun 2027 07:11:56.894             1.822              Murmansk2            56.937
        10   01 Jun 2027 07:12:26.336   01 Jun 2027 07:12:33.588             7.252                Anadyr1           226.625
        11   01 Jun 2027 08:43:03.548   01 Jun 2027 08:44:27.937            84.389               Magadan2          2637.156
        12   01 Jun 2027 08:44:58.796   01 Jun 2027 08:46:46.867           108.071               Magadan2          3377.219
        13   01 Jun 2027 08:47:24.419   01 Jun 2027 08:47:31.457             7.038                Norilsk           219.938
        14   01 Jun 2027 08:47:36.584   01 Jun 2027 08:47:48.655            12.071              Murmansk2           377.219
        15   01 Jun 2027 08:48:04.505   01 Jun 2027 08:49:57.296           112.791                Norilsk          3524.719
        16   01 Jun 2027 08:53:03.165   01 Jun 2027 08:53:29.814            26.649              Murmansk1           832.781
        17   01 Jun 2027 09:22:57.027   01 Jun 2027 09:25:39.617           162.590            RioGallegos          5080.937
        18   01 Jun 2027 09:58:36.372   01 Jun 2027 10:00:08.132            91.760                Sumatra          2867.500
        19   01 Jun 2027 10:19:46.929   01 Jun 2027 10:20:04.779            17.850                Irkutsk           557.812
        20   01 Jun 2027 10:20:10.963   01 Jun 2027 10:21:05.045            54.082                Norilsk          1690.063
        21   01 Jun 2027 10:21:11.830   01 Jun 2027 10:24:10.499           178.669                Irkutsk          5583.406
        22   01 Jun 2027 11:34:35.772   01 Jun 2027 11:35:51.385            75.613                Sumatra          2362.906
        23   01 Jun 2027 11:56:31.594   01 Jun 2027 11:56:53.616            22.022                Novosib           688.187
        24   01 Jun 2027 11:57:15.617   01 Jun 2027 11:59:01.305           105.688                Irkutsk          3302.750
        25   01 Jun 2027 11:59:21.830   01 Jun 2027 12:00:02.892            41.062                Novosib          1283.188
        26   01 Jun 2027 12:00:11.415   01 Jun 2027 12:03:29.957           198.542                Norilsk          6204.438
        27   01 Jun 2027 12:03:58.998   01 Jun 2027 12:04:18.583            19.585              Murmansk2           612.031
        28   01 Jun 2027 12:04:32.606   01 Jun 2027 12:04:55.526            22.920              Murmansk1           716.250
        29   01 Jun 2027 12:04:58.235   01 Jun 2027 12:05:33.556            35.321              Murmansk1          1103.781
        30   01 Jun 2027 12:06:13.997   01 Jun 2027 12:06:48.902            34.905              Murmansk1          1090.781
        31   01 Jun 2027 13:19:59.710   01 Jun 2027 13:22:02.415           122.705                  Delhi          3834.531
        32   01 Jun 2027 13:23:09.022   01 Jun 2027 13:24:20.208            71.186                  Delhi          2224.562
        33   01 Jun 2027 13:24:38.947   01 Jun 2027 13:25:15.130            36.183                  Delhi          1130.719
        34   01 Jun 2027 13:25:52.162   01 Jun 2027 13:25:54.337             2.175                  Delhi            67.969
        35   01 Jun 2027 13:26:08.041   01 Jun 2027 13:29:11.237           183.196                  Delhi          5724.875
        36   01 Jun 2027 13:32:12.368   01 Jun 2027 13:34:10.470           118.102                Novosib          3690.687
        37   01 Jun 2027 13:34:45.571   01 Jun 2027 13:35:50.922            65.351                Novosib          2042.219
        38   01 Jun 2027 13:38:46.439   01 Jun 2027 13:39:16.699            30.260                 Moscow           945.625
        39   01 Jun 2027 13:39:30.232   01 Jun 2027 13:40:51.402            81.170              Murmansk1          2536.563
        40   01 Jun 2027 13:40:51.993   01 Jun 2027 13:42:03.252            71.259              Murmansk2          2226.844
        41   01 Jun 2027 15:02:39.685   01 Jun 2027 15:03:18.120            38.435                 Moscow          1201.094
        42   01 Jun 2027 15:03:59.160   01 Jun 2027 15:05:36.291            97.131                 Moscow          3035.344
        43   01 Jun 2027 15:06:58.473   01 Jun 2027 15:07:03.437             4.964                 Moscow           155.125
        44   01 Jun 2027 15:07:18.232   01 Jun 2027 15:07:46.019            27.787                 Moscow           868.344
        45   01 Jun 2027 15:09:11.100   01 Jun 2027 15:10:02.954            51.854              Murmansk1          1620.437
        46   01 Jun 2027 15:10:06.407   01 Jun 2027 15:10:23.547            17.140                 Moscow           535.625
        47   01 Jun 2027 15:11:08.122   01 Jun 2027 15:11:27.768            19.646              Murmansk1           613.938
        48   01 Jun 2027 15:11:29.432   01 Jun 2027 15:11:56.519            27.087                 Moscow           846.469
        49   01 Jun 2027 15:12:24.634   01 Jun 2027 15:12:59.380            34.746              Murmansk2          1085.813
        50   01 Jun 2027 15:13:19.796   01 Jun 2027 15:13:44.151            24.355              Murmansk1           761.094
        51   01 Jun 2027 15:13:55.608   01 Jun 2027 15:14:53.291            57.683              Murmansk1          1802.594
        52   01 Jun 2027 15:16:35.093   01 Jun 2027 15:16:46.897            11.804              Murmansk2           368.875
        53   01 Jun 2027 15:16:50.003   01 Jun 2027 15:17:05.661            15.658              Murmansk2           489.312
        54   01 Jun 2027 15:21:43.811   01 Jun 2027 15:23:12.246            88.435                Anadyr1          2763.594
        55   01 Jun 2027 15:23:43.919   01 Jun 2027 15:23:48.114             4.195                Anadyr2           131.094
        56   01 Jun 2027 15:24:02.554   01 Jun 2027 15:24:16.400            13.846                Anadyr1           432.688
        57   01 Jun 2027 15:26:03.344   01 Jun 2027 15:26:33.544            30.200                Anadyr2           943.750
        58   01 Jun 2027 15:27:30.468   01 Jun 2027 15:27:42.124            11.656                Anadyr1           364.250
        59   01 Jun 2027 16:24:04.302   01 Jun 2027 16:24:23.746            19.444               CapeTown           607.625
        60   01 Jun 2027 16:25:30.245   01 Jun 2027 16:26:22.192            51.947               CapeTown          1623.344
        61   01 Jun 2027 16:44:18.433   01 Jun 2027 16:44:29.616            11.183              Murmansk2           349.469
        62   01 Jun 2027 16:45:28.468   01 Jun 2027 16:46:17.487            49.019              Murmansk1          1531.844
        63   01 Jun 2027 16:47:42.792   01 Jun 2027 16:48:21.252            38.460                 Moscow          1201.875
        64   01 Jun 2027 16:51:52.717   01 Jun 2027 16:52:29.916            37.199              Murmansk2          1162.469
        65   01 Jun 2027 16:53:04.584   01 Jun 2027 16:53:30.383            25.799              Murmansk2           806.219
        66   01 Jun 2027 16:56:35.320   01 Jun 2027 16:57:23.755            48.435                Anadyr2          1513.594
        67   01 Jun 2027 16:57:37.747   01 Jun 2027 16:58:14.370            36.623                Anadyr1          1144.469
        68   01 Jun 2027 16:59:19.192   01 Jun 2027 16:59:35.071            15.879                Anadyr2           496.219
        69   01 Jun 2027 17:00:00.780   01 Jun 2027 17:00:11.015            10.235                Anadyr1           319.844
        70   01 Jun 2027 17:01:05.222   01 Jun 2027 17:01:39.911            34.689                Anadyr1          1084.031
        71   01 Jun 2027 17:05:45.852   01 Jun 2027 17:06:30.017            44.165                Anadyr1          1380.156
        72   01 Jun 2027 17:08:00.822   01 Jun 2027 17:08:09.052             8.230                Anadyr2           257.188
        73   01 Jun 2027 17:59:28.161   01 Jun 2027 17:59:44.642            16.481               CapeTown           515.031
        74   01 Jun 2027 18:02:03.989   01 Jun 2027 18:02:32.987            28.998               CapeTown           906.188
        75   01 Jun 2027 18:25:30.540   01 Jun 2027 18:29:37.704           247.164              Murmansk2          7723.875
        76   01 Jun 2027 18:35:02.466   01 Jun 2027 18:35:39.486            37.020               Magadan2          1156.875
        77   01 Jun 2027 18:36:05.590   01 Jun 2027 18:37:47.906           102.316               Magadan1          3197.375
        78   01 Jun 2027 18:43:56.448   01 Jun 2027 18:44:17.009            20.561               Magadan1           642.531
        79   01 Jun 2027 20:08:19.986   01 Jun 2027 20:12:30.695           250.709                Anadyr2          7834.656
        80   01 Jun 2027 20:13:26.197   01 Jun 2027 20:14:14.655            48.458               Magadan1          1514.313
        81   01 Jun 2027 20:14:14.655   01 Jun 2027 20:15:26.542            71.887               Magadan2          2246.469
        82   01 Jun 2027 20:15:36.368   01 Jun 2027 20:16:07.910            31.542               Magadan2           985.687
        83   01 Jun 2027 20:19:37.745   01 Jun 2027 20:19:46.618             8.873               Magadan1           277.281
        84   01 Jun 2027 20:20:56.724   01 Jun 2027 20:21:05.246             8.522               Magadan2           266.313
        85   01 Jun 2027 20:21:15.161   01 Jun 2027 20:21:40.109            24.948               Magadan2           779.625
        86   01 Jun 2027 20:22:47.243   01 Jun 2027 20:23:25.219            37.976               Magadan1          1186.750
        87   01 Jun 2027 21:03:03.614   01 Jun 2027 21:05:40.364           156.750            RioGallegos          4898.438
        88   01 Jun 2027 21:44:00.698   01 Jun 2027 21:44:48.552            47.854                Anadyr1          1495.438
        89   01 Jun 2027 21:46:10.999   01 Jun 2027 21:46:31.955            20.956                Norilsk           654.875
        90   01 Jun 2027 21:46:37.834   01 Jun 2027 21:48:39.102           121.268               Magadan1          3789.625
        91   01 Jun 2027 21:50:30.376   01 Jun 2027 21:52:39.917           129.541                Irkutsk          4048.156
        92   01 Jun 2027 21:54:14.034   01 Jun 2027 21:55:01.904            47.870                Novosib          1495.937
        93   01 Jun 2027 22:05:13.687   01 Jun 2027 22:06:17.999            64.312                Sumatra          2009.750
        94   01 Jun 2027 22:11:34.434   01 Jun 2027 22:11:51.513            17.079                Sumatra           533.719
        95   01 Jun 2027 22:16:07.141   01 Jun 2027 22:16:18.727            11.586                Sumatra           362.063
        96   01 Jun 2027 23:18:54.627   01 Jun 2027 23:20:27.017            92.390                Anadyr1          2887.188
        97   01 Jun 2027 23:20:27.275   01 Jun 2027 23:21:14.334            47.059                Anadyr2          1470.594
        98   01 Jun 2027 23:21:26.777   01 Jun 2027 23:21:39.476            12.699                Anadyr2           396.844
        99   01 Jun 2027 23:22:06.115   01 Jun 2027 23:22:32.250            26.135                Norilsk           816.719
       100   01 Jun 2027 23:22:44.641   01 Jun 2027 23:24:22.132            97.491               Magadan2          3046.594
       101   01 Jun 2027 23:24:39.110   01 Jun 2027 23:24:45.604             6.494               Magadan2           202.938
       102   01 Jun 2027 23:25:57.794   01 Jun 2027 23:27:16.193            78.399                Irkutsk          2449.969
       103   01 Jun 2027 23:28:08.855   01 Jun 2027 23:30:27.334           138.479                Novosib          4327.469
       104   01 Jun 2027 23:34:19.388   01 Jun 2027 23:34:54.526            35.138                  Delhi          1098.062
       105   01 Jun 2027 23:39:21.801   01 Jun 2027 23:39:49.764            27.963                  Delhi           873.844
       106   01 Jun 2027 23:40:55.567   01 Jun 2027 23:41:01.705             6.138                  Delhi           191.812
       107   01 Jun 2027 23:44:06.191   01 Jun 2027 23:44:22.127            15.936                  Delhi           498.000
       108   02 Jun 2027 00:16:43.738   02 Jun 2027 00:17:21.272            37.534            RioGallegos          1172.937
       109   02 Jun 2027 00:22:17.757   02 Jun 2027 00:22:40.082            22.325            RioGallegos           697.656
       110   02 Jun 2027 00:25:08.240   02 Jun 2027 00:25:12.648             4.408            RioGallegos           137.750
       111   02 Jun 2027 00:52:35.443   02 Jun 2027 00:52:48.619            13.176                Anadyr2           411.750
       112   02 Jun 2027 00:53:12.270   02 Jun 2027 00:53:40.410            28.140                Anadyr2           879.375
       113   02 Jun 2027 00:54:25.606   02 Jun 2027 00:55:33.773            68.167                Anadyr2          2130.219
       114   02 Jun 2027 00:58:06.154   02 Jun 2027 00:58:22.307            16.153                Norilsk           504.781
       115   02 Jun 2027 00:58:26.363   02 Jun 2027 00:59:58.324            91.961               Magadan1          2873.781
       116   02 Jun 2027 01:00:05.975   02 Jun 2027 01:00:56.287            50.312               Magadan1          1572.250
       117   02 Jun 2027 01:01:52.665   02 Jun 2027 01:03:26.846            94.181                Novosib          2943.156
       118   02 Jun 2027 01:03:44.959   02 Jun 2027 01:03:46.805             1.846              Murmansk2            57.687
       119   02 Jun 2027 01:04:02.825   02 Jun 2027 01:05:07.331            64.506                Novosib          2015.813
       120   02 Jun 2027 01:06:09.400   02 Jun 2027 01:06:36.013            26.613                 Moscow           831.656
       121   02 Jun 2027 01:08:48.943   02 Jun 2027 01:09:35.546            46.603                 Moscow          1456.344
       122   02 Jun 2027 01:19:34.768   02 Jun 2027 01:19:57.053            22.285                  Delhi           696.406
       123   02 Jun 2027 01:52:58.791   02 Jun 2027 01:52:59.971             1.180            RioGallegos            36.875
       124   02 Jun 2027 01:53:52.872   02 Jun 2027 01:54:37.347            44.475            RioGallegos          1389.844
       125   02 Jun 2027 02:25:55.731   02 Jun 2027 02:28:55.031           179.300                Anadyr1          5603.125
       126   02 Jun 2027 02:31:20.824   02 Jun 2027 02:32:27.611            66.787               Magadan1          2087.094
       127   02 Jun 2027 02:33:56.326   02 Jun 2027 02:34:07.411            11.085                Norilsk           346.406
       128   02 Jun 2027 02:35:39.329   02 Jun 2027 02:35:43.130             3.801                Norilsk           118.781
       129   02 Jun 2027 02:36:13.788   02 Jun 2027 02:37:11.593            57.805              Murmansk1          1806.406
       130   02 Jun 2027 02:37:58.321   02 Jun 2027 02:38:12.779            14.458              Murmansk2           451.813
       131   02 Jun 2027 02:38:15.896   02 Jun 2027 02:40:07.560           111.664                Novosib          3489.500
       132   02 Jun 2027 02:45:13.071   02 Jun 2027 02:45:25.696            12.625                Novosib           394.531
       133   02 Jun 2027 03:04:20.136   02 Jun 2027 03:04:37.121            16.985               CapeTown           530.781
       134   02 Jun 2027 03:05:40.553   02 Jun 2027 03:05:59.190            18.637               CapeTown           582.406
       135   02 Jun 2027 03:10:57.822   02 Jun 2027 03:10:59.242             1.420               CapeTown            44.375
       136   02 Jun 2027 03:11:25.420   02 Jun 2027 03:11:56.333            30.913               CapeTown           966.031
       137   02 Jun 2027 04:19:50.245   02 Jun 2027 04:20:34.056            43.811              Murmansk1          1369.094
       138   02 Jun 2027 04:21:13.735   02 Jun 2027 04:23:51.791           158.056              Murmansk1          4939.250
       139   02 Jun 2027 04:23:51.791   02 Jun 2027 04:24:00.495             8.704              Murmansk2           272.000
       140   02 Jun 2027 05:44:37.656   02 Jun 2027 05:48:36.052           238.396               Magadan2          7449.875
       141   02 Jun 2027 07:20:39.119   02 Jun 2027 07:21:12.972            33.853                Irkutsk          1057.906
       142   02 Jun 2027 07:21:33.356   02 Jun 2027 07:21:57.218            23.862                Irkutsk           745.687
       143   02 Jun 2027 07:22:04.431   02 Jun 2027 07:23:44.580           100.149                Anadyr2          3129.656
       144   02 Jun 2027 08:56:08.953   02 Jun 2027 08:59:34.092           205.139               Magadan1          6410.594
       145   02 Jun 2027 08:59:34.092   02 Jun 2027 08:59:48.334            14.242               Magadan2           445.062
       146   02 Jun 2027 10:31:45.016   02 Jun 2027 10:31:57.909            12.893                Novosib           402.906
       147   02 Jun 2027 10:31:58.752   02 Jun 2027 10:32:08.719             9.967                Irkutsk           311.469
       148   02 Jun 2027 10:32:10.745   02 Jun 2027 10:32:11.872             1.127                Norilsk            35.219
       149   02 Jun 2027 10:32:26.420   02 Jun 2027 10:32:30.860             4.440                Novosib           138.750
       150   02 Jun 2027 10:32:31.513   02 Jun 2027 10:32:31.853             0.340                Irkutsk            10.625
       151   02 Jun 2027 10:32:33.883   02 Jun 2027 10:32:52.922            19.039                Novosib           594.969
       152   02 Jun 2027 10:32:57.927   02 Jun 2027 10:33:38.800            40.873                Norilsk          1277.281
       153   02 Jun 2027 10:33:44.428   02 Jun 2027 10:34:07.217            22.789                Norilsk           712.156
       154   02 Jun 2027 10:34:13.722   02 Jun 2027 10:35:06.293            52.571                Norilsk          1642.844
       155   02 Jun 2027 10:35:27.018   02 Jun 2027 10:35:34.969             7.951                Norilsk           248.469
       156   02 Jun 2027 10:35:45.850   02 Jun 2027 10:35:52.194             6.344                Novosib           198.250
       157   02 Jun 2027 10:35:53.145   02 Jun 2027 10:36:07.746            14.601                Norilsk           456.281
       158   02 Jun 2027 11:12:57.142   02 Jun 2027 11:13:27.633            30.491            RioGallegos           952.844
       159   02 Jun 2027 11:14:12.432   02 Jun 2027 11:14:30.991            18.559            RioGallegos           579.969
       160   02 Jun 2027 11:20:10.648   02 Jun 2027 11:20:54.080            43.432            RioGallegos          1357.250
       161   02 Jun 2027 11:47:10.744   02 Jun 2027 11:47:31.917            21.173                Sumatra           661.656
       162   02 Jun 2027 11:50:57.619   02 Jun 2027 11:52:03.363            65.744                Sumatra          2054.500
       163   02 Jun 2027 12:08:31.375   02 Jun 2027 12:08:52.170            20.795                Novosib           649.844
       164   02 Jun 2027 12:10:22.739   02 Jun 2027 12:10:25.216             2.477                Irkutsk            77.406
       165   02 Jun 2027 12:12:05.764   02 Jun 2027 12:12:32.861            27.097                Novosib           846.781
       166   02 Jun 2027 13:32:35.975   02 Jun 2027 13:37:11.902           275.927                  Delhi          8622.719
       167   02 Jun 2027 13:41:45.768   02 Jun 2027 13:42:14.811            29.043                Novosib           907.594
       168   02 Jun 2027 13:42:53.839   02 Jun 2027 13:44:11.580            77.741                Novosib          2429.406
       169   02 Jun 2027 13:47:45.898   02 Jun 2027 13:49:13.725            87.827                Norilsk          2744.594
       170   02 Jun 2027 14:55:08.867   02 Jun 2027 14:57:03.098           114.231               CapeTown          3569.719
       171   02 Jun 2027 15:14:53.667   02 Jun 2027 15:15:10.391            16.724                 Moscow           522.625
       172   02 Jun 2027 15:16:02.034   02 Jun 2027 15:16:29.122            27.088                 Moscow           846.500
       173   02 Jun 2027 15:18:20.912   02 Jun 2027 15:19:15.800            54.888              Murmansk1          1715.250
       174   02 Jun 2027 15:20:11.369   02 Jun 2027 15:20:25.803            14.434                 Moscow           451.062
       175   02 Jun 2027 15:21:24.780   02 Jun 2027 15:23:08.677           103.897              Murmansk2          3246.781
       176   02 Jun 2027 15:33:27.109   02 Jun 2027 15:34:39.095            71.986                Anadyr1          2249.562
       177   02 Jun 2027 15:35:13.723   02 Jun 2027 15:35:43.711            29.988                Anadyr1           937.125
       178   02 Jun 2027 15:35:56.630   02 Jun 2027 15:36:12.457            15.827                Anadyr2           494.594
       179   02 Jun 2027 15:39:26.022   02 Jun 2027 15:39:48.496            22.474                Anadyr1           702.312
       180   02 Jun 2027 16:33:43.749   02 Jun 2027 16:33:54.045            10.296               CapeTown           321.750
       181   02 Jun 2027 16:35:55.715   02 Jun 2027 16:36:41.656            45.941               CapeTown          1435.656
       182   02 Jun 2027 16:55:34.529   02 Jun 2027 16:56:26.013            51.484                 Moscow          1608.875
       183   02 Jun 2027 16:56:46.865   02 Jun 2027 16:57:11.135            24.270              Murmansk2           758.438
       184   02 Jun 2027 16:57:21.456   02 Jun 2027 16:57:30.629             9.173              Murmansk1           286.656
       185   02 Jun 2027 16:58:22.143   02 Jun 2027 16:59:34.588            72.445                 Moscow          2263.906
       186   02 Jun 2027 17:05:32.136   02 Jun 2027 17:06:40.721            68.585              Murmansk1          2143.281
       187   02 Jun 2027 17:09:36.044   02 Jun 2027 17:10:01.257            25.213                Anadyr1           787.906
       188   02 Jun 2027 17:12:06.154   02 Jun 2027 17:12:07.579             1.425                Anadyr1            44.531
       189   02 Jun 2027 17:13:06.202   02 Jun 2027 17:13:42.507            36.305                Anadyr1          1134.531
       190   02 Jun 2027 17:13:56.260   02 Jun 2027 17:15:23.237            86.977               Magadan2          2718.031
       191   02 Jun 2027 18:38:53.522   02 Jun 2027 18:40:59.288           125.766              Murmansk1          3930.187
       192   02 Jun 2027 18:44:26.036   02 Jun 2027 18:46:22.361           116.325                Anadyr2          3635.156
       193   02 Jun 2027 18:46:58.077   02 Jun 2027 18:47:56.202            58.125               Magadan1          1816.406
       194   02 Jun 2027 18:47:56.202   02 Jun 2027 18:48:39.149            42.947               Magadan2          1342.094
       195   02 Jun 2027 18:50:13.991   02 Jun 2027 18:50:15.501             1.510               Magadan1            47.187
       196   02 Jun 2027 18:50:21.369   02 Jun 2027 18:50:36.976            15.607               Magadan1           487.719
       197   02 Jun 2027 18:55:12.192   02 Jun 2027 18:55:55.818            43.626               Magadan1          1363.312
       198   02 Jun 2027 20:20:20.861   02 Jun 2027 20:22:27.850           126.989                Anadyr2          3968.406
       199   02 Jun 2027 20:22:33.569   02 Jun 2027 20:24:32.467           118.898                Anadyr1          3715.563
       200   02 Jun 2027 20:25:08.877   02 Jun 2027 20:27:02.828           113.951               Magadan2          3560.969
       201   02 Jun 2027 20:30:47.548   02 Jun 2027 20:30:54.231             6.683               Magadan2           208.844
       202   02 Jun 2027 20:31:44.610   02 Jun 2027 20:31:47.992             3.382               Magadan2           105.687
       203   02 Jun 2027 20:32:13.802   02 Jun 2027 20:32:32.846            19.044               Magadan1           595.125
       204   02 Jun 2027 20:33:15.037   02 Jun 2027 20:33:49.450            34.413               Magadan1          1075.406
       205   02 Jun 2027 21:14:49.810   02 Jun 2027 21:17:32.232           162.422            RioGallegos          5075.687
       206   02 Jun 2027 21:18:13.412   02 Jun 2027 21:18:20.539             7.127            RioGallegos           222.719
       207   02 Jun 2027 21:23:53.508   02 Jun 2027 21:24:15.767            22.259            RioGallegos           695.594
       208   02 Jun 2027 21:55:57.827   02 Jun 2027 21:56:40.643            42.816                Anadyr2          1338.000
       209   02 Jun 2027 21:58:11.295   02 Jun 2027 21:58:20.921             9.626                Norilsk           300.813
       210   02 Jun 2027 21:58:40.717   02 Jun 2027 22:01:23.619           162.902               Magadan1          5090.687
       211   02 Jun 2027 22:02:23.233   02 Jun 2027 22:02:48.481            25.248                Irkutsk           789.000
       212   02 Jun 2027 22:03:46.738   02 Jun 2027 22:04:03.192            16.454                Norilsk           514.188
       213   02 Jun 2027 22:04:16.656   02 Jun 2027 22:05:03.061            46.405                Irkutsk          1450.156
       214   02 Jun 2027 22:05:22.927   02 Jun 2027 22:05:55.285            32.358                Novosib          1011.188
       215   02 Jun 2027 22:07:08.320   02 Jun 2027 22:08:06.105            57.785                Novosib          1805.781
       216   02 Jun 2027 22:16:09.478   02 Jun 2027 22:16:54.711            45.233                Sumatra          1413.531
       217   02 Jun 2027 22:18:44.069   02 Jun 2027 22:18:47.256             3.187                Sumatra            99.594
       218   02 Jun 2027 22:18:47.516   02 Jun 2027 22:19:39.731            52.215                Sumatra          1631.719
       219   02 Jun 2027 23:30:52.315   02 Jun 2027 23:30:55.664             3.349                Anadyr1           104.656
       220   02 Jun 2027 23:30:57.453   02 Jun 2027 23:32:34.964            97.511                Anadyr1          3047.219
       221   02 Jun 2027 23:32:41.604   02 Jun 2027 23:33:01.141            19.537                Anadyr1           610.531
       222   02 Jun 2027 23:33:31.026   02 Jun 2027 23:33:32.818             1.792                Anadyr1            56.000
       223   02 Jun 2027 23:34:08.231   02 Jun 2027 23:34:31.330            23.099                Norilsk           721.844
       224   02 Jun 2027 23:34:46.957   02 Jun 2027 23:35:50.889            63.932               Magadan1          1997.875
       225   02 Jun 2027 23:35:50.889   02 Jun 2027 23:36:00.682             9.793               Magadan2           306.031
       226   02 Jun 2027 23:36:24.885   02 Jun 2027 23:37:03.404            38.519               Magadan2          1203.719
       227   02 Jun 2027 23:38:00.331   02 Jun 2027 23:38:23.464            23.133                Irkutsk           722.906
       228   02 Jun 2027 23:38:57.725   02 Jun 2027 23:39:16.297            18.572                Novosib           580.375
       229   02 Jun 2027 23:40:14.797   02 Jun 2027 23:40:30.346            15.549                Novosib           485.906
       230   02 Jun 2027 23:40:52.010   02 Jun 2027 23:41:57.998            65.988                Novosib          2062.125
       231   02 Jun 2027 23:45:58.428   02 Jun 2027 23:46:53.319            54.891                  Delhi          1715.344
       232   02 Jun 2027 23:47:12.116   02 Jun 2027 23:47:30.680            18.564                  Delhi           580.125
       233   02 Jun 2027 23:56:08.172   02 Jun 2027 23:56:31.754            23.582                  Delhi           736.937
       234   02 Jun 2027 23:57:20.437   02 Jun 2027 23:57:26.975             6.538                  Delhi           204.313
       235   03 Jun 2027 00:33:22.771   03 Jun 2027 00:33:58.977            36.206            RioGallegos          1131.438
       236   03 Jun 2027 00:35:08.211   03 Jun 2027 00:35:54.952            46.741            RioGallegos          1460.656
       237   03 Jun 2027 01:05:05.691   03 Jun 2027 01:05:39.337            33.646                Anadyr2          1051.438
       238   03 Jun 2027 01:06:18.429   03 Jun 2027 01:06:47.350            28.921                Anadyr2           903.781
       239   03 Jun 2027 01:09:52.525   03 Jun 2027 01:09:54.706             2.181                Anadyr2            68.156
       240   03 Jun 2027 01:10:01.483   03 Jun 2027 01:10:38.454            36.971                Anadyr1          1155.344
       241   03 Jun 2027 01:10:42.444   03 Jun 2027 01:12:01.489            79.045               Magadan2          2470.156
       242   03 Jun 2027 01:12:29.908   03 Jun 2027 01:13:59.332            89.424              Murmansk2          2794.500
       243   03 Jun 2027 01:13:59.332   03 Jun 2027 01:14:16.735            17.403              Murmansk1           543.844
       244   03 Jun 2027 01:14:47.093   03 Jun 2027 01:15:10.800            23.707                Novosib           740.844
       245   03 Jun 2027 01:15:31.718   03 Jun 2027 01:15:43.065            11.347              Murmansk1           354.594
       246   03 Jun 2027 01:15:47.578   03 Jun 2027 01:15:59.018            11.440                Novosib           357.500
       247   03 Jun 2027 01:17:35.520   03 Jun 2027 01:18:07.256            31.736                Irkutsk           991.750
       248   03 Jun 2027 01:19:29.761   03 Jun 2027 01:19:33.044             3.283                 Moscow           102.594
       249   03 Jun 2027 01:19:39.761   03 Jun 2027 01:19:52.953            13.192                 Moscow           412.250
       250   03 Jun 2027 01:20:16.389   03 Jun 2027 01:21:23.142            66.753                 Moscow          2086.031
       251   03 Jun 2027 02:37:40.595   03 Jun 2027 02:40:46.366           185.771                Anadyr1          5805.344
       252   03 Jun 2027 02:42:48.700   03 Jun 2027 02:44:19.376            90.676               Magadan1          2833.625
       253   03 Jun 2027 02:45:55.711   03 Jun 2027 02:46:25.562            29.851                Norilsk           932.844
       254   03 Jun 2027 02:48:15.287   03 Jun 2027 02:48:43.397            28.110              Murmansk2           878.438
       255   03 Jun 2027 02:49:48.078   03 Jun 2027 02:50:15.364            27.286              Murmansk2           852.688
       256   03 Jun 2027 02:50:17.813   03 Jun 2027 02:52:06.515           108.702                Novosib          3396.938
       257   03 Jun 2027 03:00:14.111   03 Jun 2027 03:01:05.833            51.722                 Moscow          1616.312
       258   03 Jun 2027 03:15:59.236   03 Jun 2027 03:19:00.431           181.195               CapeTown          5662.344
       259   03 Jun 2027 04:19:50.630   03 Jun 2027 04:21:46.623           115.993                Anadyr2          3624.781
       260   03 Jun 2027 04:31:42.980   03 Jun 2027 04:33:02.458            79.478                 Moscow          2483.688
       261   03 Jun 2027 04:33:16.370   03 Jun 2027 04:33:46.339            29.969                 Moscow           936.531
       262   03 Jun 2027 04:36:28.898   03 Jun 2027 04:37:11.133            42.235              Murmansk2          1319.844
       263   03 Jun 2027 04:52:05.780   03 Jun 2027 04:52:48.474            42.694               CapeTown          1334.187
       264   03 Jun 2027 05:54:08.846   03 Jun 2027 05:55:58.828           109.982                Anadyr1          3436.938
       265   03 Jun 2027 05:56:05.082   03 Jun 2027 05:56:50.387            45.305               Magadan1          1415.781
       266   03 Jun 2027 05:56:51.419   03 Jun 2027 05:58:35.468           104.049               Magadan1          3251.531
       267   03 Jun 2027 07:31:28.638   03 Jun 2027 07:32:32.675            64.037                Anadyr2          2001.156
       268   03 Jun 2027 07:32:50.171   03 Jun 2027 07:32:57.831             7.660               Magadan2           239.375
       269   03 Jun 2027 07:32:58.842   03 Jun 2027 07:33:40.768            41.926               Magadan2          1310.188
       270   03 Jun 2027 07:34:03.930   03 Jun 2027 07:34:14.776            10.846               Magadan1           338.938
       271   03 Jun 2027 07:34:19.266   03 Jun 2027 07:34:19.824             0.558               Magadan1            17.437
       272   03 Jun 2027 07:34:19.824   03 Jun 2027 07:34:56.542            36.718               Magadan2          1147.438
       273   03 Jun 2027 07:35:11.589   03 Jun 2027 07:35:45.117            33.528                Anadyr2          1047.750
       274   03 Jun 2027 09:04:48.232   03 Jun 2027 09:05:06.300            18.068               Magadan1           564.625
       275   03 Jun 2027 09:05:16.251   03 Jun 2027 09:05:43.667            27.416               Magadan2           856.750
       276   03 Jun 2027 09:06:20.448   03 Jun 2027 09:06:22.384             1.936                Irkutsk            60.500
       277   03 Jun 2027 09:07:04.842   03 Jun 2027 09:07:50.058            45.216               Magadan2          1413.000
       278   03 Jun 2027 09:08:17.873   03 Jun 2027 09:08:22.397             4.524               Magadan2           141.375
       279   03 Jun 2027 09:08:22.397   03 Jun 2027 09:08:54.009            31.612               Magadan1           987.875
       280   03 Jun 2027 09:09:03.270   03 Jun 2027 09:09:40.305            37.035               Magadan1          1157.344
       281   03 Jun 2027 09:10:10.106   03 Jun 2027 09:10:25.146            15.040                Irkutsk           470.000
       282   03 Jun 2027 09:10:45.262   03 Jun 2027 09:11:29.412            44.150               Magadan1          1379.688
       283   03 Jun 2027 09:12:15.761   03 Jun 2027 09:12:16.886             1.125                Irkutsk            35.156
       284   03 Jun 2027 09:12:53.843   03 Jun 2027 09:12:58.350             4.507                Novosib           140.844
       285   03 Jun 2027 09:47:00.065   03 Jun 2027 09:47:44.971            44.906            RioGallegos          1403.313
       286   03 Jun 2027 09:50:15.773   03 Jun 2027 09:50:38.123            22.350            RioGallegos           698.438
       287   03 Jun 2027 10:22:03.852   03 Jun 2027 10:24:54.132           170.280                Sumatra          5321.250
       288   03 Jun 2027 10:43:30.909   03 Jun 2027 10:44:18.888            47.979                Irkutsk          1499.344
       289   03 Jun 2027 10:44:31.963   03 Jun 2027 10:45:04.643            32.680                Irkutsk          1021.250
       290   03 Jun 2027 10:45:11.129   03 Jun 2027 10:45:19.697             8.568                Novosib           267.750
       291   03 Jun 2027 10:45:40.756   03 Jun 2027 10:45:45.653             4.897                Norilsk           153.031
       292   03 Jun 2027 10:45:56.981   03 Jun 2027 10:45:59.770             2.789                Novosib            87.156
       293   03 Jun 2027 10:46:08.418   03 Jun 2027 10:46:11.004             2.586                Norilsk            80.812
       294   03 Jun 2027 10:46:23.925   03 Jun 2027 10:46:37.693            13.768                Irkutsk           430.250
       295   03 Jun 2027 10:46:41.383   03 Jun 2027 10:46:43.349             1.966                Novosib            61.437
       296   03 Jun 2027 10:46:58.370   03 Jun 2027 10:47:25.489            27.119                Norilsk           847.469
       297   03 Jun 2027 10:47:29.011   03 Jun 2027 10:47:53.359            24.348                Norilsk           760.875
       298   03 Jun 2027 10:48:18.757   03 Jun 2027 10:48:23.434             4.677                Norilsk           146.156
       299   03 Jun 2027 11:25:38.498   03 Jun 2027 11:26:34.194            55.696            RioGallegos          1740.500
       300   03 Jun 2027 11:28:10.353   03 Jun 2027 11:29:14.930            64.577            RioGallegos          2018.031
       301   03 Jun 2027 12:00:01.654   03 Jun 2027 12:00:07.540             5.886                Sumatra           183.938
       302   03 Jun 2027 12:00:32.317   03 Jun 2027 12:02:08.243            95.926                Sumatra          2997.687
       303   03 Jun 2027 12:13:58.052   03 Jun 2027 12:14:31.985            33.933                Novosib          1060.406
       304   03 Jun 2027 12:23:28.856   03 Jun 2027 12:23:39.924            11.068                Norilsk           345.875
       305   03 Jun 2027 12:27:34.307   03 Jun 2027 12:27:39.538             5.231                Norilsk           163.469
       306   03 Jun 2027 12:28:11.176   03 Jun 2027 12:28:29.438            18.262                Norilsk           570.688
       307   03 Jun 2027 13:45:56.504   03 Jun 2027 13:48:54.262           177.758                  Delhi          5554.937
       308   03 Jun 2027 13:52:19.617   03 Jun 2027 13:52:51.856            32.239                 Moscow          1007.469
       309   03 Jun 2027 13:53:55.293   03 Jun 2027 13:55:57.512           122.219              Murmansk2          3819.344
       310   03 Jun 2027 13:56:09.819   03 Jun 2027 13:56:47.722            37.903                Novosib          1184.469
       311   03 Jun 2027 13:57:43.351   03 Jun 2027 13:57:48.631             5.280                Norilsk           165.000
       312   03 Jun 2027 13:58:42.645   03 Jun 2027 13:59:09.295            26.650                Norilsk           832.813
       313   03 Jun 2027 13:59:48.123   03 Jun 2027 14:00:02.161            14.038                Norilsk           438.687
       314   03 Jun 2027 14:01:41.708   03 Jun 2027 14:01:44.898             3.190                Norilsk            99.687
       315   03 Jun 2027 14:04:09.185   03 Jun 2027 14:04:47.169            37.984                Norilsk          1187.000
       316   03 Jun 2027 15:06:09.010   03 Jun 2027 15:08:39.409           150.399               CapeTown          4699.969
       317   03 Jun 2027 15:13:03.970   03 Jun 2027 15:13:57.763            53.793               CapeTown          1681.031
       318   03 Jun 2027 15:30:33.898   03 Jun 2027 15:31:16.908            43.010              Murmansk1          1344.062
       319   03 Jun 2027 15:33:35.060   03 Jun 2027 15:34:01.695            26.635              Murmansk1           832.344
       320   03 Jun 2027 15:39:01.348   03 Jun 2027 15:39:20.142            18.794              Murmansk1           587.313
       321   03 Jun 2027 15:45:15.662   03 Jun 2027 15:46:38.153            82.491                Anadyr2          2577.844
       322   03 Jun 2027 15:47:13.322   03 Jun 2027 15:48:18.808            65.486                Anadyr1          2046.438
       323   03 Jun 2027 15:49:06.407   03 Jun 2027 15:49:12.254             5.847                Anadyr2           182.719
       324   03 Jun 2027 16:39:55.173   03 Jun 2027 16:40:27.664            32.491               CapeTown          1015.344
       325   03 Jun 2027 16:44:37.291   03 Jun 2027 16:45:49.238            71.947               CapeTown          2248.344
       326   03 Jun 2027 17:09:18.034   03 Jun 2027 17:09:57.329            39.295              Murmansk1          1227.969
       327   03 Jun 2027 17:10:01.501   03 Jun 2027 17:11:42.681           101.180                 Moscow          3161.875
       328   03 Jun 2027 17:20:34.647   03 Jun 2027 17:22:06.787            92.140                Anadyr2          2879.375
       329   03 Jun 2027 17:24:49.573   03 Jun 2027 17:25:02.689            13.116               Magadan1           409.875
       330   03 Jun 2027 17:25:22.672   03 Jun 2027 17:27:06.875           104.203               Magadan1          3256.344
       331   03 Jun 2027 18:56:27.614   03 Jun 2027 19:00:56.607           268.993                Anadyr2          8406.031
       332   03 Jun 2027 19:00:56.788   03 Jun 2027 19:01:26.201            29.413               Magadan1           919.156
       333   03 Jun 2027 19:01:29.681   03 Jun 2027 19:01:44.306            14.625                Anadyr2           457.031
       334   03 Jun 2027 19:01:50.833   03 Jun 2027 19:02:06.415            15.582               Magadan1           486.938
       335   03 Jun 2027 19:02:15.777   03 Jun 2027 19:02:35.198            19.421               Magadan1           606.906
       336   03 Jun 2027 19:06:45.378   03 Jun 2027 19:07:14.010            28.632               Magadan2           894.750
       337   03 Jun 2027 19:07:52.825   03 Jun 2027 19:08:18.208            25.383               Magadan1           793.219
       338   03 Jun 2027 20:32:21.477   03 Jun 2027 20:34:29.350           127.873                Anadyr2          3996.031
       339   03 Jun 2027 20:34:35.613   03 Jun 2027 20:35:58.726            83.113                Anadyr1          2597.281
       340   03 Jun 2027 20:36:04.852   03 Jun 2027 20:36:05.284             0.432                Anadyr1            13.500
       341   03 Jun 2027 20:36:13.810   03 Jun 2027 20:36:22.389             8.579                Norilsk           268.094
       342   03 Jun 2027 20:36:33.733   03 Jun 2027 20:38:54.470           140.737                Norilsk          4398.031
       343   03 Jun 2027 20:41:22.388   03 Jun 2027 20:41:33.025            10.637               Magadan1           332.406
       344   03 Jun 2027 20:41:47.821   03 Jun 2027 20:43:22.731            94.910                Irkutsk          2965.937
       345   03 Jun 2027 20:43:56.690   03 Jun 2027 20:44:11.979            15.289                Irkutsk           477.781
       346   03 Jun 2027 21:26:39.494   03 Jun 2027 21:27:57.449            77.955            RioGallegos          2436.094
       347   03 Jun 2027 21:28:26.622   03 Jun 2027 21:29:15.815            49.193            RioGallegos          1537.281
       348   03 Jun 2027 21:36:07.608   03 Jun 2027 21:36:21.204            13.596            RioGallegos           424.875
       349   03 Jun 2027 22:10:01.970   03 Jun 2027 22:10:31.206            29.236                Anadyr1           913.625
       350   03 Jun 2027 22:10:41.983   03 Jun 2027 22:10:49.933             7.950                Norilsk           248.438
       351   03 Jun 2027 22:10:55.903   03 Jun 2027 22:12:10.688            74.785                Norilsk          2337.031
       352   03 Jun 2027 22:12:20.245   03 Jun 2027 22:12:52.364            32.119               Magadan1          1003.719
       353   03 Jun 2027 22:13:03.069   03 Jun 2027 22:14:07.354            64.285               Magadan1          2008.906
       354   03 Jun 2027 22:15:00.162   03 Jun 2027 22:16:38.884            98.722                Irkutsk          3085.062
       355   03 Jun 2027 22:17:59.992   03 Jun 2027 22:18:26.594            26.602                Novosib           831.313
       356   03 Jun 2027 22:21:53.599   03 Jun 2027 22:22:38.708            45.109                Novosib          1409.656
       357   03 Jun 2027 22:27:59.734   03 Jun 2027 22:28:42.533            42.799                Sumatra          1337.469
       358   03 Jun 2027 22:38:02.546   03 Jun 2027 22:38:36.345            33.799                Sumatra          1056.219
       359   03 Jun 2027 23:42:30.118   03 Jun 2027 23:44:24.151           114.033                Anadyr1          3563.531
       360   03 Jun 2027 23:44:38.475   03 Jun 2027 23:44:49.848            11.373                Anadyr2           355.406
       361   03 Jun 2027 23:45:13.246   03 Jun 2027 23:45:29.376            16.130                Anadyr2           504.063
       362   03 Jun 2027 23:46:10.376   03 Jun 2027 23:46:31.239            20.863                Norilsk           651.969
       363   03 Jun 2027 23:46:48.921   03 Jun 2027 23:47:53.431            64.510               Magadan1          2015.937
       364   03 Jun 2027 23:47:53.431   03 Jun 2027 23:48:01.127             7.696               Magadan2           240.500
       365   03 Jun 2027 23:49:30.726   03 Jun 2027 23:49:43.822            13.096                Norilsk           409.250
       366   03 Jun 2027 23:49:47.275   03 Jun 2027 23:50:15.944            28.669               Magadan1           895.906
       367   03 Jun 2027 23:50:28.892   03 Jun 2027 23:50:53.002            24.110                Irkutsk           753.437
       368   03 Jun 2027 23:50:57.305   03 Jun 2027 23:52:31.463            94.158                Novosib          2942.437
       369   03 Jun 2027 23:57:43.467   03 Jun 2027 23:59:15.821            92.354                  Delhi          2886.063
       370   04 Jun 2027 00:38:37.426   04 Jun 2027 00:39:06.621            29.195            RioGallegos           912.344
       371   04 Jun 2027 00:41:39.640   04 Jun 2027 00:42:12.515            32.875            RioGallegos          1027.344
       372   04 Jun 2027 00:47:57.747   04 Jun 2027 00:47:59.397             1.650            RioGallegos            51.563
       373   04 Jun 2027 00:48:12.244   04 Jun 2027 00:48:17.130             4.886            RioGallegos           152.687
       374   04 Jun 2027 01:15:57.633   04 Jun 2027 01:16:19.853            22.220                Anadyr1           694.375
       375   04 Jun 2027 01:16:58.193   04 Jun 2027 01:17:38.744            40.551                Anadyr2          1267.219
       376   04 Jun 2027 01:18:08.517   04 Jun 2027 01:18:30.292            21.775                Anadyr1           680.469
       377   04 Jun 2027 01:18:42.827   04 Jun 2027 01:19:07.311            24.484                Anadyr1           765.125
       378   04 Jun 2027 01:21:08.715   04 Jun 2027 01:21:34.700            25.985                Anadyr1           812.031
       379   04 Jun 2027 01:22:06.509   04 Jun 2027 01:24:03.645           117.136               Magadan1          3660.500
       380   04 Jun 2027 01:24:27.956   04 Jun 2027 01:24:47.867            19.911              Murmansk1           622.219
       381   04 Jun 2027 01:25:55.888   04 Jun 2027 01:26:18.014            22.126              Murmansk1           691.438
       382   04 Jun 2027 01:26:20.231   04 Jun 2027 01:27:46.799            86.568                Novosib          2705.250
       383   04 Jun 2027 01:29:24.275   04 Jun 2027 01:29:37.883            13.608                 Moscow           425.250
       384   04 Jun 2027 01:30:17.876   04 Jun 2027 01:30:57.932            40.056                 Moscow          1251.750
       385   04 Jun 2027 01:35:21.144   04 Jun 2027 01:35:33.094            11.950                  Delhi           373.437
       386   04 Jun 2027 01:37:57.058   04 Jun 2027 01:38:32.678            35.620                  Delhi          1113.125
       387   04 Jun 2027 01:41:31.854   04 Jun 2027 01:41:55.152            23.298                  Delhi           728.063
       388   04 Jun 2027 02:49:26.576   04 Jun 2027 02:52:38.529           191.953                Anadyr2          5998.531
       389   04 Jun 2027 02:53:48.670   04 Jun 2027 02:53:59.480            10.810                Anadyr1           337.812
       390   04 Jun 2027 02:54:16.441   04 Jun 2027 02:54:44.476            28.035               Magadan2           876.094
       391   04 Jun 2027 02:54:57.517   04 Jun 2027 02:55:13.174            15.657               Magadan2           489.281
       392   04 Jun 2027 02:57:54.680   04 Jun 2027 02:58:27.588            32.908                Norilsk          1028.375
       393   04 Jun 2027 03:06:36.363   04 Jun 2027 03:08:14.932            98.569                Norilsk          3080.281
       394   04 Jun 2027 03:08:34.056   04 Jun 2027 03:08:51.666            17.610                 Moscow           550.312
       395   04 Jun 2027 03:08:52.359   04 Jun 2027 03:09:43.071            50.712              Murmansk2          1584.750
       396   04 Jun 2027 03:09:43.237   04 Jun 2027 03:09:56.378            13.141                Novosib           410.656
       397   04 Jun 2027 03:10:19.452   04 Jun 2027 03:11:38.780            79.328              Murmansk1          2479.000
       398   04 Jun 2027 03:11:57.886   04 Jun 2027 03:12:33.419            35.533              Murmansk2          1110.406
       399   04 Jun 2027 03:13:09.493   04 Jun 2027 03:13:49.585            40.092                 Moscow          1252.875
       400   04 Jun 2027 03:27:43.929   04 Jun 2027 03:31:12.043           208.114               CapeTown          6503.562
       401   04 Jun 2027 04:24:09.684   04 Jun 2027 04:27:56.380           226.696                Anadyr1          7084.250
       402   04 Jun 2027 04:27:56.801   04 Jun 2027 04:29:13.881            77.080                Anadyr2          2408.750
       403   04 Jun 2027 04:31:11.700   04 Jun 2027 04:31:59.976            48.276                Anadyr2          1508.625
       404   04 Jun 2027 04:32:45.968   04 Jun 2027 04:33:33.219            47.251               Magadan2          1476.594
       405   04 Jun 2027 06:06:53.544   04 Jun 2027 06:08:53.138           119.594               Magadan2          3737.312
       406   04 Jun 2027 06:08:54.239   04 Jun 2027 06:10:05.999            71.760               Magadan2          2242.500
       407   04 Jun 2027 07:40:16.979   04 Jun 2027 07:40:58.424            41.445                Anadyr2          1295.156
       408   04 Jun 2027 07:41:02.480   04 Jun 2027 07:41:07.815             5.335               Magadan1           166.719
       409   04 Jun 2027 07:41:15.777   04 Jun 2027 07:41:32.145            16.368                Anadyr2           511.500
       410   04 Jun 2027 07:41:43.764   04 Jun 2027 07:42:38.132            54.368               Magadan1          1699.000
       411   04 Jun 2027 07:42:51.769   04 Jun 2027 07:43:11.231            19.462               Magadan2           608.187
       412   04 Jun 2027 07:43:30.188   04 Jun 2027 07:44:50.765            80.577               Magadan1          2518.031
       413   04 Jun 2027 07:45:02.124   04 Jun 2027 07:45:27.112            24.988               Magadan2           780.875
       414   04 Jun 2027 07:45:55.412   04 Jun 2027 07:46:08.557            13.145               Magadan1           410.781
       415   04 Jun 2027 07:46:14.699   04 Jun 2027 07:46:58.624            43.925               Magadan2          1372.656
       416   04 Jun 2027 07:47:47.600   04 Jun 2027 07:48:14.208            26.608                Anadyr2           831.500
       417   04 Jun 2027 08:24:01.379   04 Jun 2027 08:24:22.123            20.744            RioGallegos           648.250
       418   04 Jun 2027 08:26:29.652   04 Jun 2027 08:26:40.113            10.461            RioGallegos           326.906
       419   04 Jun 2027 08:27:48.093   04 Jun 2027 08:28:18.345            30.252            RioGallegos           945.375
       420   04 Jun 2027 09:17:45.646   04 Jun 2027 09:19:04.673            79.027               Magadan1          2469.594
       421   04 Jun 2027 09:19:14.335   04 Jun 2027 09:20:00.783            46.448                Irkutsk          1451.500
       422   04 Jun 2027 09:20:10.044   04 Jun 2027 09:20:27.013            16.969               Magadan2           530.281
       423   04 Jun 2027 09:21:40.474   04 Jun 2027 09:22:10.962            30.488                Irkutsk           952.750
       424   04 Jun 2027 09:22:25.917   04 Jun 2027 09:23:21.277            55.360                Irkutsk          1730.000
       425   04 Jun 2027 09:23:25.186   04 Jun 2027 09:23:44.124            18.938                Irkutsk           591.813
       426   04 Jun 2027 09:23:52.031   04 Jun 2027 09:24:41.085            49.054                Novosib          1532.937
       427   04 Jun 2027 09:59:29.587   04 Jun 2027 09:59:57.381            27.794            RioGallegos           868.562
       428   04 Jun 2027 10:33:57.070   04 Jun 2027 10:35:22.097            85.027                Sumatra          2657.094
       429   04 Jun 2027 10:47:19.819   04 Jun 2027 10:47:52.909            33.090                  Delhi          1034.063
       430   04 Jun 2027 10:56:14.775   04 Jun 2027 10:56:46.192            31.417                Novosib           981.781
       431   04 Jun 2027 10:57:25.233   04 Jun 2027 10:57:51.981            26.748                Novosib           835.875
       432   04 Jun 2027 10:58:03.564   04 Jun 2027 10:58:17.439            13.875                Novosib           433.594
       433   04 Jun 2027 10:58:21.022   04 Jun 2027 10:58:37.199            16.177                Novosib           505.531
       434   04 Jun 2027 10:58:40.679   04 Jun 2027 10:59:09.453            28.774                Irkutsk           899.188
       435   04 Jun 2027 10:59:16.699   04 Jun 2027 10:59:31.061            14.362                Norilsk           448.813
       436   04 Jun 2027 10:59:42.513   04 Jun 2027 10:59:52.743            10.230                Novosib           319.688
       437   04 Jun 2027 10:59:53.899   04 Jun 2027 11:00:16.355            22.456                Norilsk           701.750
       438   04 Jun 2027 11:38:29.787   04 Jun 2027 11:39:04.956            35.169            RioGallegos          1099.031
       439   04 Jun 2027 11:39:57.251   04 Jun 2027 11:40:16.543            19.292            RioGallegos           602.875
       440   04 Jun 2027 11:42:22.090   04 Jun 2027 11:43:06.938            44.848            RioGallegos          1401.500
       441   04 Jun 2027 12:13:27.008   04 Jun 2027 12:14:02.767            35.759                Sumatra          1117.469
       442   04 Jun 2027 12:21:02.509   04 Jun 2027 12:21:17.562            15.053                  Delhi           470.406
       443   04 Jun 2027 12:25:44.802   04 Jun 2027 12:26:34.206            49.404                Novosib          1543.875
       444   04 Jun 2027 12:28:00.635   04 Jun 2027 12:28:27.486            26.851                Novosib           839.094
       445   04 Jun 2027 12:29:28.554   04 Jun 2027 12:29:29.323             0.769                Irkutsk            24.031
       446   04 Jun 2027 12:29:48.823   04 Jun 2027 12:30:13.552            24.729                Norilsk           772.781
       447   04 Jun 2027 12:33:34.262   04 Jun 2027 12:33:46.578            12.316                Norilsk           384.875
       448   04 Jun 2027 12:33:49.519   04 Jun 2027 12:34:23.478            33.959                Norilsk          1061.219
       449   04 Jun 2027 12:39:18.837   04 Jun 2027 12:39:36.579            17.742                Norilsk           554.437
       450   04 Jun 2027 14:02:33.478   04 Jun 2027 14:06:18.803           225.325                 Moscow          7041.406
       451   04 Jun 2027 14:06:20.628   04 Jun 2027 14:08:11.452           110.824              Murmansk1          3463.250
       452   04 Jun 2027 14:08:27.649   04 Jun 2027 14:09:17.993            50.344              Murmansk2          1573.250
       453   04 Jun 2027 14:09:25.193   04 Jun 2027 14:10:52.854            87.661                Norilsk          2739.406
       454   04 Jun 2027 15:17:30.789   04 Jun 2027 15:20:22.193           171.404               CapeTown          5356.375
       455   04 Jun 2027 15:40:06.148   04 Jun 2027 15:40:41.661            35.513                 Moscow          1109.781
       456   04 Jun 2027 15:43:17.714   04 Jun 2027 15:45:13.741           116.027              Murmansk2          3625.844
       457   04 Jun 2027 15:57:07.513   04 Jun 2027 15:58:37.763            90.250                Anadyr1          2820.313
       458   04 Jun 2027 16:00:15.223   04 Jun 2027 16:00:19.832             4.609                Anadyr2           144.031
       459   04 Jun 2027 16:00:36.887   04 Jun 2027 16:00:40.178             3.291                Anadyr2           102.844
       460   04 Jun 2027 16:01:07.619   04 Jun 2027 16:01:13.579             5.960                Anadyr1           186.250
       461   04 Jun 2027 16:51:57.679   04 Jun 2027 16:54:15.291           137.612               CapeTown          4300.375
       462   04 Jun 2027 17:21:52.183   04 Jun 2027 17:22:58.040            65.857              Murmansk1          2058.031
       463   04 Jun 2027 17:24:40.913   04 Jun 2027 17:25:23.889            42.976              Murmansk1          1343.000
       464   04 Jun 2027 17:32:34.984   04 Jun 2027 17:32:58.162            23.178                Anadyr2           724.312
       465   04 Jun 2027 17:33:31.443   04 Jun 2027 17:33:49.380            17.937                Anadyr1           560.531
       466   04 Jun 2027 17:33:51.715   04 Jun 2027 17:34:29.862            38.147                Anadyr2          1192.094
       467   04 Jun 2027 17:36:07.670   04 Jun 2027 17:36:12.446             4.776                Anadyr1           149.250
       468   04 Jun 2027 17:36:17.795   04 Jun 2027 17:37:18.909            61.114               Magadan2          1909.813
       469   04 Jun 2027 17:38:18.717   04 Jun 2027 17:39:22.223            63.506               Magadan2          1984.562
       470   04 Jun 2027 19:08:29.198   04 Jun 2027 19:10:23.730           114.532                Anadyr2          3579.125
       471   04 Jun 2027 19:10:26.325   04 Jun 2027 19:12:16.597           110.272                Anadyr1          3446.000
       472   04 Jun 2027 19:12:34.202   04 Jun 2027 19:13:51.175            76.973                Anadyr2          2405.406
       473   04 Jun 2027 19:13:56.663   04 Jun 2027 19:14:41.487            44.824               Magadan1          1400.750
       474   04 Jun 2027 19:17:06.709   04 Jun 2027 19:17:22.636            15.927               Magadan1           497.719
       475   04 Jun 2027 19:18:36.812   04 Jun 2027 19:18:44.936             8.124               Magadan2           253.875
       476   04 Jun 2027 19:19:24.259   04 Jun 2027 19:19:46.238            21.979               Magadan2           686.844
       477   04 Jun 2027 20:44:21.781   04 Jun 2027 20:46:30.710           128.929                Anadyr2          4029.031
       478   04 Jun 2027 20:46:33.277   04 Jun 2027 20:48:32.877           119.600                Anadyr1          3737.500
       479   04 Jun 2027 20:48:43.206   04 Jun 2027 20:50:56.361           133.155                Norilsk          4161.094
       480   04 Jun 2027 20:52:13.882   04 Jun 2027 20:52:46.761            32.879                Norilsk          1027.469
       481   04 Jun 2027 20:53:53.006   04 Jun 2027 20:55:01.945            68.939                Irkutsk          2154.344
       482   04 Jun 2027 20:55:09.407   04 Jun 2027 20:55:35.150            25.743                Irkutsk           804.469
