uniorb/output/strategy_4/Drop/Drop_KinoSat_111206.txt

KinoSat_111206
-------------------------
    Access    *     Start Time (UTCG)     *     Stop Time (UTCG)  *   Duration (s)        *       Station  *  Data (Mbytes)
         1   01 Jun 2027 03:24:25.654   01 Jun 2027 03:24:58.820            33.166                Norilsk          1036.437
         2   01 Jun 2027 03:25:08.315   01 Jun 2027 03:25:57.846            49.531              Murmansk2          1547.844
         3   01 Jun 2027 03:25:57.846   01 Jun 2027 03:26:23.589            25.743              Murmansk1           804.469
         4   01 Jun 2027 03:26:41.913   01 Jun 2027 03:30:16.614           214.701                 Moscow          6709.406
         5   01 Jun 2027 03:43:06.008   01 Jun 2027 03:45:36.524           150.516               CapeTown          4703.625
         6   01 Jun 2027 04:46:11.351   01 Jun 2027 04:47:18.040            66.689               Magadan2          2084.031
         7   01 Jun 2027 04:47:18.315   01 Jun 2027 04:50:35.429           197.114                Anadyr2          6159.812
         8   01 Jun 2027 06:23:45.434   01 Jun 2027 06:24:14.210            28.776               Magadan2           899.250
         9   01 Jun 2027 06:24:33.069   01 Jun 2027 06:24:43.372            10.303               Magadan2           321.969
        10   01 Jun 2027 06:24:43.372   01 Jun 2027 06:27:07.214           143.842               Magadan1          4495.062
        11   01 Jun 2027 07:58:00.238   01 Jun 2027 07:58:04.778             4.540               Magadan1           141.875
        12   01 Jun 2027 07:58:04.778   01 Jun 2027 08:00:50.923           166.145               Magadan2          5192.031
        13   01 Jun 2027 08:00:50.923   01 Jun 2027 08:02:33.635           102.712               Magadan1          3209.750
        14   01 Jun 2027 08:02:35.732   01 Jun 2027 08:02:45.864            10.132               Magadan2           316.625
        15   01 Jun 2027 08:03:14.188   01 Jun 2027 08:04:00.126            45.938              Murmansk1          1435.562
        16   01 Jun 2027 08:04:43.996   01 Jun 2027 08:05:28.973            44.977              Murmansk1          1405.531
        17   01 Jun 2027 08:06:38.852   01 Jun 2027 08:07:08.848            29.996              Murmansk1           937.375
        18   01 Jun 2027 08:08:23.542   01 Jun 2027 08:08:28.407             4.865              Murmansk1           152.031
        19   01 Jun 2027 08:09:11.290   01 Jun 2027 08:09:57.053            45.763              Murmansk2          1430.094
        20   01 Jun 2027 08:38:55.801   01 Jun 2027 08:39:45.593            49.792            RioGallegos          1556.000
        21   01 Jun 2027 08:40:55.243   01 Jun 2027 08:41:27.661            32.418            RioGallegos          1013.062
        22   01 Jun 2027 09:15:17.065   01 Jun 2027 09:15:53.839            36.774                Sumatra          1149.188
        23   01 Jun 2027 09:36:10.707   01 Jun 2027 09:36:33.332            22.625                Novosib           707.031
        24   01 Jun 2027 09:36:47.259   01 Jun 2027 09:40:05.194           197.935                Irkutsk          6185.469
        25   01 Jun 2027 09:40:14.892   01 Jun 2027 09:40:28.983            14.091                Novosib           440.344
        26   01 Jun 2027 09:42:20.427   01 Jun 2027 09:43:10.631            50.204              Murmansk1          1568.875
        27   01 Jun 2027 10:15:33.634   01 Jun 2027 10:16:06.960            33.326            RioGallegos          1041.438
        28   01 Jun 2027 10:18:59.425   01 Jun 2027 10:19:41.189            41.764            RioGallegos          1305.125
        29   01 Jun 2027 10:20:00.258   01 Jun 2027 10:20:32.290            32.032            RioGallegos          1001.000
        30   01 Jun 2027 10:21:57.898   01 Jun 2027 10:22:05.173             7.275            RioGallegos           227.344
        31   01 Jun 2027 10:23:51.024   01 Jun 2027 10:24:12.097            21.073            RioGallegos           658.531
        32   01 Jun 2027 10:49:52.530   01 Jun 2027 10:50:46.368            53.838                Sumatra          1682.438
        33   01 Jun 2027 10:52:25.150   01 Jun 2027 10:53:56.561            91.411                Sumatra          2856.594
        34   01 Jun 2027 11:10:20.446   01 Jun 2027 11:10:26.696             6.250                  Delhi           195.313
        35   01 Jun 2027 11:12:28.626   01 Jun 2027 11:13:00.597            31.971                Irkutsk           999.094
        36   01 Jun 2027 11:13:11.264   01 Jun 2027 11:15:17.261           125.997                Irkutsk          3937.406
        37   01 Jun 2027 12:34:37.914   01 Jun 2027 12:36:17.595            99.681                  Delhi          3115.031
        38   01 Jun 2027 12:39:41.153   01 Jun 2027 12:40:08.320            27.167                  Delhi           848.969
        39   01 Jun 2027 12:42:55.668   01 Jun 2027 12:44:37.495           101.827                  Delhi          3182.094
        40   01 Jun 2027 12:44:46.170   01 Jun 2027 12:48:02.543           196.373                Novosib          6136.656
        41   01 Jun 2027 12:49:09.112   01 Jun 2027 12:49:26.242            17.130                Norilsk           535.312
        42   01 Jun 2027 12:49:37.143   01 Jun 2027 12:49:38.660             1.517                Norilsk            47.406
        43   01 Jun 2027 12:51:11.050   01 Jun 2027 12:51:30.373            19.323                Norilsk           603.844
        44   01 Jun 2027 14:18:16.426   01 Jun 2027 14:21:46.472           210.046                 Moscow          6563.937
        45   01 Jun 2027 14:21:47.946   01 Jun 2027 14:24:59.964           192.018              Murmansk1          6000.563
        46   01 Jun 2027 14:27:45.611   01 Jun 2027 14:29:30.512           104.901                Norilsk          3278.156
        47   01 Jun 2027 14:38:29.794   01 Jun 2027 14:38:51.707            21.913                Anadyr1           684.781
        48   01 Jun 2027 14:39:12.101   01 Jun 2027 14:39:37.621            25.520                Anadyr1           797.500
        49   01 Jun 2027 14:40:35.631   01 Jun 2027 14:41:08.313            32.682                Anadyr1          1021.312
        50   01 Jun 2027 15:32:02.232   01 Jun 2027 15:33:03.637            61.405               CapeTown          1918.906
        51   01 Jun 2027 15:56:58.303   01 Jun 2027 15:57:48.873            50.570                 Moscow          1580.313
        52   01 Jun 2027 15:59:30.801   01 Jun 2027 15:59:36.158             5.357              Murmansk2           167.406
        53   01 Jun 2027 15:59:57.385   01 Jun 2027 16:00:57.084            59.699              Murmansk1          1865.594
        54   01 Jun 2027 16:01:33.570   01 Jun 2027 16:01:48.654            15.084                 Moscow           471.375
        55   01 Jun 2027 16:03:00.103   01 Jun 2027 16:03:13.723            13.620              Murmansk2           425.625
        56   01 Jun 2027 16:03:43.545   01 Jun 2027 16:04:44.922            61.377              Murmansk2          1918.031
        57   01 Jun 2027 16:12:29.756   01 Jun 2027 16:14:55.711           145.955                Anadyr2          4561.094
        58   01 Jun 2027 17:08:03.553   01 Jun 2027 17:09:38.606            95.053               CapeTown          2970.406
        59   01 Jun 2027 17:12:33.684   01 Jun 2027 17:12:41.506             7.822               CapeTown           244.437
        60   01 Jun 2027 17:39:51.756   01 Jun 2027 17:44:51.059           299.303              Murmansk1          9353.219
        61   01 Jun 2027 17:48:41.146   01 Jun 2027 17:48:43.615             2.469                Anadyr1            77.156
        62   01 Jun 2027 17:48:57.600   01 Jun 2027 17:49:00.478             2.878                Anadyr1            89.938
        63   01 Jun 2027 17:49:51.696   01 Jun 2027 17:50:19.008            27.312                Anadyr2           853.500
        64   01 Jun 2027 17:51:04.982   01 Jun 2027 17:52:50.920           105.938               Magadan1          3310.562
        65   01 Jun 2027 17:53:06.345   01 Jun 2027 17:54:17.916            71.571               Magadan1          2236.594
        66   01 Jun 2027 19:24:10.028   01 Jun 2027 19:26:12.698           122.670                Anadyr2          3833.437
        67   01 Jun 2027 19:26:27.138   01 Jun 2027 19:30:17.511           230.373               Magadan2          7199.156
        68   01 Jun 2027 19:31:07.256   01 Jun 2027 19:31:14.966             7.710               Magadan1           240.937
        69   01 Jun 2027 19:31:32.604   01 Jun 2027 19:31:45.226            12.622               Magadan1           394.438
        70   01 Jun 2027 19:33:37.863   01 Jun 2027 19:34:05.032            27.169               Magadan2           849.031
        71   01 Jun 2027 20:19:28.535   01 Jun 2027 20:22:30.294           181.759            RioGallegos          5679.969
        72   01 Jun 2027 20:25:58.854   01 Jun 2027 20:26:20.659            21.805            RioGallegos           681.406
        73   01 Jun 2027 20:59:55.514   01 Jun 2027 21:02:06.197           130.683                Anadyr1          4083.844
        74   01 Jun 2027 21:02:25.295   01 Jun 2027 21:04:43.088           137.793               Magadan1          4306.031
        75   01 Jun 2027 21:05:01.003   01 Jun 2027 21:05:04.351             3.348               Magadan1           104.625
        76   01 Jun 2027 21:05:08.043   01 Jun 2027 21:05:15.956             7.913               Magadan1           247.281
        77   01 Jun 2027 21:05:21.638   01 Jun 2027 21:05:48.330            26.692                Norilsk           834.125
        78   01 Jun 2027 21:06:39.121   01 Jun 2027 21:08:01.639            82.518                Irkutsk          2578.688
        79   01 Jun 2027 21:09:37.125   01 Jun 2027 21:10:02.956            25.831                Irkutsk           807.219
        80   01 Jun 2027 21:20:58.846   01 Jun 2027 21:23:49.272           170.426                Sumatra          5325.812
        81   01 Jun 2027 21:27:05.641   01 Jun 2027 21:27:25.367            19.726                Sumatra           616.438
        82   01 Jun 2027 22:35:01.904   01 Jun 2027 22:35:43.295            41.391                Anadyr2          1293.469
        83   01 Jun 2027 22:35:57.048   01 Jun 2027 22:36:48.122            51.074                Anadyr2          1596.063
        84   01 Jun 2027 22:37:29.625   01 Jun 2027 22:37:37.023             7.398                Anadyr2           231.188
        85   01 Jun 2027 22:37:59.123   01 Jun 2027 22:39:07.292            68.169                Norilsk          2130.281
        86   01 Jun 2027 22:39:30.001   01 Jun 2027 22:39:45.113            15.112               Magadan1           472.250
        87   01 Jun 2027 22:40:00.804   01 Jun 2027 22:40:10.361             9.557               Magadan2           298.656
        88   01 Jun 2027 22:40:29.847   01 Jun 2027 22:40:39.282             9.435               Magadan1           294.844
        89   01 Jun 2027 22:41:47.392   01 Jun 2027 22:42:07.105            19.713                Irkutsk           616.031
        90   01 Jun 2027 22:42:14.656   01 Jun 2027 22:42:58.228            43.572                Novosib          1361.625
        91   01 Jun 2027 22:43:17.632   01 Jun 2027 22:43:55.078            37.446                Novosib          1170.187
        92   01 Jun 2027 22:47:53.954   01 Jun 2027 22:48:20.303            26.349                Novosib           823.406
        93   01 Jun 2027 22:51:02.685   01 Jun 2027 22:53:39.360           156.675                  Delhi          4896.094
        94   01 Jun 2027 22:56:29.436   01 Jun 2027 22:56:59.597            30.161                  Delhi           942.531
        95   02 Jun 2027 00:08:56.019   02 Jun 2027 00:08:57.546             1.527                Anadyr1            47.719
        96   02 Jun 2027 00:09:03.995   02 Jun 2027 00:09:40.239            36.244                Anadyr2          1132.625
        97   02 Jun 2027 00:10:14.715   02 Jun 2027 00:11:13.840            59.125                Anadyr2          1847.656
        98   02 Jun 2027 00:11:27.268   02 Jun 2027 00:11:36.557             9.289                Anadyr2           290.281
        99   02 Jun 2027 00:13:22.260   02 Jun 2027 00:13:40.449            18.189                Anadyr1           568.406
       100   02 Jun 2027 00:13:55.303   02 Jun 2027 00:15:54.017           118.714                Norilsk          3709.813
       101   02 Jun 2027 00:16:34.330   02 Jun 2027 00:19:18.502           164.172              Murmansk2          5130.375
       102   02 Jun 2027 00:20:20.237   02 Jun 2027 00:21:16.138            55.901              Murmansk2          1746.906
       103   02 Jun 2027 00:21:16.138   02 Jun 2027 00:22:41.847            85.709              Murmansk1          2678.406
       104   02 Jun 2027 01:10:05.851   02 Jun 2027 01:10:57.990            52.139            RioGallegos          1629.344
       105   02 Jun 2027 01:42:13.357   02 Jun 2027 01:42:37.508            24.151                Anadyr2           754.719
       106   02 Jun 2027 01:42:37.711   02 Jun 2027 01:43:14.421            36.710                Anadyr1          1147.188
       107   02 Jun 2027 01:43:29.316   02 Jun 2027 01:44:08.620            39.304                Anadyr1          1228.250
       108   02 Jun 2027 01:45:04.397   02 Jun 2027 01:45:09.972             5.575                Anadyr2           174.219
       109   02 Jun 2027 01:47:14.492   02 Jun 2027 01:47:42.173            27.681                Anadyr2           865.031
       110   02 Jun 2027 01:48:01.008   02 Jun 2027 01:48:30.865            29.857               Magadan2           933.031
       111   02 Jun 2027 01:48:50.504   02 Jun 2027 01:49:04.957            14.453               Magadan1           451.656
       112   02 Jun 2027 01:49:38.153   02 Jun 2027 01:50:04.872            26.719               Magadan2           834.969
       113   02 Jun 2027 01:50:27.776   02 Jun 2027 01:50:29.837             2.061               Magadan1            64.406
       114   02 Jun 2027 01:51:25.032   02 Jun 2027 01:51:37.703            12.671                Norilsk           395.969
       115   02 Jun 2027 01:51:53.358   02 Jun 2027 01:52:05.747            12.389                Norilsk           387.156
       116   02 Jun 2027 01:52:51.983   02 Jun 2027 01:52:55.473             3.490              Murmansk1           109.063
       117   02 Jun 2027 01:53:22.181   02 Jun 2027 01:55:00.382            98.201              Murmansk2          3068.781
       118   02 Jun 2027 01:55:10.667   02 Jun 2027 01:55:50.258            39.591                Novosib          1237.219
       119   02 Jun 2027 01:57:41.650   02 Jun 2027 01:58:09.543            27.893                Irkutsk           871.656
       120   02 Jun 2027 02:02:04.089   02 Jun 2027 02:02:06.755             2.666                Novosib            83.313
       121   02 Jun 2027 02:03:04.410   02 Jun 2027 02:03:32.264            27.854                Novosib           870.437
       122   02 Jun 2027 02:06:14.463   02 Jun 2027 02:06:59.964            45.501                 Moscow          1421.906
       123   02 Jun 2027 02:24:32.512   02 Jun 2027 02:24:37.994             5.482               CapeTown           171.313
       124   02 Jun 2027 02:27:00.330   02 Jun 2027 02:27:23.778            23.448               CapeTown           732.750
       125   02 Jun 2027 02:28:19.220   02 Jun 2027 02:29:20.763            61.543               CapeTown          1923.219
       126   02 Jun 2027 03:36:49.357   02 Jun 2027 03:38:42.152           112.795              Murmansk1          3524.844
       127   02 Jun 2027 03:38:42.152   02 Jun 2027 03:39:07.362            25.210              Murmansk2           787.813
       128   02 Jun 2027 04:58:40.536   02 Jun 2027 04:59:07.728            27.192                Anadyr2           849.750
       129   02 Jun 2027 04:59:19.741   02 Jun 2027 05:02:51.565           211.824                Anadyr2          6619.500
       130   02 Jun 2027 05:03:19.034   02 Jun 2027 05:03:28.564             9.530                Anadyr2           297.813
       131   02 Jun 2027 05:03:48.965   02 Jun 2027 05:04:17.342            28.377               Magadan2           886.781
       132   02 Jun 2027 06:37:34.687   02 Jun 2027 06:39:46.857           132.170                Anadyr2          4130.313
       133   02 Jun 2027 06:39:50.262   02 Jun 2027 06:40:23.772            33.510               Magadan2          1047.188
       134   02 Jun 2027 08:12:45.944   02 Jun 2027 08:13:10.532            24.588                Irkutsk           768.375
       135   02 Jun 2027 08:13:23.630   02 Jun 2027 08:15:52.761           149.131               Magadan1          4660.344
       136   02 Jun 2027 09:47:24.250   02 Jun 2027 09:47:31.241             6.991                Irkutsk           218.469
       137   02 Jun 2027 09:47:44.515   02 Jun 2027 09:47:46.564             2.049                Irkutsk            64.031
       138   02 Jun 2027 09:47:51.510   02 Jun 2027 09:48:02.237            10.727                Novosib           335.219
       139   02 Jun 2027 09:48:16.185   02 Jun 2027 09:48:29.399            13.214                Novosib           412.937
       140   02 Jun 2027 09:48:30.938   02 Jun 2027 09:49:12.147            41.209                Novosib          1287.781
       141   02 Jun 2027 09:49:32.229   02 Jun 2027 09:49:39.352             7.123                Norilsk           222.594
       142   02 Jun 2027 09:50:11.781   02 Jun 2027 09:50:56.592            44.811                Novosib          1400.344
       143   02 Jun 2027 09:51:01.740   02 Jun 2027 09:51:13.210            11.470                Irkutsk           358.437
       144   02 Jun 2027 09:51:18.920   02 Jun 2027 09:51:23.568             4.648                Norilsk           145.250
       145   02 Jun 2027 09:51:35.992   02 Jun 2027 09:51:48.783            12.791                Novosib           399.719
       146   02 Jun 2027 09:51:58.413   02 Jun 2027 09:52:05.741             7.328                Irkutsk           229.000
       147   02 Jun 2027 10:27:58.406   02 Jun 2027 10:28:55.019            56.613            RioGallegos          1769.156
       148   02 Jun 2027 11:02:12.320   02 Jun 2027 11:03:40.342            88.022                Sumatra          2750.687
       149   02 Jun 2027 11:23:47.427   02 Jun 2027 11:24:33.281            45.854                Irkutsk          1432.938
       150   02 Jun 2027 11:24:36.876   02 Jun 2027 11:25:08.564            31.688                Irkutsk           990.250
       151   02 Jun 2027 11:25:44.913   02 Jun 2027 11:25:47.788             2.875                Novosib            89.844
       152   02 Jun 2027 11:26:13.895   02 Jun 2027 11:26:20.736             6.841                Norilsk           213.781
       153   02 Jun 2027 11:26:28.886   02 Jun 2027 11:27:01.515            32.629                Novosib          1019.656
       154   02 Jun 2027 11:27:22.847   02 Jun 2027 11:27:29.027             6.180                Novosib           193.125
       155   02 Jun 2027 11:27:32.766   02 Jun 2027 11:27:57.893            25.127                Norilsk           785.219
       156   02 Jun 2027 12:47:10.534   02 Jun 2027 12:50:16.972           186.438                  Delhi          5826.188
       157   02 Jun 2027 12:55:19.475   02 Jun 2027 12:55:32.403            12.928                 Moscow           404.000
       158   02 Jun 2027 12:55:36.751   02 Jun 2027 12:56:18.693            41.942                Novosib          1310.687
       159   02 Jun 2027 12:57:50.774   02 Jun 2027 12:59:30.873           100.099              Murmansk2          3128.094
       160   02 Jun 2027 12:59:30.873   02 Jun 2027 12:59:34.294             3.421              Murmansk1           106.906
       161   02 Jun 2027 12:59:45.200   02 Jun 2027 13:00:48.283            63.083                Norilsk          1971.344
       162   02 Jun 2027 14:30:25.097   02 Jun 2027 14:32:16.984           111.887                 Moscow          3496.469
       163   02 Jun 2027 14:33:56.171   02 Jun 2027 14:37:55.070           238.899              Murmansk2          7465.594
       164   02 Jun 2027 14:40:55.158   02 Jun 2027 14:41:32.630            37.472                Norilsk          1171.000
       165   02 Jun 2027 14:43:10.713   02 Jun 2027 14:43:44.967            34.254                Norilsk          1070.438
       166   02 Jun 2027 14:49:50.125   02 Jun 2027 14:50:44.714            54.589                Anadyr2          1705.906
       167   02 Jun 2027 14:51:40.488   02 Jun 2027 14:51:58.041            17.553                Anadyr1           548.531
       168   02 Jun 2027 14:52:35.733   02 Jun 2027 14:52:56.215            20.482                Anadyr1           640.062
       169   02 Jun 2027 15:43:53.823   02 Jun 2027 15:44:58.821            64.998               CapeTown          2031.187
       170   02 Jun 2027 16:10:56.191   02 Jun 2027 16:11:10.558            14.367                 Moscow           448.969
       171   02 Jun 2027 16:11:43.149   02 Jun 2027 16:12:20.384            37.235                 Moscow          1163.594
       172   02 Jun 2027 16:13:20.075   02 Jun 2027 16:14:36.247            76.172              Murmansk2          2380.375
       173   02 Jun 2027 16:24:28.031   02 Jun 2027 16:26:28.670           120.639                Anadyr1          3769.969
       174   02 Jun 2027 16:26:45.045   02 Jun 2027 16:28:03.094            78.049                Anadyr2          2439.031
       175   02 Jun 2027 17:20:20.207   02 Jun 2027 17:21:09.293            49.086               CapeTown          1533.937
       176   02 Jun 2027 17:23:49.105   02 Jun 2027 17:23:57.258             8.153               CapeTown           254.781
       177   02 Jun 2027 17:52:46.597   02 Jun 2027 17:56:44.612           238.015              Murmansk2          7437.969
       178   02 Jun 2027 18:00:15.578   02 Jun 2027 18:00:25.154             9.576                Anadyr2           299.250
       179   02 Jun 2027 18:00:25.154   02 Jun 2027 18:00:53.911            28.757                Anadyr1           898.656
       180   02 Jun 2027 18:01:40.458   02 Jun 2027 18:02:19.556            39.098                Anadyr1          1221.812
       181   02 Jun 2027 18:02:57.826   02 Jun 2027 18:04:35.535            97.709               Magadan2          3053.406
       182   02 Jun 2027 18:10:58.214   02 Jun 2027 18:11:45.165            46.951               Magadan2          1467.219
       183   02 Jun 2027 19:36:11.173   02 Jun 2027 19:38:14.330           123.157                Anadyr2          3848.656
       184   02 Jun 2027 19:38:27.786   02 Jun 2027 19:41:43.903           196.117               Magadan1          6128.656
       185   02 Jun 2027 19:41:43.903   02 Jun 2027 19:42:01.227            17.324               Magadan2           541.375
       186   02 Jun 2027 19:45:08.224   02 Jun 2027 19:45:36.768            28.544               Magadan1           892.000
       187   02 Jun 2027 19:49:02.751   02 Jun 2027 19:49:03.751             1.000               Magadan2            31.250
       188   02 Jun 2027 19:49:05.752   02 Jun 2027 19:49:18.199            12.447               Magadan2           388.969
       189   02 Jun 2027 19:49:54.007   02 Jun 2027 19:49:55.318             1.311               Magadan2            40.969
       190   02 Jun 2027 19:51:19.633   02 Jun 2027 19:51:21.931             2.298               Magadan2            71.812
       191   02 Jun 2027 20:31:05.895   02 Jun 2027 20:33:55.082           169.187            RioGallegos          5287.094
       192   02 Jun 2027 20:34:15.354   02 Jun 2027 20:34:19.527             4.173            RioGallegos           130.406
       193   02 Jun 2027 20:36:11.019   02 Jun 2027 20:37:33.092            82.073            RioGallegos          2564.781
       194   02 Jun 2027 21:11:53.690   02 Jun 2027 21:12:30.901            37.211                Anadyr1          1162.844
       195   02 Jun 2027 21:14:03.311   02 Jun 2027 21:14:52.790            49.479                Norilsk          1546.219
       196   02 Jun 2027 21:15:23.495   02 Jun 2027 21:16:01.128            37.633               Magadan2          1176.031
       197   02 Jun 2027 21:16:01.128   02 Jun 2027 21:16:39.419            38.291               Magadan1          1196.594
       198   02 Jun 2027 21:18:27.692   02 Jun 2027 21:20:01.747            94.055                Irkutsk          2939.219
       199   02 Jun 2027 21:20:54.411   02 Jun 2027 21:21:31.457            37.046                Irkutsk          1157.688
       200   02 Jun 2027 21:32:30.193   02 Jun 2027 21:35:39.243           189.050                Sumatra          5907.812
       201   02 Jun 2027 22:49:16.558   02 Jun 2027 22:49:50.339            33.781                Anadyr2          1055.656
       202   02 Jun 2027 22:50:34.742   02 Jun 2027 22:51:54.750            80.008               Magadan2          2500.250
       203   02 Jun 2027 22:53:33.008   02 Jun 2027 22:53:49.006            15.998                Norilsk           499.938
       204   02 Jun 2027 22:53:58.260   02 Jun 2027 22:55:18.860            80.600                Irkutsk          2518.750
       205   02 Jun 2027 22:55:25.357   02 Jun 2027 22:55:46.239            20.882                Novosib           652.562
       206   02 Jun 2027 22:59:01.868   02 Jun 2027 22:59:38.461            36.593                Novosib          1143.531
       207   02 Jun 2027 23:00:48.373   02 Jun 2027 23:03:09.367           140.994                Novosib          4406.062
       208   03 Jun 2027 00:20:37.810   03 Jun 2027 00:21:32.275            54.465                Anadyr1          1702.031
       209   03 Jun 2027 00:21:44.162   03 Jun 2027 00:22:13.838            29.676                Anadyr1           927.375
       210   03 Jun 2027 00:23:22.880   03 Jun 2027 00:23:35.577            12.697                Anadyr2           396.781
       211   03 Jun 2027 00:25:32.191   03 Jun 2027 00:26:09.396            37.205                Anadyr2          1162.656
       212   03 Jun 2027 00:26:20.670   03 Jun 2027 00:27:47.613            86.943               Magadan2          2716.969
       213   03 Jun 2027 00:28:09.351   03 Jun 2027 00:28:16.737             7.386               Magadan2           230.812
       214   03 Jun 2027 00:28:26.711   03 Jun 2027 00:28:35.860             9.149               Magadan2           285.906
       215   03 Jun 2027 00:28:59.020   03 Jun 2027 00:30:18.747            79.727              Murmansk2          2491.469
       216   03 Jun 2027 00:30:27.236   03 Jun 2027 00:31:31.252            64.016              Murmansk1          2000.500
       217   03 Jun 2027 00:34:53.092   03 Jun 2027 00:36:01.577            68.485                 Moscow          2140.156
       218   03 Jun 2027 00:36:25.121   03 Jun 2027 00:36:39.182            14.061                 Moscow           439.406
       219   03 Jun 2027 00:41:23.782   03 Jun 2027 00:42:07.052            43.270                  Delhi          1352.188
       220   03 Jun 2027 01:20:05.510   03 Jun 2027 01:20:39.279            33.769            RioGallegos          1055.281
       221   03 Jun 2027 01:21:04.432   03 Jun 2027 01:22:00.176            55.744            RioGallegos          1742.000
       222   03 Jun 2027 01:53:56.699   03 Jun 2027 01:55:15.016            78.317                Anadyr2          2447.406
       223   03 Jun 2027 01:56:09.977   03 Jun 2027 01:56:39.059            29.082                Anadyr2           908.813
       224   03 Jun 2027 01:56:53.645   03 Jun 2027 01:57:15.422            21.777                Anadyr1           680.531
       225   03 Jun 2027 01:59:30.347   03 Jun 2027 02:00:22.718            52.371               Magadan2          1636.594
       226   03 Jun 2027 02:00:36.704   03 Jun 2027 02:00:40.158             3.454               Magadan1           107.938
       227   03 Jun 2027 02:01:29.883   03 Jun 2027 02:02:30.784            60.901               Magadan2          1903.156
       228   03 Jun 2027 02:04:05.073   03 Jun 2027 02:04:56.753            51.680              Murmansk2          1615.000
       229   03 Jun 2027 02:05:05.160   03 Jun 2027 02:05:05.229             0.069              Murmansk1             2.156
       230   03 Jun 2027 02:05:59.050   03 Jun 2027 02:06:16.780            17.730                Novosib           554.062
       231   03 Jun 2027 02:07:06.190   03 Jun 2027 02:07:48.087            41.897                Novosib          1309.281
       232   03 Jun 2027 02:08:51.377   03 Jun 2027 02:09:03.346            11.969                Novosib           374.031
       233   03 Jun 2027 02:10:42.560   03 Jun 2027 02:11:14.827            32.267                 Moscow          1008.344
       234   03 Jun 2027 02:17:47.402   03 Jun 2027 02:18:20.902            33.500                 Moscow          1046.875
       235   03 Jun 2027 02:33:26.944   03 Jun 2027 02:33:46.198            19.254               CapeTown           601.687
       236   03 Jun 2027 02:37:39.009   03 Jun 2027 02:38:06.513            27.504               CapeTown           859.500
       237   03 Jun 2027 02:43:10.641   03 Jun 2027 02:43:33.980            23.339               CapeTown           729.344
       238   03 Jun 2027 03:31:46.993   03 Jun 2027 03:32:16.866            29.873               Magadan2           933.531
       239   03 Jun 2027 03:48:16.442   03 Jun 2027 03:48:46.572            30.130              Murmansk1           941.563
       240   03 Jun 2027 03:48:58.717   03 Jun 2027 03:49:05.157             6.440              Murmansk1           201.250
       241   03 Jun 2027 03:49:38.772   03 Jun 2027 03:50:17.453            38.681              Murmansk1          1208.781
       242   03 Jun 2027 03:50:23.563   03 Jun 2027 03:50:38.742            15.179              Murmansk2           474.344
       243   03 Jun 2027 03:51:39.752   03 Jun 2027 03:51:44.777             5.025              Murmansk2           157.031
       244   03 Jun 2027 03:52:01.006   03 Jun 2027 03:52:57.988            56.982              Murmansk1          1780.688
       245   03 Jun 2027 03:54:06.320   03 Jun 2027 03:54:56.955            50.635                 Moscow          1582.344
       246   03 Jun 2027 03:55:21.365   03 Jun 2027 03:56:00.375            39.010                 Moscow          1219.063
       247   03 Jun 2027 05:10:43.170   03 Jun 2027 05:10:46.961             3.791               Magadan2           118.469
       248   03 Jun 2027 05:10:55.708   03 Jun 2027 05:11:21.298            25.590                Anadyr1           799.688
       249   03 Jun 2027 05:11:21.298   03 Jun 2027 05:12:58.090            96.792                Anadyr2          3024.750
       250   03 Jun 2027 05:13:00.797   03 Jun 2027 05:16:47.413           226.616                Anadyr2          7081.750
       251   03 Jun 2027 06:47:51.470   03 Jun 2027 06:48:46.827            55.357                Anadyr2          1729.906
       252   03 Jun 2027 06:48:49.977   03 Jun 2027 06:49:14.197            24.220               Magadan1           756.875
       253   03 Jun 2027 06:49:14.197   03 Jun 2027 06:49:15.560             1.363               Magadan2            42.594
       254   03 Jun 2027 06:49:19.212   03 Jun 2027 06:49:44.297            25.085                Anadyr1           783.906
       255   03 Jun 2027 06:49:44.297   03 Jun 2027 06:49:53.035             8.738                Anadyr2           273.063
       256   03 Jun 2027 06:51:00.407   03 Jun 2027 06:51:44.776            44.369                Anadyr1          1386.531
       257   03 Jun 2027 08:21:41.208   03 Jun 2027 08:22:50.736            69.528               Magadan2          2172.750
       258   03 Jun 2027 08:23:18.818   03 Jun 2027 08:23:45.361            26.543               Magadan2           829.469
       259   03 Jun 2027 08:24:16.317   03 Jun 2027 08:24:27.013            10.696               Magadan1           334.250
       260   03 Jun 2027 08:24:44.307   03 Jun 2027 08:25:00.545            16.238                Irkutsk           507.437
       261   03 Jun 2027 08:25:25.320   03 Jun 2027 08:26:36.069            70.749               Magadan1          2210.906
       262   03 Jun 2027 08:26:54.699   03 Jun 2027 08:26:56.587             1.888                Irkutsk            59.000
       263   03 Jun 2027 08:27:05.672   03 Jun 2027 08:28:00.754            55.082                Irkutsk          1721.312
       264   03 Jun 2027 09:02:48.425   03 Jun 2027 09:03:30.760            42.335            RioGallegos          1322.969
       265   03 Jun 2027 09:38:19.110   03 Jun 2027 09:38:39.243            20.133                Sumatra           629.156
       266   03 Jun 2027 09:40:19.200   03 Jun 2027 09:40:25.587             6.387                Sumatra           199.594
       267   03 Jun 2027 09:42:22.645   03 Jun 2027 09:43:18.493            55.848                Sumatra          1745.250
       268   03 Jun 2027 09:59:59.349   03 Jun 2027 10:00:09.516            10.167                Irkutsk           317.719
       269   03 Jun 2027 10:00:18.589   03 Jun 2027 10:00:20.762             2.173                Irkutsk            67.906
       270   03 Jun 2027 10:00:31.303   03 Jun 2027 10:01:52.281            80.978                Irkutsk          2530.562
       271   03 Jun 2027 10:02:20.556   03 Jun 2027 10:02:48.556            28.000                Irkutsk           875.000
       272   03 Jun 2027 10:02:56.661   03 Jun 2027 10:04:05.324            68.663                Irkutsk          2145.719
       273   03 Jun 2027 10:48:45.985   03 Jun 2027 10:48:49.128             3.143            RioGallegos            98.219
       274   03 Jun 2027 11:14:40.791   03 Jun 2027 11:15:01.342            20.551                Sumatra           642.219
       275   03 Jun 2027 11:15:24.334   03 Jun 2027 11:15:41.682            17.348                Sumatra           542.125
       276   03 Jun 2027 11:18:49.460   03 Jun 2027 11:19:03.985            14.525                Sumatra           453.906
       277   03 Jun 2027 11:23:37.595   03 Jun 2027 11:25:02.994            85.399                  Delhi          2668.719
       278   03 Jun 2027 11:37:26.630   03 Jun 2027 11:37:29.764             3.134                Norilsk            97.937
       279   03 Jun 2027 11:37:37.830   03 Jun 2027 11:37:47.455             9.625                Norilsk           300.781
       280   03 Jun 2027 11:37:48.595   03 Jun 2027 11:37:51.575             2.980                Novosib            93.125
       281   03 Jun 2027 11:38:14.045   03 Jun 2027 11:38:44.079            30.034                Irkutsk           938.563
       282   03 Jun 2027 11:39:04.475   03 Jun 2027 11:39:20.925            16.450                Norilsk           514.063
       283   03 Jun 2027 11:39:34.523   03 Jun 2027 11:39:42.982             8.459                Norilsk           264.344
       284   03 Jun 2027 11:39:53.392   03 Jun 2027 11:40:20.553            27.161                Novosib           848.781
       285   03 Jun 2027 12:59:54.730   03 Jun 2027 13:01:00.706            65.976                  Delhi          2061.750
       286   03 Jun 2027 13:01:16.286   03 Jun 2027 13:02:06.868            50.582                  Delhi          1580.688
       287   03 Jun 2027 13:02:55.972   03 Jun 2027 13:03:36.425            40.453                  Delhi          1264.156
       288   03 Jun 2027 13:08:26.084   03 Jun 2027 13:09:38.763            72.679                Novosib          2271.219
       289   03 Jun 2027 13:11:43.420   03 Jun 2027 13:12:10.211            26.791              Murmansk1           837.219
       290   03 Jun 2027 13:13:01.141   03 Jun 2027 13:13:01.552             0.411                Novosib            12.844
       291   03 Jun 2027 13:13:02.610   03 Jun 2027 13:13:29.874            27.264                Norilsk           852.000
       292   03 Jun 2027 13:14:24.257   03 Jun 2027 13:15:08.577            44.320                Norilsk          1385.000
       293   03 Jun 2027 13:15:59.043   03 Jun 2027 13:17:00.161            61.118                Norilsk          1909.937
       294   03 Jun 2027 14:24:02.293   03 Jun 2027 14:25:13.410            71.117               CapeTown          2222.406
       295   03 Jun 2027 14:26:50.310   03 Jun 2027 14:27:29.468            39.158               CapeTown          1223.687
       296   03 Jun 2027 14:42:37.048   03 Jun 2027 14:44:16.818            99.770                 Moscow          3117.812
       297   03 Jun 2027 14:46:06.180   03 Jun 2027 14:47:50.446           104.266              Murmansk2          3258.312
       298   03 Jun 2027 14:49:39.241   03 Jun 2027 14:50:08.924            29.683              Murmansk2           927.594
       299   03 Jun 2027 15:01:28.377   03 Jun 2027 15:02:34.000            65.623                Anadyr2          2050.719
       300   03 Jun 2027 15:02:34.000   03 Jun 2027 15:03:30.177            56.177                Anadyr1          1755.531
       301   03 Jun 2027 15:04:35.473   03 Jun 2027 15:04:52.592            17.119                Anadyr1           534.969
       302   03 Jun 2027 15:55:48.813   03 Jun 2027 15:56:07.347            18.534               CapeTown           579.188
       303   03 Jun 2027 15:58:33.365   03 Jun 2027 15:58:39.151             5.786               CapeTown           180.812
       304   03 Jun 2027 15:59:51.555   03 Jun 2027 16:01:48.849           117.294               CapeTown          3665.438
       305   03 Jun 2027 16:24:22.120   03 Jun 2027 16:24:52.220            30.100              Murmansk2           940.625
       306   03 Jun 2027 16:26:21.692   03 Jun 2027 16:27:06.219            44.527                 Moscow          1391.469
       307   03 Jun 2027 16:30:48.096   03 Jun 2027 16:31:00.307            12.211              Murmansk2           381.594
       308   03 Jun 2027 16:36:27.028   03 Jun 2027 16:38:29.868           122.840                Anadyr2          3838.750
       309   03 Jun 2027 16:38:36.249   03 Jun 2027 16:38:43.837             7.588                Anadyr1           237.125
       310   03 Jun 2027 16:41:27.226   03 Jun 2027 16:41:42.426            15.200                Anadyr2           475.000
       311   03 Jun 2027 16:45:39.464   03 Jun 2027 16:46:45.748            66.284                Anadyr2          2071.375
       312   03 Jun 2027 17:33:04.427   03 Jun 2027 17:33:42.642            38.215               CapeTown          1194.219
       313   03 Jun 2027 18:05:53.821   03 Jun 2027 18:09:16.540           202.719              Murmansk1          6334.969
       314   03 Jun 2027 18:12:17.011   03 Jun 2027 18:14:14.036           117.025                Anadyr2          3657.031
       315   03 Jun 2027 18:14:52.502   03 Jun 2027 18:15:37.564            45.062               Magadan2          1408.188
       316   03 Jun 2027 18:15:37.564   03 Jun 2027 18:16:09.428            31.864               Magadan1           995.750
       317   03 Jun 2027 18:16:18.732   03 Jun 2027 18:18:28.702           129.970               Magadan1          4061.562
       318   03 Jun 2027 19:48:12.130   03 Jun 2027 19:50:15.924           123.794                Anadyr2          3868.562
       319   03 Jun 2027 19:50:28.849   03 Jun 2027 19:53:40.634           191.785               Magadan2          5993.281
       320   03 Jun 2027 20:02:18.438   03 Jun 2027 20:02:55.876            37.438               Magadan1          1169.938
       321   03 Jun 2027 20:42:49.424   03 Jun 2027 20:45:26.241           156.817            RioGallegos          4900.531
       322   03 Jun 2027 20:52:12.306   03 Jun 2027 20:52:13.794             1.488            RioGallegos            46.500
       323   03 Jun 2027 21:23:51.202   03 Jun 2027 21:24:32.499            41.297                Anadyr2          1290.531
       324   03 Jun 2027 21:26:03.199   03 Jun 2027 21:28:16.394           133.195                Norilsk          4162.344
       325   03 Jun 2027 21:28:54.414   03 Jun 2027 21:29:10.171            15.757               Magadan1           492.406
       326   03 Jun 2027 21:29:44.990   03 Jun 2027 21:30:33.790            48.800               Magadan1          1525.000
       327   03 Jun 2027 21:30:37.650   03 Jun 2027 21:31:21.318            43.668                Irkutsk          1364.625
       328   03 Jun 2027 21:32:59.204   03 Jun 2027 21:33:54.199            54.995                Novosib          1718.594
       329   03 Jun 2027 21:34:31.755   03 Jun 2027 21:34:56.422            24.667                Novosib           770.844
       330   03 Jun 2027 21:35:20.882   03 Jun 2027 21:36:10.939            50.057                Irkutsk          1564.281
       331   03 Jun 2027 21:44:09.895   03 Jun 2027 21:44:56.489            46.594                Sumatra          1456.063
       332   03 Jun 2027 21:46:29.622   03 Jun 2027 21:47:34.624            65.002                Sumatra          2031.312
       333   03 Jun 2027 22:59:46.027   03 Jun 2027 22:59:58.444            12.417                Anadyr2           388.031
       334   03 Jun 2027 23:00:45.010   03 Jun 2027 23:01:55.603            70.593                Anadyr1          2206.031
       335   03 Jun 2027 23:01:58.964   03 Jun 2027 23:02:24.902            25.938                Norilsk           810.562
       336   03 Jun 2027 23:03:19.065   03 Jun 2027 23:03:24.200             5.135                Norilsk           160.469
       337   03 Jun 2027 23:03:46.093   03 Jun 2027 23:04:01.635            15.542               Magadan2           485.688
       338   03 Jun 2027 23:04:15.558   03 Jun 2027 23:04:41.741            26.183               Magadan1           818.219
       339   03 Jun 2027 23:05:19.098   03 Jun 2027 23:05:51.637            32.539               Magadan2          1016.844
       340   03 Jun 2027 23:06:03.243   03 Jun 2027 23:07:12.264            69.021                Novosib          2156.906
       341   03 Jun 2027 23:08:10.159   03 Jun 2027 23:09:08.807            58.648                Novosib          1832.750
       342   03 Jun 2027 23:14:01.746   03 Jun 2027 23:17:12.966           191.220                  Delhi          5975.625
       343   04 Jun 2027 00:32:19.148   04 Jun 2027 00:32:32.892            13.744                Anadyr2           429.500
       344   04 Jun 2027 00:33:25.896   04 Jun 2027 00:34:12.363            46.467                Anadyr1          1452.094
       345   04 Jun 2027 00:37:37.226   04 Jun 2027 00:38:08.433            31.207                Anadyr1           975.219
       346   04 Jun 2027 00:38:14.360   04 Jun 2027 00:38:50.192            35.832               Magadan2          1119.750
       347   04 Jun 2027 00:38:50.192   04 Jun 2027 00:39:02.638            12.446               Magadan1           388.938
       348   04 Jun 2027 00:39:17.351   04 Jun 2027 00:39:41.063            23.712                Norilsk           741.000
       349   04 Jun 2027 00:40:11.712   04 Jun 2027 00:40:29.357            17.645               Magadan2           551.406
       350   04 Jun 2027 00:41:00.664   04 Jun 2027 00:42:19.672            79.008              Murmansk2          2469.000
       351   04 Jun 2027 00:42:19.787   04 Jun 2027 00:42:52.986            33.199                Novosib          1037.469
       352   04 Jun 2027 00:43:24.836   04 Jun 2027 00:43:29.996             5.160                Novosib           161.250
       353   04 Jun 2027 00:43:34.156   04 Jun 2027 00:44:12.569            38.413                Novosib          1200.406
       354   04 Jun 2027 00:45:19.445   04 Jun 2027 00:46:24.550            65.105              Murmansk2          2034.531
       355   04 Jun 2027 00:47:30.049   04 Jun 2027 00:47:56.987            26.938                 Moscow           841.813
       356   04 Jun 2027 00:48:06.415   04 Jun 2027 00:48:32.002            25.587                 Moscow           799.594
       357   04 Jun 2027 00:59:00.942   04 Jun 2027 00:59:06.357             5.415                  Delhi           169.219
       358   04 Jun 2027 00:59:52.673   04 Jun 2027 01:00:35.957            43.284                  Delhi          1352.625
       359   04 Jun 2027 02:05:40.960   04 Jun 2027 02:08:11.293           150.333                Anadyr2          4697.906
       360   04 Jun 2027 02:08:44.218   04 Jun 2027 02:08:53.558             9.340                Anadyr2           291.875
       361   04 Jun 2027 02:10:58.615   04 Jun 2027 02:12:10.639            72.024               Magadan2          2250.750
       362   04 Jun 2027 02:13:47.873   04 Jun 2027 02:13:56.664             8.791                Norilsk           274.719
       363   04 Jun 2027 02:16:06.394   04 Jun 2027 02:16:57.868            51.474              Murmansk2          1608.562
       364   04 Jun 2027 02:17:16.458   04 Jun 2027 02:17:37.958            21.500              Murmansk1           671.875
       365   04 Jun 2027 02:18:05.386   04 Jun 2027 02:19:52.413           107.027                Novosib          3344.594
       366   04 Jun 2027 02:22:27.106   04 Jun 2027 02:24:43.995           136.889                 Moscow          4277.781
       367   04 Jun 2027 03:47:46.650   04 Jun 2027 03:51:56.698           250.048                Anadyr2          7814.000
       368   04 Jun 2027 04:02:00.519   04 Jun 2027 04:02:25.850            25.331              Murmansk1           791.594
       369   04 Jun 2027 04:03:40.714   04 Jun 2027 04:04:00.316            19.602              Murmansk1           612.562
       370   04 Jun 2027 04:04:35.019   04 Jun 2027 04:04:38.642             3.623              Murmansk1           113.219
       371   04 Jun 2027 04:06:17.950   04 Jun 2027 04:06:50.121            32.171                 Moscow          1005.344
       372   04 Jun 2027 04:06:54.779   04 Jun 2027 04:07:53.343            58.564                 Moscow          1830.125
       373   04 Jun 2027 04:30:13.149   04 Jun 2027 04:30:48.303            35.154               CapeTown          1098.562
       374   04 Jun 2027 05:22:45.075   04 Jun 2027 05:24:50.659           125.584                Anadyr2          3924.500
       375   04 Jun 2027 05:24:50.659   04 Jun 2027 05:28:48.150           237.491                Anadyr1          7421.594
       376   04 Jun 2027 06:59:11.997   04 Jun 2027 06:59:16.078             4.081               Magadan1           127.531
       377   04 Jun 2027 06:59:18.514   04 Jun 2027 06:59:57.839            39.325                Anadyr1          1228.906
       378   04 Jun 2027 07:00:01.590   04 Jun 2027 07:00:39.513            37.923               Magadan2          1185.094
       379   04 Jun 2027 07:00:42.204   04 Jun 2027 07:01:19.119            36.915                Anadyr2          1153.594
       380   04 Jun 2027 07:01:19.119   04 Jun 2027 07:01:21.023             1.904                Anadyr1            59.500
       381   04 Jun 2027 07:01:25.532   04 Jun 2027 07:02:03.226            37.694               Magadan2          1177.938
       382   04 Jun 2027 07:02:18.989   04 Jun 2027 07:02:19.891             0.902               Magadan1            28.187
       383   04 Jun 2027 07:02:31.068   04 Jun 2027 07:02:34.961             3.893               Magadan1           121.656
       384   04 Jun 2027 07:03:09.206   04 Jun 2027 07:04:18.238            69.032                Anadyr2          2157.250
       385   04 Jun 2027 08:33:21.775   04 Jun 2027 08:33:39.511            17.736               Magadan2           554.250
       386   04 Jun 2027 08:34:55.160   04 Jun 2027 08:35:17.738            22.578               Magadan2           705.563
       387   04 Jun 2027 08:35:19.670   04 Jun 2027 08:35:58.751            39.081               Magadan2          1221.281
       388   04 Jun 2027 08:36:11.456   04 Jun 2027 08:36:15.015             3.559               Magadan2           111.219
       389   04 Jun 2027 08:36:15.015   04 Jun 2027 08:36:58.196            43.181               Magadan1          1349.406
       390   04 Jun 2027 08:37:28.540   04 Jun 2027 08:37:42.034            13.494                Irkutsk           421.687
       391   04 Jun 2027 08:38:20.417   04 Jun 2027 08:38:23.077             2.660                Irkutsk            83.125
       392   04 Jun 2027 08:38:27.637   04 Jun 2027 08:39:13.179            45.542                Irkutsk          1423.187
       393   04 Jun 2027 08:39:23.147   04 Jun 2027 08:40:06.064            42.917                Irkutsk          1341.156
       394   04 Jun 2027 08:42:45.189   04 Jun 2027 08:43:04.344            19.155              Murmansk1           598.594
       395   04 Jun 2027 09:14:49.639   04 Jun 2027 09:15:32.792            43.153            RioGallegos          1348.531
       396   04 Jun 2027 09:23:13.061   04 Jun 2027 09:23:24.801            11.740            RioGallegos           366.875
       397   04 Jun 2027 09:50:02.397   04 Jun 2027 09:50:52.406            50.009                Sumatra          1562.781
       398   04 Jun 2027 09:52:26.172   04 Jun 2027 09:52:38.171            11.999                Sumatra           374.969
       399   04 Jun 2027 10:02:13.894   04 Jun 2027 10:03:17.025            63.131                  Delhi          1972.844
       400   04 Jun 2027 10:11:39.892   04 Jun 2027 10:12:10.214            30.322                Irkutsk           947.563
       401   04 Jun 2027 10:12:34.725   04 Jun 2027 10:12:59.365            24.640                Novosib           770.000
       402   04 Jun 2027 10:13:01.231   04 Jun 2027 10:13:10.578             9.347                Irkutsk           292.094
       403   04 Jun 2027 10:13:19.082   04 Jun 2027 10:13:33.994            14.912                Norilsk           466.000
       404   04 Jun 2027 10:13:43.236   04 Jun 2027 10:13:57.465            14.229                Norilsk           444.656
       405   04 Jun 2027 10:14:06.144   04 Jun 2027 10:14:36.867            30.723                Novosib           960.094
       406   04 Jun 2027 10:14:42.453   04 Jun 2027 10:15:09.577            27.124                Novosib           847.625
       407   04 Jun 2027 10:15:22.642   04 Jun 2027 10:15:27.922             5.280                Norilsk           165.000
       408   04 Jun 2027 10:15:37.799   04 Jun 2027 10:15:51.124            13.325                Novosib           416.406
       409   04 Jun 2027 10:53:05.479   04 Jun 2027 10:53:22.883            17.404            RioGallegos           543.875
       410   04 Jun 2027 10:54:01.042   04 Jun 2027 10:54:25.303            24.261            RioGallegos           758.156
       411   04 Jun 2027 10:55:54.881   04 Jun 2027 10:56:09.194            14.313            RioGallegos           447.281
       412   04 Jun 2027 11:27:21.369   04 Jun 2027 11:27:48.750            27.381                Sumatra           855.656
       413   04 Jun 2027 11:28:06.950   04 Jun 2027 11:30:05.213           118.263                Sumatra          3695.719
       414   04 Jun 2027 11:48:08.074   04 Jun 2027 11:48:16.904             8.830                Novosib           275.937
       415   04 Jun 2027 11:49:31.920   04 Jun 2027 11:49:37.943             6.023                Norilsk           188.219
       416   04 Jun 2027 11:49:46.201   04 Jun 2027 11:49:48.053             1.852                Norilsk            57.875
       417   04 Jun 2027 11:49:48.691   04 Jun 2027 11:49:57.609             8.918                Novosib           278.688
       418   04 Jun 2027 11:50:10.563   04 Jun 2027 11:50:17.121             6.558                Irkutsk           204.937
       419   04 Jun 2027 11:50:52.369   04 Jun 2027 11:50:56.317             3.948                Novosib           123.375
       420   04 Jun 2027 11:51:06.728   04 Jun 2027 11:51:22.017            15.289                Novosib           477.781
       421   04 Jun 2027 11:51:36.430   04 Jun 2027 11:51:53.199            16.769                Norilsk           524.031
       422   04 Jun 2027 13:12:57.001   04 Jun 2027 13:14:02.197            65.196                  Delhi          2037.375
       423   04 Jun 2027 13:14:41.287   04 Jun 2027 13:17:13.394           152.107                  Delhi          4753.344
       424   04 Jun 2027 13:20:36.642   04 Jun 2027 13:20:50.804            14.162                 Moscow           442.562
       425   04 Jun 2027 13:21:32.152   04 Jun 2027 13:22:16.667            44.515                Novosib          1391.094
       426   04 Jun 2027 13:22:25.306   04 Jun 2027 13:23:06.070            40.764              Murmansk2          1273.875
       427   04 Jun 2027 13:23:17.379   04 Jun 2027 13:23:30.460            13.081              Murmansk1           408.781
       428   04 Jun 2027 13:24:01.498   04 Jun 2027 13:24:47.917            46.419                Novosib          1450.594
       429   04 Jun 2027 13:27:05.643   04 Jun 2027 13:27:37.176            31.533                Norilsk           985.406
       430   04 Jun 2027 13:31:22.622   04 Jun 2027 13:32:06.079            43.457                Norilsk          1358.031
       431   04 Jun 2027 14:34:31.962   04 Jun 2027 14:36:45.391           133.429               CapeTown          4169.656
       432   04 Jun 2027 14:38:18.110   04 Jun 2027 14:39:32.326            74.216               CapeTown          2319.250
       433   04 Jun 2027 14:58:18.025   04 Jun 2027 14:59:14.829            56.804              Murmansk1          1775.125
       434   04 Jun 2027 14:59:14.829   04 Jun 2027 14:59:21.670             6.841              Murmansk2           213.781
       435   04 Jun 2027 15:01:05.503   04 Jun 2027 15:01:27.136            21.633              Murmansk1           676.031
       436   04 Jun 2027 15:06:53.143   04 Jun 2027 15:07:10.058            16.915              Murmansk1           528.594
       437   04 Jun 2027 15:07:46.185   04 Jun 2027 15:08:03.250            17.065              Murmansk1           533.281
       438   04 Jun 2027 15:08:57.449   04 Jun 2027 15:09:11.035            13.586              Murmansk2           424.563
       439   04 Jun 2027 15:13:14.092   04 Jun 2027 15:15:40.485           146.393                Anadyr2          4574.781
       440   04 Jun 2027 15:16:21.255   04 Jun 2027 15:16:31.448            10.193                Anadyr1           318.531
       441   04 Jun 2027 15:16:31.448   04 Jun 2027 15:16:34.792             3.344                Anadyr2           104.500
       442   04 Jun 2027 15:16:53.703   04 Jun 2027 15:18:10.488            76.785                Anadyr2          2399.531
       443   04 Jun 2027 16:36:04.324   04 Jun 2027 16:36:23.975            19.651                 Moscow           614.094
       444   04 Jun 2027 16:36:51.649   04 Jun 2027 16:37:36.342            44.693              Murmansk2          1396.656
       445   04 Jun 2027 16:38:15.228   04 Jun 2027 16:38:24.618             9.390              Murmansk1           293.438
       446   04 Jun 2027 16:39:04.922   04 Jun 2027 16:39:54.734            49.812              Murmansk1          1556.625
       447   04 Jun 2027 16:41:11.115   04 Jun 2027 16:41:55.946            44.831              Murmansk2          1400.969
       448   04 Jun 2027 16:48:26.606   04 Jun 2027 16:50:14.507           107.901                Anadyr1          3371.906
       449   04 Jun 2027 16:53:12.211   04 Jun 2027 16:53:49.440            37.229               Magadan2          1163.406
       450   04 Jun 2027 16:53:49.440   04 Jun 2027 16:55:05.767            76.327               Magadan1          2385.219
       451   04 Jun 2027 16:55:36.844   04 Jun 2027 16:55:38.519             1.675               Magadan2            52.344
       452   04 Jun 2027 18:24:18.518   04 Jun 2027 18:29:03.750           285.232                Anadyr1          8913.500
       453   04 Jun 2027 18:30:17.662   04 Jun 2027 18:30:30.424            12.762               Magadan1           398.812
       454   04 Jun 2027 18:30:42.717   04 Jun 2027 18:30:45.602             2.885                Anadyr1            90.156
       455   04 Jun 2027 18:31:03.151   04 Jun 2027 18:31:46.626            43.475               Magadan2          1358.594
       456   04 Jun 2027 18:33:04.104   04 Jun 2027 18:33:42.497            38.393               Magadan2          1199.781
       457   04 Jun 2027 18:37:16.498   04 Jun 2027 18:38:27.523            71.025               Magadan1          2219.531
       458   04 Jun 2027 20:00:12.855   04 Jun 2027 20:02:17.438           124.583                Anadyr2          3893.219
       459   04 Jun 2027 20:02:30.259   04 Jun 2027 20:06:13.417           223.158               Magadan1          6973.687
       460   04 Jun 2027 20:08:53.111   04 Jun 2027 20:09:19.986            26.875               Magadan2           839.844
       461   04 Jun 2027 20:11:36.432   04 Jun 2027 20:12:02.503            26.071               Magadan2           814.719
       462   04 Jun 2027 20:54:37.145   04 Jun 2027 20:57:35.819           178.674            RioGallegos          5583.563
       463   04 Jun 2027 20:58:05.585   04 Jun 2027 20:58:07.151             1.566            RioGallegos            48.937
       464   04 Jun 2027 21:03:38.870   04 Jun 2027 21:04:04.042            25.172            RioGallegos           786.625
       465   04 Jun 2027 21:05:29.051   04 Jun 2027 21:05:29.950             0.899            RioGallegos            28.094
       466   04 Jun 2027 21:35:47.958   04 Jun 2027 21:35:54.859             6.901                Anadyr1           215.656
       467   04 Jun 2027 21:36:07.431   04 Jun 2027 21:38:05.592           118.161                Anadyr1          3692.531
       468   04 Jun 2027 21:38:33.608   04 Jun 2027 21:39:27.222            53.614               Magadan1          1675.438
       469   04 Jun 2027 21:39:45.064   04 Jun 2027 21:39:59.029            13.965               Magadan1           436.406
       470   04 Jun 2027 21:40:09.199   04 Jun 2027 21:40:31.555            22.356               Magadan1           698.625
       471   04 Jun 2027 21:42:12.804   04 Jun 2027 21:42:22.231             9.427                Irkutsk           294.594
       472   04 Jun 2027 21:42:50.205   04 Jun 2027 21:43:06.735            16.530                Norilsk           516.562
       473   04 Jun 2027 21:43:20.016   04 Jun 2027 21:44:04.595            44.579                Irkutsk          1393.094
       474   04 Jun 2027 21:44:40.650   04 Jun 2027 21:45:42.573            61.923                Novosib          1935.094
       475   04 Jun 2027 21:46:36.702   04 Jun 2027 21:47:07.481            30.779                Novosib           961.844
       476   04 Jun 2027 21:55:56.502   04 Jun 2027 21:56:46.820            50.318                Sumatra          1572.437
       477   04 Jun 2027 21:58:57.907   04 Jun 2027 21:59:19.363            21.456                Sumatra           670.500
       478   04 Jun 2027 22:06:09.098   04 Jun 2027 22:07:14.242            65.144                Sumatra          2035.750
       479   04 Jun 2027 23:10:29.253   04 Jun 2027 23:11:47.324            78.071                Anadyr2          2439.719
       480   04 Jun 2027 23:11:59.440   04 Jun 2027 23:12:17.771            18.331                Anadyr2           572.844
       481   04 Jun 2027 23:12:44.234   04 Jun 2027 23:13:04.802            20.568                Anadyr1           642.750
       482   04 Jun 2027 23:13:18.560   04 Jun 2027 23:13:18.996             0.436                Anadyr1            13.625
