uniorb/output/strategy_4/Drop/Drop_KinoSat_111701.txt

KinoSat_111701
-------------------------
    Access    *     Start Time (UTCG)     *     Stop Time (UTCG)  *   Duration (s)        *       Station  *  Data (Mbytes)
         1   01 Jun 2027 03:51:22.759   01 Jun 2027 03:52:19.985            57.226                Irkutsk          1788.312
         2   01 Jun 2027 03:52:32.163   01 Jun 2027 03:53:42.087            69.924              Murmansk1          2185.125
         3   01 Jun 2027 03:53:45.065   01 Jun 2027 03:56:09.370           144.305              Murmansk1          4509.531
         4   01 Jun 2027 03:56:26.362   01 Jun 2027 03:58:28.280           121.918                  Delhi          3809.938
         5   01 Jun 2027 05:29:05.790   01 Jun 2027 05:30:05.645            59.855                 Moscow          1870.469
         6   01 Jun 2027 05:30:28.346   01 Jun 2027 05:33:52.519           204.173              Murmansk1          6380.406
         7   01 Jun 2027 05:33:53.174   01 Jun 2027 05:35:45.209           112.035                 Moscow          3501.094
         8   01 Jun 2027 05:48:11.967   01 Jun 2027 05:50:34.965           142.998               CapeTown          4468.688
         9   01 Jun 2027 06:51:38.676   01 Jun 2027 06:52:53.941            75.265               Magadan2          2352.031
        10   01 Jun 2027 06:53:14.196   01 Jun 2027 06:55:05.473           111.277               Magadan2          3477.406
        11   01 Jun 2027 06:55:05.473   01 Jun 2027 06:57:26.055           140.582               Magadan1          4393.187
        12   01 Jun 2027 08:28:44.441   01 Jun 2027 08:31:47.183           182.742                Anadyr2          5710.688
        13   01 Jun 2027 10:02:54.588   01 Jun 2027 10:05:27.155           152.567               Magadan1          4767.719
        14   01 Jun 2027 10:05:27.155   01 Jun 2027 10:07:24.172           117.017               Magadan2          3656.781
        15   01 Jun 2027 10:07:27.439   01 Jun 2027 10:07:32.585             5.146                Anadyr2           160.813
        16   01 Jun 2027 10:08:19.964   01 Jun 2027 10:08:29.960             9.996               Magadan1           312.375
        17   01 Jun 2027 10:08:29.960   01 Jun 2027 10:09:03.741            33.781               Magadan2          1055.656
        18   01 Jun 2027 11:40:16.911   01 Jun 2027 11:40:52.355            35.444                Irkutsk          1107.625
        19   01 Jun 2027 11:41:52.941   01 Jun 2027 11:44:55.057           182.116                Irkutsk          5691.125
        20   01 Jun 2027 11:45:04.383   01 Jun 2027 11:46:33.986            89.603                Novosib          2800.094
        21   01 Jun 2027 12:20:42.352   01 Jun 2027 12:21:04.319            21.967            RioGallegos           686.469
        22   01 Jun 2027 12:21:45.838   01 Jun 2027 12:22:24.497            38.659            RioGallegos          1208.094
        23   01 Jun 2027 12:22:46.589   01 Jun 2027 12:24:59.329           132.740            RioGallegos          4148.125
        24   01 Jun 2027 12:55:00.821   01 Jun 2027 12:55:22.606            21.785                Sumatra           680.781
        25   01 Jun 2027 12:57:28.085   01 Jun 2027 12:59:41.937           133.852                Sumatra          4182.875
        26   01 Jun 2027 13:09:47.081   01 Jun 2027 13:10:55.984            68.903                Novosib          2153.219
        27   01 Jun 2027 13:10:56.082   01 Jun 2027 13:13:20.966           144.884                Irkutsk          4527.625
        28   01 Jun 2027 13:13:36.832   01 Jun 2027 13:13:59.323            22.491                Norilsk           702.844
        29   01 Jun 2027 13:16:31.296   01 Jun 2027 13:17:19.053            47.757                Norilsk          1492.406
        30   01 Jun 2027 14:39:47.964   01 Jun 2027 14:41:45.799           117.835                  Delhi          3682.344
        31   01 Jun 2027 14:44:01.396   01 Jun 2027 14:45:00.676            59.280                  Delhi          1852.500
        32   01 Jun 2027 14:48:06.812   01 Jun 2027 14:51:25.554           198.742                Novosib          6210.687
        33   01 Jun 2027 14:51:53.353   01 Jun 2027 14:53:52.065           118.712                Norilsk          3709.750
        34   01 Jun 2027 16:23:22.818   01 Jun 2027 16:26:50.859           208.041                 Moscow          6501.281
        35   01 Jun 2027 16:26:54.293   01 Jun 2027 16:27:36.275            41.982              Murmansk1          1311.937
        36   01 Jun 2027 16:28:02.416   01 Jun 2027 16:28:38.963            36.547              Murmansk2          1142.094
        37   01 Jun 2027 16:32:57.015   01 Jun 2027 16:37:17.110           260.095                Norilsk          8127.969
        38   01 Jun 2027 17:37:05.281   01 Jun 2027 17:37:55.356            50.075               CapeTown          1564.844
        39   01 Jun 2027 17:40:31.460   01 Jun 2027 17:40:35.048             3.588               CapeTown           112.125
        40   01 Jun 2027 17:41:19.779   01 Jun 2027 17:42:50.053            90.274               CapeTown          2821.063
        41   01 Jun 2027 18:02:09.985   01 Jun 2027 18:06:57.965           287.980                 Moscow          8999.375
        42   01 Jun 2027 18:20:21.564   01 Jun 2027 18:20:33.394            11.830                Anadyr1           369.688
        43   01 Jun 2027 18:27:06.780   01 Jun 2027 18:28:34.768            87.988                Anadyr1          2749.625
        44   01 Jun 2027 19:13:12.054   01 Jun 2027 19:14:39.358            87.304               CapeTown          2728.250
        45   01 Jun 2027 19:17:31.866   01 Jun 2027 19:17:45.198            13.332               CapeTown           416.625
        46   01 Jun 2027 19:20:21.990   01 Jun 2027 19:21:21.372            59.382               CapeTown          1855.687
        47   01 Jun 2027 19:45:03.022   01 Jun 2027 19:51:00.798           357.776              Murmansk1         11180.500
        48   01 Jun 2027 21:29:15.920   01 Jun 2027 21:33:00.820           224.900                Anadyr2          7028.125
        49   01 Jun 2027 21:33:11.059   01 Jun 2027 21:34:30.965            79.906                Anadyr1          2497.062
        50   01 Jun 2027 21:34:43.833   01 Jun 2027 21:37:35.433           171.600               Magadan2          5362.500
        51   01 Jun 2027 21:38:37.184   01 Jun 2027 21:39:06.914            29.730               Magadan2           929.063
        52   01 Jun 2027 21:42:27.271   01 Jun 2027 21:42:40.839            13.568               Magadan2           424.000
        53   01 Jun 2027 21:42:53.926   01 Jun 2027 21:43:08.743            14.817               Magadan2           463.031
        54   01 Jun 2027 21:43:40.519   01 Jun 2027 21:44:23.534            43.015               Magadan1          1344.219
        55   01 Jun 2027 22:24:27.458   01 Jun 2027 22:25:06.440            38.982            RioGallegos          1218.187
        56   01 Jun 2027 22:25:56.614   01 Jun 2027 22:26:31.188            34.574            RioGallegos          1080.438
        57   01 Jun 2027 22:29:33.214   01 Jun 2027 22:30:31.707            58.493            RioGallegos          1827.906
        58   01 Jun 2027 23:05:01.589   01 Jun 2027 23:06:33.172            91.583                Anadyr2          2861.969
        59   01 Jun 2027 23:06:35.995   01 Jun 2027 23:07:22.825            46.830                Anadyr1          1463.437
        60   01 Jun 2027 23:07:23.700   01 Jun 2027 23:08:43.408            79.708                Norilsk          2490.875
        61   01 Jun 2027 23:08:46.149   01 Jun 2027 23:09:53.403            67.254               Magadan1          2101.687
        62   01 Jun 2027 23:10:11.110   01 Jun 2027 23:11:02.190            51.080               Magadan2          1596.250
        63   01 Jun 2027 23:11:40.959   01 Jun 2027 23:11:59.235            18.276                Irkutsk           571.125
        64   01 Jun 2027 23:13:47.345   01 Jun 2027 23:15:02.699            75.354                Irkutsk          2354.812
        65   01 Jun 2027 23:20:11.722   01 Jun 2027 23:21:06.652            54.930                Irkutsk          1716.563
        66   01 Jun 2027 23:25:58.178   01 Jun 2027 23:25:59.356             1.178                Sumatra            36.812
        67   01 Jun 2027 23:26:30.745   01 Jun 2027 23:26:45.372            14.627                Sumatra           457.094
        68   01 Jun 2027 23:28:49.667   01 Jun 2027 23:29:28.279            38.612                Sumatra          1206.625
        69   01 Jun 2027 23:31:13.198   01 Jun 2027 23:32:16.631            63.433                Sumatra          1982.281
        70   01 Jun 2027 23:32:35.183   01 Jun 2027 23:32:55.334            20.151                Sumatra           629.719
        71   02 Jun 2027 00:06:37.809   02 Jun 2027 00:07:18.386            40.577            RioGallegos          1268.031
        72   02 Jun 2027 00:40:07.263   02 Jun 2027 00:41:17.257            69.994                Anadyr2          2187.312
        73   02 Jun 2027 00:41:17.257   02 Jun 2027 00:42:21.078            63.821                Anadyr1          1994.406
        74   02 Jun 2027 00:43:22.589   02 Jun 2027 00:44:43.831            81.242                Norilsk          2538.812
        75   02 Jun 2027 00:44:56.190   02 Jun 2027 00:46:00.218            64.028               Magadan1          2000.875
        76   02 Jun 2027 00:46:52.769   02 Jun 2027 00:47:47.566            54.797                Irkutsk          1712.406
        77   02 Jun 2027 00:47:52.533   02 Jun 2027 00:48:28.879            36.346                Novosib          1135.813
        78   02 Jun 2027 00:51:31.284   02 Jun 2027 00:52:42.037            70.753                Irkutsk          2211.031
        79   02 Jun 2027 00:57:26.029   02 Jun 2027 00:57:50.885            24.856                Novosib           776.750
        80   02 Jun 2027 00:59:40.197   02 Jun 2027 01:00:08.820            28.623                  Delhi           894.469
        81   02 Jun 2027 01:02:41.844   02 Jun 2027 01:03:49.985            68.141                  Delhi          2129.406
        82   02 Jun 2027 01:09:30.808   02 Jun 2027 01:11:04.542            93.734                Sumatra          2929.187
        83   02 Jun 2027 01:46:24.467   02 Jun 2027 01:46:39.955            15.488            RioGallegos           484.000
        84   02 Jun 2027 02:14:14.924   02 Jun 2027 02:14:23.450             8.526                Anadyr1           266.438
        85   02 Jun 2027 02:14:59.618   02 Jun 2027 02:15:58.310            58.692                Anadyr2          1834.125
        86   02 Jun 2027 02:18:19.875   02 Jun 2027 02:19:14.916            55.041                Anadyr2          1720.031
        87   02 Jun 2027 02:19:29.491   02 Jun 2027 02:19:41.536            12.045                Norilsk           376.406
        88   02 Jun 2027 02:20:09.505   02 Jun 2027 02:20:14.880             5.375                Norilsk           167.969
        89   02 Jun 2027 02:21:18.804   02 Jun 2027 02:21:45.565            26.761               Magadan1           836.281
        90   02 Jun 2027 02:22:01.275   02 Jun 2027 02:22:04.754             3.479                Norilsk           108.719
        91   02 Jun 2027 02:22:21.022   02 Jun 2027 02:22:47.342            26.320                Norilsk           822.500
        92   02 Jun 2027 02:22:51.330   02 Jun 2027 02:24:37.326           105.996                Novosib          3312.375
        93   02 Jun 2027 02:25:01.798   02 Jun 2027 02:26:03.015            61.217                Irkutsk          1913.031
        94   02 Jun 2027 02:33:17.048   02 Jun 2027 02:33:33.692            16.644                  Delhi           520.125
        95   02 Jun 2027 02:36:34.325   02 Jun 2027 02:38:29.690           115.365                  Delhi          3605.156
        96   02 Jun 2027 03:12:41.525   02 Jun 2027 03:17:03.824           262.299            RioGallegos          8196.844
        97   02 Jun 2027 04:03:35.448   02 Jun 2027 04:04:04.562            29.114                Novosib           909.812
        98   02 Jun 2027 04:04:33.069   02 Jun 2027 04:05:52.003            78.934              Murmansk2          2466.688
        99   02 Jun 2027 04:05:55.020   02 Jun 2027 04:06:22.672            27.652                Norilsk           864.125
       100   02 Jun 2027 04:06:24.404   02 Jun 2027 04:06:43.911            19.507              Murmansk2           609.594
       101   02 Jun 2027 04:06:47.302   02 Jun 2027 04:07:47.259            59.957                Novosib          1873.656
       102   02 Jun 2027 04:08:02.669   02 Jun 2027 04:08:39.683            37.014                Novosib          1156.687
       103   02 Jun 2027 04:12:17.701   02 Jun 2027 04:12:27.718            10.017                  Delhi           313.031
       104   02 Jun 2027 05:45:24.797   02 Jun 2027 05:46:24.845            60.048                 Moscow          1876.500
       105   02 Jun 2027 07:04:01.816   02 Jun 2027 07:06:47.402           165.586                Anadyr2          5174.563
       106   02 Jun 2027 07:06:47.402   02 Jun 2027 07:08:27.645           100.243                Anadyr1          3132.594
       107   02 Jun 2027 07:09:07.640   02 Jun 2027 07:09:29.111            21.471               Magadan2           670.969
       108   02 Jun 2027 08:41:53.642   02 Jun 2027 08:42:56.375            62.733                Anadyr1          1960.406
       109   02 Jun 2027 08:42:56.375   02 Jun 2027 08:45:09.548           133.173                Anadyr2          4161.656
       110   02 Jun 2027 10:15:34.559   02 Jun 2027 10:16:19.560            45.001               Magadan2          1406.281
       111   02 Jun 2027 10:17:24.876   02 Jun 2027 10:17:57.692            32.816               Magadan1          1025.500
       112   02 Jun 2027 10:17:57.692   02 Jun 2027 10:19:24.982            87.290               Magadan2          2727.813
       113   02 Jun 2027 10:19:33.502   02 Jun 2027 10:20:26.920            53.418               Magadan2          1669.313
       114   02 Jun 2027 10:20:37.100   02 Jun 2027 10:20:46.234             9.134                Irkutsk           285.438
       115   02 Jun 2027 10:20:46.237   02 Jun 2027 10:20:58.235            11.998               Magadan1           374.937
       116   02 Jun 2027 10:21:12.205   02 Jun 2027 10:21:22.999            10.794                Norilsk           337.313
       117   02 Jun 2027 10:55:55.371   02 Jun 2027 10:57:01.815            66.444            RioGallegos          2076.375
       118   02 Jun 2027 11:07:12.262   02 Jun 2027 11:07:59.878            47.616            RioGallegos          1488.000
       119   02 Jun 2027 11:31:43.585   02 Jun 2027 11:32:25.152            41.567                Sumatra          1298.969
       120   02 Jun 2027 11:52:16.545   02 Jun 2027 11:52:52.345            35.800                Novosib          1118.750
       121   02 Jun 2027 11:53:23.971   02 Jun 2027 11:53:57.980            34.009                Irkutsk          1062.781
       122   02 Jun 2027 11:54:15.882   02 Jun 2027 11:54:21.333             5.451                Norilsk           170.344
       123   02 Jun 2027 11:54:31.046   02 Jun 2027 11:54:38.195             7.149                Norilsk           223.406
       124   02 Jun 2027 11:54:42.493   02 Jun 2027 11:55:45.795            63.302                Novosib          1978.188
       125   02 Jun 2027 11:55:51.106   02 Jun 2027 11:56:00.137             9.031                Novosib           282.219
       126   02 Jun 2027 11:56:00.692   02 Jun 2027 11:57:11.335            70.643                Irkutsk          2207.594
       127   02 Jun 2027 12:33:08.215   02 Jun 2027 12:33:45.387            37.172            RioGallegos          1161.625
       128   02 Jun 2027 12:37:55.201   02 Jun 2027 12:38:15.411            20.210            RioGallegos           631.563
       129   02 Jun 2027 12:40:39.829   02 Jun 2027 12:42:42.027           122.198            RioGallegos          3818.688
       130   02 Jun 2027 13:11:13.288   02 Jun 2027 13:12:38.713            85.425                Sumatra          2669.531
       131   02 Jun 2027 13:17:16.159   02 Jun 2027 13:18:14.524            58.365                Sumatra          1823.906
       132   02 Jun 2027 13:22:40.668   02 Jun 2027 13:25:18.338           157.670                Irkutsk          4927.188
       133   02 Jun 2027 14:52:22.606   02 Jun 2027 14:55:27.066           184.460                  Delhi          5764.375
       134   02 Jun 2027 15:00:49.015   02 Jun 2027 15:02:43.237           114.222                Novosib          3569.437
       135   02 Jun 2027 15:04:22.470   02 Jun 2027 15:05:45.403            82.933                Norilsk          2591.656
       136   02 Jun 2027 15:09:55.955   02 Jun 2027 15:10:03.100             7.145                Norilsk           223.281
       137   02 Jun 2027 15:13:56.949   02 Jun 2027 15:14:05.865             8.916                Norilsk           278.625
       138   02 Jun 2027 16:35:32.211   02 Jun 2027 16:38:34.282           182.071                 Moscow          5689.719
       139   02 Jun 2027 16:39:30.602   02 Jun 2027 16:40:04.236            33.634              Murmansk1          1051.062
       140   02 Jun 2027 16:41:41.132   02 Jun 2027 16:42:07.945            26.813              Murmansk1           837.906
       141   02 Jun 2027 16:45:54.808   02 Jun 2027 16:47:03.269            68.461              Murmansk2          2139.406
       142   02 Jun 2027 16:47:24.765   02 Jun 2027 16:48:51.313            86.548                Norilsk          2704.625
       143   02 Jun 2027 16:58:11.817   02 Jun 2027 16:58:29.468            17.651                Anadyr1           551.594
       144   02 Jun 2027 16:59:52.881   02 Jun 2027 17:00:17.058            24.177                Anadyr1           755.531
       145   02 Jun 2027 17:48:57.803   02 Jun 2027 17:49:51.568            53.765               CapeTown          1680.156
       146   02 Jun 2027 17:55:10.734   02 Jun 2027 17:55:31.869            21.135               CapeTown           660.469
       147   02 Jun 2027 17:57:40.439   02 Jun 2027 17:58:28.547            48.108               CapeTown          1503.375
       148   02 Jun 2027 18:14:59.017   02 Jun 2027 18:15:57.749            58.732                 Moscow          1835.375
       149   02 Jun 2027 18:16:10.289   02 Jun 2027 18:19:31.185           200.896                 Moscow          6278.000
       150   02 Jun 2027 18:30:34.462   02 Jun 2027 18:31:00.730            26.268                Anadyr1           820.875
       151   02 Jun 2027 18:32:22.915   02 Jun 2027 18:33:13.963            51.048                Anadyr1          1595.250
       152   02 Jun 2027 19:25:29.987   02 Jun 2027 19:26:23.838            53.851               CapeTown          1682.844
       153   02 Jun 2027 19:26:36.198   02 Jun 2027 19:26:43.523             7.325               CapeTown           228.906
       154   02 Jun 2027 19:29:21.489   02 Jun 2027 19:29:48.661            27.172               CapeTown           849.125
       155   02 Jun 2027 19:33:46.875   02 Jun 2027 19:35:22.360            95.485               CapeTown          2983.906
       156   02 Jun 2027 19:57:58.912   02 Jun 2027 20:02:47.045           288.133              Murmansk1          9004.156
       157   02 Jun 2027 21:41:17.314   02 Jun 2027 21:45:01.618           224.304                Anadyr1          7009.500
       158   02 Jun 2027 21:45:02.839   02 Jun 2027 21:49:04.014           241.175               Magadan2          7536.719
       159   02 Jun 2027 22:36:06.562   02 Jun 2027 22:38:34.930           148.368            RioGallegos          4636.500
       160   02 Jun 2027 22:41:07.579   02 Jun 2027 22:41:45.595            38.016            RioGallegos          1188.000
       161   02 Jun 2027 22:45:13.851   02 Jun 2027 22:45:28.409            14.558            RioGallegos           454.937
       162   02 Jun 2027 23:16:59.923   02 Jun 2027 23:17:59.076            59.153                Anadyr2          1848.531
       163   02 Jun 2027 23:18:01.836   02 Jun 2027 23:18:17.524            15.688                Anadyr1           490.250
       164   02 Jun 2027 23:18:38.261   02 Jun 2027 23:19:11.490            33.229                Anadyr2          1038.406
       165   02 Jun 2027 23:19:12.065   02 Jun 2027 23:20:45.285            93.220                Norilsk          2913.125
       166   02 Jun 2027 23:20:49.437   02 Jun 2027 23:21:06.879            17.442               Magadan2           545.062
       167   02 Jun 2027 23:21:13.079   02 Jun 2027 23:22:22.812            69.733               Magadan1          2179.156
       168   02 Jun 2027 23:22:30.472   02 Jun 2027 23:23:17.845            47.373               Magadan1          1480.406
       169   02 Jun 2027 23:24:34.874   02 Jun 2027 23:24:38.736             3.862                Irkutsk           120.688
       170   02 Jun 2027 23:25:36.637   02 Jun 2027 23:25:41.763             5.126                Irkutsk           160.188
       171   02 Jun 2027 23:32:04.493   02 Jun 2027 23:32:58.353            53.860                Irkutsk          1683.125
       172   02 Jun 2027 23:37:31.249   02 Jun 2027 23:38:43.221            71.972                Sumatra          2249.125
       173   02 Jun 2027 23:47:59.369   02 Jun 2027 23:48:32.401            33.032                Sumatra          1032.250
       174   03 Jun 2027 00:14:13.465   03 Jun 2027 00:14:14.108             0.643            RioGallegos            20.094
       175   03 Jun 2027 00:14:45.335   03 Jun 2027 00:15:17.971            32.636            RioGallegos          1019.875
       176   03 Jun 2027 00:18:17.475   03 Jun 2027 00:18:34.291            16.816            RioGallegos           525.500
       177   03 Jun 2027 00:20:14.686   03 Jun 2027 00:20:18.003             3.317            RioGallegos           103.656
       178   03 Jun 2027 00:20:34.777   03 Jun 2027 00:20:53.391            18.614            RioGallegos           581.688
       179   03 Jun 2027 00:51:57.627   03 Jun 2027 00:52:38.771            41.144                Anadyr2          1285.750
       180   03 Jun 2027 00:53:18.532   03 Jun 2027 00:54:15.133            56.601                Anadyr1          1768.781
       181   03 Jun 2027 00:55:02.137   03 Jun 2027 00:56:45.012           102.875                Norilsk          3214.844
       182   03 Jun 2027 00:56:57.220   03 Jun 2027 00:56:58.315             1.095               Magadan1            34.219
       183   03 Jun 2027 00:56:58.315   03 Jun 2027 00:57:18.755            20.440               Magadan2           638.750
       184   03 Jun 2027 00:57:30.199   03 Jun 2027 00:58:03.073            32.874               Magadan1          1027.313
       185   03 Jun 2027 00:58:54.405   03 Jun 2027 01:00:56.371           121.966                Irkutsk          3811.438
       186   03 Jun 2027 01:07:26.545   03 Jun 2027 01:08:12.696            46.151                  Delhi          1442.219
       187   03 Jun 2027 01:10:40.397   03 Jun 2027 01:11:05.144            24.747                  Delhi           773.344
       188   03 Jun 2027 01:14:31.607   03 Jun 2027 01:16:08.255            96.648                  Delhi          3020.250
       189   03 Jun 2027 01:51:17.456   03 Jun 2027 01:51:32.902            15.446            RioGallegos           482.688
       190   03 Jun 2027 01:52:53.341   03 Jun 2027 01:53:41.917            48.576            RioGallegos          1518.000
       191   03 Jun 2027 01:57:48.257   03 Jun 2027 01:58:05.330            17.073            RioGallegos           533.531
       192   03 Jun 2027 02:26:16.261   03 Jun 2027 02:26:21.494             5.233                Anadyr1           163.531
       193   03 Jun 2027 02:26:49.148   03 Jun 2027 02:27:41.519            52.371                Anadyr1          1636.594
       194   03 Jun 2027 02:31:02.815   03 Jun 2027 02:32:07.340            64.525                Norilsk          2016.406
       195   03 Jun 2027 02:33:12.980   03 Jun 2027 02:33:20.543             7.563               Magadan1           236.344
       196   03 Jun 2027 02:33:30.369   03 Jun 2027 02:33:42.693            12.324              Murmansk2           385.125
       197   03 Jun 2027 02:33:51.308   03 Jun 2027 02:34:12.257            20.949                Norilsk           654.656
       198   03 Jun 2027 02:34:12.600   03 Jun 2027 02:35:02.956            50.356              Murmansk1          1573.625
       199   03 Jun 2027 02:35:19.169   03 Jun 2027 02:37:09.704           110.535                Irkutsk          3454.219
       200   03 Jun 2027 02:43:23.519   03 Jun 2027 02:44:13.233            49.714                  Delhi          1553.562
       201   03 Jun 2027 02:50:39.131   03 Jun 2027 02:51:06.533            27.402                  Delhi           856.313
       202   03 Jun 2027 03:25:27.096   03 Jun 2027 03:26:41.292            74.196            RioGallegos          2318.625
       203   03 Jun 2027 04:15:24.579   03 Jun 2027 04:15:29.940             5.361                Novosib           167.531
       204   03 Jun 2027 04:15:47.301   03 Jun 2027 04:16:28.300            40.999                Norilsk          1281.219
       205   03 Jun 2027 04:16:38.901   03 Jun 2027 04:18:22.910           104.009                Novosib          3250.281
       206   03 Jun 2027 04:18:23.822   03 Jun 2027 04:18:41.591            17.769                Norilsk           555.281
       207   03 Jun 2027 04:18:45.527   03 Jun 2027 04:19:38.779            53.252              Murmansk2          1664.125
       208   03 Jun 2027 04:19:49.962   03 Jun 2027 04:20:45.025            55.063                Novosib          1720.719
       209   03 Jun 2027 05:54:14.599   03 Jun 2027 05:54:44.489            29.890              Murmansk1           934.063
       210   03 Jun 2027 05:54:59.781   03 Jun 2027 05:56:02.149            62.368                 Moscow          1949.000
       211   03 Jun 2027 05:59:52.929   03 Jun 2027 06:00:10.040            17.111                 Moscow           534.719
       212   03 Jun 2027 06:12:33.676   03 Jun 2027 06:13:08.192            34.516               CapeTown          1078.625
       213   03 Jun 2027 06:13:49.397   03 Jun 2027 06:14:14.579            25.182               CapeTown           786.937
       214   03 Jun 2027 06:15:15.354   03 Jun 2027 06:17:13.900           118.546               CapeTown          3704.563
       215   03 Jun 2027 07:15:16.332   03 Jun 2027 07:15:32.068            15.736               Magadan2           491.750
       216   03 Jun 2027 07:15:44.129   03 Jun 2027 07:16:12.479            28.350               Magadan2           885.938
       217   03 Jun 2027 07:16:16.291   03 Jun 2027 07:17:23.732            67.441               Magadan1          2107.531
       218   03 Jun 2027 07:17:31.642   03 Jun 2027 07:18:06.141            34.499                Anadyr1          1078.094
       219   03 Jun 2027 07:18:58.427   03 Jun 2027 07:19:43.514            45.087                Anadyr2          1408.969
       220   03 Jun 2027 08:51:28.239   03 Jun 2027 08:52:43.777            75.538                Anadyr1          2360.562
       221   03 Jun 2027 08:52:50.860   03 Jun 2027 08:53:09.463            18.603               Magadan2           581.344
       222   03 Jun 2027 08:53:10.357   03 Jun 2027 08:54:42.034            91.677                Anadyr1          2864.906
       223   03 Jun 2027 08:54:42.034   03 Jun 2027 08:55:49.522            67.488                Anadyr2          2109.000
       224   03 Jun 2027 10:26:40.886   03 Jun 2027 10:27:59.689            78.803               Magadan1          2462.594
       225   03 Jun 2027 10:28:21.576   03 Jun 2027 10:28:31.124             9.548               Magadan2           298.375
       226   03 Jun 2027 10:29:05.544   03 Jun 2027 10:30:09.991            64.447                Irkutsk          2013.969
       227   03 Jun 2027 10:30:25.318   03 Jun 2027 10:30:46.012            20.694                Irkutsk           646.688
       228   03 Jun 2027 10:30:51.510   03 Jun 2027 10:31:02.698            11.188                Norilsk           349.625
       229   03 Jun 2027 10:31:12.301   03 Jun 2027 10:31:40.422            28.121                Irkutsk           878.781
       230   03 Jun 2027 10:31:54.702   03 Jun 2027 10:32:42.989            48.287                Irkutsk          1508.969
       231   03 Jun 2027 10:33:01.138   03 Jun 2027 10:33:06.720             5.582                Irkutsk           174.437
       232   03 Jun 2027 11:07:53.996   03 Jun 2027 11:09:33.681            99.685            RioGallegos          3115.156
       233   03 Jun 2027 11:43:20.930   03 Jun 2027 11:44:51.987            91.057                Sumatra          2845.531
       234   03 Jun 2027 12:07:55.839   03 Jun 2027 12:09:11.043            75.204                Irkutsk          2350.125
       235   03 Jun 2027 12:46:06.604   03 Jun 2027 12:46:30.833            24.229            RioGallegos           757.156
       236   03 Jun 2027 12:49:36.655   03 Jun 2027 12:50:42.022            65.367            RioGallegos          2042.719
       237   03 Jun 2027 13:19:53.078   03 Jun 2027 13:20:41.151            48.073                Sumatra          1502.281
       238   03 Jun 2027 13:22:32.129   03 Jun 2027 13:23:48.657            76.528                Sumatra          2391.500
       239   03 Jun 2027 13:35:26.390   03 Jun 2027 13:37:04.422            98.032                Irkutsk          3063.500
       240   03 Jun 2027 13:40:17.187   03 Jun 2027 13:40:42.277            25.090                Irkutsk           784.062
       241   03 Jun 2027 13:43:03.772   03 Jun 2027 13:43:47.410            43.638                Irkutsk          1363.688
       242   03 Jun 2027 15:05:09.634   03 Jun 2027 15:07:55.247           165.613                  Delhi          5175.406
       243   03 Jun 2027 15:13:40.214   03 Jun 2027 15:18:04.722           264.508                Novosib          8265.875
       244   03 Jun 2027 16:48:06.282   03 Jun 2027 16:48:37.585            31.303                 Moscow           978.219
       245   03 Jun 2027 16:49:16.155   03 Jun 2027 16:50:33.307            77.152                 Moscow          2411.000
       246   03 Jun 2027 16:54:09.180   03 Jun 2027 16:55:27.669            78.489              Murmansk1          2452.781
       247   03 Jun 2027 17:03:12.948   03 Jun 2027 17:03:46.017            33.069              Murmansk2          1033.406
       248   03 Jun 2027 17:06:28.233   03 Jun 2027 17:07:20.238            52.005                Anadyr1          1625.156
       249   03 Jun 2027 17:08:32.696   03 Jun 2027 17:08:50.863            18.167                Anadyr1           567.719
       250   03 Jun 2027 17:08:58.888   03 Jun 2027 17:09:19.296            20.408                Anadyr1           637.750
       251   03 Jun 2027 17:11:31.573   03 Jun 2027 17:12:03.578            32.005                Anadyr2          1000.156
       252   03 Jun 2027 18:00:53.660   03 Jun 2027 18:01:04.205            10.545               CapeTown           329.531
       253   03 Jun 2027 18:03:02.253   03 Jun 2027 18:03:36.753            34.500               CapeTown          1078.125
       254   03 Jun 2027 18:07:38.216   03 Jun 2027 18:07:47.519             9.303               CapeTown           290.719
       255   03 Jun 2027 18:08:52.643   03 Jun 2027 18:09:29.345            36.702               CapeTown          1146.937
       256   03 Jun 2027 18:28:00.345   03 Jun 2027 18:31:33.298           212.953                 Moscow          6654.781
       257   03 Jun 2027 18:31:51.723   03 Jun 2027 18:32:18.193            26.470                 Moscow           827.188
       258   03 Jun 2027 18:37:43.452   03 Jun 2027 18:39:39.531           116.079              Murmansk1          3627.469
       259   03 Jun 2027 19:38:01.012   03 Jun 2027 19:38:03.077             2.065               CapeTown            64.531
       260   03 Jun 2027 19:39:47.211   03 Jun 2027 19:41:21.694            94.483               CapeTown          2952.594
       261   03 Jun 2027 20:11:07.917   03 Jun 2027 20:14:22.247           194.330              Murmansk1          6072.812
       262   03 Jun 2027 20:19:56.365   03 Jun 2027 20:21:20.557            84.192               Magadan1          2631.000
       263   03 Jun 2027 20:21:56.034   03 Jun 2027 20:22:31.358            35.324               Magadan1          1103.875
       264   03 Jun 2027 20:23:42.833   03 Jun 2027 20:24:04.151            21.318               Magadan1           666.188
       265   03 Jun 2027 20:25:54.011   03 Jun 2027 20:26:04.532            10.521               Magadan1           328.781
       266   03 Jun 2027 20:26:22.013   03 Jun 2027 20:27:30.341            68.328               Magadan1          2135.250
       267   03 Jun 2027 21:53:18.499   03 Jun 2027 21:56:40.151           201.652                Anadyr1          6301.625
       268   03 Jun 2027 21:56:42.411   03 Jun 2027 21:57:18.409            35.998               Magadan2          1124.938
       269   03 Jun 2027 21:57:49.400   03 Jun 2027 21:59:54.779           125.379               Magadan1          3918.094
       270   03 Jun 2027 21:59:55.072   03 Jun 2027 22:00:24.371            29.299               Magadan1           915.594
       271   03 Jun 2027 22:00:54.490   03 Jun 2027 22:01:39.171            44.681               Magadan1          1396.281
       272   03 Jun 2027 22:47:51.336   03 Jun 2027 22:49:53.800           122.464            RioGallegos          3827.000
       273   03 Jun 2027 22:51:11.504   03 Jun 2027 22:51:53.261            41.757            RioGallegos          1304.906
       274   03 Jun 2027 23:28:57.559   03 Jun 2027 23:29:50.286            52.727                Anadyr1          1647.719
       275   03 Jun 2027 23:29:58.690   03 Jun 2027 23:31:01.566            62.876                Anadyr2          1964.875
       276   03 Jun 2027 23:31:01.566   03 Jun 2027 23:31:06.379             4.813                Anadyr1           150.406
       277   03 Jun 2027 23:31:07.463   03 Jun 2027 23:32:47.300            99.837                Norilsk          3119.906
       278   03 Jun 2027 23:32:50.216   03 Jun 2027 23:32:55.715             5.499               Magadan1           171.844
       279   03 Jun 2027 23:33:03.558   03 Jun 2027 23:33:44.676            41.118               Magadan2          1284.938
       280   03 Jun 2027 23:34:47.704   03 Jun 2027 23:35:14.959            27.255               Magadan2           851.719
       281   03 Jun 2027 23:35:22.648   03 Jun 2027 23:36:02.581            39.933                Irkutsk          1247.906
       282   03 Jun 2027 23:37:04.365   03 Jun 2027 23:37:33.103            28.738                Irkutsk           898.062
       283   03 Jun 2027 23:39:47.754   03 Jun 2027 23:40:04.736            16.982                Novosib           530.688
       284   03 Jun 2027 23:49:12.438   03 Jun 2027 23:50:47.175            94.737                Sumatra          2960.531
       285   03 Jun 2027 23:53:00.923   03 Jun 2027 23:53:36.266            35.343                Sumatra          1104.469
       286   04 Jun 2027 00:26:18.557   04 Jun 2027 00:26:48.238            29.681            RioGallegos           927.531
       287   04 Jun 2027 00:29:53.698   04 Jun 2027 00:30:39.148            45.450            RioGallegos          1420.312
       288   04 Jun 2027 01:03:46.667   04 Jun 2027 01:04:15.881            29.214                Anadyr1           912.937
       289   04 Jun 2027 01:04:17.285   04 Jun 2027 01:04:39.640            22.355                Anadyr1           698.594
       290   04 Jun 2027 01:05:19.856   04 Jun 2027 01:06:01.474            41.618                Anadyr2          1300.562
       291   04 Jun 2027 01:07:04.462   04 Jun 2027 01:08:43.930            99.468                Norilsk          3108.375
       292   04 Jun 2027 01:08:56.549   04 Jun 2027 01:09:17.609            21.060               Magadan1           658.125
       293   04 Jun 2027 01:10:56.875   04 Jun 2027 01:12:55.073           118.198                Irkutsk          3693.687
       294   04 Jun 2027 01:13:05.942   04 Jun 2027 01:13:16.271            10.329                Novosib           322.781
       295   04 Jun 2027 01:13:23.932   04 Jun 2027 01:14:43.145            79.213                Novosib          2475.406
       296   04 Jun 2027 01:23:02.200   04 Jun 2027 01:23:49.378            47.178                  Delhi          1474.312
       297   04 Jun 2027 01:27:49.823   04 Jun 2027 01:29:46.771           116.948                Sumatra          3654.625
       298   04 Jun 2027 02:06:24.340   04 Jun 2027 02:06:34.335             9.995            RioGallegos           312.344
       299   04 Jun 2027 02:07:07.150   04 Jun 2027 02:07:47.363            40.213            RioGallegos          1256.656
       300   04 Jun 2027 02:38:00.476   04 Jun 2027 02:38:17.644            17.168                Anadyr1           536.500
       301   04 Jun 2027 02:42:01.019   04 Jun 2027 02:42:22.573            21.554                Anadyr1           673.563
       302   04 Jun 2027 02:43:04.675   04 Jun 2027 02:44:40.307            95.632                Norilsk          2988.500
       303   04 Jun 2027 02:45:26.947   04 Jun 2027 02:46:19.647            52.700              Murmansk2          1646.875
       304   04 Jun 2027 02:46:51.853   04 Jun 2027 02:47:06.957            15.104                Novosib           472.000
       305   04 Jun 2027 02:47:28.857   04 Jun 2027 02:48:24.333            55.476                Irkutsk          1733.625
       306   04 Jun 2027 02:50:12.391   04 Jun 2027 02:50:36.159            23.768                Irkutsk           742.750
       307   04 Jun 2027 02:51:17.051   04 Jun 2027 02:51:20.242             3.191                Irkutsk            99.719
       308   04 Jun 2027 02:51:35.963   04 Jun 2027 02:51:49.923            13.960                Irkutsk           436.250
       309   04 Jun 2027 02:53:26.645   04 Jun 2027 02:53:47.519            20.874                Irkutsk           652.313
       310   04 Jun 2027 02:56:57.860   04 Jun 2027 02:58:47.177           109.317                  Delhi          3416.156
       311   04 Jun 2027 04:28:34.653   04 Jun 2027 04:32:53.822           259.169                Novosib          8099.031
       312   04 Jun 2027 04:34:08.335   04 Jun 2027 04:35:15.775            67.440                 Moscow          2107.500
       313   04 Jun 2027 04:49:04.521   04 Jun 2027 04:50:09.422            64.901               CapeTown          2028.156
       314   04 Jun 2027 04:51:10.183   04 Jun 2027 04:52:14.127            63.944               CapeTown          1998.250
       315   04 Jun 2027 05:53:28.295   04 Jun 2027 05:55:21.134           112.839               Magadan1          3526.219
       316   04 Jun 2027 06:04:58.073   04 Jun 2027 06:06:02.474            64.401              Murmansk2          2012.531
       317   04 Jun 2027 06:06:05.522   04 Jun 2027 06:06:21.632            16.110                 Moscow           503.437
       318   04 Jun 2027 06:09:01.424   04 Jun 2027 06:09:24.118            22.694              Murmansk2           709.187
       319   04 Jun 2027 06:10:27.806   04 Jun 2027 06:10:32.598             4.792                 Moscow           149.750
       320   04 Jun 2027 06:24:53.530   04 Jun 2027 06:26:12.037            78.507               CapeTown          2453.344
       321   04 Jun 2027 06:29:25.520   04 Jun 2027 06:30:14.880            49.360               CapeTown          1542.500
       322   04 Jun 2027 07:27:41.450   04 Jun 2027 07:28:12.436            30.986               Magadan2           968.312
       323   04 Jun 2027 07:28:36.153   04 Jun 2027 07:29:17.984            41.831                Anadyr1          1307.219
       324   04 Jun 2027 07:29:23.890   04 Jun 2027 07:30:27.728            63.838               Magadan2          1994.937
       325   04 Jun 2027 09:02:06.934   04 Jun 2027 09:03:19.413            72.479                Anadyr2          2264.969
       326   04 Jun 2027 09:03:37.412   04 Jun 2027 09:04:23.431            46.019               Magadan1          1438.094
       327   04 Jun 2027 09:04:35.125   04 Jun 2027 09:05:32.394            57.269               Magadan2          1789.656
       328   04 Jun 2027 09:05:44.933   04 Jun 2027 09:07:13.221            88.288               Magadan2          2759.000
       329   04 Jun 2027 09:07:32.643   04 Jun 2027 09:07:36.614             3.971               Magadan1           124.094
       330   04 Jun 2027 09:07:36.614   04 Jun 2027 09:08:09.642            33.028               Magadan2          1032.125
       331   04 Jun 2027 09:45:27.455   04 Jun 2027 09:45:41.014            13.559            RioGallegos           423.719
       332   04 Jun 2027 10:38:24.051   04 Jun 2027 10:40:29.568           125.517               Magadan1          3922.406
       333   04 Jun 2027 10:40:45.679   04 Jun 2027 10:41:16.682            31.003               Magadan2           968.844
       334   04 Jun 2027 10:41:18.398   04 Jun 2027 10:43:24.930           126.532               Magadan1          3954.125
       335   04 Jun 2027 10:43:46.251   04 Jun 2027 10:44:08.796            22.545                Irkutsk           704.531
       336   04 Jun 2027 10:44:10.807   04 Jun 2027 10:44:27.982            17.175                Norilsk           536.719
       337   04 Jun 2027 10:44:34.681   04 Jun 2027 10:45:43.291            68.610                Novosib          2144.062
       338   04 Jun 2027 11:20:56.945   04 Jun 2027 11:21:08.557            11.612            RioGallegos           362.875
       339   04 Jun 2027 11:22:11.563   04 Jun 2027 11:23:02.448            50.885            RioGallegos          1590.156
       340   04 Jun 2027 11:55:05.634   04 Jun 2027 11:55:45.966            40.332                Sumatra          1260.375
       341   04 Jun 2027 12:08:34.412   04 Jun 2027 12:09:34.745            60.333                Irkutsk          1885.406
       342   04 Jun 2027 12:14:39.575   04 Jun 2027 12:14:40.716             1.141                Norilsk            35.656
       343   04 Jun 2027 12:14:50.032   04 Jun 2027 12:15:38.221            48.189                Novosib          1505.906
       344   04 Jun 2027 12:58:18.052   04 Jun 2027 13:00:54.676           156.624            RioGallegos          4894.500
       345   04 Jun 2027 13:32:37.037   04 Jun 2027 13:35:43.425           186.388                Sumatra          5824.625
       346   04 Jun 2027 13:48:23.633   04 Jun 2027 13:52:29.520           245.887                Irkutsk          7683.969
       347   04 Jun 2027 15:24:56.274   04 Jun 2027 15:25:21.617            25.343                 Moscow           791.969
       348   04 Jun 2027 15:26:45.103   04 Jun 2027 15:29:49.653           184.550                Novosib          5767.188
       349   04 Jun 2027 15:30:26.138   04 Jun 2027 15:30:58.042            31.904                Novosib           997.000
       350   04 Jun 2027 15:34:21.806   04 Jun 2027 15:34:44.096            22.290                Norilsk           696.562
       351   04 Jun 2027 16:39:25.207   04 Jun 2027 16:39:37.770            12.563               CapeTown           392.594
       352   04 Jun 2027 16:40:47.818   04 Jun 2027 16:41:08.923            21.105               CapeTown           659.531
       353   04 Jun 2027 16:44:48.054   04 Jun 2027 16:45:23.717            35.663               CapeTown          1114.469
       354   04 Jun 2027 17:00:01.246   04 Jun 2027 17:00:40.602            39.356                 Moscow          1229.875
       355   04 Jun 2027 17:03:05.765   04 Jun 2027 17:04:36.628            90.863                 Moscow          2839.469
       356   04 Jun 2027 17:09:23.509   04 Jun 2027 17:09:38.858            15.349                 Moscow           479.656
       357   04 Jun 2027 17:11:59.013   04 Jun 2027 17:12:26.668            27.655              Murmansk1           864.219
       358   04 Jun 2027 17:18:15.523   04 Jun 2027 17:19:18.000            62.477                Anadyr1          1952.406
       359   04 Jun 2027 17:20:07.031   04 Jun 2027 17:20:12.988             5.957                Anadyr2           186.156
       360   04 Jun 2027 17:20:41.956   04 Jun 2027 17:20:59.997            18.041                Anadyr1           563.781
       361   04 Jun 2027 17:21:15.328   04 Jun 2027 17:21:53.222            37.894                Anadyr2          1184.187
       362   04 Jun 2027 18:12:52.517   04 Jun 2027 18:13:28.745            36.228               CapeTown          1132.125
       363   04 Jun 2027 18:16:14.903   04 Jun 2027 18:16:42.779            27.876               CapeTown           871.125
       364   04 Jun 2027 18:20:16.639   04 Jun 2027 18:20:47.728            31.089               CapeTown           971.531
       365   04 Jun 2027 18:41:25.734   04 Jun 2027 18:44:16.523           170.789                 Moscow          5337.156
       366   04 Jun 2027 18:45:44.078   04 Jun 2027 18:47:06.874            82.796              Murmansk1          2587.375
       367   04 Jun 2027 18:47:19.705   04 Jun 2027 18:47:26.551             6.846              Murmansk2           213.937
       368   04 Jun 2027 18:53:54.601   04 Jun 2027 18:54:30.572            35.971                Anadyr2          1124.094
       369   04 Jun 2027 18:59:39.933   04 Jun 2027 19:00:36.619            56.686               Magadan2          1771.437
       370   04 Jun 2027 19:50:25.220   04 Jun 2027 19:51:00.631            35.411               CapeTown          1106.594
       371   04 Jun 2027 19:54:11.192   04 Jun 2027 19:55:28.905            77.713               CapeTown          2428.531
       372   04 Jun 2027 20:29:24.646   04 Jun 2027 20:31:08.828           104.182                Anadyr1          3255.688
       373   04 Jun 2027 20:31:53.021   04 Jun 2027 20:34:15.788           142.767               Magadan2          4461.469
       374   04 Jun 2027 20:34:19.372   04 Jun 2027 20:34:27.596             8.224               Magadan1           257.000
       375   04 Jun 2027 20:34:59.431   04 Jun 2027 20:35:32.519            33.088               Magadan1          1034.000
       376   04 Jun 2027 20:38:53.775   04 Jun 2027 20:39:07.985            14.210               Magadan2           444.063
       377   04 Jun 2027 20:40:23.333   04 Jun 2027 20:40:46.342            23.009               Magadan1           719.031
       378   04 Jun 2027 22:05:19.445   04 Jun 2027 22:07:17.308           117.863                Anadyr2          3683.219
       379   04 Jun 2027 22:07:34.678   04 Jun 2027 22:09:29.659           114.981                Anadyr1          3593.156
       380   04 Jun 2027 22:09:37.753   04 Jun 2027 22:12:36.794           179.041               Magadan2          5595.031
       381   04 Jun 2027 22:14:31.611   04 Jun 2027 22:15:14.008            42.397               Magadan2          1324.906
       382   04 Jun 2027 22:15:27.976   04 Jun 2027 22:16:27.910            59.934                Irkutsk          1872.937
       383   04 Jun 2027 22:59:40.043   04 Jun 2027 23:01:33.462           113.419            RioGallegos          3544.344
       384   04 Jun 2027 23:05:05.298   04 Jun 2027 23:05:26.663            21.365            RioGallegos           667.656
       385   04 Jun 2027 23:08:04.769   04 Jun 2027 23:08:23.932            19.163            RioGallegos           598.844
       386   04 Jun 2027 23:40:54.421   04 Jun 2027 23:41:40.203            45.782                Anadyr1          1430.687
       387   04 Jun 2027 23:42:45.168   04 Jun 2027 23:43:05.982            20.814                Anadyr1           650.438
       388   04 Jun 2027 23:43:08.337   04 Jun 2027 23:44:21.958            73.621                Norilsk          2300.656
       389   04 Jun 2027 23:44:36.313   04 Jun 2027 23:44:40.409             4.096               Magadan1           128.000
       390   04 Jun 2027 23:44:48.562   04 Jun 2027 23:44:58.345             9.783               Magadan2           305.719
       391   04 Jun 2027 23:45:28.367   04 Jun 2027 23:45:31.578             3.211               Magadan1           100.344
       392   04 Jun 2027 23:46:18.671   04 Jun 2027 23:47:03.339            44.668               Magadan1          1395.875
       393   04 Jun 2027 23:47:16.997   04 Jun 2027 23:48:10.993            53.996                Irkutsk          1687.375
       394   04 Jun 2027 23:48:55.794   04 Jun 2027 23:49:45.516            49.722                Novosib          1553.813
       395   04 Jun 2027 23:50:48.532   04 Jun 2027 23:51:33.862            45.330                Novosib          1416.563
       396   04 Jun 2027 23:53:46.245   04 Jun 2027 23:53:50.626             4.381                Novosib           136.906
       397   04 Jun 2027 23:54:41.045   04 Jun 2027 23:54:59.934            18.889                Novosib           590.281
       398   04 Jun 2027 23:55:29.176   04 Jun 2027 23:56:48.044            78.868                Irkutsk          2464.625
       399   05 Jun 2027 00:03:52.890   05 Jun 2027 00:04:36.386            43.496                Sumatra          1359.250
       400   05 Jun 2027 00:35:15.475   05 Jun 2027 00:35:34.577            19.102            RioGallegos           596.937
       401   05 Jun 2027 00:38:52.018   05 Jun 2027 00:39:56.438            64.420            RioGallegos          2013.125
       402   05 Jun 2027 01:15:34.384   05 Jun 2027 01:16:12.886            38.502                Anadyr2          1203.187
       403   05 Jun 2027 01:16:15.473   05 Jun 2027 01:16:40.284            24.811                Anadyr1           775.344
       404   05 Jun 2027 01:17:21.201   05 Jun 2027 01:17:48.286            27.085                Anadyr2           846.406
       405   05 Jun 2027 01:19:06.820   05 Jun 2027 01:20:49.614           102.794                Norilsk          3212.312
       406   05 Jun 2027 01:20:55.193   05 Jun 2027 01:21:01.939             6.746               Magadan2           210.813
       407   05 Jun 2027 01:21:22.015   05 Jun 2027 01:21:51.136            29.121               Magadan2           910.031
       408   05 Jun 2027 01:23:00.137   05 Jun 2027 01:24:54.880           114.743                Irkutsk          3585.719
       409   05 Jun 2027 01:27:16.477   05 Jun 2027 01:28:08.278            51.801                Irkutsk          1618.781
       410   05 Jun 2027 01:31:24.054   05 Jun 2027 01:32:03.256            39.202                  Delhi          1225.063
       411   05 Jun 2027 01:34:53.893   05 Jun 2027 01:34:55.259             1.366                  Delhi            42.687
       412   05 Jun 2027 01:37:42.224   05 Jun 2027 01:37:47.465             5.241                  Delhi           163.781
       413   05 Jun 2027 01:39:06.674   05 Jun 2027 01:41:38.582           151.908                Sumatra          4747.125
       414   05 Jun 2027 02:18:38.109   05 Jun 2027 02:20:11.826            93.717            RioGallegos          2928.656
       415   05 Jun 2027 02:55:03.311   05 Jun 2027 02:55:05.402             2.091                Anadyr2            65.344
       416   05 Jun 2027 02:55:06.355   05 Jun 2027 02:56:05.307            58.952                Norilsk          1842.250
       417   05 Jun 2027 02:56:40.174   05 Jun 2027 02:56:48.720             8.546                Norilsk           267.063
       418   05 Jun 2027 02:57:01.281   05 Jun 2027 02:57:30.000            28.719                Norilsk           897.469
       419   05 Jun 2027 02:58:25.014   05 Jun 2027 02:58:55.786            30.772              Murmansk2           961.625
       420   05 Jun 2027 02:58:55.786   05 Jun 2027 02:59:05.557             9.771              Murmansk1           305.344
       421   05 Jun 2027 02:59:40.123   05 Jun 2027 03:00:41.915            61.792                Irkutsk          1931.000
       422   05 Jun 2027 03:00:48.603   05 Jun 2027 03:00:54.009             5.406                Novosib           168.937
       423   05 Jun 2027 03:01:12.807   05 Jun 2027 03:01:47.552            34.745                Norilsk          1085.781
       424   05 Jun 2027 03:01:56.221   05 Jun 2027 03:02:42.902            46.681              Murmansk2          1458.781
       425   05 Jun 2027 03:03:03.400   05 Jun 2027 03:05:13.237           129.837                Irkutsk          4057.406
       426   05 Jun 2027 03:05:35.416   05 Jun 2027 03:06:35.410            59.994                Norilsk          1874.812
       427   05 Jun 2027 03:06:38.609   05 Jun 2027 03:08:24.885           106.276                Irkutsk          3321.125
       428   05 Jun 2027 03:08:39.617   05 Jun 2027 03:11:11.437           151.820                  Delhi          4744.375
       429   05 Jun 2027 04:39:24.658   05 Jun 2027 04:40:34.885            70.227                Novosib          2194.594
       430   05 Jun 2027 04:41:50.151   05 Jun 2027 04:42:32.310            42.159                Novosib          1317.469
       431   05 Jun 2027 04:43:28.803   05 Jun 2027 04:44:18.218            49.415                 Moscow          1544.219
       432   05 Jun 2027 04:44:30.975   05 Jun 2027 04:44:43.062            12.087                 Moscow           377.719
       433   05 Jun 2027 04:45:52.323   05 Jun 2027 04:47:37.870           105.547                 Moscow          3298.344
       434   05 Jun 2027 05:00:47.099   05 Jun 2027 05:04:08.949           201.850               CapeTown          6307.813
       435   05 Jun 2027 05:57:08.035   05 Jun 2027 06:00:51.168           223.133                Anadyr1          6972.906
       436   05 Jun 2027 06:01:27.861   05 Jun 2027 06:03:03.249            95.388                Anadyr2          2980.875
       437   05 Jun 2027 06:04:09.344   05 Jun 2027 06:05:30.715            81.371               Magadan1          2542.844
       438   05 Jun 2027 06:05:33.152   05 Jun 2027 06:06:12.913            39.761                Anadyr2          1242.531
       439   05 Jun 2027 06:16:20.383   05 Jun 2027 06:17:20.609            60.226                 Moscow          1882.062
       440   05 Jun 2027 06:37:20.567   05 Jun 2027 06:38:14.560            53.993               CapeTown          1687.281
       441   05 Jun 2027 06:41:26.334   05 Jun 2027 06:41:39.459            13.125               CapeTown           410.156
       442   05 Jun 2027 06:47:06.244   05 Jun 2027 06:47:22.459            16.215               CapeTown           506.719
       443   05 Jun 2027 07:38:05.121   05 Jun 2027 07:38:18.282            13.161                Anadyr1           411.281
       444   05 Jun 2027 07:38:24.044   05 Jun 2027 07:39:09.649            45.605                Anadyr2          1425.156
       445   05 Jun 2027 07:39:48.815   05 Jun 2027 07:40:14.872            26.057               Magadan2           814.281
       446   05 Jun 2027 07:40:37.498   05 Jun 2027 07:41:10.852            33.354                Anadyr2          1042.313
       447   05 Jun 2027 07:41:23.476   05 Jun 2027 07:41:46.710            23.234               Magadan2           726.063
       448   05 Jun 2027 07:42:07.221   05 Jun 2027 07:42:30.284            23.063               Magadan2           720.719
       449   05 Jun 2027 07:42:40.499   05 Jun 2027 07:43:05.119            24.620               Magadan2           769.375
       450   05 Jun 2027 07:44:22.525   05 Jun 2027 07:44:41.010            18.485                Anadyr2           577.656
       451   05 Jun 2027 08:26:07.596   05 Jun 2027 08:26:23.418            15.822            RioGallegos           494.438
       452   05 Jun 2027 09:14:16.661   05 Jun 2027 09:14:34.970            18.309               Magadan2           572.156
       453   05 Jun 2027 09:15:35.911   05 Jun 2027 09:16:19.729            43.818               Magadan1          1369.312
       454   05 Jun 2027 09:16:25.649   05 Jun 2027 09:17:39.052            73.403                Anadyr2          2293.844
       455   05 Jun 2027 09:17:45.960   05 Jun 2027 09:17:59.450            13.490               Magadan2           421.563
       456   05 Jun 2027 09:18:21.545   05 Jun 2027 09:18:46.779            25.234               Magadan1           788.562
       457   05 Jun 2027 09:19:02.039   05 Jun 2027 09:19:35.144            33.105               Magadan1          1034.531
       458   05 Jun 2027 09:19:50.483   05 Jun 2027 09:20:00.922            10.439                Anadyr1           326.219
       459   05 Jun 2027 09:57:06.690   05 Jun 2027 09:57:40.413            33.723            RioGallegos          1053.844
       460   05 Jun 2027 09:58:47.305   05 Jun 2027 09:59:22.932            35.627            RioGallegos          1113.344
       461   05 Jun 2027 10:49:36.258   05 Jun 2027 10:49:59.357            23.099               Magadan1           721.844
       462   05 Jun 2027 10:49:59.357   05 Jun 2027 10:50:11.406            12.049               Magadan2           376.531
       463   05 Jun 2027 10:51:58.363   05 Jun 2027 10:53:00.660            62.297                Irkutsk          1946.781
       464   05 Jun 2027 10:53:03.403   05 Jun 2027 10:54:32.086            88.683               Magadan2          2771.344
       465   05 Jun 2027 10:54:39.370   05 Jun 2027 10:54:44.364             4.994                Irkutsk           156.062
       466   05 Jun 2027 10:54:52.338   05 Jun 2027 10:55:40.850            48.512                Norilsk          1516.000
       467   05 Jun 2027 10:55:55.568   05 Jun 2027 10:56:15.539            19.971                Irkutsk           624.094
       468   05 Jun 2027 10:56:28.978   05 Jun 2027 10:56:51.912            22.934                Norilsk           716.687
       469   05 Jun 2027 10:57:16.945   05 Jun 2027 10:57:56.404            39.459                Norilsk          1233.094
       470   05 Jun 2027 11:32:30.854   05 Jun 2027 11:32:52.220            21.366            RioGallegos           667.688
       471   05 Jun 2027 11:37:08.618   05 Jun 2027 11:37:29.761            21.143            RioGallegos           660.719
       472   05 Jun 2027 12:06:56.701   05 Jun 2027 12:09:20.759           144.058                Sumatra          4501.813
       473   05 Jun 2027 12:20:47.342   05 Jun 2027 12:21:18.663            31.321                Irkutsk           978.781
       474   05 Jun 2027 12:21:39.232   05 Jun 2027 12:22:19.968            40.736                Irkutsk          1273.000
       475   05 Jun 2027 12:35:59.543   05 Jun 2027 12:36:12.701            13.158                Norilsk           411.187
       476   05 Jun 2027 13:11:05.094   05 Jun 2027 13:12:30.682            85.588            RioGallegos          2674.625
       477   05 Jun 2027 13:45:44.924   05 Jun 2027 13:49:58.932           254.008                Sumatra          7937.750
       478   05 Jun 2027 13:58:34.610   05 Jun 2027 13:59:10.665            36.055                Novosib          1126.719
       479   05 Jun 2027 14:01:41.111   05 Jun 2027 14:04:12.186           151.075                Irkutsk          4721.094
       480   05 Jun 2027 15:32:21.014   05 Jun 2027 15:34:18.268           117.254                  Delhi          3664.188
       481   05 Jun 2027 15:34:52.823   05 Jun 2027 15:35:03.019            10.196                  Delhi           318.625
       482   05 Jun 2027 15:37:51.534   05 Jun 2027 15:38:36.981            45.447                 Moscow          1420.219
