uniorb/output/strategy_4/Drop/Drop_KinoSat_110703.txt

KinoSat_110703
-------------------------
    Access    *     Start Time (UTCG)     *     Stop Time (UTCG)  *   Duration (s)        *       Station  *  Data (Mbytes)
         1   01 Jun 2027 04:00:26.507   01 Jun 2027 04:00:48.752            22.245                Irkutsk           695.156
         2   01 Jun 2027 04:01:05.015   01 Jun 2027 04:02:21.362            76.347               Magadan2          2385.844
         3   01 Jun 2027 04:02:56.660   01 Jun 2027 04:05:15.332           138.672                Anadyr2          4333.500
         4   01 Jun 2027 05:34:44.484   01 Jun 2027 05:35:37.692            53.208               Magadan1          1662.750
         5   01 Jun 2027 05:35:56.655   01 Jun 2027 05:39:36.777           220.122                Irkutsk          6878.812
         6   01 Jun 2027 05:39:40.690   01 Jun 2027 05:40:07.460            26.770               Magadan1           836.563
         7   01 Jun 2027 05:40:23.503   01 Jun 2027 05:40:53.399            29.896               Magadan2           934.250
         8   01 Jun 2027 05:40:56.792   01 Jun 2027 05:41:56.550            59.758              Murmansk1          1867.438
         9   01 Jun 2027 05:42:50.103   01 Jun 2027 05:43:26.673            36.570              Murmansk1          1142.813
        10   01 Jun 2027 05:43:32.300   01 Jun 2027 05:44:32.866            60.566              Murmansk1          1892.687
        11   01 Jun 2027 05:50:10.677   01 Jun 2027 05:50:21.343            10.666              Murmansk1           333.312
        12   01 Jun 2027 06:15:51.541   01 Jun 2027 06:17:17.195            85.654            RioGallegos          2676.687
        13   01 Jun 2027 06:18:00.012   01 Jun 2027 06:18:56.028            56.016            RioGallegos          1750.500
        14   01 Jun 2027 06:19:53.912   01 Jun 2027 06:19:58.616             4.704            RioGallegos           147.000
        15   01 Jun 2027 06:21:41.716   01 Jun 2027 06:22:10.829            29.113            RioGallegos           909.781
        16   01 Jun 2027 06:24:13.987   01 Jun 2027 06:24:47.892            33.905            RioGallegos          1059.531
        17   01 Jun 2027 06:52:14.485   01 Jun 2027 06:52:48.758            34.273                Sumatra          1071.031
        18   01 Jun 2027 06:53:43.673   01 Jun 2027 06:54:48.924            65.251                Sumatra          2039.094
        19   01 Jun 2027 06:57:48.090   01 Jun 2027 06:58:48.102            60.012                Sumatra          1875.375
        20   01 Jun 2027 06:59:19.172   01 Jun 2027 06:59:56.637            37.465                Sumatra          1170.781
        21   01 Jun 2027 07:12:22.200   01 Jun 2027 07:12:47.818            25.618                Norilsk           800.563
        22   01 Jun 2027 07:12:56.290   01 Jun 2027 07:14:21.725            85.435                Novosib          2669.844
        23   01 Jun 2027 07:14:24.515   01 Jun 2027 07:15:04.808            40.293                Norilsk          1259.156
        24   01 Jun 2027 07:15:14.136   01 Jun 2027 07:17:00.654           106.518                Irkutsk          3328.687
        25   01 Jun 2027 07:17:01.543   01 Jun 2027 07:18:24.426            82.883                Novosib          2590.094
        26   01 Jun 2027 07:19:03.454   01 Jun 2027 07:19:16.664            13.210              Murmansk2           412.812
        27   01 Jun 2027 07:52:28.482   01 Jun 2027 07:53:44.669            76.187            RioGallegos          2380.844
        28   01 Jun 2027 07:54:36.940   01 Jun 2027 07:55:04.575            27.635            RioGallegos           863.594
        29   01 Jun 2027 08:26:47.284   01 Jun 2027 08:28:09.811            82.527                Sumatra          2578.969
        30   01 Jun 2027 08:30:44.069   01 Jun 2027 08:31:55.555            71.486                Sumatra          2233.938
        31   01 Jun 2027 08:35:27.239   01 Jun 2027 08:37:37.371           130.132                  Delhi          4066.625
        32   01 Jun 2027 08:49:59.408   01 Jun 2027 08:50:21.608            22.200                 Moscow           693.750
        33   01 Jun 2027 08:50:30.352   01 Jun 2027 08:51:05.537            35.185              Murmansk2          1099.531
        34   01 Jun 2027 08:51:15.512   01 Jun 2027 08:51:47.986            32.474                Novosib          1014.813
        35   01 Jun 2027 08:51:49.945   01 Jun 2027 08:52:12.515            22.570                Irkutsk           705.312
        36   01 Jun 2027 08:53:03.165   01 Jun 2027 08:53:29.814            26.649              Murmansk1           832.781
        37   01 Jun 2027 08:53:41.691   01 Jun 2027 08:54:58.053            76.362              Murmansk2          2386.313
        38   01 Jun 2027 10:11:32.344   01 Jun 2027 10:15:02.890           210.546                  Delhi          6579.562
        39   01 Jun 2027 10:25:59.849   01 Jun 2027 10:29:24.192           204.343              Murmansk2          6385.719
        40   01 Jun 2027 12:15:32.425   01 Jun 2027 12:18:23.094           170.669                Anadyr2          5333.406
        41   01 Jun 2027 13:52:52.175   01 Jun 2027 13:53:35.807            43.632                Anadyr2          1363.500
        42   01 Jun 2027 13:54:40.957   01 Jun 2027 13:55:40.878            59.921                Anadyr1          1872.531
        43   01 Jun 2027 13:56:09.596   01 Jun 2027 13:57:29.194            79.598                Anadyr1          2487.437
        44   01 Jun 2027 15:21:29.340   01 Jun 2027 15:21:53.691            24.351              Murmansk2           760.969
        45   01 Jun 2027 15:22:35.140   01 Jun 2027 15:22:48.001            12.861              Murmansk2           401.906
        46   01 Jun 2027 15:28:01.745   01 Jun 2027 15:31:57.679           235.934               Magadan2          7372.937
        47   01 Jun 2027 15:33:43.137   01 Jun 2027 15:33:54.995            11.858               Magadan1           370.562
        48   01 Jun 2027 15:34:20.366   01 Jun 2027 15:35:42.779            82.413               Magadan2          2575.406
        49   01 Jun 2027 15:37:34.493   01 Jun 2027 15:38:00.632            26.139               Magadan1           816.844
        50   01 Jun 2027 17:03:04.671   01 Jun 2027 17:03:26.217            21.546                Anadyr1           673.312
        51   01 Jun 2027 17:04:03.080   01 Jun 2027 17:04:07.397             4.317                Anadyr2           134.906
        52   01 Jun 2027 17:04:19.444   01 Jun 2027 17:05:37.744            78.300               Magadan2          2446.875
        53   01 Jun 2027 17:06:40.323   01 Jun 2027 17:07:00.919            20.596               Magadan2           643.625
        54   01 Jun 2027 17:08:18.562   01 Jun 2027 17:08:27.001             8.439                Anadyr2           263.719
        55   01 Jun 2027 17:08:54.434   01 Jun 2027 17:09:40.871            46.437                Anadyr1          1451.156
        56   01 Jun 2027 17:10:58.633   01 Jun 2027 17:11:26.644            28.011               Magadan1           875.344
        57   01 Jun 2027 17:11:55.497   01 Jun 2027 17:12:05.273             9.776               Magadan2           305.500
        58   01 Jun 2027 17:12:52.719   01 Jun 2027 17:13:06.787            14.068               Magadan2           439.625
        59   01 Jun 2027 17:13:31.943   01 Jun 2027 17:14:27.833            55.890               Magadan2          1746.562
        60   01 Jun 2027 17:56:26.467   01 Jun 2027 17:59:45.852           199.385            RioGallegos          6230.781
        61   01 Jun 2027 18:01:43.886   01 Jun 2027 18:03:09.762            85.876            RioGallegos          2683.625
        62   01 Jun 2027 18:40:34.587   01 Jun 2027 18:43:13.286           158.699                Norilsk          4959.344
        63   01 Jun 2027 18:43:36.012   01 Jun 2027 18:44:30.632            54.620                Irkutsk          1706.875
        64   01 Jun 2027 18:44:55.709   01 Jun 2027 18:46:25.028            89.319                Irkutsk          2791.219
        65   01 Jun 2027 18:48:17.366   01 Jun 2027 18:49:44.799            87.433                Irkutsk          2732.281
        66   01 Jun 2027 19:01:01.833   01 Jun 2027 19:03:54.600           172.767                Sumatra          5398.969
        67   01 Jun 2027 19:08:21.190   01 Jun 2027 19:08:29.802             8.612                Sumatra           269.125
        68   01 Jun 2027 20:20:11.342   01 Jun 2027 20:22:10.247           118.905                Novosib          3715.781
        69   01 Jun 2027 20:27:03.052   01 Jun 2027 20:27:20.832            17.780                Novosib           555.625
        70   01 Jun 2027 20:28:00.815   01 Jun 2027 20:30:51.505           170.690                  Delhi          5334.062
        71   01 Jun 2027 20:32:42.741   01 Jun 2027 20:34:45.279           122.538                  Delhi          3829.313
        72   01 Jun 2027 21:53:31.947   01 Jun 2027 22:00:13.369           401.422              Murmansk1         12544.437
        73   01 Jun 2027 23:27:31.146   01 Jun 2027 23:27:58.609            27.463               Magadan2           858.219
        74   01 Jun 2027 23:28:12.746   01 Jun 2027 23:28:22.967            10.221               Magadan1           319.406
        75   01 Jun 2027 23:29:00.063   01 Jun 2027 23:30:28.616            88.553              Murmansk2          2767.281
        76   01 Jun 2027 23:30:32.577   01 Jun 2027 23:32:39.495           126.918              Murmansk1          3966.187
        77   01 Jun 2027 23:33:44.514   01 Jun 2027 23:34:34.460            49.946                 Moscow          1560.812
        78   01 Jun 2027 23:35:13.251   01 Jun 2027 23:35:52.018            38.767                 Moscow          1211.469
        79   01 Jun 2027 23:38:21.048   01 Jun 2027 23:39:06.034            44.986                 Moscow          1405.812
        80   01 Jun 2027 23:41:08.937   01 Jun 2027 23:42:16.230            67.293                 Moscow          2102.906
        81   01 Jun 2027 23:57:54.723   01 Jun 2027 23:58:19.885            25.162               CapeTown           786.312
        82   01 Jun 2027 23:59:11.480   02 Jun 2027 00:00:02.006            50.526               CapeTown          1578.938
        83   02 Jun 2027 00:02:29.534   02 Jun 2027 00:03:24.556            55.022               CapeTown          1719.437
        84   02 Jun 2027 00:04:48.514   02 Jun 2027 00:05:01.515            13.001               CapeTown           406.281
        85   02 Jun 2027 01:01:16.094   02 Jun 2027 01:01:43.576            27.482               Magadan2           858.812
        86   02 Jun 2027 01:03:05.413   02 Jun 2027 01:04:05.899            60.486               Magadan1          1890.188
        87   02 Jun 2027 01:04:56.647   02 Jun 2027 01:06:17.038            80.391              Murmansk2          2512.219
        88   02 Jun 2027 01:08:46.655   02 Jun 2027 01:10:18.961            92.306              Murmansk2          2884.563
        89   02 Jun 2027 01:33:51.303   02 Jun 2027 01:33:53.244             1.941               CapeTown            60.656
        90   02 Jun 2027 01:35:11.392   02 Jun 2027 01:36:21.082            69.690               CapeTown          2177.812
        91   02 Jun 2027 01:41:33.135   02 Jun 2027 01:41:45.662            12.527               CapeTown           391.469
        92   02 Jun 2027 01:43:14.672   02 Jun 2027 01:44:26.652            71.980               CapeTown          2249.375
        93   02 Jun 2027 02:28:54.663   02 Jun 2027 02:29:26.861            32.198                Anadyr2          1006.187
        94   02 Jun 2027 02:29:41.522   02 Jun 2027 02:30:36.999            55.477               Magadan1          1733.656
        95   02 Jun 2027 02:30:53.997   02 Jun 2027 02:31:20.824            26.827               Magadan1           838.344
        96   02 Jun 2027 02:34:32.595   02 Jun 2027 02:34:54.912            22.317               Magadan1           697.406
        97   02 Jun 2027 02:36:51.324   02 Jun 2027 02:37:04.499            13.175               Magadan1           411.719
        98   02 Jun 2027 02:37:30.473   02 Jun 2027 02:37:37.968             7.495                Norilsk           234.219
        99   02 Jun 2027 02:37:41.553   02 Jun 2027 02:38:33.573            52.020                Norilsk          1625.625
       100   02 Jun 2027 02:40:52.141   02 Jun 2027 02:42:04.109            71.968              Murmansk1          2249.000
       101   02 Jun 2027 02:44:09.322   02 Jun 2027 02:44:14.809             5.487              Murmansk2           171.469
       102   02 Jun 2027 02:44:42.521   02 Jun 2027 02:45:27.630            45.109                 Moscow          1409.656
       103   02 Jun 2027 02:49:36.339   02 Jun 2027 02:49:37.506             1.167              Murmansk1            36.469
       104   02 Jun 2027 02:49:39.535   02 Jun 2027 02:49:41.258             1.723                 Moscow            53.844
       105   02 Jun 2027 02:49:56.141   02 Jun 2027 02:50:08.869            12.728              Murmansk2           397.750
       106   02 Jun 2027 02:51:46.153   02 Jun 2027 02:51:49.946             3.793                 Moscow           118.531
       107   02 Jun 2027 02:52:18.692   02 Jun 2027 02:52:53.303            34.611                 Moscow          1081.594
       108   02 Jun 2027 04:11:23.765   02 Jun 2027 04:11:29.579             5.814                Anadyr1           181.687
       109   02 Jun 2027 04:11:49.503   02 Jun 2027 04:14:57.702           188.199                Anadyr1          5881.219
       110   02 Jun 2027 04:14:57.702   02 Jun 2027 04:15:21.825            24.123                Anadyr2           753.844
       111   02 Jun 2027 04:15:26.660   02 Jun 2027 04:15:32.087             5.427               Magadan2           169.594
       112   02 Jun 2027 04:15:37.772   02 Jun 2027 04:15:46.279             8.507                Anadyr2           265.844
       113   02 Jun 2027 04:16:12.923   02 Jun 2027 04:16:36.049            23.126               Magadan2           722.688
       114   02 Jun 2027 04:54:14.936   02 Jun 2027 04:57:11.005           176.069            RioGallegos          5502.156
       115   02 Jun 2027 05:48:56.459   02 Jun 2027 05:49:31.327            34.868                Irkutsk          1089.625
       116   02 Jun 2027 05:50:02.458   02 Jun 2027 05:52:47.694           165.236               Magadan1          5163.625
       117   02 Jun 2027 07:26:07.655   02 Jun 2027 07:29:01.037           173.382                Irkutsk          5418.187
       118   02 Jun 2027 09:03:31.403   02 Jun 2027 09:03:58.360            26.957                Irkutsk           842.406
       119   02 Jun 2027 09:05:03.940   02 Jun 2027 09:05:20.766            16.826                Novosib           525.813
       120   02 Jun 2027 09:06:06.774   02 Jun 2027 09:06:27.583            20.809                Novosib           650.281
       121   02 Jun 2027 09:10:48.151   02 Jun 2027 09:11:41.609            53.458              Murmansk1          1670.562
       122   02 Jun 2027 10:24:04.357   02 Jun 2027 10:28:07.581           243.224                  Delhi          7600.750
       123   02 Jun 2027 10:37:42.644   02 Jun 2027 10:38:00.539            17.895              Murmansk2           559.219
       124   02 Jun 2027 10:38:31.349   02 Jun 2027 10:38:40.224             8.875                Norilsk           277.344
       125   02 Jun 2027 10:40:36.756   02 Jun 2027 10:40:42.575             5.819                Norilsk           181.844
       126   02 Jun 2027 12:10:51.310   02 Jun 2027 12:13:28.449           157.139              Murmansk2          4910.594
       127   02 Jun 2027 12:13:51.723   02 Jun 2027 12:15:15.290            83.567              Murmansk1          2611.469
       128   02 Jun 2027 12:17:51.422   02 Jun 2027 12:18:01.002             9.580                Norilsk           299.375
       129   02 Jun 2027 12:19:18.206   02 Jun 2027 12:19:22.494             4.288                Norilsk           134.000
       130   02 Jun 2027 12:26:49.326   02 Jun 2027 12:30:13.481           204.155                Anadyr1          6379.844
       131   02 Jun 2027 12:30:54.552   02 Jun 2027 12:31:47.150            52.598                Anadyr2          1643.687
       132   02 Jun 2027 13:48:50.013   02 Jun 2027 13:50:24.603            94.590              Murmansk1          2955.938
       133   02 Jun 2027 13:52:53.749   02 Jun 2027 13:53:09.663            15.914              Murmansk1           497.313
       134   02 Jun 2027 13:55:25.785   02 Jun 2027 13:55:56.462            30.677              Murmansk1           958.656
       135   02 Jun 2027 13:58:34.862   02 Jun 2027 13:58:38.323             3.461              Murmansk1           108.156
       136   02 Jun 2027 14:01:24.117   02 Jun 2027 14:03:11.980           107.863                Anadyr2          3370.719
       137   02 Jun 2027 14:03:13.599   02 Jun 2027 14:04:41.084            87.485                Anadyr1          2733.906
       138   02 Jun 2027 14:05:24.317   02 Jun 2027 14:06:56.832            92.515                Anadyr1          2891.094
       139   02 Jun 2027 15:29:41.649   02 Jun 2027 15:30:48.863            67.214              Murmansk2          2100.437
       140   02 Jun 2027 15:37:11.007   02 Jun 2027 15:39:26.022           135.015                Anadyr1          4219.219
       141   02 Jun 2027 15:39:54.257   02 Jun 2027 15:43:54.791           240.534               Magadan2          7516.688
       142   02 Jun 2027 15:48:11.349   02 Jun 2027 15:49:15.623            64.274               Magadan2          2008.563
       143   02 Jun 2027 17:13:06.202   02 Jun 2027 17:13:42.507            36.305                Anadyr1          1134.531
       144   02 Jun 2027 17:15:23.237   02 Jun 2027 17:17:31.083           127.846               Magadan2          3995.187
       145   02 Jun 2027 17:23:48.015   02 Jun 2027 17:23:50.064             2.049               Magadan1            64.031
       146   02 Jun 2027 17:23:56.376   02 Jun 2027 17:24:07.505            11.129               Magadan2           347.781
       147   02 Jun 2027 17:24:45.841   02 Jun 2027 17:24:58.419            12.578               Magadan1           393.063
       148   02 Jun 2027 17:27:52.187   02 Jun 2027 17:28:17.109            24.922               Magadan2           778.813
       149   02 Jun 2027 18:08:03.168   02 Jun 2027 18:11:36.607           213.439            RioGallegos          6669.969
       150   02 Jun 2027 18:12:38.541   02 Jun 2027 18:14:34.987           116.446            RioGallegos          3638.938
       151   02 Jun 2027 18:51:09.330   02 Jun 2027 18:51:46.268            36.938                Norilsk          1154.312
       152   02 Jun 2027 18:52:44.551   02 Jun 2027 18:55:13.958           149.407                Norilsk          4668.969
       153   02 Jun 2027 18:56:16.411   02 Jun 2027 18:57:05.794            49.383                Irkutsk          1543.219
       154   02 Jun 2027 18:58:26.834   02 Jun 2027 18:59:00.012            33.178                Irkutsk          1036.812
       155   02 Jun 2027 19:09:26.852   02 Jun 2027 19:12:57.538           210.686                Sumatra          6583.937
       156   02 Jun 2027 19:14:02.306   02 Jun 2027 19:14:57.935            55.629                Sumatra          1738.406
       157   02 Jun 2027 19:16:02.999   02 Jun 2027 19:16:11.709             8.710                Sumatra           272.187
       158   02 Jun 2027 20:30:43.855   02 Jun 2027 20:31:52.568            68.713                Irkutsk          2147.281
       159   02 Jun 2027 20:32:11.378   02 Jun 2027 20:32:40.050            28.672                Novosib           896.000
       160   02 Jun 2027 20:33:04.929   02 Jun 2027 20:34:21.690            76.761                Novosib          2398.781
       161   02 Jun 2027 20:40:21.459   02 Jun 2027 20:42:38.723           137.264                  Delhi          4289.500
       162   02 Jun 2027 20:45:07.740   02 Jun 2027 20:46:34.439            86.699                  Delhi          2709.344
       163   02 Jun 2027 22:05:25.133   02 Jun 2027 22:11:11.484           346.351              Murmansk1         10823.469
       164   02 Jun 2027 22:12:01.072   02 Jun 2027 22:13:57.680           116.608                 Moscow          3644.000
       165   02 Jun 2027 23:41:00.928   02 Jun 2027 23:41:34.384            33.456              Murmansk1          1045.500
       166   02 Jun 2027 23:42:24.560   02 Jun 2027 23:42:45.912            21.352              Murmansk2           667.250
       167   02 Jun 2027 23:43:04.919   02 Jun 2027 23:44:27.683            82.764              Murmansk2          2586.375
       168   02 Jun 2027 23:44:30.851   02 Jun 2027 23:44:53.577            22.726                 Moscow           710.188
       169   02 Jun 2027 23:46:26.504   02 Jun 2027 23:47:22.520            56.016              Murmansk1          1750.500
       170   02 Jun 2027 23:48:03.490   02 Jun 2027 23:49:01.694            58.204                 Moscow          1818.875
       171   02 Jun 2027 23:52:40.964   02 Jun 2027 23:53:18.004            37.040                 Moscow          1157.500
       172   03 Jun 2027 00:09:23.314   03 Jun 2027 00:12:20.340           177.026               CapeTown          5532.063
       173   03 Jun 2027 01:15:49.173   03 Jun 2027 01:16:04.833            15.660               Magadan2           489.375
       174   03 Jun 2027 01:16:58.303   03 Jun 2027 01:18:16.217            77.914              Murmansk1          2434.812
       175   03 Jun 2027 01:19:21.346   03 Jun 2027 01:20:04.786            43.440              Murmansk1          1357.500
       176   03 Jun 2027 01:20:10.806   03 Jun 2027 01:21:23.142            72.336                 Moscow          2260.500
       177   03 Jun 2027 01:44:20.048   03 Jun 2027 01:45:37.878            77.830               CapeTown          2432.187
       178   03 Jun 2027 01:52:41.162   03 Jun 2027 01:53:48.509            67.347               CapeTown          2104.594
       179   03 Jun 2027 02:41:03.127   03 Jun 2027 02:41:20.944            17.817                Anadyr2           556.781
       180   03 Jun 2027 02:41:28.123   03 Jun 2027 02:41:50.402            22.279                Anadyr2           696.219
       181   03 Jun 2027 02:42:21.640   03 Jun 2027 02:43:45.528            83.888               Magadan1          2621.500
       182   03 Jun 2027 02:44:53.712   03 Jun 2027 02:44:58.311             4.599               Magadan2           143.719
       183   03 Jun 2027 02:46:33.620   03 Jun 2027 02:47:00.143            26.523               Magadan2           828.844
       184   03 Jun 2027 02:49:01.776   03 Jun 2027 02:49:19.061            17.285                Norilsk           540.156
       185   03 Jun 2027 02:49:36.253   03 Jun 2027 02:49:46.160             9.907                Norilsk           309.594
       186   03 Jun 2027 02:52:52.604   03 Jun 2027 02:53:31.992            39.388              Murmansk2          1230.875
       187   03 Jun 2027 02:53:31.992   03 Jun 2027 02:54:09.282            37.290              Murmansk1          1165.313
       188   03 Jun 2027 02:55:57.315   03 Jun 2027 02:56:05.885             8.570              Murmansk2           267.812
       189   03 Jun 2027 02:56:11.705   03 Jun 2027 02:56:14.409             2.704              Murmansk2            84.500
       190   03 Jun 2027 02:56:28.971   03 Jun 2027 02:57:17.731            48.760                 Moscow          1523.750
       191   03 Jun 2027 04:23:59.170   03 Jun 2027 04:24:14.564            15.394                Anadyr2           481.063
       192   03 Jun 2027 04:24:53.647   03 Jun 2027 04:26:14.266            80.619               Magadan1          2519.344
       193   03 Jun 2027 04:26:32.210   03 Jun 2027 04:28:23.244           111.034               Magadan2          3469.813
       194   03 Jun 2027 04:28:23.244   03 Jun 2027 04:29:19.470            56.226               Magadan1          1757.063
       195   03 Jun 2027 05:05:46.306   03 Jun 2027 05:08:53.176           186.870            RioGallegos          5839.688
       196   03 Jun 2027 06:01:13.134   03 Jun 2027 06:02:30.447            77.313               Magadan1          2416.031
       197   03 Jun 2027 06:02:34.485   03 Jun 2027 06:03:53.868            79.383                Irkutsk          2480.719
       198   03 Jun 2027 06:04:27.611   03 Jun 2027 06:04:40.105            12.494               Magadan1           390.437
       199   03 Jun 2027 06:05:21.590   03 Jun 2027 06:06:03.110            41.520                Novosib          1297.500
       200   03 Jun 2027 07:35:33.826   03 Jun 2027 07:35:49.748            15.922                Irkutsk           497.562
       201   03 Jun 2027 07:36:24.784   03 Jun 2027 07:36:43.357            18.573                Norilsk           580.406
       202   03 Jun 2027 07:36:56.422   03 Jun 2027 07:37:54.224            57.802                Irkutsk          1806.312
       203   03 Jun 2027 07:37:58.671   03 Jun 2027 07:39:02.480            63.809              Murmansk2          1994.031
       204   03 Jun 2027 07:40:07.184   03 Jun 2027 07:40:26.787            19.603                Norilsk           612.594
       205   03 Jun 2027 07:41:36.270   03 Jun 2027 07:41:38.562             2.292              Murmansk1            71.625
       206   03 Jun 2027 07:42:12.430   03 Jun 2027 07:42:59.233            46.803              Murmansk1          1462.594
       207   03 Jun 2027 08:17:22.775   03 Jun 2027 08:17:59.553            36.778            RioGallegos          1149.312
       208   03 Jun 2027 08:51:34.237   03 Jun 2027 08:51:54.263            20.026                Sumatra           625.812
       209   03 Jun 2027 08:52:39.041   03 Jun 2027 08:53:20.286            41.245                Sumatra          1288.906
       210   03 Jun 2027 08:58:50.761   03 Jun 2027 08:59:42.570            51.809                Sumatra          1619.031
       211   03 Jun 2027 09:14:06.213   03 Jun 2027 09:14:20.592            14.379                Novosib           449.344
       212   03 Jun 2027 09:15:01.793   03 Jun 2027 09:15:28.075            26.282                Novosib           821.313
       213   03 Jun 2027 09:16:43.084   03 Jun 2027 09:16:55.214            12.130                Norilsk           379.062
       214   03 Jun 2027 10:36:47.733   03 Jun 2027 10:39:14.769           147.036                  Delhi          4594.875
       215   03 Jun 2027 10:40:43.500   03 Jun 2027 10:40:55.294            11.794                  Delhi           368.563
       216   03 Jun 2027 10:49:31.938   03 Jun 2027 10:49:38.739             6.801              Murmansk1           212.531
       217   03 Jun 2027 10:49:49.803   03 Jun 2027 10:50:16.005            26.202                Novosib           818.812
       218   03 Jun 2027 10:56:23.344   03 Jun 2027 10:57:05.070            41.726                Norilsk          1303.938
       219   03 Jun 2027 12:24:41.070   03 Jun 2027 12:24:56.467            15.397              Murmansk1           481.156
       220   03 Jun 2027 12:25:05.577   03 Jun 2027 12:25:47.252            41.675              Murmansk2          1302.344
       221   03 Jun 2027 12:25:47.252   03 Jun 2027 12:25:58.592            11.340              Murmansk1           354.375
       222   03 Jun 2027 12:26:06.585   03 Jun 2027 12:27:16.742            70.157              Murmansk1          2192.406
       223   03 Jun 2027 12:27:21.498   03 Jun 2027 12:27:35.348            13.850              Murmansk1           432.812
       224   03 Jun 2027 12:27:53.362   03 Jun 2027 12:27:57.344             3.982              Murmansk1           124.437
       225   03 Jun 2027 12:32:52.970   03 Jun 2027 12:33:17.300            24.330              Murmansk1           760.313
       226   03 Jun 2027 12:34:05.248   03 Jun 2027 12:34:22.865            17.617              Murmansk2           550.531
       227   03 Jun 2027 12:38:26.378   03 Jun 2027 12:44:48.508           382.130                Anadyr2         11941.563
       228   03 Jun 2027 14:05:15.598   03 Jun 2027 14:06:02.709            47.111              Murmansk1          1472.219
       229   03 Jun 2027 14:10:05.768   03 Jun 2027 14:10:40.082            34.314              Murmansk2          1072.312
       230   03 Jun 2027 14:13:22.879   03 Jun 2027 14:15:33.170           130.291                Anadyr2          4071.594
       231   03 Jun 2027 14:16:54.732   03 Jun 2027 14:18:02.140            67.408                Anadyr2          2106.500
       232   03 Jun 2027 14:24:13.754   03 Jun 2027 14:24:34.444            20.690                Anadyr2           646.562
       233   03 Jun 2027 15:42:49.001   03 Jun 2027 15:43:37.096            48.095              Murmansk2          1502.969
       234   03 Jun 2027 15:44:39.282   03 Jun 2027 15:45:43.862            64.580              Murmansk2          2018.125
       235   03 Jun 2027 15:49:12.254   03 Jun 2027 15:51:19.907           127.653                Anadyr2          3989.156
       236   03 Jun 2027 15:51:48.636   03 Jun 2027 15:54:59.713           191.077               Magadan2          5971.156
       237   03 Jun 2027 15:54:59.713   03 Jun 2027 15:55:52.829            53.116               Magadan1          1659.875
       238   03 Jun 2027 15:57:18.837   03 Jun 2027 15:58:25.095            66.258               Magadan1          2070.563
       239   03 Jun 2027 17:25:06.992   03 Jun 2027 17:25:26.043            19.051                Anadyr2           595.344
       240   03 Jun 2027 17:25:48.968   03 Jun 2027 17:26:27.831            38.863                Anadyr2          1214.469
       241   03 Jun 2027 17:27:24.093   03 Jun 2027 17:28:50.835            86.742               Magadan2          2710.688
       242   03 Jun 2027 17:30:40.740   03 Jun 2027 17:31:00.766            20.026                Norilsk           625.812
       243   03 Jun 2027 17:31:05.661   03 Jun 2027 17:31:09.255             3.594               Magadan1           112.312
       244   03 Jun 2027 17:31:16.833   03 Jun 2027 17:31:21.138             4.305               Magadan1           134.531
       245   03 Jun 2027 17:36:09.891   03 Jun 2027 17:36:21.909            12.018               Magadan1           375.563
       246   03 Jun 2027 18:19:46.196   03 Jun 2027 18:25:58.421           372.225            RioGallegos         11632.031
       247   03 Jun 2027 19:02:59.397   03 Jun 2027 19:04:05.975            66.578                Norilsk          2080.563
       248   03 Jun 2027 19:04:47.623   03 Jun 2027 19:06:28.530           100.907                Norilsk          3153.344
       249   03 Jun 2027 19:07:15.312   03 Jun 2027 19:08:07.605            52.293                Irkutsk          1634.156
       250   03 Jun 2027 19:08:46.882   03 Jun 2027 19:10:09.429            82.547                Irkutsk          2579.594
       251   03 Jun 2027 19:10:14.919   03 Jun 2027 19:12:14.584           119.665                Novosib          3739.531
       252   03 Jun 2027 19:22:33.528   03 Jun 2027 19:24:56.107           142.579                Sumatra          4455.594
       253   03 Jun 2027 20:42:59.148   03 Jun 2027 20:43:34.406            35.258                Novosib          1101.813
       254   03 Jun 2027 20:47:25.964   03 Jun 2027 20:48:39.804            73.840                Novosib          2307.500
       255   03 Jun 2027 20:50:58.538   03 Jun 2027 20:52:22.903            84.365                  Delhi          2636.406
       256   03 Jun 2027 20:54:05.305   03 Jun 2027 20:54:30.300            24.995                  Delhi           781.094
       257   03 Jun 2027 20:55:26.083   03 Jun 2027 20:57:35.537           129.454                  Delhi          4045.438
       258   03 Jun 2027 22:17:20.533   03 Jun 2027 22:19:53.697           153.164              Murmansk1          4786.375
       259   03 Jun 2027 22:20:34.519   03 Jun 2027 22:21:28.069            53.550              Murmansk2          1673.437
       260   03 Jun 2027 22:22:39.469   03 Jun 2027 22:27:54.844           315.375                 Moscow          9855.469
       261   03 Jun 2027 23:53:02.043   03 Jun 2027 23:54:15.607            73.564              Murmansk1          2298.875
       262   03 Jun 2027 23:56:26.895   03 Jun 2027 23:57:44.960            78.065                 Moscow          2439.531
       263   03 Jun 2027 23:58:41.224   03 Jun 2027 23:59:57.336            76.112                 Moscow          2378.500
       264   04 Jun 2027 00:20:58.606   04 Jun 2027 00:22:26.626            88.020               CapeTown          2750.625
       265   04 Jun 2027 00:22:57.442   04 Jun 2027 00:24:30.921            93.479               CapeTown          2921.219
       266   04 Jun 2027 01:24:03.645   04 Jun 2027 01:24:48.992            45.347               Magadan2          1417.094
       267   04 Jun 2027 01:28:59.906   04 Jun 2027 01:30:23.565            83.659              Murmansk1          2614.344
       268   04 Jun 2027 01:32:01.632   04 Jun 2027 01:32:33.679            32.047              Murmansk2          1001.469
       269   04 Jun 2027 01:32:36.297   04 Jun 2027 01:32:57.395            21.098                Novosib           659.313
       270   04 Jun 2027 01:33:03.453   04 Jun 2027 01:33:33.189            29.736                 Moscow           929.250
       271   04 Jun 2027 01:37:18.766   04 Jun 2027 01:38:13.881            55.115                 Moscow          1722.344
       272   04 Jun 2027 01:56:38.033   04 Jun 2027 01:57:29.558            51.525               CapeTown          1610.156
       273   04 Jun 2027 02:04:39.384   04 Jun 2027 02:06:01.066            81.682               CapeTown          2552.563
       274   04 Jun 2027 02:53:00.929   04 Jun 2027 02:54:16.441            75.512               Magadan1          2359.750
       275   04 Jun 2027 02:54:20.970   04 Jun 2027 02:54:44.476            23.506               Magadan2           734.562
       276   04 Jun 2027 02:54:44.476   04 Jun 2027 02:54:57.517            13.041               Magadan1           407.531
       277   04 Jun 2027 02:55:47.972   04 Jun 2027 02:56:24.176            36.204               Magadan1          1131.375
       278   04 Jun 2027 03:00:08.152   04 Jun 2027 03:01:09.888            61.736               Magadan2          1929.250
       279   04 Jun 2027 03:01:09.888   04 Jun 2027 03:02:03.970            54.082               Magadan1          1690.063
       280   04 Jun 2027 03:47:26.565   04 Jun 2027 03:47:46.022            19.457            RioGallegos           608.031
       281   04 Jun 2027 04:37:11.133   04 Jun 2027 04:38:20.296            69.163               Magadan1          2161.344
       282   04 Jun 2027 04:39:11.505   04 Jun 2027 04:39:54.195            42.690                Irkutsk          1334.062
       283   04 Jun 2027 06:11:20.244   04 Jun 2027 06:11:50.314            30.070                Novosib           939.688
       284   04 Jun 2027 06:12:17.166   04 Jun 2027 06:12:40.857            23.691               Magadan1           740.344
       285   04 Jun 2027 06:12:42.469   04 Jun 2027 06:13:04.956            22.487                Novosib           702.719
       286   04 Jun 2027 06:13:09.513   04 Jun 2027 06:14:17.858            68.345               Magadan1          2135.781
       287   04 Jun 2027 06:14:17.858   04 Jun 2027 06:14:32.491            14.633               Magadan2           457.281
       288   04 Jun 2027 06:14:42.198   04 Jun 2027 06:15:33.037            50.839               Magadan2          1588.719
       289   04 Jun 2027 06:16:18.812   04 Jun 2027 06:16:29.285            10.473               Magadan1           327.281
       290   04 Jun 2027 06:18:48.322   04 Jun 2027 06:18:59.386            11.064              Murmansk1           345.750
       291   04 Jun 2027 06:24:19.051   04 Jun 2027 06:24:45.259            26.208              Murmansk2           819.000
       292   04 Jun 2027 07:48:29.842   04 Jun 2027 07:48:48.150            18.308                Novosib           572.125
       293   04 Jun 2027 07:48:53.557   04 Jun 2027 07:50:05.218            71.661                Irkutsk          2239.406
       294   04 Jun 2027 07:50:18.454   04 Jun 2027 07:50:52.205            33.751                Irkutsk          1054.719
       295   04 Jun 2027 07:50:56.319   04 Jun 2027 07:51:29.094            32.775              Murmansk1          1024.219
       296   04 Jun 2027 07:52:08.899   04 Jun 2027 07:52:20.755            11.856                Norilsk           370.500
       297   04 Jun 2027 07:53:37.328   04 Jun 2027 07:53:38.925             1.597              Murmansk2            49.906
       298   04 Jun 2027 07:54:55.225   04 Jun 2027 07:55:19.105            23.880              Murmansk1           746.250
       299   04 Jun 2027 08:29:59.116   04 Jun 2027 08:30:43.767            44.651            RioGallegos          1395.344
       300   04 Jun 2027 08:32:11.382   04 Jun 2027 08:32:41.531            30.149            RioGallegos           942.156
       301   04 Jun 2027 09:07:03.182   04 Jun 2027 09:08:01.206            58.024                Sumatra          1813.250
       302   04 Jun 2027 09:25:05.305   04 Jun 2027 09:25:34.134            28.829                Novosib           900.906
       303   04 Jun 2027 09:25:56.072   04 Jun 2027 09:26:10.393            14.321              Murmansk1           447.531
       304   04 Jun 2027 09:26:20.899   04 Jun 2027 09:27:13.335            52.436                Novosib          1638.625
       305   04 Jun 2027 09:28:00.033   04 Jun 2027 09:28:16.134            16.101                Norilsk           503.156
       306   04 Jun 2027 09:28:40.331   04 Jun 2027 09:28:48.370             8.039                Novosib           251.219
       307   04 Jun 2027 10:49:48.685   04 Jun 2027 10:52:12.780           144.095                  Delhi          4502.969
       308   04 Jun 2027 11:06:17.598   04 Jun 2027 11:07:18.568            60.970                Norilsk          1905.313
       309   04 Jun 2027 12:33:28.087   04 Jun 2027 12:34:20.341            52.254                 Moscow          1632.937
       310   04 Jun 2027 12:35:09.999   04 Jun 2027 12:35:49.271            39.272                 Moscow          1227.250
       311   04 Jun 2027 12:35:54.456   04 Jun 2027 12:36:46.514            52.058              Murmansk2          1626.813
       312   04 Jun 2027 12:37:06.260   04 Jun 2027 12:37:11.439             5.179              Murmansk2           161.844
       313   04 Jun 2027 12:38:00.236   04 Jun 2027 12:38:48.683            48.447              Murmansk2          1513.969
       314   04 Jun 2027 12:39:23.200   04 Jun 2027 12:39:41.173            17.973              Murmansk2           561.656
       315   04 Jun 2027 12:45:15.558   04 Jun 2027 12:45:49.302            33.744              Murmansk1          1054.500
       316   04 Jun 2027 12:50:11.379   04 Jun 2027 12:54:00.767           229.388                Anadyr1          7168.375
       317   04 Jun 2027 12:55:32.317   04 Jun 2027 12:57:39.061           126.744                Anadyr2          3960.750
       318   04 Jun 2027 14:15:08.089   04 Jun 2027 14:16:33.679            85.590              Murmansk2          2674.687
       319   04 Jun 2027 14:25:22.231   04 Jun 2027 14:26:58.975            96.744                Anadyr1          3023.250
       320   04 Jun 2027 14:27:05.543   04 Jun 2027 14:28:42.640            97.097                Anadyr2          3034.281
       321   04 Jun 2027 14:30:14.430   04 Jun 2027 14:32:51.461           157.031               Magadan2          4907.219
       322   04 Jun 2027 14:33:33.107   04 Jun 2027 14:33:39.786             6.679               Magadan1           208.719
       323   04 Jun 2027 16:01:13.579   04 Jun 2027 16:03:12.194           118.615                Anadyr1          3706.719
       324   04 Jun 2027 16:03:44.469   04 Jun 2027 16:07:02.365           197.896               Magadan1          6184.250
       325   04 Jun 2027 16:07:02.365   04 Jun 2027 16:07:28.276            25.911               Magadan2           809.719
       326   04 Jun 2027 17:37:07.553   04 Jun 2027 17:39:03.916           116.363                Anadyr2          3636.344
       327   04 Jun 2027 17:39:25.295   04 Jun 2027 17:41:11.235           105.940               Magadan1          3310.625
       328   04 Jun 2027 17:43:07.677   04 Jun 2027 17:43:11.934             4.257               Magadan2           133.031
       329   04 Jun 2027 17:43:25.896   04 Jun 2027 17:44:15.045            49.149                Norilsk          1535.906
       330   04 Jun 2027 18:31:33.507   04 Jun 2027 18:34:34.381           180.874            RioGallegos          5652.313
       331   04 Jun 2027 18:41:00.194   04 Jun 2027 18:41:48.742            48.548            RioGallegos          1517.125
       332   04 Jun 2027 19:14:59.589   04 Jun 2027 19:16:23.679            84.090                Norilsk          2627.813
       333   04 Jun 2027 19:18:29.913   04 Jun 2027 19:19:16.252            46.339                Norilsk          1448.094
       334   04 Jun 2027 19:19:25.757   04 Jun 2027 19:20:28.259            62.502                Irkutsk          1953.187
       335   04 Jun 2027 19:20:59.313   04 Jun 2027 19:26:40.411           341.098                Novosib         10659.313
       336   04 Jun 2027 19:34:15.449   04 Jun 2027 19:35:39.599            84.150                Sumatra          2629.687
       337   04 Jun 2027 20:54:55.465   04 Jun 2027 20:55:42.701            47.236                Novosib          1476.125
       338   04 Jun 2027 20:56:23.615   04 Jun 2027 20:57:10.480            46.865                Novosib          1464.531
       339   04 Jun 2027 20:59:00.322   04 Jun 2027 21:00:19.491            79.169                Novosib          2474.031
       340   04 Jun 2027 21:02:39.749   04 Jun 2027 21:06:22.304           222.555                  Delhi          6954.844
       341   04 Jun 2027 22:29:17.490   04 Jun 2027 22:31:23.667           126.177              Murmansk1          3943.031
       342   04 Jun 2027 22:32:08.093   04 Jun 2027 22:35:21.056           192.963              Murmansk2          6030.094
       343   04 Jun 2027 22:35:50.230   04 Jun 2027 22:40:37.999           287.769                 Moscow          8992.781
       344   04 Jun 2027 22:40:51.794   04 Jun 2027 22:41:04.540            12.746                 Moscow           398.313
       345   05 Jun 2027 00:06:12.219   05 Jun 2027 00:06:25.474            13.255              Murmansk2           414.219
       346   05 Jun 2027 00:08:24.173   05 Jun 2027 00:10:27.186           123.013                 Moscow          3844.156
       347   05 Jun 2027 00:32:39.790   05 Jun 2027 00:34:22.505           102.715               CapeTown          3209.844
       348   05 Jun 2027 00:34:37.657   05 Jun 2027 00:35:09.716            32.059               CapeTown          1001.844
       349   05 Jun 2027 00:36:28.112   05 Jun 2027 00:36:49.934            21.822               CapeTown           681.937
       350   05 Jun 2027 00:44:45.544   05 Jun 2027 00:44:51.644             6.100               CapeTown           190.625
       351   05 Jun 2027 01:32:02.841   05 Jun 2027 01:32:19.194            16.353               Magadan2           511.031
       352   05 Jun 2027 01:32:19.194   05 Jun 2027 01:32:59.592            40.398               Magadan1          1262.437
       353   05 Jun 2027 01:36:17.684   05 Jun 2027 01:36:44.024            26.340               Magadan2           823.125
       354   05 Jun 2027 01:41:01.428   05 Jun 2027 01:42:19.533            78.105              Murmansk1          2440.781
       355   05 Jun 2027 01:43:57.861   05 Jun 2027 01:44:22.620            24.759              Murmansk2           773.719
       356   05 Jun 2027 01:44:28.132   05 Jun 2027 01:45:33.238            65.106                 Moscow          2034.562
       357   05 Jun 2027 01:50:01.277   05 Jun 2027 01:50:45.915            44.638                 Moscow          1394.938
       358   05 Jun 2027 02:09:02.849   05 Jun 2027 02:09:26.203            23.354               CapeTown           729.812
       359   05 Jun 2027 02:12:39.458   05 Jun 2027 02:13:37.878            58.420               CapeTown          1825.625
       360   05 Jun 2027 02:18:46.849   05 Jun 2027 02:19:01.583            14.734               CapeTown           460.437
       361   05 Jun 2027 03:05:00.694   05 Jun 2027 03:05:13.322            12.628               Magadan1           394.625
       362   05 Jun 2027 03:05:20.199   05 Jun 2027 03:06:17.831            57.632               Magadan1          1801.000
       363   05 Jun 2027 03:07:01.962   05 Jun 2027 03:07:03.135             1.173                Anadyr1            36.656
       364   05 Jun 2027 03:07:21.988   05 Jun 2027 03:07:26.799             4.811                Anadyr1           150.344
       365   05 Jun 2027 03:10:01.401   05 Jun 2027 03:14:20.578           259.177               Magadan1          8099.281
       366   05 Jun 2027 03:14:26.739   05 Jun 2027 03:15:48.196            81.457                Anadyr2          2545.531
       367   05 Jun 2027 03:15:49.011   05 Jun 2027 03:16:22.525            33.514               Magadan1          1047.312
       368   05 Jun 2027 04:48:48.256   05 Jun 2027 04:49:40.361            52.105                Anadyr2          1628.281
       369   05 Jun 2027 04:50:01.981   05 Jun 2027 04:53:18.765           196.784               Magadan1          6149.500
       370   05 Jun 2027 06:22:57.143   05 Jun 2027 06:23:53.238            56.095               Magadan2          1752.969
       371   05 Jun 2027 06:24:05.071   05 Jun 2027 06:24:21.957            16.886               Magadan2           527.688
       372   05 Jun 2027 06:24:34.574   05 Jun 2027 06:25:32.117            57.543                Norilsk          1798.219
       373   05 Jun 2027 06:25:47.343   05 Jun 2027 06:26:09.694            22.351                Novosib           698.469
       374   05 Jun 2027 06:26:34.492   05 Jun 2027 06:26:45.079            10.587               Magadan2           330.844
       375   05 Jun 2027 06:27:15.078   05 Jun 2027 06:27:52.955            37.877               Magadan2          1183.656
       376   05 Jun 2027 06:28:12.068   05 Jun 2027 06:28:16.386             4.318               Magadan1           134.938
       377   05 Jun 2027 06:30:35.460   05 Jun 2027 06:30:47.720            12.260              Murmansk2           383.125
       378   05 Jun 2027 07:59:25.682   05 Jun 2027 07:59:47.535            21.853                Irkutsk           682.906
       379   05 Jun 2027 07:59:49.729   05 Jun 2027 08:00:53.931            64.202                Irkutsk          2006.312
       380   05 Jun 2027 08:01:20.875   05 Jun 2027 08:02:21.473            60.598                Novosib          1893.688
       381   05 Jun 2027 08:02:28.386   05 Jun 2027 08:03:01.264            32.878                Irkutsk          1027.438
       382   05 Jun 2027 08:03:08.184   05 Jun 2027 08:03:55.521            47.337                Irkutsk          1479.281
       383   05 Jun 2027 08:04:14.198   05 Jun 2027 08:04:31.119            16.921                Irkutsk           528.781
       384   05 Jun 2027 08:05:55.222   05 Jun 2027 08:06:14.759            19.537              Murmansk2           610.531
       385   05 Jun 2027 08:42:43.628   05 Jun 2027 08:43:50.688            67.060            RioGallegos          2095.625
       386   05 Jun 2027 08:49:52.094   05 Jun 2027 08:50:55.985            63.891            RioGallegos          1996.594
       387   05 Jun 2027 09:18:58.166   05 Jun 2027 09:19:20.916            22.750                Sumatra           710.937
       388   05 Jun 2027 09:37:40.269   05 Jun 2027 09:38:20.461            40.192                Novosib          1256.000
       389   05 Jun 2027 09:39:18.010   05 Jun 2027 09:39:23.186             5.176                Novosib           161.750
       390   05 Jun 2027 09:40:09.702   05 Jun 2027 09:40:14.349             4.647                Novosib           145.219
       391   05 Jun 2027 09:40:22.072   05 Jun 2027 09:40:36.527            14.455                Novosib           451.719
       392   05 Jun 2027 11:03:29.625   05 Jun 2027 11:05:48.340           138.715                  Delhi          4334.844
       393   05 Jun 2027 11:17:43.655   05 Jun 2027 11:17:46.309             2.654                Norilsk            82.937
       394   05 Jun 2027 12:44:05.836   05 Jun 2027 12:44:32.757            26.921                 Moscow           841.281
       395   05 Jun 2027 12:45:32.832   05 Jun 2027 12:46:27.651            54.819                 Moscow          1713.094
       396   05 Jun 2027 12:46:43.961   05 Jun 2027 12:47:18.997            35.036                 Moscow          1094.875
       397   05 Jun 2027 12:47:26.279   05 Jun 2027 12:49:06.575           100.296              Murmansk1          3134.250
       398   05 Jun 2027 12:49:42.170   05 Jun 2027 12:50:01.303            19.133              Murmansk1           597.906
       399   05 Jun 2027 12:51:10.741   05 Jun 2027 12:51:19.814             9.073              Murmansk1           283.531
       400   05 Jun 2027 12:51:29.423   05 Jun 2027 12:52:23.947            54.524              Murmansk1          1703.875
       401   05 Jun 2027 13:02:00.859   05 Jun 2027 13:04:49.667           168.808                Anadyr1          5275.250
       402   05 Jun 2027 14:26:18.038   05 Jun 2027 14:27:36.794            78.756              Murmansk2          2461.125
       403   05 Jun 2027 14:27:37.833   05 Jun 2027 14:28:40.458            62.625              Murmansk1          1957.031
       404   05 Jun 2027 14:29:35.023   05 Jun 2027 14:29:54.928            19.905              Murmansk1           622.031
       405   05 Jun 2027 14:37:22.066   05 Jun 2027 14:40:43.050           200.984                Anadyr1          6280.750
       406   05 Jun 2027 14:41:25.622   05 Jun 2027 14:47:05.840           340.218               Magadan1         10631.812
       407   05 Jun 2027 16:13:37.235   05 Jun 2027 16:15:02.966            85.731                Anadyr1          2679.094
       408   05 Jun 2027 16:15:41.472   05 Jun 2027 16:17:37.547           116.075               Magadan1          3627.344
       409   05 Jun 2027 16:17:55.886   05 Jun 2027 16:19:05.073            69.187               Magadan2          2162.094
       410   05 Jun 2027 16:23:51.564   05 Jun 2027 16:24:08.182            16.618               Magadan2           519.313
       411   05 Jun 2027 17:49:07.832   05 Jun 2027 17:50:30.481            82.649                Anadyr1          2582.781
       412   05 Jun 2027 17:51:21.250   05 Jun 2027 17:52:13.202            51.952                Anadyr1          1623.500
       413   05 Jun 2027 17:52:18.131   05 Jun 2027 17:57:10.379           292.248                Norilsk          9132.750
       414   05 Jun 2027 17:57:49.223   05 Jun 2027 18:00:17.735           148.512                Irkutsk          4641.000
       415   05 Jun 2027 19:27:00.226   05 Jun 2027 19:28:28.937            88.711                Norilsk          2772.219
       416   05 Jun 2027 19:31:32.309   05 Jun 2027 19:32:21.880            49.571                Irkutsk          1549.094
       417   05 Jun 2027 19:32:25.643   05 Jun 2027 19:39:45.879           440.236                Novosib         13757.375
       418   05 Jun 2027 21:07:24.412   05 Jun 2027 21:08:46.223            81.811                Novosib          2556.594
       419   05 Jun 2027 21:09:39.910   05 Jun 2027 21:10:30.701            50.791                Novosib          1587.219
       420   05 Jun 2027 21:14:26.409   05 Jun 2027 21:18:20.061           233.652                  Delhi          7301.625
       421   05 Jun 2027 21:21:17.339   05 Jun 2027 21:21:37.112            19.773                  Delhi           617.906
       422   05 Jun 2027 22:41:15.576   05 Jun 2027 22:46:48.440           332.864              Murmansk1         10402.000
       423   05 Jun 2027 22:47:53.461   05 Jun 2027 22:53:58.216           364.755                 Moscow         11398.594
       424   05 Jun 2027 23:14:31.676   05 Jun 2027 23:16:45.056           133.380               CapeTown          4168.125
       425   06 Jun 2027 00:44:26.357   06 Jun 2027 00:46:15.162           108.805               CapeTown          3400.156
       426   06 Jun 2027 01:42:53.097   06 Jun 2027 01:43:32.023            38.926               Magadan2          1216.438
       427   06 Jun 2027 01:43:47.017   06 Jun 2027 01:44:20.968            33.951               Magadan2          1060.969
       428   06 Jun 2027 01:47:19.660   06 Jun 2027 01:47:45.654            25.994               Magadan1           812.313
       429   06 Jun 2027 01:47:45.654   06 Jun 2027 01:48:08.999            23.345               Magadan2           729.531
       430   06 Jun 2027 01:53:02.843   06 Jun 2027 01:53:28.836            25.993              Murmansk2           812.281
       431   06 Jun 2027 01:53:36.048   06 Jun 2027 01:53:55.753            19.705              Murmansk1           615.781
       432   06 Jun 2027 01:55:53.442   06 Jun 2027 01:56:01.893             8.451              Murmansk2           264.094
       433   06 Jun 2027 01:56:19.472   06 Jun 2027 01:58:40.112           140.640                 Moscow          4395.000
       434   06 Jun 2027 02:21:35.971   06 Jun 2027 02:22:27.099            51.128               CapeTown          1597.750
       435   06 Jun 2027 02:27:07.862   06 Jun 2027 02:27:27.799            19.937               CapeTown           623.031
       436   06 Jun 2027 03:16:44.827   06 Jun 2027 03:16:52.879             8.052               Magadan2           251.625
       437   06 Jun 2027 03:16:52.879   06 Jun 2027 03:17:03.369            10.490               Magadan1           327.812
       438   06 Jun 2027 03:18:58.252   06 Jun 2027 03:19:00.474             2.222                Anadyr1            69.437
       439   06 Jun 2027 03:21:28.090   06 Jun 2027 03:22:58.233            90.143                Anadyr2          2816.969
       440   06 Jun 2027 03:23:26.623   06 Jun 2027 03:24:08.322            41.699               Magadan2          1303.094
       441   06 Jun 2027 03:24:11.206   06 Jun 2027 03:27:02.054           170.848               Magadan2          5339.000
       442   06 Jun 2027 03:27:07.978   06 Jun 2027 03:27:21.120            13.142                Anadyr1           410.687
       443   06 Jun 2027 03:28:19.960   06 Jun 2027 03:28:37.888            17.928                Anadyr1           560.250
       444   06 Jun 2027 04:59:28.237   06 Jun 2027 04:59:57.964            29.727                Anadyr2           928.969
       445   06 Jun 2027 05:00:40.975   06 Jun 2027 05:04:24.904           223.929               Magadan2          6997.781
       446   06 Jun 2027 05:04:24.904   06 Jun 2027 05:05:17.463            52.559               Magadan1          1642.469
       447   06 Jun 2027 06:35:53.644   06 Jun 2027 06:36:49.258            55.614                Irkutsk          1737.938
       448   06 Jun 2027 06:36:55.532   06 Jun 2027 06:37:16.289            20.757               Magadan2           648.656
       449   06 Jun 2027 06:38:33.043   06 Jun 2027 06:38:37.805             4.762               Magadan2           148.813
       450   06 Jun 2027 06:38:37.805   06 Jun 2027 06:38:47.827            10.022               Magadan1           313.187
       451   06 Jun 2027 06:38:57.067   06 Jun 2027 06:39:21.045            23.978               Magadan1           749.312
       452   06 Jun 2027 06:39:42.871   06 Jun 2027 06:39:57.446            14.575               Magadan2           455.469
       453   06 Jun 2027 06:42:35.605   06 Jun 2027 06:43:22.860            47.255              Murmansk2          1476.719
       454   06 Jun 2027 08:12:20.957   06 Jun 2027 08:12:52.508            31.551                Novosib           985.969
       455   06 Jun 2027 08:13:21.616   06 Jun 2027 08:14:25.074            63.458                Novosib          1983.062
       456   06 Jun 2027 08:14:37.871   06 Jun 2027 08:14:38.864             0.993                Irkutsk            31.031
       457   06 Jun 2027 08:14:46.146   06 Jun 2027 08:15:15.090            28.944              Murmansk1           904.500
       458   06 Jun 2027 08:15:44.472   06 Jun 2027 08:16:02.585            18.113                Irkutsk           566.031
       459   06 Jun 2027 08:17:55.060   06 Jun 2027 08:18:15.510            20.450              Murmansk1           639.062
       460   06 Jun 2027 08:55:39.608   06 Jun 2027 08:56:58.816            79.208            RioGallegos          2475.250
       461   06 Jun 2027 09:31:11.172   06 Jun 2027 09:32:39.556            88.384                Sumatra          2762.000
       462   06 Jun 2027 09:49:19.326   06 Jun 2027 09:49:45.813            26.487                Novosib           827.719
       463   06 Jun 2027 09:51:52.745   06 Jun 2027 09:52:11.382            18.637                Norilsk           582.406
       464   06 Jun 2027 09:52:32.668   06 Jun 2027 09:52:41.946             9.278                Novosib           289.937
       465   06 Jun 2027 09:52:59.897   06 Jun 2027 09:53:40.838            40.941                Novosib          1279.406
       466   06 Jun 2027 11:30:06.082   06 Jun 2027 11:30:15.147             9.065              Murmansk1           283.281
       467   06 Jun 2027 12:56:28.779   06 Jun 2027 12:57:37.080            68.301                 Moscow          2134.406
       468   06 Jun 2027 12:58:12.224   06 Jun 2027 12:59:25.564            73.340                 Moscow          2291.875
       469   06 Jun 2027 12:59:41.776   06 Jun 2027 13:01:06.431            84.655              Murmansk2          2645.469
       470   06 Jun 2027 13:03:21.653   06 Jun 2027 13:04:17.981            56.328              Murmansk2          1760.250
       471   06 Jun 2027 13:13:53.249   06 Jun 2027 13:15:22.580            89.331                Anadyr1          2791.594
       472   06 Jun 2027 13:16:43.602   06 Jun 2027 13:16:56.426            12.824                Anadyr1           400.750
       473   06 Jun 2027 14:08:45.769   06 Jun 2027 14:10:24.595            98.826               CapeTown          3088.312
       474   06 Jun 2027 14:38:53.220   06 Jun 2027 14:40:32.490            99.270              Murmansk2          3102.188
       475   06 Jun 2027 14:41:48.001   06 Jun 2027 14:42:57.364            69.363              Murmansk1          2167.594
       476   06 Jun 2027 14:49:22.282   06 Jun 2027 14:52:05.500           163.218                Anadyr2          5100.562
       477   06 Jun 2027 14:52:43.150   06 Jun 2027 14:53:38.284            55.134                Anadyr2          1722.937
       478   06 Jun 2027 14:55:03.162   06 Jun 2027 14:56:28.954            85.792               Magadan1          2681.000
       479   06 Jun 2027 14:56:30.883   06 Jun 2027 14:59:58.043           207.160               Magadan2          6473.750
       480   06 Jun 2027 16:26:52.287   06 Jun 2027 16:28:10.470            78.183                Anadyr1          2443.219
       481   06 Jun 2027 16:28:48.976   06 Jun 2027 16:29:58.594            69.618               Magadan1          2175.563
       482   06 Jun 2027 16:29:58.594   06 Jun 2027 16:31:11.732            73.138               Magadan2          2285.562
