uniorb/output/strategy_4/Drop/Drop_KinoSat_111201.txt

KinoSat_111201
-------------------------
    Access    *     Start Time (UTCG)     *     Stop Time (UTCG)  *   Duration (s)        *       Station  *  Data (Mbytes)
         1   01 Jun 2027 04:01:21.256   01 Jun 2027 04:02:56.660            95.404                Anadyr2          2981.375
         2   01 Jun 2027 04:11:08.430   01 Jun 2027 04:11:13.908             5.478              Murmansk2           171.188
         3   01 Jun 2027 04:11:36.993   01 Jun 2027 04:12:05.329            28.336                Norilsk           885.500
         4   01 Jun 2027 04:12:17.293   01 Jun 2027 04:13:04.118            46.825              Murmansk2          1463.281
         5   01 Jun 2027 04:13:53.393   01 Jun 2027 04:14:51.979            58.586              Murmansk2          1830.812
         6   01 Jun 2027 04:14:51.979   01 Jun 2027 04:15:35.489            43.510              Murmansk1          1359.688
         7   01 Jun 2027 04:16:14.671   01 Jun 2027 04:16:55.750            41.079              Murmansk2          1283.719
         8   01 Jun 2027 05:34:39.562   01 Jun 2027 05:34:44.484             4.922               Magadan1           153.812
         9   01 Jun 2027 05:34:52.929   01 Jun 2027 05:40:30.946           338.017                Anadyr2         10563.031
        10   01 Jun 2027 07:10:51.679   01 Jun 2027 07:13:04.978           133.299               Magadan2          4165.594
        11   01 Jun 2027 07:13:13.970   01 Jun 2027 07:14:02.138            48.168                Anadyr2          1505.250
        12   01 Jun 2027 07:14:02.138   01 Jun 2027 07:15:37.272            95.134                Anadyr1          2972.937
        13   01 Jun 2027 08:46:46.867   01 Jun 2027 08:48:51.312           124.445               Magadan1          3888.906
        14   01 Jun 2027 08:48:51.312   01 Jun 2027 08:49:18.662            27.350               Magadan2           854.688
        15   01 Jun 2027 08:49:27.502   01 Jun 2027 08:50:25.590            58.088               Magadan2          1815.250
        16   01 Jun 2027 08:50:37.152   01 Jun 2027 08:51:14.257            37.105               Magadan2          1159.531
        17   01 Jun 2027 08:51:41.185   01 Jun 2027 08:53:14.323            93.138                Novosib          2910.563
        18   01 Jun 2027 08:53:21.870   01 Jun 2027 08:53:58.342            36.472                Norilsk          1139.750
        19   01 Jun 2027 08:53:59.915   01 Jun 2027 08:54:58.053            58.138              Murmansk1          1816.813
        20   01 Jun 2027 09:26:46.264   01 Jun 2027 09:27:18.887            32.623            RioGallegos          1019.469
        21   01 Jun 2027 09:27:50.975   01 Jun 2027 09:28:56.140            65.165            RioGallegos          2036.406
        22   01 Jun 2027 09:30:45.553   01 Jun 2027 09:31:00.041            14.488            RioGallegos           452.750
        23   01 Jun 2027 10:01:44.412   01 Jun 2027 10:02:54.174            69.762                Sumatra          2180.062
        24   01 Jun 2027 10:04:42.253   01 Jun 2027 10:05:13.995            31.742                Sumatra           991.937
        25   01 Jun 2027 10:23:29.932   01 Jun 2027 10:23:50.913            20.981                Novosib           655.656
        26   01 Jun 2027 10:24:09.860   01 Jun 2027 10:25:27.066            77.206                Norilsk          2412.688
        27   01 Jun 2027 10:25:37.600   01 Jun 2027 10:25:51.112            13.512                Norilsk           422.250
        28   01 Jun 2027 10:25:54.008   01 Jun 2027 10:26:23.306            29.298                Novosib           915.563
        29   01 Jun 2027 10:26:32.931   01 Jun 2027 10:27:51.597            78.666              Murmansk1          2458.312
        30   01 Jun 2027 10:27:51.597   01 Jun 2027 10:28:30.191            38.594              Murmansk2          1206.063
        31   01 Jun 2027 10:28:35.331   01 Jun 2027 10:29:25.814            50.483                 Moscow          1577.594
        32   01 Jun 2027 11:40:13.212   01 Jun 2027 11:41:47.801            94.589                Sumatra          2955.906
        33   01 Jun 2027 11:44:36.952   01 Jun 2027 11:44:47.837            10.885                Sumatra           340.156
        34   01 Jun 2027 11:45:49.506   01 Jun 2027 11:48:30.985           161.479                  Delhi          5046.219
        35   01 Jun 2027 13:41:07.284   01 Jun 2027 13:41:38.593            31.309                Norilsk           978.406
        36   01 Jun 2027 13:42:03.252   01 Jun 2027 13:42:05.768             2.516              Murmansk2            78.625
        37   01 Jun 2027 13:42:14.564   01 Jun 2027 13:43:15.984            61.420                Norilsk          1919.375
        38   01 Jun 2027 13:43:15.988   01 Jun 2027 13:44:47.939            91.951                Norilsk          2873.469
        39   01 Jun 2027 14:48:17.628   01 Jun 2027 14:49:30.586            72.958               CapeTown          2279.937
        40   01 Jun 2027 14:49:37.109   01 Jun 2027 14:51:39.116           122.007               CapeTown          3812.719
        41   01 Jun 2027 15:13:35.793   01 Jun 2027 15:14:02.868            27.075                 Moscow           846.094
        42   01 Jun 2027 15:15:09.506   01 Jun 2027 15:15:28.649            19.143                 Moscow           598.219
        43   01 Jun 2027 15:16:05.250   01 Jun 2027 15:16:25.328            20.078                 Moscow           627.438
        44   01 Jun 2027 15:16:35.093   01 Jun 2027 15:16:46.897            11.804              Murmansk1           368.875
        45   01 Jun 2027 15:17:05.661   01 Jun 2027 15:17:32.379            26.718              Murmansk2           834.938
        46   01 Jun 2027 15:18:59.991   01 Jun 2027 15:19:07.835             7.844              Murmansk1           245.125
        47   01 Jun 2027 15:20:10.401   01 Jun 2027 15:20:43.077            32.676              Murmansk1          1021.125
        48   01 Jun 2027 15:24:56.385   01 Jun 2027 15:26:03.344            66.959                Anadyr2          2092.469
        49   01 Jun 2027 15:26:33.544   01 Jun 2027 15:27:30.468            56.924                Anadyr1          1778.875
        50   01 Jun 2027 15:29:27.329   01 Jun 2027 15:29:46.738            19.409                Anadyr2           606.531
        51   01 Jun 2027 15:33:22.042   01 Jun 2027 15:33:22.886             0.844                Anadyr1            26.375
        52   01 Jun 2027 16:28:06.673   01 Jun 2027 16:28:38.386            31.713               CapeTown           991.031
        53   01 Jun 2027 16:29:16.803   01 Jun 2027 16:29:36.032            19.229               CapeTown           600.906
        54   01 Jun 2027 16:31:29.405   01 Jun 2027 16:32:24.999            55.594               CapeTown          1737.312
        55   01 Jun 2027 16:49:40.065   01 Jun 2027 16:50:17.616            37.551              Murmansk2          1173.469
        56   01 Jun 2027 16:52:29.916   01 Jun 2027 16:53:04.584            34.668              Murmansk1          1083.375
        57   01 Jun 2027 16:54:15.231   01 Jun 2027 16:54:41.028            25.797              Murmansk1           806.156
        58   01 Jun 2027 16:56:01.116   01 Jun 2027 16:56:49.527            48.411              Murmansk2          1512.844
        59   01 Jun 2027 17:00:18.791   01 Jun 2027 17:01:05.222            46.431                Anadyr2          1450.969
        60   01 Jun 2027 17:01:39.911   01 Jun 2027 17:01:43.698             3.787                Anadyr1           118.344
        61   01 Jun 2027 17:01:58.034   01 Jun 2027 17:02:25.027            26.993                Anadyr2           843.531
        62   01 Jun 2027 17:04:19.444   01 Jun 2027 17:05:37.744            78.300               Magadan2          2446.875
        63   01 Jun 2027 17:06:32.086   01 Jun 2027 17:07:04.051            31.965               Magadan2           998.906
        64   01 Jun 2027 17:07:05.314   01 Jun 2027 17:07:39.046            33.732               Magadan2          1054.125
        65   01 Jun 2027 18:36:12.172   01 Jun 2027 18:40:22.830           250.658                Anadyr1          7833.062
        66   01 Jun 2027 18:40:45.168   01 Jun 2027 18:41:06.848            21.680                Anadyr1           677.500
        67   01 Jun 2027 18:41:15.302   01 Jun 2027 18:41:22.456             7.154                Anadyr1           223.562
        68   01 Jun 2027 18:41:44.091   01 Jun 2027 18:42:34.084            49.993               Magadan1          1562.281
        69   01 Jun 2027 18:42:54.126   01 Jun 2027 18:43:10.068            15.942               Magadan1           498.187
        70   01 Jun 2027 18:45:54.869   01 Jun 2027 18:47:12.767            77.898               Magadan2          2434.313
        71   01 Jun 2027 20:12:05.444   01 Jun 2027 20:12:30.695            25.251                Anadyr1           789.094
        72   01 Jun 2027 20:12:30.695   01 Jun 2027 20:15:50.629           199.934                Anadyr2          6247.938
        73   01 Jun 2027 20:16:07.910   01 Jun 2027 20:16:41.373            33.463               Magadan1          1045.719
        74   01 Jun 2027 20:16:55.886   01 Jun 2027 20:17:09.855            13.969                Norilsk           436.531
        75   01 Jun 2027 20:17:12.977   01 Jun 2027 20:17:41.372            28.395               Magadan1           887.344
        76   01 Jun 2027 20:18:02.508   01 Jun 2027 20:18:33.569            31.061                Norilsk           970.656
        77   01 Jun 2027 20:19:10.196   01 Jun 2027 20:20:11.355            61.159                Norilsk          1911.219
        78   01 Jun 2027 20:20:41.326   01 Jun 2027 20:21:29.602            48.276                Irkutsk          1508.625
        79   01 Jun 2027 20:21:59.993   01 Jun 2027 20:22:59.255            59.262                Irkutsk          1851.938
        80   01 Jun 2027 20:24:11.389   01 Jun 2027 20:25:15.639            64.250                Irkutsk          2007.812
        81   01 Jun 2027 21:12:11.580   01 Jun 2027 21:12:26.713            15.133            RioGallegos           472.906
        82   01 Jun 2027 21:14:53.868   01 Jun 2027 21:15:49.064            55.196            RioGallegos          1724.875
        83   01 Jun 2027 21:48:04.906   01 Jun 2027 21:48:26.606            21.700                Anadyr2           678.125
        84   01 Jun 2027 21:48:35.748   01 Jun 2027 21:49:56.350            80.602                Anadyr1          2518.813
        85   01 Jun 2027 21:49:56.638   01 Jun 2027 21:50:09.455            12.817                Norilsk           400.531
        86   01 Jun 2027 21:50:28.606   01 Jun 2027 21:50:46.017            17.411               Magadan2           544.094
        87   01 Jun 2027 21:50:48.650   01 Jun 2027 21:51:56.305            67.655                Norilsk          2114.219
        88   01 Jun 2027 21:54:00.492   01 Jun 2027 21:54:21.001            20.509                Irkutsk           640.906
        89   01 Jun 2027 21:54:59.898   01 Jun 2027 21:55:59.690            59.792                Irkutsk          1868.500
        90   01 Jun 2027 21:56:21.073   01 Jun 2027 21:57:56.002            94.929                Novosib          2966.531
        91   01 Jun 2027 22:11:51.513   01 Jun 2027 22:13:46.634           115.121                Sumatra          3597.531
        92   01 Jun 2027 23:22:08.236   01 Jun 2027 23:23:41.091            92.855                Anadyr2          2901.719
        93   01 Jun 2027 23:24:45.142   01 Jun 2027 23:25:02.798            17.656                Anadyr2           551.750
        94   01 Jun 2027 23:25:55.237   01 Jun 2027 23:26:15.800            20.563                Norilsk           642.594
        95   01 Jun 2027 23:26:33.089   01 Jun 2027 23:27:58.609            85.520               Magadan1          2672.500
        96   01 Jun 2027 23:27:58.609   01 Jun 2027 23:28:12.746            14.137               Magadan2           441.781
        97   01 Jun 2027 23:28:22.967   01 Jun 2027 23:28:33.257            10.290               Magadan2           321.563
        98   01 Jun 2027 23:29:49.045   01 Jun 2027 23:30:34.154            45.109                Irkutsk          1409.656
        99   01 Jun 2027 23:30:53.667   01 Jun 2027 23:32:26.965            93.298                Novosib          2915.562
       100   01 Jun 2027 23:37:22.890   01 Jun 2027 23:39:21.801           118.911                  Delhi          3715.969
       101   01 Jun 2027 23:44:58.536   01 Jun 2027 23:45:00.670             2.134                  Delhi            66.688
       102   01 Jun 2027 23:47:51.404   01 Jun 2027 23:48:28.533            37.129                  Delhi          1160.281
       103   02 Jun 2027 00:22:40.082   02 Jun 2027 00:22:47.348             7.266            RioGallegos           227.062
       104   02 Jun 2027 00:23:58.802   02 Jun 2027 00:25:08.240            69.438            RioGallegos          2169.937
       105   02 Jun 2027 00:55:33.773   02 Jun 2027 00:55:38.768             4.995                Anadyr2           156.094
       106   02 Jun 2027 00:56:44.780   02 Jun 2027 00:57:10.852            26.072                Anadyr2           814.750
       107   02 Jun 2027 00:57:34.286   02 Jun 2027 00:57:58.479            24.193                Anadyr2           756.031
       108   02 Jun 2027 00:58:20.371   02 Jun 2027 00:58:34.506            14.135                Anadyr1           441.719
       109   02 Jun 2027 01:01:15.583   02 Jun 2027 01:01:23.099             7.516                Anadyr1           234.875
       110   02 Jun 2027 01:01:23.099   02 Jun 2027 01:01:34.165            11.066                Anadyr2           345.813
       111   02 Jun 2027 01:01:36.334   02 Jun 2027 01:01:41.017             4.683                Anadyr1           146.344
       112   02 Jun 2027 01:01:43.576   02 Jun 2027 01:04:05.899           142.323               Magadan2          4447.594
       113   02 Jun 2027 01:04:11.669   02 Jun 2027 01:04:56.647            44.978              Murmansk2          1405.563
       114   02 Jun 2027 01:05:43.536   02 Jun 2027 01:07:43.776           120.240                Novosib          3757.500
       115   02 Jun 2027 01:10:37.079   02 Jun 2027 01:11:27.174            50.095                 Moscow          1565.469
       116   02 Jun 2027 01:19:57.053   02 Jun 2027 01:20:54.421            57.368                  Delhi          1792.750
       117   02 Jun 2027 02:29:05.143   02 Jun 2027 02:32:06.290           181.147                Anadyr1          5660.844
       118   02 Jun 2027 02:33:29.371   02 Jun 2027 02:33:34.820             5.449                Anadyr2           170.281
       119   02 Jun 2027 02:33:47.116   02 Jun 2027 02:35:04.348            77.232               Magadan1          2413.500
       120   02 Jun 2027 02:37:26.443   02 Jun 2027 02:37:35.198             8.755               Magadan1           273.594
       121   02 Jun 2027 02:37:37.968   02 Jun 2027 02:38:12.490            34.522                Norilsk          1078.812
       122   02 Jun 2027 02:40:01.681   02 Jun 2027 02:40:52.141            50.460              Murmansk2          1576.875
       123   02 Jun 2027 02:41:25.957   02 Jun 2027 02:42:12.877            46.920              Murmansk2          1466.250
       124   02 Jun 2027 02:43:19.386   02 Jun 2027 02:44:06.612            47.226                 Moscow          1475.813
       125   02 Jun 2027 02:45:03.431   02 Jun 2027 02:45:13.071             9.640                Novosib           301.250
       126   02 Jun 2027 02:45:30.066   02 Jun 2027 02:45:59.051            28.985                Novosib           905.781
       127   02 Jun 2027 03:07:23.205   02 Jun 2027 03:08:25.877            62.672               CapeTown          1958.500
       128   02 Jun 2027 04:10:37.843   02 Jun 2027 04:14:19.653           221.810               Magadan1          6931.562
       129   02 Jun 2027 04:22:45.643   02 Jun 2027 04:22:52.522             6.879                Norilsk           214.969
       130   02 Jun 2027 04:23:05.865   02 Jun 2027 04:23:42.965            37.100              Murmansk2          1159.375
       131   02 Jun 2027 04:28:43.240   02 Jun 2027 04:28:56.322            13.082              Murmansk1           408.812
       132   02 Jun 2027 05:47:05.065   02 Jun 2027 05:48:21.354            76.289               Magadan1          2384.031
       133   02 Jun 2027 05:48:36.052   02 Jun 2027 05:52:25.669           229.617               Magadan2          7175.531
       134   02 Jun 2027 07:22:32.115   02 Jun 2027 07:24:32.694           120.579               Magadan1          3768.094
       135   02 Jun 2027 07:24:50.243   02 Jun 2027 07:25:46.774            56.531                Irkutsk          1766.594
       136   02 Jun 2027 07:25:49.017   02 Jun 2027 07:28:15.013           145.996               Magadan1          4562.375
       137   02 Jun 2027 08:59:34.092   02 Jun 2027 09:02:55.461           201.369               Magadan1          6292.781
       138   02 Jun 2027 10:16:28.275   02 Jun 2027 10:16:43.063            14.788                Sumatra           462.125
       139   02 Jun 2027 10:34:33.931   02 Jun 2027 10:34:43.399             9.468                Irkutsk           295.875
       140   02 Jun 2027 10:35:05.902   02 Jun 2027 10:36:12.824            66.922                Irkutsk          2091.312
       141   02 Jun 2027 10:36:18.707   02 Jun 2027 10:37:09.281            50.574                Irkutsk          1580.437
       142   02 Jun 2027 10:37:18.396   02 Jun 2027 10:37:25.374             6.978                Novosib           218.062
       143   02 Jun 2027 10:37:29.117   02 Jun 2027 10:37:36.650             7.533                Irkutsk           235.406
       144   02 Jun 2027 10:37:46.159   02 Jun 2027 10:38:01.820            15.661                Irkutsk           489.406
       145   02 Jun 2027 10:38:20.210   02 Jun 2027 10:39:11.727            51.517                Novosib          1609.906
       146   02 Jun 2027 10:39:18.889   02 Jun 2027 10:39:36.271            17.382                Norilsk           543.187
       147   02 Jun 2027 10:39:41.192   02 Jun 2027 10:39:43.119             1.927                Novosib            60.219
       148   02 Jun 2027 10:40:01.384   02 Jun 2027 10:40:30.087            28.703                Norilsk           896.969
       149   02 Jun 2027 11:18:38.228   02 Jun 2027 11:19:35.686            57.458            RioGallegos          1795.563
       150   02 Jun 2027 11:54:18.354   02 Jun 2027 11:56:33.912           135.558                Sumatra          4236.187
       151   02 Jun 2027 12:10:38.255   02 Jun 2027 12:11:25.928            47.673                Irkutsk          1489.781
       152   02 Jun 2027 12:20:28.146   02 Jun 2027 12:20:37.200             9.054                Norilsk           282.938
       153   02 Jun 2027 13:42:16.479   02 Jun 2027 13:43:37.445            80.966                 Moscow          2530.187
       154   02 Jun 2027 13:44:10.713   02 Jun 2027 13:46:08.004           117.291                 Moscow          3665.344
       155   02 Jun 2027 13:46:32.275   02 Jun 2027 13:48:43.314           131.039              Murmansk1          4094.969
       156   02 Jun 2027 13:49:25.870   02 Jun 2027 13:50:46.091            80.221                Norilsk          2506.906
       157   02 Jun 2027 13:56:14.637   02 Jun 2027 13:56:44.621            29.984                Norilsk           937.000
       158   02 Jun 2027 14:57:03.098   02 Jun 2027 15:00:02.836           179.738               CapeTown          5616.812
       159   02 Jun 2027 15:03:03.422   02 Jun 2027 15:03:34.197            30.775               CapeTown           961.719
       160   02 Jun 2027 15:22:39.340   02 Jun 2027 15:23:08.677            29.337              Murmansk1           916.781
       161   02 Jun 2027 15:23:27.421   02 Jun 2027 15:24:18.210            50.789              Murmansk1          1587.156
       162   02 Jun 2027 15:31:35.842   02 Jun 2027 15:32:27.729            51.887              Murmansk1          1621.469
       163   02 Jun 2027 15:36:49.152   02 Jun 2027 15:38:33.435           104.283                Anadyr2          3258.844
       164   02 Jun 2027 15:39:26.022   02 Jun 2027 15:40:24.501            58.479                Anadyr2          1827.469
       165   02 Jun 2027 15:45:53.125   02 Jun 2027 15:46:01.421             8.296                Anadyr2           259.250
       166   02 Jun 2027 16:40:43.034   02 Jun 2027 16:41:14.076            31.042               CapeTown           970.062
       167   02 Jun 2027 17:01:50.880   02 Jun 2027 17:03:15.138            84.258              Murmansk2          2633.063
       168   02 Jun 2027 17:04:01.417   02 Jun 2027 17:05:06.454            65.037              Murmansk1          2032.406
       169   02 Jun 2027 17:06:40.721   02 Jun 2027 17:06:45.822             5.101              Murmansk1           159.406
       170   02 Jun 2027 17:07:06.618   02 Jun 2027 17:07:12.690             6.072              Murmansk2           189.750
       171   02 Jun 2027 17:12:19.216   02 Jun 2027 17:13:28.780            69.564                Anadyr2          2173.875
       172   02 Jun 2027 17:13:42.507   02 Jun 2027 17:14:28.144            45.637                Anadyr1          1426.156
       173   02 Jun 2027 17:15:53.004   02 Jun 2027 17:16:52.827            59.823               Magadan1          1869.469
       174   02 Jun 2027 17:17:31.083   02 Jun 2027 17:18:38.959            67.876               Magadan2          2121.125
       175   02 Jun 2027 18:48:13.698   02 Jun 2027 18:50:19.450           125.752                Anadyr2          3929.750
       176   02 Jun 2027 18:50:29.149   02 Jun 2027 18:52:23.537           114.388                Anadyr1          3574.625
       177   02 Jun 2027 18:52:57.747   02 Jun 2027 18:54:06.150            68.403               Magadan2          2137.594
       178   02 Jun 2027 18:54:06.150   02 Jun 2027 18:54:50.867            44.717               Magadan1          1397.406
       179   02 Jun 2027 18:58:39.086   02 Jun 2027 18:58:56.887            17.801               Magadan1           556.281
       180   02 Jun 2027 20:24:05.558   02 Jun 2027 20:28:20.174           254.616                Anadyr2          7956.750
       181   02 Jun 2027 20:28:21.831   02 Jun 2027 20:30:00.033            98.202                Norilsk          3068.812
       182   02 Jun 2027 20:31:12.090   02 Jun 2027 20:32:16.272            64.182                Norilsk          2005.688
       183   02 Jun 2027 20:34:01.992   02 Jun 2027 20:34:55.581            53.589                Irkutsk          1674.656
       184   02 Jun 2027 20:35:05.521   02 Jun 2027 20:35:25.346            19.825                Irkutsk           619.531
       185   02 Jun 2027 20:36:10.299   02 Jun 2027 20:37:52.718           102.419                Irkutsk          3200.594
       186   02 Jun 2027 20:48:12.997   02 Jun 2027 20:49:12.191            59.194                Sumatra          1849.812
       187   02 Jun 2027 20:52:24.358   02 Jun 2027 20:52:53.186            28.828                Sumatra           900.875
       188   02 Jun 2027 21:59:49.319   02 Jun 2027 22:00:04.431            15.112                Anadyr1           472.250
       189   02 Jun 2027 22:00:22.306   02 Jun 2027 22:00:27.653             5.347                Anadyr1           167.094
       190   02 Jun 2027 22:01:05.118   02 Jun 2027 22:01:54.618            49.500                Anadyr2          1546.875
       191   02 Jun 2027 22:01:57.855   02 Jun 2027 22:03:09.828            71.973                Norilsk          2249.156
       192   02 Jun 2027 22:03:13.633   02 Jun 2027 22:03:32.581            18.948               Magadan2           592.125
       193   02 Jun 2027 22:04:02.798   02 Jun 2027 22:04:09.643             6.845               Magadan2           213.906
       194   02 Jun 2027 22:05:57.424   02 Jun 2027 22:07:17.695            80.271                Irkutsk          2508.469
       195   02 Jun 2027 22:08:06.105   02 Jun 2027 22:09:25.669            79.564                Novosib          2486.375
       196   02 Jun 2027 22:19:39.731   02 Jun 2027 22:20:12.644            32.913                Sumatra          1028.531
       197   02 Jun 2027 22:23:47.122   02 Jun 2027 22:24:07.767            20.645                Sumatra           645.156
       198   02 Jun 2027 22:25:08.987   02 Jun 2027 22:25:35.641            26.654                Sumatra           832.938
       199   02 Jun 2027 23:33:53.586   02 Jun 2027 23:35:42.149           108.563                Anadyr1          3392.594
       200   02 Jun 2027 23:37:57.308   02 Jun 2027 23:38:16.475            19.167                Norilsk           598.969
       201   02 Jun 2027 23:38:34.260   02 Jun 2027 23:38:59.234            24.974               Magadan1           780.437
       202   02 Jun 2027 23:38:59.234   02 Jun 2027 23:39:56.414            57.180               Magadan2          1786.875
       203   02 Jun 2027 23:41:34.384   02 Jun 2027 23:42:26.779            52.395              Murmansk1          1637.344
       204   02 Jun 2027 23:42:38.245   02 Jun 2027 23:44:50.243           131.998                Novosib          4124.937
       205   02 Jun 2027 23:49:14.338   02 Jun 2027 23:51:51.782           157.444                  Delhi          4920.125
       206   03 Jun 2027 01:07:14.914   03 Jun 2027 01:07:39.059            24.145                Anadyr1           754.531
       207   03 Jun 2027 01:08:12.071   03 Jun 2027 01:08:55.582            43.511                Anadyr2          1359.719
       208   03 Jun 2027 01:08:55.582   03 Jun 2027 01:09:09.624            14.042                Anadyr1           438.813
       209   03 Jun 2027 01:09:34.330   03 Jun 2027 01:09:52.525            18.195                Anadyr1           568.594
       210   03 Jun 2027 01:12:29.730   03 Jun 2027 01:13:02.669            32.939                Anadyr1          1029.344
       211   03 Jun 2027 01:13:25.525   03 Jun 2027 01:14:35.265            69.740               Magadan2          2179.375
       212   03 Jun 2027 01:14:38.274   03 Jun 2027 01:15:49.173            70.899               Magadan1          2215.594
       213   03 Jun 2027 01:16:04.833   03 Jun 2027 01:16:10.342             5.509               Magadan2           172.156
       214   03 Jun 2027 01:16:10.884   03 Jun 2027 01:16:58.303            47.419              Murmansk1          1481.844
       215   03 Jun 2027 01:17:47.233   03 Jun 2027 01:19:15.444            88.211                Novosib          2756.594
       216   03 Jun 2027 01:23:25.140   03 Jun 2027 01:23:55.939            30.799                 Moscow           962.469
       217   03 Jun 2027 01:27:42.650   03 Jun 2027 01:28:23.008            40.358                  Delhi          1261.188
       218   03 Jun 2027 01:47:39.842   03 Jun 2027 01:48:30.115            50.273               CapeTown          1571.031
       219   03 Jun 2027 01:49:06.338   03 Jun 2027 01:49:11.453             5.115               CapeTown           159.844
       220   03 Jun 2027 01:52:44.338   03 Jun 2027 01:53:48.509            64.171               CapeTown          2005.344
       221   03 Jun 2027 02:40:52.838   03 Jun 2027 02:41:28.123            35.285                Anadyr1          1102.656
       222   03 Jun 2027 02:41:50.402   03 Jun 2027 02:42:00.068             9.666                Anadyr1           302.063
       223   03 Jun 2027 02:43:06.343   03 Jun 2027 02:43:20.212            13.869                Anadyr2           433.406
       224   03 Jun 2027 02:44:07.265   03 Jun 2027 02:44:15.246             7.981                Anadyr1           249.406
       225   03 Jun 2027 02:45:15.404   03 Jun 2027 02:46:33.620            78.216               Magadan2          2444.250
       226   03 Jun 2027 02:49:12.189   03 Jun 2027 02:49:44.825            32.636               Magadan1          1019.875
       227   03 Jun 2027 02:52:03.439   03 Jun 2027 02:52:34.161            30.722              Murmansk2           960.063
       228   03 Jun 2027 02:53:31.992   03 Jun 2027 02:54:09.282            37.290              Murmansk2          1165.313
       229   03 Jun 2027 02:54:21.256   03 Jun 2027 02:55:21.361            60.105                Novosib          1878.281
       230   03 Jun 2027 02:58:27.510   03 Jun 2027 02:58:37.131             9.621                Novosib           300.656
       231   03 Jun 2027 02:59:12.428   03 Jun 2027 02:59:49.563            37.135                Novosib          1160.469
       232   03 Jun 2027 03:00:14.780   03 Jun 2027 03:00:18.443             3.663              Murmansk1           114.469
       233   03 Jun 2027 03:00:18.443   03 Jun 2027 03:01:12.072            53.629              Murmansk2          1675.906
       234   03 Jun 2027 03:01:20.142   03 Jun 2027 03:03:10.109           109.967              Murmansk2          3436.469
       235   03 Jun 2027 03:03:32.323   03 Jun 2027 03:04:51.182            78.859                 Moscow          2464.344
       236   03 Jun 2027 03:19:15.129   03 Jun 2027 03:22:26.838           191.709               CapeTown          5990.906
       237   03 Jun 2027 04:22:44.258   03 Jun 2027 04:22:51.062             6.804               Magadan1           212.625
       238   03 Jun 2027 04:22:55.766   03 Jun 2027 04:23:41.298            45.532                Anadyr2          1422.875
       239   03 Jun 2027 04:23:50.208   03 Jun 2027 04:24:32.059            41.851               Magadan1          1307.844
       240   03 Jun 2027 04:24:46.722   03 Jun 2027 04:25:10.146            23.424                Norilsk           732.000
       241   03 Jun 2027 04:25:19.500   03 Jun 2027 04:25:40.828            21.328                Anadyr2           666.500
       242   03 Jun 2027 05:58:13.791   03 Jun 2027 05:58:32.765            18.974                Anadyr1           592.938
       243   03 Jun 2027 05:58:35.468   03 Jun 2027 06:00:31.421           115.953               Magadan1          3623.531
       244   03 Jun 2027 06:00:38.548   03 Jun 2027 06:02:30.447           111.899               Magadan1          3496.844
       245   03 Jun 2027 07:32:57.831   03 Jun 2027 07:32:58.842             1.011               Magadan1            31.594
       246   03 Jun 2027 07:33:09.772   03 Jun 2027 07:33:26.011            16.239                Anadyr2           507.469
       247   03 Jun 2027 07:33:40.768   03 Jun 2027 07:34:03.930            23.162               Magadan2           723.812
       248   03 Jun 2027 07:34:13.655   03 Jun 2027 07:35:11.589            57.934                Anadyr1          1810.438
       249   03 Jun 2027 07:35:45.117   03 Jun 2027 07:36:22.866            37.749                Anadyr2          1179.656
       250   03 Jun 2027 07:36:32.530   03 Jun 2027 07:36:53.964            21.434               Magadan2           669.813
       251   03 Jun 2027 07:37:17.033   03 Jun 2027 07:37:40.731            23.698                Anadyr1           740.562
       252   03 Jun 2027 07:37:42.462   03 Jun 2027 07:38:29.325            46.863                Anadyr1          1464.469
       253   03 Jun 2027 07:38:35.967   03 Jun 2027 07:38:41.862             5.895               Magadan1           184.219
       254   03 Jun 2027 07:38:44.416   03 Jun 2027 07:39:35.581            51.165                Norilsk          1598.906
       255   03 Jun 2027 07:46:44.127   03 Jun 2027 07:47:08.649            24.522              Murmansk2           766.313
       256   03 Jun 2027 08:15:23.574   03 Jun 2027 08:15:44.681            21.107            RioGallegos           659.594
       257   03 Jun 2027 08:16:17.332   03 Jun 2027 08:17:08.317            50.985            RioGallegos          1593.281
       258   03 Jun 2027 08:53:20.286   03 Jun 2027 08:54:07.215            46.929                Sumatra          1466.531
       259   03 Jun 2027 08:58:50.761   03 Jun 2027 08:59:42.570            51.809                Sumatra          1619.031
       260   03 Jun 2027 09:12:16.886   03 Jun 2027 09:12:47.624            30.738                Irkutsk           960.562
       261   03 Jun 2027 09:12:56.139   03 Jun 2027 09:14:04.022            67.883                Irkutsk          2121.344
       262   03 Jun 2027 09:14:15.965   03 Jun 2027 09:15:00.213            44.248                Irkutsk          1382.750
       263   03 Jun 2027 09:15:31.419   03 Jun 2027 09:15:39.258             7.839                Irkutsk           244.969
       264   03 Jun 2027 09:15:43.207   03 Jun 2027 09:15:50.308             7.101                Irkutsk           221.906
       265   03 Jun 2027 09:15:53.619   03 Jun 2027 09:16:34.534            40.915                Novosib          1278.594
       266   03 Jun 2027 09:51:06.100   03 Jun 2027 09:51:33.917            27.817            RioGallegos           869.281
       267   03 Jun 2027 09:54:06.987   03 Jun 2027 09:54:21.723            14.736            RioGallegos           460.500
       268   03 Jun 2027 10:25:40.984   03 Jun 2027 10:25:48.821             7.837                Sumatra           244.906
       269   03 Jun 2027 10:27:16.585   03 Jun 2027 10:28:19.078            62.493                Sumatra          1952.906
       270   03 Jun 2027 10:45:43.524   03 Jun 2027 10:46:03.789            20.265                  Delhi           633.281
       271   03 Jun 2027 10:47:52.823   03 Jun 2027 10:48:55.677            62.854                Novosib          1964.187
       272   03 Jun 2027 10:49:11.791   03 Jun 2027 10:49:29.094            17.303                Novosib           540.719
       273   03 Jun 2027 10:49:34.236   03 Jun 2027 10:49:42.737             8.501                Irkutsk           265.656
       274   03 Jun 2027 10:49:49.803   03 Jun 2027 10:50:16.005            26.202                Novosib           818.812
       275   03 Jun 2027 10:50:19.936   03 Jun 2027 10:50:36.470            16.534                Novosib           516.687
       276   03 Jun 2027 10:50:57.389   03 Jun 2027 10:51:00.057             2.668                Irkutsk            83.375
       277   03 Jun 2027 10:51:20.930   03 Jun 2027 10:51:37.156            16.226                Norilsk           507.062
       278   03 Jun 2027 10:51:41.662   03 Jun 2027 10:51:46.304             4.642                Novosib           145.062
       279   03 Jun 2027 10:52:00.553   03 Jun 2027 10:52:27.476            26.923                Norilsk           841.344
       280   03 Jun 2027 11:31:54.922   03 Jun 2027 11:32:52.667            57.745            RioGallegos          1804.531
       281   03 Jun 2027 12:10:05.271   03 Jun 2027 12:10:20.019            14.748                  Delhi           460.875
       282   03 Jun 2027 12:12:03.634   03 Jun 2027 12:12:55.430            51.796                  Delhi          1618.625
       283   03 Jun 2027 12:18:01.383   03 Jun 2027 12:18:52.421            51.038                Novosib          1594.938
       284   03 Jun 2027 12:20:19.608   03 Jun 2027 12:21:58.479            98.871                Novosib          3089.719
       285   03 Jun 2027 12:33:17.300   03 Jun 2027 12:33:24.122             6.822              Murmansk1           213.188
       286   03 Jun 2027 12:33:24.122   03 Jun 2027 12:33:57.030            32.908              Murmansk2          1028.375
       287   03 Jun 2027 13:54:16.192   03 Jun 2027 13:57:30.147           193.955                 Moscow          6061.094
       288   03 Jun 2027 13:57:44.527   03 Jun 2027 13:59:58.024           133.497              Murmansk2          4171.781
       289   03 Jun 2027 14:02:09.785   03 Jun 2027 14:03:34.647            84.862                Norilsk          2651.938
       290   03 Jun 2027 15:08:39.409   03 Jun 2027 15:11:30.085           170.676               CapeTown          5333.625
       291   03 Jun 2027 15:17:35.209   03 Jun 2027 15:17:59.693            24.484               CapeTown           765.125
       292   03 Jun 2027 15:34:57.091   03 Jun 2027 15:35:53.508            56.417              Murmansk2          1763.031
       293   03 Jun 2027 15:37:02.547   03 Jun 2027 15:37:49.846            47.299              Murmansk1          1478.094
       294   03 Jun 2027 15:48:43.926   03 Jun 2027 15:50:33.707           109.781                Anadyr1          3430.656
       295   03 Jun 2027 15:51:19.907   03 Jun 2027 15:52:22.155            62.248                Anadyr2          1945.250
       296   03 Jun 2027 15:57:48.260   03 Jun 2027 15:57:54.181             5.921                Anadyr2           185.031
       297   03 Jun 2027 16:44:35.624   03 Jun 2027 16:44:37.291             1.667               CapeTown            52.094
       298   03 Jun 2027 16:45:49.238   03 Jun 2027 16:46:05.570            16.332               CapeTown           510.375
       299   03 Jun 2027 16:48:05.772   03 Jun 2027 16:48:40.618            34.846               CapeTown          1088.938
       300   03 Jun 2027 17:14:29.739   03 Jun 2027 17:17:08.176           158.437              Murmansk1          4951.156
       301   03 Jun 2027 17:19:08.795   03 Jun 2027 17:19:15.025             6.230              Murmansk1           194.687
       302   03 Jun 2027 17:24:19.953   03 Jun 2027 17:25:18.510            58.557                Anadyr1          1829.906
       303   03 Jun 2027 17:25:26.043   03 Jun 2027 17:25:48.968            22.925                Anadyr2           716.406
       304   03 Jun 2027 17:26:29.955   03 Jun 2027 17:27:15.639            45.684                Anadyr2          1427.625
       305   03 Jun 2027 17:27:35.103   03 Jun 2027 17:29:22.232           107.129               Magadan1          3347.781
       306   03 Jun 2027 19:00:15.186   03 Jun 2027 19:02:19.452           124.266                Anadyr1          3883.313
       307   03 Jun 2027 19:02:35.198   03 Jun 2027 19:05:38.522           183.324               Magadan1          5728.875
       308   03 Jun 2027 19:05:38.522   03 Jun 2027 19:05:58.257            19.735               Magadan2           616.719
       309   03 Jun 2027 19:07:14.010   03 Jun 2027 19:07:47.297            33.287               Magadan1          1040.219
       310   03 Jun 2027 19:10:47.400   03 Jun 2027 19:10:54.330             6.930               Magadan1           216.563
       311   03 Jun 2027 19:14:25.050   03 Jun 2027 19:14:47.412            22.362               Magadan2           698.813
       312   03 Jun 2027 19:57:04.270   03 Jun 2027 19:59:11.497           127.227            RioGallegos          3975.844
       313   03 Jun 2027 20:36:05.284   03 Jun 2027 20:36:35.470            30.186                Anadyr1           943.312
       314   03 Jun 2027 20:37:22.292   03 Jun 2027 20:37:44.469            22.177                Anadyr1           693.031
       315   03 Jun 2027 20:37:48.915   03 Jun 2027 20:38:17.551            28.636                Anadyr1           894.875
       316   03 Jun 2027 20:38:28.260   03 Jun 2027 20:38:32.542             4.282               Magadan1           133.813
       317   03 Jun 2027 20:38:32.542   03 Jun 2027 20:39:54.036            81.494               Magadan2          2546.688
       318   03 Jun 2027 20:39:54.419   03 Jun 2027 20:41:58.671           124.252                Norilsk          3882.875
       319   03 Jun 2027 20:43:22.731   03 Jun 2027 20:43:56.690            33.959                Irkutsk          1061.219
       320   03 Jun 2027 20:44:24.228   03 Jun 2027 20:45:09.882            45.654                Norilsk          1426.688
       321   03 Jun 2027 20:47:05.742   03 Jun 2027 20:48:10.217            64.475                Irkutsk          2014.844
       322   03 Jun 2027 20:49:50.872   03 Jun 2027 20:50:08.266            17.394                Irkutsk           543.563
       323   03 Jun 2027 20:58:41.646   03 Jun 2027 21:00:38.370           116.724                Sumatra          3647.625
       324   03 Jun 2027 21:02:20.283   03 Jun 2027 21:03:41.402            81.119                Sumatra          2534.969
       325   03 Jun 2027 22:14:34.426   03 Jun 2027 22:14:42.931             8.505               Magadan2           265.781
       326   03 Jun 2027 22:14:51.334   03 Jun 2027 22:15:32.954            41.620                Norilsk          1300.625
       327   03 Jun 2027 22:17:55.634   03 Jun 2027 22:19:15.575            79.941                Irkutsk          2498.156
       328   03 Jun 2027 22:19:48.509   03 Jun 2027 22:21:53.599           125.090                Novosib          3909.063
       329   03 Jun 2027 22:29:42.620   03 Jun 2027 22:30:38.550            55.930                  Delhi          1747.813
       330   03 Jun 2027 22:31:50.046   03 Jun 2027 22:32:53.135            63.089                  Delhi          1971.531
       331   03 Jun 2027 23:46:07.861   03 Jun 2027 23:46:23.899            16.038                Anadyr2           501.188
       332   03 Jun 2027 23:47:51.450   03 Jun 2027 23:48:00.758             9.308                Anadyr1           290.875
       333   03 Jun 2027 23:49:59.342   03 Jun 2027 23:50:42.820            43.478                Norilsk          1358.687
       334   03 Jun 2027 23:51:28.332   03 Jun 2027 23:51:38.224             9.892               Magadan2           309.125
       335   03 Jun 2027 23:53:06.626   03 Jun 2027 23:54:25.797            79.171              Murmansk2          2474.094
       336   03 Jun 2027 23:54:29.806   03 Jun 2027 23:56:26.081           116.275              Murmansk1          3633.594
       337   03 Jun 2027 23:57:20.174   03 Jun 2027 23:57:44.381            24.207              Murmansk2           756.469
       338   04 Jun 2027 00:01:09.622   04 Jun 2027 00:01:34.929            25.307                  Delhi           790.844
       339   04 Jun 2027 00:02:02.022   04 Jun 2027 00:04:01.501           119.479                  Delhi          3733.719
       340   04 Jun 2027 00:45:27.233   04 Jun 2027 00:45:38.799            11.566            RioGallegos           361.437
       341   04 Jun 2027 00:47:12.390   04 Jun 2027 00:47:37.553            25.163            RioGallegos           786.344
       342   04 Jun 2027 01:18:56.361   04 Jun 2027 01:19:41.188            44.827                Anadyr2          1400.844
       343   04 Jun 2027 01:20:13.321   04 Jun 2027 01:20:44.510            31.189                Anadyr2           974.656
       344   04 Jun 2027 01:20:44.510   04 Jun 2027 01:21:08.715            24.205                Anadyr1           756.406
       345   04 Jun 2027 01:21:34.700   04 Jun 2027 01:21:59.639            24.939                Anadyr2           779.344
       346   04 Jun 2027 01:24:46.183   04 Jun 2027 01:25:10.690            24.507                Anadyr1           765.844
       347   04 Jun 2027 01:25:46.517   04 Jun 2027 01:27:17.006            90.489               Magadan2          2827.781
       348   04 Jun 2027 01:28:10.746   04 Jun 2027 01:28:59.906            49.160              Murmansk1          1536.250
       349   04 Jun 2027 01:29:51.418   04 Jun 2027 01:31:19.510            88.092                Novosib          2752.875
       350   04 Jun 2027 01:32:03.989   04 Jun 2027 01:32:13.201             9.212                 Moscow           287.875
       351   04 Jun 2027 01:33:03.453   04 Jun 2027 01:33:33.189            29.736                 Moscow           929.250
       352   04 Jun 2027 01:35:20.141   04 Jun 2027 01:35:55.545            35.404                Irkutsk          1106.375
       353   04 Jun 2027 01:40:07.995   04 Jun 2027 01:41:13.931            65.936                  Delhi          2060.500
       354   04 Jun 2027 02:01:30.926   04 Jun 2027 02:02:13.033            42.107               CapeTown          1315.844
       355   04 Jun 2027 02:52:41.892   04 Jun 2027 02:54:08.049            86.157                Anadyr2          2692.406
       356   04 Jun 2027 02:55:04.580   04 Jun 2027 02:56:01.257            56.677                Anadyr1          1771.156
       357   04 Jun 2027 02:56:44.427   04 Jun 2027 02:58:01.955            77.528               Magadan1          2422.750
       358   04 Jun 2027 03:11:25.806   04 Jun 2027 03:11:58.068            32.262                 Moscow          1008.187
       359   04 Jun 2027 03:12:06.258   04 Jun 2027 03:13:09.493            63.235                 Moscow          1976.094
       360   04 Jun 2027 03:13:18.665   04 Jun 2027 03:13:26.521             7.856              Murmansk1           245.500
       361   04 Jun 2027 03:13:26.521   04 Jun 2027 03:13:30.441             3.920              Murmansk2           122.500
       362   04 Jun 2027 03:13:49.585   04 Jun 2027 03:14:25.719            36.134                 Moscow          1129.187
       363   04 Jun 2027 03:15:06.915   04 Jun 2027 03:17:11.529           124.614                 Moscow          3894.187
       364   04 Jun 2027 03:31:12.043   04 Jun 2027 03:34:02.585           170.542               CapeTown          5329.438
       365   04 Jun 2027 04:27:56.380   04 Jun 2027 04:30:06.048           129.668                Anadyr1          4052.125
       366   04 Jun 2027 04:30:07.208   04 Jun 2027 04:32:45.968           158.760               Magadan2          4961.250
       367   04 Jun 2027 04:34:18.575   04 Jun 2027 04:35:41.328            82.753               Magadan2          2586.031
       368   04 Jun 2027 04:35:41.328   04 Jun 2027 04:36:35.017            53.689               Magadan1          1677.781
       369   04 Jun 2027 04:36:46.186   04 Jun 2027 04:37:11.133            24.947               Magadan1           779.594
       370   04 Jun 2027 06:12:35.342   04 Jun 2027 06:14:26.959           111.617                Anadyr2          3488.031
       371   04 Jun 2027 07:44:50.765   04 Jun 2027 07:45:02.124            11.359               Magadan1           354.969
       372   04 Jun 2027 07:45:27.112   04 Jun 2027 07:45:55.412            28.300               Magadan2           884.375
       373   04 Jun 2027 07:46:08.557   04 Jun 2027 07:46:14.699             6.142               Magadan2           191.937
       374   04 Jun 2027 07:46:25.150   04 Jun 2027 07:47:11.218            46.068                Anadyr2          1439.625
       375   04 Jun 2027 07:47:26.168   04 Jun 2027 07:48:31.732            65.564               Magadan1          2048.875
       376   04 Jun 2027 07:48:56.935   04 Jun 2027 07:49:04.598             7.663               Magadan2           239.469
       377   04 Jun 2027 07:49:18.270   04 Jun 2027 07:50:09.401            51.131                Anadyr2          1597.844
       378   04 Jun 2027 07:50:27.808   04 Jun 2027 07:50:39.379            11.571               Magadan1           361.594
       379   04 Jun 2027 07:50:43.149   04 Jun 2027 07:50:57.238            14.089               Magadan1           440.281
       380   04 Jun 2027 07:51:07.864   04 Jun 2027 07:51:17.332             9.468                Anadyr2           295.875
       381   04 Jun 2027 07:51:26.401   04 Jun 2027 07:52:10.161            43.760               Magadan1          1367.500
       382   04 Jun 2027 08:27:11.954   04 Jun 2027 08:27:42.834            30.880            RioGallegos           965.000
       383   04 Jun 2027 08:28:35.881   04 Jun 2027 08:29:19.857            43.976            RioGallegos          1374.250
       384   04 Jun 2027 09:08:01.206   04 Jun 2027 09:08:30.203            28.997                Sumatra           906.156
       385   04 Jun 2027 09:23:44.124   04 Jun 2027 09:24:05.029            20.905                Irkutsk           653.281
       386   04 Jun 2027 09:24:21.024   04 Jun 2027 09:24:26.018             4.994                Irkutsk           156.063
       387   04 Jun 2027 09:24:41.085   04 Jun 2027 09:24:46.004             4.919                Novosib           153.719
       388   04 Jun 2027 09:24:48.097   04 Jun 2027 09:24:54.060             5.963                Irkutsk           186.344
       389   04 Jun 2027 09:26:10.764   04 Jun 2027 09:26:11.640             0.876                Irkutsk            27.375
       390   04 Jun 2027 09:26:14.077   04 Jun 2027 09:27:12.431            58.354                Irkutsk          1823.562
       391   04 Jun 2027 09:27:28.954   04 Jun 2027 09:27:45.477            16.523                Irkutsk           516.344
       392   04 Jun 2027 09:28:00.033   04 Jun 2027 09:28:16.134            16.101                Norilsk           503.156
       393   04 Jun 2027 10:03:21.847   04 Jun 2027 10:04:04.683            42.836            RioGallegos          1338.625
       394   04 Jun 2027 10:04:22.174   04 Jun 2027 10:04:50.358            28.184            RioGallegos           880.750
       395   04 Jun 2027 10:37:47.779   04 Jun 2027 10:40:02.616           134.837                Sumatra          4213.656
       396   04 Jun 2027 11:01:12.034   04 Jun 2027 11:01:20.218             8.184                Novosib           255.750
       397   04 Jun 2027 11:01:25.405   04 Jun 2027 11:01:35.390             9.985                Irkutsk           312.031
       398   04 Jun 2027 11:01:42.529   04 Jun 2027 11:01:56.619            14.090                Norilsk           440.313
       399   04 Jun 2027 11:02:04.386   04 Jun 2027 11:02:22.561            18.175                Novosib           567.969
       400   04 Jun 2027 11:02:29.198   04 Jun 2027 11:03:11.516            42.318                Irkutsk          1322.437
       401   04 Jun 2027 11:03:22.956   04 Jun 2027 11:03:38.303            15.347                Norilsk           479.594
       402   04 Jun 2027 11:03:50.903   04 Jun 2027 11:04:29.090            38.187                Novosib          1193.344
       403   04 Jun 2027 12:22:22.218   04 Jun 2027 12:23:29.262            67.044                  Delhi          2095.125
       404   04 Jun 2027 12:27:02.371   04 Jun 2027 12:27:25.246            22.875                  Delhi           714.844
       405   04 Jun 2027 12:30:02.102   04 Jun 2027 12:30:49.445            47.343                  Delhi          1479.469
       406   04 Jun 2027 12:31:10.247   04 Jun 2027 12:31:59.208            48.961                Novosib          1530.031
       407   04 Jun 2027 12:32:22.724   04 Jun 2027 12:33:57.273            94.549                Novosib          2954.656
       408   04 Jun 2027 12:38:15.291   04 Jun 2027 12:39:18.837            63.546                Norilsk          1985.812
       409   04 Jun 2027 14:06:18.803   04 Jun 2027 14:09:36.276           197.473                 Moscow          6171.031
       410   04 Jun 2027 14:09:49.402   04 Jun 2027 14:11:16.752            87.350              Murmansk1          2729.687
       411   04 Jun 2027 14:11:16.752   04 Jun 2027 14:11:47.790            31.038              Murmansk2           969.937
       412   04 Jun 2027 14:12:29.257   04 Jun 2027 14:13:06.020            36.763              Murmansk1          1148.844
       413   04 Jun 2027 14:14:58.655   04 Jun 2027 14:15:36.244            37.589                Norilsk          1174.656
       414   04 Jun 2027 14:16:17.966   04 Jun 2027 14:17:02.654            44.688                Norilsk          1396.500
       415   04 Jun 2027 14:19:23.117   04 Jun 2027 14:20:31.088            67.971                Norilsk          2124.094
       416   04 Jun 2027 15:20:22.193   04 Jun 2027 15:21:11.126            48.933               CapeTown          1529.156
       417   04 Jun 2027 15:21:31.388   04 Jun 2027 15:22:03.375            31.987               CapeTown           999.594
       418   04 Jun 2027 15:45:55.378   04 Jun 2027 15:46:24.329            28.951                 Moscow           904.719
       419   04 Jun 2027 15:47:16.983   04 Jun 2027 15:48:27.221            70.238              Murmansk2          2194.937
       420   04 Jun 2027 15:51:06.421   04 Jun 2027 15:51:21.268            14.847              Murmansk2           463.969
       421   04 Jun 2027 15:51:51.631   04 Jun 2027 15:52:02.968            11.337              Murmansk1           354.281
       422   04 Jun 2027 16:00:40.178   04 Jun 2027 16:02:34.298           114.120                Anadyr2          3566.250
       423   04 Jun 2027 16:03:12.194   04 Jun 2027 16:03:13.523             1.329                Anadyr1            41.531
       424   04 Jun 2027 16:04:57.717   04 Jun 2027 16:05:29.863            32.146                Anadyr2          1004.563
       425   04 Jun 2027 16:55:58.975   04 Jun 2027 16:56:55.671            56.696               CapeTown          1771.750
       426   04 Jun 2027 17:27:12.656   04 Jun 2027 17:30:37.767           205.111              Murmansk1          6409.719
       427   04 Jun 2027 17:36:20.939   04 Jun 2027 17:37:11.229            50.290                Anadyr1          1571.563
       428   04 Jun 2027 17:37:50.516   04 Jun 2027 17:38:26.990            36.474                Anadyr1          1139.813
       429   04 Jun 2027 17:39:22.223   04 Jun 2027 17:39:25.295             3.072               Magadan2            96.000
       430   04 Jun 2027 17:41:11.235   04 Jun 2027 17:42:44.997            93.762               Magadan2          2930.063
       431   04 Jun 2027 17:42:44.997   04 Jun 2027 17:42:49.900             4.903               Magadan1           153.219
       432   04 Jun 2027 17:44:28.177   04 Jun 2027 17:44:44.816            16.639               Magadan2           519.969
       433   04 Jun 2027 17:44:44.816   04 Jun 2027 17:45:35.237            50.421               Magadan1          1575.656
       434   04 Jun 2027 19:12:16.597   04 Jun 2027 19:14:19.239           122.642                Anadyr1          3832.562
       435   04 Jun 2027 19:14:34.820   04 Jun 2027 19:17:35.508           180.688               Magadan2          5646.500
       436   04 Jun 2027 19:18:44.936   04 Jun 2027 19:19:15.417            30.481               Magadan2           952.531
       437   04 Jun 2027 19:25:34.482   04 Jun 2027 19:25:36.492             2.010               Magadan2            62.813
       438   04 Jun 2027 19:26:43.068   04 Jun 2027 19:27:17.758            34.690               Magadan1          1084.062
       439   04 Jun 2027 20:08:08.605   04 Jun 2027 20:10:52.139           163.534            RioGallegos          5110.437
       440   04 Jun 2027 20:13:39.102   04 Jun 2027 20:14:13.169            34.067            RioGallegos          1064.594
       441   04 Jun 2027 20:48:32.877   04 Jun 2027 20:50:13.802           100.925                Anadyr1          3153.906
       442   04 Jun 2027 20:50:30.644   04 Jun 2027 20:51:08.611            37.967               Magadan1          1186.469
       443   04 Jun 2027 20:51:44.341   04 Jun 2027 20:52:13.882            29.541                Norilsk           923.156
       444   04 Jun 2027 20:52:46.761   04 Jun 2027 20:53:58.150            71.389                Norilsk          2230.906
       445   04 Jun 2027 20:55:01.945   04 Jun 2027 20:55:09.407             7.462                Irkutsk           233.187
       446   04 Jun 2027 20:55:35.150   04 Jun 2027 20:56:10.000            34.850                Irkutsk          1089.063
       447   04 Jun 2027 20:57:29.534   04 Jun 2027 20:57:56.397            26.863                Norilsk           839.469
       448   04 Jun 2027 20:59:12.462   04 Jun 2027 21:00:11.048            58.586                Irkutsk          1830.813
       449   04 Jun 2027 21:12:02.087   04 Jun 2027 21:12:14.030            11.943                Sumatra           373.219
       450   04 Jun 2027 21:13:01.385   04 Jun 2027 21:14:13.723            72.338                Sumatra          2260.563
       451   04 Jun 2027 21:15:34.358   04 Jun 2027 21:16:23.906            49.548                Sumatra          1548.375
       452   04 Jun 2027 22:26:37.272   04 Jun 2027 22:28:06.032            88.760               Magadan2          2773.750
       453   04 Jun 2027 22:28:39.941   04 Jun 2027 22:28:47.505             7.564               Magadan2           236.375
       454   04 Jun 2027 22:29:38.424   04 Jun 2027 22:30:01.582            23.158               Magadan2           723.688
       455   04 Jun 2027 22:30:31.132   04 Jun 2027 22:33:48.240           197.108                Novosib          6159.625
       456   04 Jun 2027 22:40:02.326   04 Jun 2027 22:42:08.478           126.152                  Delhi          3942.250
       457   04 Jun 2027 23:57:55.994   04 Jun 2027 23:58:23.992            27.998                Anadyr2           874.937
       458   04 Jun 2027 23:59:43.647   04 Jun 2027 23:59:54.071            10.424                Anadyr1           325.750
       459   05 Jun 2027 00:02:01.313   05 Jun 2027 00:02:19.075            17.762                Norilsk           555.063
       460   05 Jun 2027 00:02:34.138   05 Jun 2027 00:03:49.544            75.406               Magadan2          2356.438
       461   05 Jun 2027 00:03:49.544   05 Jun 2027 00:03:58.914             9.370               Magadan1           292.812
       462   05 Jun 2027 00:04:11.661   05 Jun 2027 00:04:18.322             6.661               Magadan1           208.156
       463   05 Jun 2027 00:04:29.000   05 Jun 2027 00:04:40.807            11.807               Magadan1           368.969
       464   05 Jun 2027 00:04:51.561   05 Jun 2027 00:08:27.982           216.421              Murmansk1          6763.156
       465   05 Jun 2027 00:16:48.142   05 Jun 2027 00:17:06.409            18.267                  Delhi           570.844
       466   05 Jun 2027 00:19:56.147   05 Jun 2027 00:19:56.330             0.183                  Delhi             5.719
       467   05 Jun 2027 00:21:32.993   05 Jun 2027 00:22:01.467            28.474                  Delhi           889.813
       468   05 Jun 2027 00:55:11.097   05 Jun 2027 00:56:11.379            60.282            RioGallegos          1883.813
       469   05 Jun 2027 00:59:43.409   05 Jun 2027 01:00:01.196            17.787            RioGallegos           555.844
       470   05 Jun 2027 01:30:38.297   05 Jun 2027 01:31:09.182            30.885                Anadyr2           965.156
       471   05 Jun 2027 01:31:38.846   05 Jun 2027 01:32:14.638            35.792                Anadyr1          1118.500
       472   05 Jun 2027 01:33:12.795   05 Jun 2027 01:33:43.409            30.614                Anadyr2           956.687
       473   05 Jun 2027 01:36:28.589   05 Jun 2027 01:36:57.206            28.617                Anadyr1           894.281
       474   05 Jun 2027 01:37:06.299   05 Jun 2027 01:38:36.537            90.238               Magadan2          2819.938
       475   05 Jun 2027 01:38:36.537   05 Jun 2027 01:38:44.562             8.025               Magadan1           250.781
       476   05 Jun 2027 01:39:47.983   05 Jun 2027 01:40:00.915            12.932                Norilsk           404.125
       477   05 Jun 2027 01:40:11.108   05 Jun 2027 01:41:58.326           107.218              Murmansk2          3350.563
       478   05 Jun 2027 01:42:49.393   05 Jun 2027 01:43:20.622            31.229                Novosib           975.906
       479   05 Jun 2027 01:43:54.690   05 Jun 2027 01:44:28.132            33.442                 Moscow          1045.062
       480   05 Jun 2027 01:49:41.363   05 Jun 2027 01:50:01.277            19.914                 Moscow           622.313
       481   05 Jun 2027 01:51:12.650   05 Jun 2027 01:52:53.069           100.419                 Moscow          3138.094
       482   05 Jun 2027 02:16:34.627   05 Jun 2027 02:17:01.726            27.099               CapeTown           846.844
