uniorb/output/strategy_4/Drop/Drop_KinoSat_110407.txt

KinoSat_110407
-------------------------
    Access    *     Start Time (UTCG)     *     Stop Time (UTCG)  *   Duration (s)        *       Station  *  Data (Mbytes)
         1   01 Jun 2027 03:32:38.405   01 Jun 2027 03:32:56.215            17.810               Magadan1          2226.250
         2   01 Jun 2027 03:33:15.128   01 Jun 2027 03:33:43.057            27.929               Magadan2          3491.125
         3   01 Jun 2027 03:33:43.057   01 Jun 2027 03:34:23.562            40.505               Magadan1          5063.125
         4   01 Jun 2027 03:34:41.142   01 Jun 2027 03:36:31.282           110.140               Magadan1         13767.500
         5   01 Jun 2027 03:36:47.461   01 Jun 2027 03:37:32.108            44.647               Magadan2          5580.875
         6   01 Jun 2027 03:37:46.269   01 Jun 2027 03:38:29.226            42.957               Magadan2          5369.625
         7   01 Jun 2027 03:38:29.226   01 Jun 2027 03:38:30.580             1.354               Magadan1           169.250
         8   01 Jun 2027 03:38:36.549   01 Jun 2027 03:38:52.668            16.119                Anadyr2          2014.875
         9   01 Jun 2027 03:39:21.527   01 Jun 2027 03:39:56.256            34.729               Magadan2          4341.125
        10   01 Jun 2027 04:52:20.267   01 Jun 2027 04:54:41.554           141.287                Sumatra         17660.875
        11   01 Jun 2027 05:10:57.613   01 Jun 2027 05:11:36.621            39.008                Irkutsk          4876.000
        12   01 Jun 2027 05:11:41.962   01 Jun 2027 05:11:52.678            10.716               Magadan2          1339.500
        13   01 Jun 2027 05:12:18.025   01 Jun 2027 05:13:31.014            72.989               Magadan2          9123.625
        14   01 Jun 2027 05:13:37.384   01 Jun 2027 05:13:43.477             6.093               Magadan2           761.625
        15   01 Jun 2027 05:13:59.529   01 Jun 2027 05:15:25.687            86.158                Novosib         10769.750
        16   01 Jun 2027 05:15:54.450   01 Jun 2027 05:17:15.771            81.321                Novosib         10165.125
        17   01 Jun 2027 05:51:00.673   01 Jun 2027 05:51:17.239            16.566            RioGallegos          2070.750
        18   01 Jun 2027 06:25:29.705   01 Jun 2027 06:26:11.163            41.458                Sumatra          5182.250
        19   01 Jun 2027 06:32:02.211   01 Jun 2027 06:33:35.231            93.020                Sumatra         11627.500
        20   01 Jun 2027 06:36:39.272   01 Jun 2027 06:38:28.063           108.791                  Delhi         13598.875
        21   01 Jun 2027 06:48:07.074   01 Jun 2027 06:48:14.768             7.694                Novosib           961.750
        22   01 Jun 2027 06:48:23.818   01 Jun 2027 06:48:51.539            27.721                Novosib          3465.125
        23   01 Jun 2027 06:49:03.621   01 Jun 2027 06:49:23.722            20.101                Norilsk          2512.625
        24   01 Jun 2027 06:49:32.694   01 Jun 2027 06:49:37.709             5.015                 Moscow           626.875
        25   01 Jun 2027 06:49:56.683   01 Jun 2027 06:51:49.504           112.821                Norilsk         14102.625
        26   01 Jun 2027 06:52:44.777   01 Jun 2027 06:53:13.866            29.089              Murmansk2          3636.125
        27   01 Jun 2027 08:10:00.117   01 Jun 2027 08:10:44.356            44.239                  Delhi          5529.875
        28   01 Jun 2027 08:24:39.367   01 Jun 2027 08:25:29.690            50.323                 Moscow          6290.375
        29   01 Jun 2027 08:26:00.415   01 Jun 2027 08:26:28.139            27.724                 Moscow          3465.500
        30   01 Jun 2027 08:26:51.315   01 Jun 2027 08:28:47.015           115.700                Novosib         14462.500
        31   01 Jun 2027 08:28:47.384   01 Jun 2027 08:29:23.942            36.558              Murmansk2          4569.750
        32   01 Jun 2027 09:58:13.936   01 Jun 2027 09:59:29.328            75.392                 Moscow          9424.000
        33   01 Jun 2027 10:02:24.340   01 Jun 2027 10:06:56.211           271.871                 Moscow         33983.875
        34   01 Jun 2027 10:06:56.474   01 Jun 2027 10:08:17.900            81.426                Norilsk         10178.250
        35   01 Jun 2027 10:08:20.235   01 Jun 2027 10:10:26.367           126.132              Murmansk2         15766.500
        36   01 Jun 2027 11:08:14.203   01 Jun 2027 11:09:39.649            85.446               CapeTown         10680.750
        37   01 Jun 2027 11:10:27.884   01 Jun 2027 11:12:14.745           106.861               CapeTown         13357.625
        38   01 Jun 2027 11:12:39.873   01 Jun 2027 11:14:31.561           111.688               CapeTown         13961.000
        39   01 Jun 2027 11:48:27.770   01 Jun 2027 11:50:28.335           120.565                Anadyr1         15070.625
        40   01 Jun 2027 11:50:45.458   01 Jun 2027 11:52:53.890           128.432                Anadyr2         16054.000
        41   01 Jun 2027 11:56:06.680   01 Jun 2027 11:57:34.193            87.513                Anadyr1         10939.125
        42   01 Jun 2027 13:27:13.377   01 Jun 2027 13:32:41.401           328.024               Magadan2         41003.000
        43   01 Jun 2027 15:56:13.832   01 Jun 2027 15:59:13.707           179.875            RioGallegos         22484.375
        44   01 Jun 2027 16:42:55.842   01 Jun 2027 16:46:21.812           205.970                Irkutsk         25746.250
        45   01 Jun 2027 16:57:50.814   01 Jun 2027 17:00:33.040           162.226                Sumatra         20278.250
        46   01 Jun 2027 17:02:26.687   01 Jun 2027 17:06:36.869           250.182                Sumatra         31272.750
        47   01 Jun 2027 18:28:18.739   01 Jun 2027 18:29:41.564            82.825                  Delhi          8758.376
        48   02 Jun 2027 03:49:57.862   02 Jun 2027 03:50:28.018            30.156               Magadan1          3769.500
        49   02 Jun 2027 03:50:33.699   02 Jun 2027 03:50:39.033             5.334                Anadyr1           666.750
        50   02 Jun 2027 03:50:47.185   02 Jun 2027 03:51:52.441            65.256               Magadan2          8157.000
        51   02 Jun 2027 05:03:26.352   02 Jun 2027 05:06:26.178           179.826                Sumatra         22478.250
        52   02 Jun 2027 05:23:59.814   02 Jun 2027 05:24:39.574            39.760                Irkutsk          4970.000
        53   02 Jun 2027 05:25:45.015   02 Jun 2027 05:27:21.127            96.112                Irkutsk         12014.000
        54   02 Jun 2027 05:27:39.736   02 Jun 2027 05:27:57.824            18.088                Irkutsk          2261.000
        55   02 Jun 2027 05:27:57.871   02 Jun 2027 05:29:29.220            91.349                Norilsk         11418.625
        56   02 Jun 2027 05:29:35.129   02 Jun 2027 05:33:00.637           205.508              Murmansk2         25688.500
        57   02 Jun 2027 05:34:49.885   02 Jun 2027 05:35:35.980            46.095              Murmansk2          5761.875
        58   02 Jun 2027 06:03:18.838   02 Jun 2027 06:05:20.762           121.924            RioGallegos         15240.500
        59   02 Jun 2027 06:07:04.530   02 Jun 2027 06:07:22.157            17.627            RioGallegos          2203.375
        60   02 Jun 2027 06:07:37.590   02 Jun 2027 06:07:47.139             9.549            RioGallegos          1193.625
        61   02 Jun 2027 06:37:39.891   02 Jun 2027 06:40:22.986           163.095                Sumatra         20386.875
        62   02 Jun 2027 07:03:21.376   02 Jun 2027 07:05:25.482           124.106                Novosib         15513.250
        63   02 Jun 2027 07:05:39.336   02 Jun 2027 07:10:31.182           291.846              Murmansk1         36480.750
        64   02 Jun 2027 07:10:31.182   02 Jun 2027 07:10:52.000            20.818              Murmansk2          2602.250
        65   02 Jun 2027 08:22:21.048   02 Jun 2027 08:29:40.795           439.747                  Delhi         54968.375
        66   02 Jun 2027 08:30:35.906   02 Jun 2027 08:34:29.813           233.907                Novosib         29238.375
        67   02 Jun 2027 08:34:46.412   02 Jun 2027 08:35:09.503            23.091                Norilsk          2886.375
        68   02 Jun 2027 08:39:16.967   02 Jun 2027 08:40:36.751            79.784                Novosib          9973.000
        69   02 Jun 2027 08:40:46.998   02 Jun 2027 08:46:32.178           345.180              Murmansk2         43147.500
        70   02 Jun 2027 10:10:45.381   02 Jun 2027 10:11:25.399            40.018              Murmansk2          5002.250
        71   02 Jun 2027 10:14:19.539   02 Jun 2027 10:20:30.817           371.278              Murmansk2         46409.750
        72   02 Jun 2027 10:27:02.442   02 Jun 2027 10:28:33.670            91.228                Anadyr1         11403.500
        73   02 Jun 2027 11:25:40.634   02 Jun 2027 11:25:57.853            17.219               CapeTown          2152.375
        74   02 Jun 2027 11:47:15.693   02 Jun 2027 11:48:22.776            67.083              Murmansk2          8385.375
        75   02 Jun 2027 11:48:22.776   02 Jun 2027 11:53:25.382           302.606              Murmansk1         37825.750
        76   02 Jun 2027 11:53:53.518   02 Jun 2027 11:56:48.084           174.566              Murmansk2         21820.750
        77   02 Jun 2027 12:00:24.508   02 Jun 2027 12:02:01.831            97.323                Anadyr2         12165.375
        78   02 Jun 2027 12:04:47.337   02 Jun 2027 12:04:50.202             2.865                Anadyr1           358.125
        79   02 Jun 2027 12:09:35.013   02 Jun 2027 12:09:57.154            22.141                Anadyr1          2767.625
        80   02 Jun 2027 13:39:02.368   02 Jun 2027 13:43:02.009           239.641               Magadan2         29955.125
        81   02 Jun 2027 16:07:34.028   02 Jun 2027 16:11:01.942           207.914            RioGallegos         25989.250
        82   02 Jun 2027 16:13:45.611   02 Jun 2027 16:15:01.512            75.901            RioGallegos          9487.625
        83   02 Jun 2027 16:56:40.011   02 Jun 2027 16:58:38.466           118.455                Irkutsk         14806.875
        84   02 Jun 2027 17:09:05.702   02 Jun 2027 17:13:56.025           290.323                Sumatra         36290.375
        85   02 Jun 2027 17:15:13.839   02 Jun 2027 17:17:10.831           116.992                Sumatra         14624.000
        86   02 Jun 2027 18:39:14.111   02 Jun 2027 18:41:50.561           156.450                  Delhi         19556.250
        87   02 Jun 2027 21:42:18.603   02 Jun 2027 21:44:34.970           136.367              Murmansk1         17045.875
        88   02 Jun 2027 21:44:53.261   02 Jun 2027 21:46:15.427            82.166                 Moscow         10270.750
        89   02 Jun 2027 21:47:51.426   02 Jun 2027 21:48:23.537            32.111                 Moscow          4013.875
        90   02 Jun 2027 22:09:04.579   02 Jun 2027 22:09:08.734             4.155               CapeTown           390.875
        91   03 Jun 2027 04:04:04.255   03 Jun 2027 04:04:42.971            38.716                Norilsk          4839.500
        92   03 Jun 2027 05:14:48.145   03 Jun 2027 05:16:21.541            93.396                Sumatra         11674.500
        93   03 Jun 2027 05:21:18.353   03 Jun 2027 05:22:16.762            58.409                Sumatra          7301.125
        94   03 Jun 2027 05:39:53.789   03 Jun 2027 05:45:08.594           314.805              Murmansk2         39350.625
        95   03 Jun 2027 05:45:08.594   03 Jun 2027 05:47:38.178           149.584              Murmansk1         18698.000
        96   03 Jun 2027 06:15:41.579   03 Jun 2027 06:17:03.928            82.349            RioGallegos         10293.625
        97   03 Jun 2027 06:17:30.192   03 Jun 2027 06:18:16.706            46.514            RioGallegos          5814.250
        98   03 Jun 2027 06:19:28.282   03 Jun 2027 06:19:58.642            30.360            RioGallegos          3795.000
        99   03 Jun 2027 06:49:56.622   03 Jun 2027 06:52:07.986           131.364                Sumatra         16420.500
       100   03 Jun 2027 06:52:58.146   03 Jun 2027 06:54:31.966            93.820                Sumatra         11727.500
       101   03 Jun 2027 07:00:23.584   03 Jun 2027 07:02:24.280           120.696                  Delhi         15087.000
       102   03 Jun 2027 07:04:37.569   03 Jun 2027 07:04:54.565            16.996                Novosib          2124.500
       103   03 Jun 2027 07:05:07.826   03 Jun 2027 07:08:59.003           231.177                Irkutsk         28897.125
       104   03 Jun 2027 07:09:16.232   03 Jun 2027 07:09:55.839            39.607                Novosib          4950.875
       105   03 Jun 2027 07:15:32.487   03 Jun 2027 07:17:25.303           112.816                Novosib         14102.000
       106   03 Jun 2027 07:17:31.083   03 Jun 2027 07:18:26.773            55.690                 Moscow          6961.250
       107   03 Jun 2027 07:18:30.019   03 Jun 2027 07:20:06.542            96.523                Norilsk         12065.375
       108   03 Jun 2027 07:20:31.801   03 Jun 2027 07:21:03.470            31.669              Murmansk1          3958.625
       109   03 Jun 2027 07:21:03.470   03 Jun 2027 07:21:24.607            21.137              Murmansk2          2642.125
       110   03 Jun 2027 08:34:49.916   03 Jun 2027 08:37:25.240           155.324                  Delhi         19415.500
       111   03 Jun 2027 08:40:10.619   03 Jun 2027 08:41:22.234            71.615                  Delhi          8951.875
       112   03 Jun 2027 08:42:33.760   03 Jun 2027 08:43:50.881            77.121                  Delhi          9640.125
       113   03 Jun 2027 08:44:21.883   03 Jun 2027 08:46:53.661           151.778                Novosib         18972.250
       114   03 Jun 2027 08:46:55.428   03 Jun 2027 08:47:08.774            13.346                Norilsk          1668.250
       115   03 Jun 2027 08:51:16.251   03 Jun 2027 08:52:23.096            66.845                Novosib          8355.625
       116   03 Jun 2027 08:52:24.016   03 Jun 2027 08:54:58.466           154.450                 Moscow         19306.250
       117   03 Jun 2027 08:54:58.778   03 Jun 2027 08:58:32.955           214.177              Murmansk1         26772.125
       118   03 Jun 2027 10:21:45.895   03 Jun 2027 10:23:13.240            87.345              Murmansk1         10918.125
       119   03 Jun 2027 10:23:13.240   03 Jun 2027 10:24:42.176            88.936              Murmansk2         11117.000
       120   03 Jun 2027 10:24:53.825   03 Jun 2027 10:25:32.219            38.394              Murmansk2          4799.250
       121   03 Jun 2027 10:26:06.828   03 Jun 2027 10:26:28.771            21.943              Murmansk2          2742.875
       122   03 Jun 2027 10:27:05.466   03 Jun 2027 10:27:39.375            33.909              Murmansk2          4238.625
       123   03 Jun 2027 10:28:22.795   03 Jun 2027 10:31:45.705           202.910                Norilsk         25363.750
       124   03 Jun 2027 10:37:58.028   03 Jun 2027 10:42:19.874           261.846                Anadyr1         32730.750
       125   03 Jun 2027 11:59:39.074   03 Jun 2027 12:01:20.436           101.362              Murmansk1         12670.250
       126   03 Jun 2027 12:02:20.416   03 Jun 2027 12:02:38.475            18.059              Murmansk1          2257.375
       127   03 Jun 2027 12:02:51.947   03 Jun 2027 12:03:16.745            24.798              Murmansk1          3099.750
       128   03 Jun 2027 12:03:37.249   03 Jun 2027 12:04:44.591            67.342              Murmansk1          8417.750
       129   03 Jun 2027 12:05:20.896   03 Jun 2027 12:05:52.735            31.839              Murmansk1          3979.875
       130   03 Jun 2027 12:05:54.832   03 Jun 2027 12:06:02.406             7.574              Murmansk2           946.750
       131   03 Jun 2027 12:06:46.027   03 Jun 2027 12:07:09.723            23.696              Murmansk2          2962.000
       132   03 Jun 2027 12:08:05.493   03 Jun 2027 12:08:15.420             9.927              Murmansk2          1240.875
       133   03 Jun 2027 12:12:41.148   03 Jun 2027 12:13:37.890            56.742                Anadyr1          7092.750
       134   03 Jun 2027 13:50:54.106   03 Jun 2027 13:54:09.611           195.505               Magadan1         24438.125
       135   03 Jun 2027 13:54:34.257   03 Jun 2027 13:56:29.940           115.683               Magadan2         14460.375
       136   03 Jun 2027 16:19:07.772   03 Jun 2027 16:24:32.954           325.182            RioGallegos         40647.750
       137   03 Jun 2027 17:10:04.177   03 Jun 2027 17:10:34.073            29.896                Irkutsk          3737.000
       138   03 Jun 2027 17:15:51.860   03 Jun 2027 17:17:03.138            71.278                Irkutsk          8909.750
       139   03 Jun 2027 17:20:33.193   03 Jun 2027 17:21:48.632            75.439                Sumatra          9429.875
       140   03 Jun 2027 17:24:14.640   03 Jun 2027 17:27:37.438           202.798                Sumatra         25349.750
       141   03 Jun 2027 18:43:28.348   03 Jun 2027 18:44:45.530            77.182                Novosib          9647.750
       142   03 Jun 2027 18:50:32.928   03 Jun 2027 18:53:54.885           201.957                  Delhi         25244.625
       143   03 Jun 2027 21:51:58.128   03 Jun 2027 21:52:48.271            50.143              Murmansk1          6267.875
       144   03 Jun 2027 21:55:30.038   03 Jun 2027 21:57:19.745           109.707                 Moscow         13713.375
       145   03 Jun 2027 22:20:30.626   03 Jun 2027 22:22:05.018            94.392               CapeTown         10147.500
       146   04 Jun 2027 05:26:20.488   04 Jun 2027 05:28:02.809           102.321                Sumatra         12790.125
       147   04 Jun 2027 05:51:52.246   04 Jun 2027 05:53:28.420            96.174                Novosib         12021.750
       148   04 Jun 2027 05:53:35.934   04 Jun 2027 05:56:48.594           192.660                Norilsk         24082.500
       149   04 Jun 2027 05:57:10.620   04 Jun 2027 05:58:21.864            71.244              Murmansk2          8905.500
       150   04 Jun 2027 05:58:21.864   04 Jun 2027 05:59:31.610            69.746              Murmansk1          8718.250
       151   04 Jun 2027 06:28:09.495   04 Jun 2027 06:29:21.977            72.482            RioGallegos          9060.250
       152   04 Jun 2027 06:29:35.271   04 Jun 2027 06:30:32.546            57.275            RioGallegos          7159.375
       153   04 Jun 2027 06:31:33.481   04 Jun 2027 06:32:01.083            27.602            RioGallegos          3450.250
       154   04 Jun 2027 06:37:59.888   04 Jun 2027 06:38:10.630            10.742            RioGallegos          1342.750
       155   04 Jun 2027 07:02:21.200   04 Jun 2027 07:05:09.639           168.439                Sumatra         21054.875
       156   04 Jun 2027 07:06:21.763   04 Jun 2027 07:06:40.082            18.319                Sumatra          2289.875
       157   04 Jun 2027 07:08:20.232   04 Jun 2027 07:09:36.788            76.556                Sumatra          9569.500
       158   04 Jun 2027 07:10:30.779   04 Jun 2027 07:11:12.736            41.957                  Delhi          5244.625
       159   04 Jun 2027 07:11:48.905   04 Jun 2027 07:12:22.635            33.730                Sumatra          4216.250
       160   04 Jun 2027 07:12:53.137   04 Jun 2027 07:13:50.637            57.500                  Delhi          7187.500
       161   04 Jun 2027 07:16:45.564   04 Jun 2027 07:22:16.582           331.018                Novosib         41377.250
       162   04 Jun 2027 07:27:41.368   04 Jun 2027 07:27:45.657             4.289                 Moscow           536.125
       163   04 Jun 2027 07:27:48.003   04 Jun 2027 07:29:24.314            96.311                Novosib         12038.875
       164   04 Jun 2027 07:29:31.616   04 Jun 2027 07:32:57.038           205.422                Norilsk         25677.750
       165   04 Jun 2027 07:34:26.706   04 Jun 2027 07:34:48.306            21.600              Murmansk2          2700.000
       166   04 Jun 2027 08:47:28.978   04 Jun 2027 08:51:14.189           225.211                  Delhi         28151.375
       167   04 Jun 2027 08:55:44.677   04 Jun 2027 08:56:53.725            69.048                  Delhi          8631.000
       168   04 Jun 2027 08:57:03.618   04 Jun 2027 08:59:00.252           116.634                Novosib         14579.250
       169   04 Jun 2027 09:04:04.028   04 Jun 2027 09:08:45.343           281.315                Norilsk         35164.375
       170   04 Jun 2027 09:08:51.223   04 Jun 2027 09:10:33.947           102.724              Murmansk2         12840.500
       171   04 Jun 2027 10:32:54.638   04 Jun 2027 10:36:03.156           188.518                 Moscow         23564.750
       172   04 Jun 2027 10:36:34.028   04 Jun 2027 10:37:33.430            59.402              Murmansk2          7425.250
       173   04 Jun 2027 10:37:54.080   04 Jun 2027 10:38:18.340            24.260              Murmansk2          3032.500
       174   04 Jun 2027 10:38:59.500   04 Jun 2027 10:39:35.933            36.433              Murmansk2          4554.125
       175   04 Jun 2027 10:41:34.902   04 Jun 2027 10:42:51.820            76.918              Murmansk2          9614.750
       176   04 Jun 2027 10:42:51.820   04 Jun 2027 10:43:47.499            55.679              Murmansk1          6959.875
       177   04 Jun 2027 10:49:30.597   04 Jun 2027 10:55:26.539           355.942                Anadyr1         44492.750
       178   04 Jun 2027 12:12:04.866   04 Jun 2027 12:13:31.339            86.473              Murmansk1         10809.125
       179   04 Jun 2027 12:13:31.339   04 Jun 2027 12:15:50.657           139.318              Murmansk2         17414.750
       180   04 Jun 2027 12:16:37.587   04 Jun 2027 12:17:20.103            42.516              Murmansk2          5314.500
       181   04 Jun 2027 12:17:53.932   04 Jun 2027 12:18:34.314            40.382              Murmansk2          5047.750
       182   04 Jun 2027 12:18:40.847   04 Jun 2027 12:19:04.056            23.209              Murmansk1          2901.125
       183   04 Jun 2027 12:20:06.864   04 Jun 2027 12:20:38.632            31.768              Murmansk1          3971.000
       184   04 Jun 2027 12:24:20.745   04 Jun 2027 12:25:33.501            72.756                Anadyr2          9094.500
       185   04 Jun 2027 12:27:15.386   04 Jun 2027 12:28:52.984            97.598                Anadyr1         12199.750
       186   04 Jun 2027 14:02:47.886   04 Jun 2027 14:05:06.059           138.173               Magadan2         17271.625
       187   04 Jun 2027 14:05:25.619   04 Jun 2027 14:07:04.913            99.294               Magadan1         12411.750
       188   04 Jun 2027 16:30:48.934   04 Jun 2027 16:37:04.897           375.963            RioGallegos         46995.375
       189   04 Jun 2027 17:19:34.657   04 Jun 2027 17:20:52.405            77.748                Irkutsk          9718.500
       190   04 Jun 2027 17:22:03.939   04 Jun 2027 17:22:43.313            39.374                Novosib          4921.750
       191   04 Jun 2027 17:32:09.793   04 Jun 2027 17:34:14.681           124.888                Sumatra         15611.000
       192   04 Jun 2027 17:36:12.365   04 Jun 2027 17:36:14.033             1.668                Sumatra           208.500
       193   04 Jun 2027 17:37:46.573   04 Jun 2027 17:38:40.451            53.878                Sumatra          6734.750
       194   04 Jun 2027 18:53:58.219   04 Jun 2027 18:55:53.868           115.649                Novosib         14456.125
       195   04 Jun 2027 19:02:03.927   04 Jun 2027 19:04:37.067           153.140                  Delhi         19142.500
       196   04 Jun 2027 19:07:44.715   04 Jun 2027 19:08:42.886            58.171                  Delhi          7271.375
       197   04 Jun 2027 20:33:55.608   04 Jun 2027 20:36:00.108           124.500                 Moscow         15562.500
       198   04 Jun 2027 22:07:25.592   04 Jun 2027 22:09:41.792           136.200                 Moscow          7262.876
       199   05 Jun 2027 04:23:20.821   05 Jun 2027 04:24:02.701            41.880                Irkutsk          5235.000
       200   05 Jun 2027 05:38:00.916   05 Jun 2027 05:38:03.961             3.045                Sumatra           380.625
       201   05 Jun 2027 05:39:50.319   05 Jun 2027 05:40:24.530            34.211                Sumatra          4276.375
       202   05 Jun 2027 05:41:28.926   05 Jun 2027 05:42:15.826            46.900                Sumatra          5862.500
       203   05 Jun 2027 05:55:24.755   05 Jun 2027 05:55:56.659            31.904                  Delhi          3988.000
       204   05 Jun 2027 06:03:44.239   05 Jun 2027 06:05:31.677           107.438                Novosib         13429.750
       205   05 Jun 2027 06:05:33.675   05 Jun 2027 06:08:50.496           196.821                Norilsk         24602.625
       206   05 Jun 2027 06:09:12.553   05 Jun 2027 06:10:49.674            97.121              Murmansk1         12140.125
       207   05 Jun 2027 06:10:49.674   05 Jun 2027 06:11:25.771            36.097              Murmansk2          4512.125
       208   05 Jun 2027 06:40:43.481   05 Jun 2027 06:44:20.219           216.738            RioGallegos         27092.250
       209   05 Jun 2027 07:14:56.168   05 Jun 2027 07:18:52.479           236.311                Sumatra         29538.875
       210   05 Jun 2027 07:23:46.931   05 Jun 2027 07:24:16.643            29.712                Sumatra          3714.000
       211   05 Jun 2027 07:24:20.875   05 Jun 2027 07:24:56.339            35.464                  Delhi          4433.000
       212   05 Jun 2027 07:28:56.791   05 Jun 2027 07:31:33.252           156.461                Novosib         19557.625
       213   05 Jun 2027 07:32:08.036   05 Jun 2027 07:34:47.664           159.628                Irkutsk         19953.500
       214   05 Jun 2027 07:34:48.305   05 Jun 2027 07:34:56.898             8.593                 Moscow          1074.125
       215   05 Jun 2027 07:35:10.523   05 Jun 2027 07:35:45.979            35.456                Norilsk          4432.000
       216   05 Jun 2027 07:39:52.216   05 Jun 2027 07:43:03.702           191.486                Norilsk         23935.750
       217   05 Jun 2027 07:43:09.561   05 Jun 2027 07:45:03.847           114.286              Murmansk1         14285.750
       218   05 Jun 2027 07:46:27.637   05 Jun 2027 07:46:47.150            19.513              Murmansk1          2439.125
       219   05 Jun 2027 09:00:22.827   05 Jun 2027 09:03:37.754           194.927                  Delhi         24365.875
       220   05 Jun 2027 09:08:55.931   05 Jun 2027 09:11:03.988           128.057                Novosib         16007.125
       221   05 Jun 2027 09:15:06.385   05 Jun 2027 09:15:35.173            28.788              Murmansk2          3598.500
       222   05 Jun 2027 09:16:23.057   05 Jun 2027 09:20:49.605           266.548                Norilsk         33318.500
       223   05 Jun 2027 09:21:35.697   05 Jun 2027 09:22:35.115            59.418              Murmansk2          7427.250
       224   05 Jun 2027 10:45:18.669   05 Jun 2027 10:45:43.800            25.131                 Moscow          3141.375
       225   05 Jun 2027 10:46:06.080   05 Jun 2027 10:50:48.355           282.275              Murmansk2         35284.375
       226   05 Jun 2027 10:50:54.266   05 Jun 2027 10:51:33.809            39.543              Murmansk1          4942.875
       227   05 Jun 2027 10:54:28.473   05 Jun 2027 10:55:18.861            50.388              Murmansk2          6298.500
       228   05 Jun 2027 11:01:13.424   05 Jun 2027 11:07:36.688           383.264                Anadyr1         47908.000
       229   05 Jun 2027 12:05:08.673   05 Jun 2027 12:05:13.958             5.285               CapeTown           660.625
       230   05 Jun 2027 12:23:23.830   05 Jun 2027 12:25:58.388           154.558                 Moscow         19319.750
       231   05 Jun 2027 12:26:13.783   05 Jun 2027 12:27:27.880            74.097              Murmansk2          9262.125
       232   05 Jun 2027 12:36:19.894   05 Jun 2027 12:37:25.171            65.277                Anadyr2          8159.625
       233   05 Jun 2027 12:40:54.236   05 Jun 2027 12:40:54.380             0.144                Anadyr1            18.000
       234   05 Jun 2027 12:41:44.741   05 Jun 2027 12:43:51.131           126.390               Magadan1         15798.750
       235   05 Jun 2027 14:14:43.251   05 Jun 2027 14:19:06.778           263.527               Magadan1         32940.875
       236   05 Jun 2027 16:42:34.929   05 Jun 2027 16:48:31.075           356.146            RioGallegos         44518.250
       237   05 Jun 2027 17:32:01.479   05 Jun 2027 17:32:39.688            38.209                Irkutsk          4776.125
       238   05 Jun 2027 17:34:29.160   05 Jun 2027 17:37:10.204           161.044                Novosib         20130.500
       239   05 Jun 2027 17:43:53.715   05 Jun 2027 17:45:37.977           104.262                Sumatra         13032.750
       240   05 Jun 2027 17:46:25.097   05 Jun 2027 17:46:32.571             7.474                Sumatra           934.250
       241   05 Jun 2027 17:48:19.040   05 Jun 2027 17:49:36.074            77.034                Sumatra          9629.250
       242   05 Jun 2027 19:13:42.938   05 Jun 2027 19:17:42.937           239.999                  Delhi         29999.875
       243   05 Jun 2027 20:44:28.967   05 Jun 2027 20:44:44.420            15.453              Murmansk1          1931.625
       244   05 Jun 2027 20:45:10.431   05 Jun 2027 20:47:59.493           169.062                 Moscow         16145.625
       245   06 Jun 2027 04:40:02.112   06 Jun 2027 04:41:13.055            70.943                Novosib          8867.875
       246   06 Jun 2027 04:41:16.473   06 Jun 2027 04:44:28.838           192.365              Murmansk1         24045.625
       247   06 Jun 2027 04:44:28.838   06 Jun 2027 04:44:49.125            20.287              Murmansk2          2535.875
       248   06 Jun 2027 04:44:52.458   06 Jun 2027 04:45:06.623            14.165                Norilsk          1770.625
       249   06 Jun 2027 05:14:44.627   06 Jun 2027 05:18:00.029           195.402            RioGallegos         24425.250
       250   06 Jun 2027 05:18:30.876   06 Jun 2027 05:19:00.601            29.725            RioGallegos          3715.625
       251   06 Jun 2027 05:19:16.582   06 Jun 2027 05:19:50.900            34.318            RioGallegos          4289.750
       252   06 Jun 2027 05:49:48.084   06 Jun 2027 05:50:34.173            46.089                Sumatra          5761.125
       253   06 Jun 2027 05:52:38.940   06 Jun 2027 05:54:23.728           104.788                Sumatra         13098.500
       254   06 Jun 2027 06:01:22.088   06 Jun 2027 06:02:47.294            85.206                  Delhi         10650.750
       255   06 Jun 2027 06:16:00.168   06 Jun 2027 06:17:20.291            80.123                 Moscow         10015.375
       256   06 Jun 2027 06:17:25.556   06 Jun 2027 06:20:29.247           183.691                Norilsk         22961.375
       257   06 Jun 2027 06:20:38.282   06 Jun 2027 06:21:06.990            28.708              Murmansk1          3588.500
       258   06 Jun 2027 06:22:06.588   06 Jun 2027 06:23:20.651            74.063              Murmansk2          9257.875
       259   06 Jun 2027 06:53:24.946   06 Jun 2027 06:56:58.318           213.372            RioGallegos         26671.500
       260   06 Jun 2027 07:27:47.183   06 Jun 2027 07:31:11.798           204.615                Sumatra         25576.875
       261   06 Jun 2027 07:33:49.415   06 Jun 2027 07:35:52.034           122.619                  Delhi         15327.375
       262   06 Jun 2027 07:41:11.446   06 Jun 2027 07:44:24.583           193.137                Novosib         24142.125
       263   06 Jun 2027 07:45:16.844   06 Jun 2027 07:47:00.645           103.801                Irkutsk         12975.125
       264   06 Jun 2027 07:47:10.475   06 Jun 2027 07:47:16.986             6.511                Norilsk           813.875
       265   06 Jun 2027 07:51:45.019   06 Jun 2027 07:53:19.428            94.409                Novosib         11801.125
       266   06 Jun 2027 07:53:35.301   06 Jun 2027 07:56:43.161           187.860                Norilsk         23482.500
       267   06 Jun 2027 07:58:28.765   06 Jun 2027 07:58:46.412            17.647              Murmansk2          2205.875
       268   06 Jun 2027 09:13:44.548   06 Jun 2027 09:16:09.910           145.362                  Delhi         18170.250
       269   06 Jun 2027 09:18:24.404   06 Jun 2027 09:19:01.886            37.482                  Delhi          4685.250
       270   06 Jun 2027 09:27:00.921   06 Jun 2027 09:27:21.742            20.821                 Moscow          2602.625
       271   06 Jun 2027 09:28:23.562   06 Jun 2027 09:32:47.769           264.207                Norilsk         33025.875
       272   06 Jun 2027 09:33:11.657   06 Jun 2027 09:34:36.430            84.773              Murmansk1         10596.625
       273   06 Jun 2027 10:33:53.467   06 Jun 2027 10:41:51.999           478.532               CapeTown         59816.500
       274   06 Jun 2027 10:54:56.464   06 Jun 2027 11:03:23.485           507.021                 Moscow         63377.625
       275   06 Jun 2027 11:03:33.066   06 Jun 2027 11:05:16.206           103.140              Murmansk1         12892.500
       276   06 Jun 2027 11:05:16.206   06 Jun 2027 11:10:34.471           318.265              Murmansk2         39783.125
       277   06 Jun 2027 11:13:01.586   06 Jun 2027 11:18:54.020           352.434                Anadyr2         44054.250
       278   06 Jun 2027 12:07:39.549   06 Jun 2027 12:10:53.310           193.761               CapeTown         24220.125
       279   06 Jun 2027 12:12:34.846   06 Jun 2027 12:12:54.606            19.760               CapeTown          2470.000
       280   06 Jun 2027 12:19:57.271   06 Jun 2027 12:20:26.887            29.616               CapeTown          3702.000
       281   06 Jun 2027 12:37:04.315   06 Jun 2027 12:39:21.952           137.637              Murmansk2         17204.625
       282   06 Jun 2027 12:52:36.089   06 Jun 2027 12:57:38.008           301.919               Magadan2         37739.875
       283   06 Jun 2027 14:31:08.728   06 Jun 2027 14:31:59.156            50.428               Magadan1          6303.500
       284   06 Jun 2027 16:09:15.920   06 Jun 2027 16:12:29.692           193.772                Irkutsk         24221.500
       285   06 Jun 2027 16:54:24.394   06 Jun 2027 16:55:42.064            77.670            RioGallegos          9708.750
       286   06 Jun 2027 16:56:59.738   06 Jun 2027 16:58:12.501            72.763            RioGallegos          9095.375
       287   06 Jun 2027 17:42:02.792   06 Jun 2027 17:44:23.401           140.609                Irkutsk         17576.125
       288   06 Jun 2027 17:46:28.712   06 Jun 2027 17:47:03.420            34.708                Novosib          4338.500
       289   06 Jun 2027 17:47:33.297   06 Jun 2027 17:49:40.630           127.333                Novosib         15916.625
       290   06 Jun 2027 19:25:27.878   06 Jun 2027 19:29:42.241           254.363                  Delhi         31795.375
       291   06 Jun 2027 20:56:42.749   06 Jun 2027 20:59:59.646           196.897                 Moscow         24612.125
       292   07 Jun 2027 03:14:39.739   07 Jun 2027 03:15:18.915            39.176               Magadan2          4897.000
       293   07 Jun 2027 03:15:41.274   07 Jun 2027 03:19:58.432           257.158              Murmansk1         32144.750
       294   07 Jun 2027 04:52:08.459   07 Jun 2027 04:57:06.938           298.479                Norilsk         37309.875
       295   07 Jun 2027 04:57:17.466   07 Jun 2027 05:00:26.406           188.940              Murmansk1         23617.500
       296   07 Jun 2027 05:26:51.228   07 Jun 2027 05:30:35.766           224.538            RioGallegos         28067.250
       297   07 Jun 2027 05:31:12.003   07 Jun 2027 05:31:24.278            12.275            RioGallegos          1534.375
       298   07 Jun 2027 05:31:35.465   07 Jun 2027 05:31:48.641            13.176            RioGallegos          1647.000
       299   07 Jun 2027 05:32:20.748   07 Jun 2027 05:33:42.993            82.245            RioGallegos         10280.625
       300   07 Jun 2027 05:35:31.823   07 Jun 2027 05:35:43.960            12.137            RioGallegos          1517.125
       301   07 Jun 2027 05:36:19.949   07 Jun 2027 05:36:33.627            13.678            RioGallegos          1709.750
       302   07 Jun 2027 06:01:41.245   07 Jun 2027 06:03:17.446            96.201                Sumatra         12025.125
       303   07 Jun 2027 06:05:02.615   07 Jun 2027 06:06:37.858            95.243                Sumatra         11905.375
       304   07 Jun 2027 06:12:26.797   07 Jun 2027 06:15:04.814           158.017                  Delhi         19752.125
       305   07 Jun 2027 06:15:40.656   07 Jun 2027 06:18:12.758           152.102                Irkutsk         19012.750
       306   07 Jun 2027 06:18:19.384   07 Jun 2027 06:20:18.503           119.119                Irkutsk         14889.875
       307   07 Jun 2027 06:20:49.459   07 Jun 2027 06:21:22.483            33.024                Norilsk          4128.000
       308   07 Jun 2027 06:28:06.913   07 Jun 2027 06:33:02.372           295.459                Norilsk         36932.375
       309   07 Jun 2027 06:33:16.043   07 Jun 2027 06:35:16.207           120.164              Murmansk2         15020.500
       310   07 Jun 2027 07:06:16.475   07 Jun 2027 07:09:28.264           191.789            RioGallegos         23973.625
       311   07 Jun 2027 07:13:11.175   07 Jun 2027 07:13:38.000            26.825            RioGallegos          3353.125
       312   07 Jun 2027 07:41:13.282   07 Jun 2027 07:44:43.474           210.192                Sumatra         26274.000
       313   07 Jun 2027 07:46:41.490   07 Jun 2027 07:47:42.345            60.855                  Delhi          7606.875
       314   07 Jun 2027 07:53:29.792   07 Jun 2027 07:54:04.877            35.085                Novosib          4385.625
       315   07 Jun 2027 07:55:44.142   07 Jun 2027 07:58:17.906           153.764                Novosib         19220.500
       316   07 Jun 2027 07:58:23.828   07 Jun 2027 07:58:42.418            18.590              Murmansk1          2323.750
       317   07 Jun 2027 07:58:44.749   07 Jun 2027 07:59:46.984            62.235                Novosib          7779.375
       318   07 Jun 2027 08:03:33.051   07 Jun 2027 08:04:30.239            57.188                Norilsk          7148.500
       319   07 Jun 2027 08:04:30.908   07 Jun 2027 08:05:15.156            44.248                Novosib          5531.000
       320   07 Jun 2027 08:05:20.183   07 Jun 2027 08:08:53.806           213.623              Murmansk2         26702.875
       321   07 Jun 2027 08:10:30.056   07 Jun 2027 08:10:46.044            15.988              Murmansk1          1998.500
       322   07 Jun 2027 09:30:17.520   07 Jun 2027 09:30:42.790            25.270                 Moscow          3158.750
       323   07 Jun 2027 09:39:22.894   07 Jun 2027 09:44:44.690           321.796                Norilsk         40224.500
       324   07 Jun 2027 09:45:15.975   07 Jun 2027 09:46:37.879            81.904              Murmansk2         10238.000
       325   07 Jun 2027 10:45:15.280   07 Jun 2027 10:54:27.579           552.299               CapeTown         69037.375
       326   07 Jun 2027 11:07:17.969   07 Jun 2027 11:17:12.797           594.828                 Moscow         74353.500
       327   07 Jun 2027 11:17:15.970   07 Jun 2027 11:22:35.874           319.904              Murmansk2         39988.000
       328   07 Jun 2027 11:24:53.088   07 Jun 2027 11:33:46.824           533.736                Anadyr2         66717.000
       329   07 Jun 2027 12:19:41.824   07 Jun 2027 12:24:48.083           306.259               CapeTown         38282.375
       330   07 Jun 2027 13:04:03.728   07 Jun 2027 13:07:15.390           191.662               Magadan1         23957.750
       331   07 Jun 2027 14:41:52.602   07 Jun 2027 14:43:08.827            76.225               Magadan1          9528.125
       332   07 Jun 2027 16:20:09.911   07 Jun 2027 16:25:48.474           338.563                Irkutsk         42320.375
       333   07 Jun 2027 16:37:17.493   07 Jun 2027 16:37:32.844            15.351                Sumatra          1918.875
       334   07 Jun 2027 16:38:24.443   07 Jun 2027 16:39:18.187            53.744                Sumatra          6718.000
       335   07 Jun 2027 17:55:07.442   07 Jun 2027 17:58:29.013           201.571                Novosib         25196.375
       336   07 Jun 2027 19:37:17.540   07 Jun 2027 19:39:20.627           123.087                  Delhi         15385.875
       337   07 Jun 2027 21:04:12.300   07 Jun 2027 21:05:30.584            78.284              Murmansk1          9785.500
       338   07 Jun 2027 21:08:23.459   07 Jun 2027 21:12:00.480           217.021                 Moscow         27127.625
       339   07 Jun 2027 21:36:33.796   07 Jun 2027 21:37:31.170            57.374               CapeTown          7171.750
       340   08 Jun 2027 03:26:53.618   08 Jun 2027 03:27:12.777            19.159                Norilsk          2394.875
       341   08 Jun 2027 03:27:57.766   08 Jun 2027 03:38:03.024           605.258              Murmansk2         75657.250
       342   08 Jun 2027 04:03:28.755   08 Jun 2027 04:04:46.982            78.227            RioGallegos          9778.375
       343   08 Jun 2027 04:41:58.608   08 Jun 2027 04:42:42.624            44.016                Sumatra          5502.000
       344   08 Jun 2027 05:04:09.674   08 Jun 2027 05:09:07.519           297.845                Norilsk         37230.625
       345   08 Jun 2027 05:09:19.580   08 Jun 2027 05:12:16.887           177.307              Murmansk2         22163.375
       346   08 Jun 2027 05:39:01.449   08 Jun 2027 05:43:49.640           288.191            RioGallegos         36023.875
       347   08 Jun 2027 05:47:50.082   08 Jun 2027 05:48:32.550            42.468            RioGallegos          5308.500
       348   08 Jun 2027 06:13:40.043   08 Jun 2027 06:16:24.258           164.215                Sumatra         20526.875
       349   08 Jun 2027 06:23:44.536   08 Jun 2027 06:26:48.933           184.397                  Delhi         23049.625
       350   08 Jun 2027 06:27:58.919   08 Jun 2027 06:29:53.784           114.865                Irkutsk         14358.125
       351   08 Jun 2027 06:30:15.315   08 Jun 2027 06:32:26.696           131.381                Irkutsk         16422.625
       352   08 Jun 2027 06:40:11.214   08 Jun 2027 06:45:04.203           292.989                Norilsk         36623.625
       353   08 Jun 2027 06:46:05.517   08 Jun 2027 06:47:12.411            66.894              Murmansk1          8361.750
       354   08 Jun 2027 07:19:23.892   08 Jun 2027 07:22:04.706           160.814            RioGallegos         20101.750
       355   08 Jun 2027 07:23:35.380   08 Jun 2027 07:24:51.666            76.286            RioGallegos          9535.750
       356   08 Jun 2027 07:58:00.657   08 Jun 2027 08:03:05.267           304.610                  Delhi         38076.250
       357   08 Jun 2027 08:04:50.111   08 Jun 2027 08:05:38.149            48.038                  Delhi          6004.750
       358   08 Jun 2027 08:05:52.159   08 Jun 2027 08:10:55.723           303.564                Novosib         37945.500
       359   08 Jun 2027 08:15:43.486   08 Jun 2027 08:22:46.013           422.527              Murmansk2         52815.875
       360   08 Jun 2027 09:42:16.068   08 Jun 2027 09:43:02.620            46.552                 Moscow          5819.000
       361   08 Jun 2027 09:51:04.732   08 Jun 2027 09:56:39.863           335.131                Norilsk         41891.375
       362   08 Jun 2027 09:57:05.023   08 Jun 2027 09:58:39.416            94.393              Murmansk1         11799.125
       363   08 Jun 2027 10:56:48.282   08 Jun 2027 11:07:22.683           634.401               CapeTown         79300.125
       364   08 Jun 2027 11:19:43.845   08 Jun 2027 11:25:57.292           373.447                 Moscow         46680.875
       365   08 Jun 2027 11:26:42.643   08 Jun 2027 11:33:58.937           436.294              Murmansk1         54536.750
       366   08 Jun 2027 11:36:46.883   08 Jun 2027 11:41:09.645           262.762                Anadyr2         32845.250
       367   08 Jun 2027 11:41:33.549   08 Jun 2027 11:42:41.748            68.199                Anadyr1          8524.875
       368   08 Jun 2027 12:31:46.839   08 Jun 2027 12:33:48.393           121.554               CapeTown         15194.250
       369   08 Jun 2027 12:34:44.971   08 Jun 2027 12:36:46.977           122.006               CapeTown         15250.750
       370   08 Jun 2027 13:02:15.814   08 Jun 2027 13:04:13.361           117.547              Murmansk1         14693.375
       371   08 Jun 2027 13:15:42.740   08 Jun 2027 13:20:27.581           284.841               Magadan2         35605.125
       372   08 Jun 2027 15:45:48.767   08 Jun 2027 15:47:43.840           115.073            RioGallegos         14384.125
       373   08 Jun 2027 16:31:34.255   08 Jun 2027 16:35:07.406           213.151                Irkutsk         26643.875
       374   08 Jun 2027 16:37:53.247   08 Jun 2027 16:39:13.235            79.988                Irkutsk          9998.500
       375   08 Jun 2027 16:47:10.454   08 Jun 2027 16:49:06.243           115.789                Sumatra         14473.625
       376   08 Jun 2027 16:51:03.219   08 Jun 2027 16:53:08.657           125.438                Sumatra         15679.750
       377   08 Jun 2027 18:10:29.981   08 Jun 2027 18:10:48.616            18.635                Novosib          2329.375
       378   08 Jun 2027 18:12:33.155   08 Jun 2027 18:13:03.735            30.580                Novosib          3822.500
       379   08 Jun 2027 21:16:11.685   08 Jun 2027 21:17:53.659           101.974              Murmansk1         12746.750
       380   08 Jun 2027 21:20:09.299   08 Jun 2027 21:22:42.204           152.905                 Moscow         19113.125
       381   08 Jun 2027 21:24:01.925   08 Jun 2027 21:26:22.352           140.427                 Moscow         17553.375
       382   08 Jun 2027 21:46:55.930   08 Jun 2027 21:48:02.303            66.373               CapeTown          8296.625
       383   08 Jun 2027 21:50:32.128   08 Jun 2027 21:51:03.502            31.374               CapeTown          3921.750
       384   09 Jun 2027 03:39:01.460   09 Jun 2027 03:39:24.689            23.229                Norilsk          2903.625
       385   09 Jun 2027 03:40:12.246   09 Jun 2027 03:47:04.089           411.843              Murmansk1         51480.375
       386   09 Jun 2027 04:52:34.089   09 Jun 2027 04:54:55.996           141.907                Sumatra         17738.375
       387   09 Jun 2027 05:16:09.853   09 Jun 2027 05:17:30.475            80.622                Novosib         10077.750
       388   09 Jun 2027 05:17:32.585   09 Jun 2027 05:24:08.090           395.505              Murmansk1         49438.125
       389   09 Jun 2027 05:51:15.513   09 Jun 2027 05:54:42.955           207.442            RioGallegos         25930.250
       390   09 Jun 2027 06:00:45.220   09 Jun 2027 06:01:03.578            18.358            RioGallegos          2294.750
       391   09 Jun 2027 06:25:44.440   09 Jun 2027 06:27:32.903           108.463                Sumatra         13557.875
       392   09 Jun 2027 06:28:46.360   09 Jun 2027 06:30:52.435           126.075                Sumatra         15759.375
       393   09 Jun 2027 06:40:03.247   09 Jun 2027 06:41:45.784           102.537                  Delhi         12817.125
       394   09 Jun 2027 06:42:09.598   09 Jun 2027 06:44:38.478           148.880                Irkutsk         18610.000
       395   09 Jun 2027 06:50:39.002   09 Jun 2027 06:51:02.654            23.652                Irkutsk          2956.500
       396   09 Jun 2027 06:52:06.215   09 Jun 2027 06:56:57.162           290.947                Norilsk         36368.375
       397   09 Jun 2027 06:57:06.592   09 Jun 2027 06:59:09.225           122.633              Murmansk1         15329.125
       398   09 Jun 2027 07:33:11.615   09 Jun 2027 07:34:49.354            97.739            RioGallegos         12217.375
       399   09 Jun 2027 07:35:49.541   09 Jun 2027 07:35:56.242             6.701            RioGallegos           837.625
       400   09 Jun 2027 08:10:14.979   09 Jun 2027 08:16:48.490           393.511                  Delhi         49188.875
       401   09 Jun 2027 08:17:12.821   09 Jun 2027 08:18:09.706            56.885                  Delhi          7110.625
       402   09 Jun 2027 08:18:42.586   09 Jun 2027 08:23:01.489           258.903                Novosib         32362.875
       403   09 Jun 2027 08:27:45.038   09 Jun 2027 08:31:05.021           199.983                 Moscow         24997.875
       404   09 Jun 2027 08:31:13.418   09 Jun 2027 08:34:46.281           212.863              Murmansk1         26607.875
       405   09 Jun 2027 09:54:17.463   09 Jun 2027 09:55:26.624            69.161                 Moscow          8645.125
       406   09 Jun 2027 09:57:47.403   09 Jun 2027 09:59:14.440            87.037              Murmansk2         10879.625
       407   09 Jun 2027 10:02:47.267   09 Jun 2027 10:09:48.375           421.108              Murmansk2         52638.500
       408   09 Jun 2027 10:09:48.375   09 Jun 2027 10:10:41.028            52.653              Murmansk1          6581.625
       409   09 Jun 2027 11:12:29.415   09 Jun 2027 11:14:45.701           136.286               CapeTown         17035.750
       410   09 Jun 2027 11:32:14.693   09 Jun 2027 11:36:11.076           236.383                 Moscow         29547.875
       411   09 Jun 2027 11:36:22.015   09 Jun 2027 11:44:15.526           473.511              Murmansk1         59188.875
       412   09 Jun 2027 11:44:36.854   09 Jun 2027 11:45:01.014            24.160              Murmansk1          3020.000
       413   09 Jun 2027 11:45:43.501   09 Jun 2027 11:46:04.730            21.229              Murmansk1          2653.625
       414   09 Jun 2027 11:48:42.359   09 Jun 2027 11:54:05.732           323.373                Anadyr2         40421.625
       415   09 Jun 2027 12:43:54.726   09 Jun 2027 12:44:46.541            51.815               CapeTown          6476.875
       416   09 Jun 2027 12:46:33.306   09 Jun 2027 12:47:50.350            77.044               CapeTown          9630.500
       417   09 Jun 2027 12:48:47.483   09 Jun 2027 12:49:28.446            40.963               CapeTown          5120.375
       418   09 Jun 2027 13:27:27.854   09 Jun 2027 13:32:56.496           328.642               Magadan2         41080.250
       419   09 Jun 2027 15:56:27.824   09 Jun 2027 15:59:28.217           180.393            RioGallegos         22549.125
       420   09 Jun 2027 16:43:10.225   09 Jun 2027 16:46:36.828           206.603                Irkutsk         25825.375
       421   09 Jun 2027 16:58:04.782   09 Jun 2027 17:00:47.530           162.748                Sumatra         20343.500
       422   09 Jun 2027 17:02:41.130   09 Jun 2027 17:03:15.054            33.924                Sumatra          4240.500
       423   09 Jun 2027 18:21:26.527   09 Jun 2027 18:22:31.546            65.019                Novosib          8127.375
       424   09 Jun 2027 18:22:43.932   09 Jun 2027 18:24:30.256           106.324                Novosib         13290.500
       425   09 Jun 2027 18:28:32.306   09 Jun 2027 18:30:38.605           126.299                  Delhi         15787.375
       426   09 Jun 2027 21:35:47.495   09 Jun 2027 21:38:41.895           174.400                 Moscow         21800.000
       427   09 Jun 2027 21:58:01.338   09 Jun 2027 22:00:15.292           133.954               CapeTown         16744.250
       428   10 Jun 2027 03:52:13.099   10 Jun 2027 03:58:28.766           375.667              Murmansk1         46958.375
       429   10 Jun 2027 03:58:28.766   10 Jun 2027 03:59:26.642            57.876              Murmansk2          7234.500
       430   10 Jun 2027 05:03:40.430   10 Jun 2027 05:06:40.714           180.284                Sumatra         22535.500
       431   10 Jun 2027 05:28:10.599   10 Jun 2027 05:32:31.506           260.907              Murmansk2         32613.375
       432   10 Jun 2027 05:32:31.506   10 Jun 2027 05:33:15.561            44.055              Murmansk1          5506.875
       433   10 Jun 2027 05:35:51.411   10 Jun 2027 05:36:00.031             8.620              Murmansk2          1077.500
       434   10 Jun 2027 06:03:33.735   10 Jun 2027 06:05:35.273           121.538            RioGallegos         15192.250
       435   10 Jun 2027 06:05:50.827   10 Jun 2027 06:06:44.653            53.826            RioGallegos          6728.250
       436   10 Jun 2027 06:37:54.698   10 Jun 2027 06:40:37.482           162.784                Sumatra         20348.000
       437   10 Jun 2027 06:50:38.214   10 Jun 2027 06:52:24.664           106.450                  Delhi         13306.250
       438   10 Jun 2027 06:52:47.333   10 Jun 2027 06:53:00.615            13.282                Novosib          1660.250
       439   10 Jun 2027 06:53:03.546   10 Jun 2027 06:58:24.282           320.736                Irkutsk         40092.000
       440   10 Jun 2027 07:03:41.853   10 Jun 2027 07:08:51.158           309.305              Murmansk1         38663.125
       441   10 Jun 2027 07:08:51.158   10 Jun 2027 07:10:12.728            81.570              Murmansk2         10196.250
       442   10 Jun 2027 07:10:40.361   10 Jun 2027 07:11:06.609            26.248              Murmansk2          3281.000
       443   10 Jun 2027 08:22:35.996   10 Jun 2027 08:28:45.614           369.618                  Delhi         46202.250
       444   10 Jun 2027 08:30:50.983   10 Jun 2027 08:34:44.695           233.712                Novosib         29214.000
       445   10 Jun 2027 08:39:31.657   10 Jun 2027 08:40:51.240            79.583                Novosib          9947.875
       446   10 Jun 2027 08:40:51.309   10 Jun 2027 08:44:58.832           247.523              Murmansk1         30940.375
       447   10 Jun 2027 08:44:58.832   10 Jun 2027 08:46:46.828           107.996              Murmansk2         13499.500
       448   10 Jun 2027 10:06:21.799   10 Jun 2027 10:07:55.326            93.527                 Moscow         11690.875
       449   10 Jun 2027 10:09:53.181   10 Jun 2027 10:11:41.670           108.489              Murmansk1         13561.125
       450   10 Jun 2027 10:14:36.137   10 Jun 2027 10:16:35.235           119.098              Murmansk1         14887.250
       451   10 Jun 2027 10:16:59.403   10 Jun 2027 10:20:20.659           201.256                Norilsk         25157.000
       452   10 Jun 2027 10:20:28.125   10 Jun 2027 10:21:06.305            38.180              Murmansk2          4772.500
       453   10 Jun 2027 10:22:32.114   10 Jun 2027 10:22:42.686            10.572              Murmansk2          1321.500
       454   10 Jun 2027 10:27:15.281   10 Jun 2027 10:28:50.652            95.371                Anadyr1         11921.375
       455   10 Jun 2027 11:25:55.861   10 Jun 2027 11:26:12.136            16.275               CapeTown          2034.375
       456   10 Jun 2027 11:47:30.614   10 Jun 2027 11:48:37.556            66.942              Murmansk2          8367.750
       457   10 Jun 2027 11:48:37.556   10 Jun 2027 11:57:02.970           505.414              Murmansk1         63176.750
       458   10 Jun 2027 11:57:47.523   10 Jun 2027 11:58:04.663            17.140              Murmansk2          2142.500
       459   10 Jun 2027 11:58:09.531   10 Jun 2027 11:58:38.857            29.326              Murmansk2          3665.750
       460   10 Jun 2027 12:00:39.111   10 Jun 2027 12:01:25.463            46.352                Anadyr2          5794.000
       461   10 Jun 2027 12:02:16.240   10 Jun 2027 12:03:12.707            56.467                Anadyr2          7058.375
       462   10 Jun 2027 12:05:02.427   10 Jun 2027 12:07:23.799           141.372                Anadyr1         17671.500
       463   10 Jun 2027 13:39:16.887   10 Jun 2027 13:41:19.967           123.080               Magadan2         15385.000
       464   10 Jun 2027 13:41:19.967   10 Jun 2027 13:43:17.015           117.048               Magadan1         14631.000
       465   10 Jun 2027 16:07:48.273   10 Jun 2027 16:11:16.501           208.228            RioGallegos         26028.500
       466   10 Jun 2027 16:14:00.652   10 Jun 2027 16:15:16.892            76.240            RioGallegos          9530.000
       467   10 Jun 2027 16:57:04.153   10 Jun 2027 16:58:53.097           108.944                Irkutsk         13618.000
       468   10 Jun 2027 17:09:19.865   10 Jun 2027 17:13:51.726           271.861                Sumatra         33982.625
       469   10 Jun 2027 17:15:28.697   10 Jun 2027 17:17:21.985           113.288                Sumatra         14161.000
       470   10 Jun 2027 18:34:28.211   10 Jun 2027 18:34:40.598            12.387                Novosib          1548.375
       471   10 Jun 2027 18:39:28.125   10 Jun 2027 18:42:05.778           157.653                  Delhi         19706.625
       472   10 Jun 2027 18:44:21.615   10 Jun 2027 18:44:41.256            19.641                  Delhi          2455.125
       473   10 Jun 2027 21:42:34.099   10 Jun 2027 21:44:49.696           135.597              Murmansk1         16949.625
       474   10 Jun 2027 21:44:59.444   10 Jun 2027 21:45:19.470            20.026              Murmansk2          2503.250
       475   10 Jun 2027 21:46:30.328   10 Jun 2027 21:48:06.471            96.143                 Moscow         12017.875
       476   10 Jun 2027 22:10:19.974   10 Jun 2027 22:12:21.470           121.496               CapeTown         12790.375
       477   11 Jun 2027 04:04:19.273   11 Jun 2027 04:04:57.917            38.644                Norilsk          4830.500
       478   11 Jun 2027 05:15:02.379   11 Jun 2027 05:15:46.853            44.474                Sumatra          5559.250
       479   11 Jun 2027 05:16:36.214   11 Jun 2027 05:17:37.786            61.572                Sumatra          7696.500
       480   11 Jun 2027 05:40:08.294   11 Jun 2027 05:47:52.728           464.434              Murmansk2         58054.250
       481   11 Jun 2027 06:15:56.535   11 Jun 2027 06:18:30.694           154.159            RioGallegos         19269.875
       482   11 Jun 2027 06:18:46.698   11 Jun 2027 06:19:43.230            56.532            RioGallegos          7066.500
