uniorb/output/strategy_4/Drop/Drop_KinoSat_110810.txt

KinoSat_110810
-------------------------
    Access    *     Start Time (UTCG)     *     Stop Time (UTCG)  *   Duration (s)        *       Station  *  Data (Mbytes)
         1   01 Jun 2027 04:25:09.504   01 Jun 2027 04:25:27.317            17.813               Magadan2           556.656
         2   01 Jun 2027 04:25:34.934   01 Jun 2027 04:26:27.120            52.186                Anadyr2          1630.813
         3   01 Jun 2027 04:26:28.654   01 Jun 2027 04:27:48.975            80.321                Anadyr2          2510.031
         4   01 Jun 2027 05:59:21.899   01 Jun 2027 06:00:02.960            41.061                Irkutsk          1283.156
         5   01 Jun 2027 06:00:03.018   01 Jun 2027 06:00:16.963            13.945                Anadyr1           435.781
         6   01 Jun 2027 06:00:30.055   01 Jun 2027 06:02:10.569           100.514                Novosib          3141.062
         7   01 Jun 2027 06:02:12.813   01 Jun 2027 06:02:36.243            23.430                Anadyr1           732.188
         8   01 Jun 2027 06:02:38.798   01 Jun 2027 06:03:26.780            47.982                Irkutsk          1499.437
         9   01 Jun 2027 06:03:33.097   01 Jun 2027 06:04:27.521            54.424                Anadyr2          1700.750
        10   01 Jun 2027 06:04:30.977   01 Jun 2027 06:05:15.318            44.341                Irkutsk          1385.656
        11   01 Jun 2027 06:05:18.531   01 Jun 2027 06:05:25.943             7.412                Norilsk           231.625
        12   01 Jun 2027 06:05:29.791   01 Jun 2027 06:05:32.445             2.654               Magadan1            82.938
        13   01 Jun 2027 06:06:04.995   01 Jun 2027 06:06:58.719            53.724              Murmansk2          1678.875
        14   01 Jun 2027 06:07:01.314   01 Jun 2027 06:07:14.644            13.330              Murmansk2           416.563
        15   01 Jun 2027 06:08:06.545   01 Jun 2027 06:08:23.593            17.048                Norilsk           532.750
        16   01 Jun 2027 06:08:30.796   01 Jun 2027 06:09:03.900            33.104              Murmansk1          1034.500
        17   01 Jun 2027 06:12:50.019   01 Jun 2027 06:13:37.924            47.905              Murmansk2          1497.031
        18   01 Jun 2027 06:40:32.516   01 Jun 2027 06:40:51.729            19.213            RioGallegos           600.406
        19   01 Jun 2027 06:41:03.804   01 Jun 2027 06:42:24.710            80.906            RioGallegos          2528.312
        20   01 Jun 2027 07:17:15.979   01 Jun 2027 07:18:45.080            89.101                Sumatra          2784.406
        21   01 Jun 2027 07:36:53.168   01 Jun 2027 07:38:08.875            75.707               Magadan1          2365.844
        22   01 Jun 2027 07:38:18.255   01 Jun 2027 07:38:28.861            10.606                Irkutsk           331.437
        23   01 Jun 2027 07:38:46.299   01 Jun 2027 07:42:58.248           251.949                Novosib          7873.406
        24   01 Jun 2027 08:16:53.116   01 Jun 2027 08:17:43.292            50.176            RioGallegos          1568.000
        25   01 Jun 2027 08:25:45.734   01 Jun 2027 08:26:01.437            15.703            RioGallegos           490.719
        26   01 Jun 2027 08:51:15.908   01 Jun 2027 08:53:01.922           106.014                Sumatra          3312.938
        27   01 Jun 2027 09:01:26.657   01 Jun 2027 09:03:30.279           123.622                  Delhi          3863.187
        28   01 Jun 2027 09:14:37.529   01 Jun 2027 09:15:50.183            72.654                 Moscow          2270.438
        29   01 Jun 2027 09:16:00.759   01 Jun 2027 09:16:55.432            54.673                Irkutsk          1708.531
        30   01 Jun 2027 09:17:31.014   01 Jun 2027 09:18:46.354            75.340              Murmansk2          2354.375
        31   01 Jun 2027 09:18:46.354   01 Jun 2027 09:20:16.885            90.531              Murmansk1          2829.094
        32   01 Jun 2027 09:21:05.953   01 Jun 2027 09:21:27.267            21.314                Norilsk           666.063
        33   01 Jun 2027 10:35:54.456   01 Jun 2027 10:40:55.444           300.988                  Delhi          9405.875
        34   01 Jun 2027 10:51:13.015   01 Jun 2027 10:53:45.089           152.074                Novosib          4752.312
        35   01 Jun 2027 10:53:52.876   01 Jun 2027 10:55:38.661           105.785              Murmansk2          3305.781
        36   01 Jun 2027 10:58:57.455   01 Jun 2027 10:59:03.157             5.702              Murmansk2           178.187
        37   01 Jun 2027 10:59:10.438   01 Jun 2027 10:59:27.498            17.060              Murmansk2           533.125
        38   01 Jun 2027 12:19:44.724   01 Jun 2027 12:25:13.773           329.049                 Moscow         10282.781
        39   01 Jun 2027 12:25:25.500   01 Jun 2027 12:30:29.216           303.716              Murmansk2          9491.125
        40   01 Jun 2027 12:30:56.042   01 Jun 2027 12:31:47.720            51.678                Norilsk          1614.937
        41   01 Jun 2027 13:33:41.606   01 Jun 2027 13:37:50.574           248.968               CapeTown          7780.250
        42   01 Jun 2027 14:00:49.449   01 Jun 2027 14:03:33.233           163.784              Murmansk1          5118.250
        43   01 Jun 2027 14:03:59.156   01 Jun 2027 14:04:39.253            40.097              Murmansk1          1253.031
        44   01 Jun 2027 14:14:03.921   01 Jun 2027 14:16:13.699           129.778                Anadyr2          4055.563
        45   01 Jun 2027 14:16:38.280   01 Jun 2027 14:18:06.140            87.860                Anadyr1          2745.625
        46   01 Jun 2027 15:09:27.108   01 Jun 2027 15:10:35.692            68.584               CapeTown          2143.250
        47   01 Jun 2027 15:40:55.267   01 Jun 2027 15:42:06.479            71.212              Murmansk1          2225.375
        48   01 Jun 2027 15:43:48.358   01 Jun 2027 15:44:03.225            14.867              Murmansk1           464.594
        49   01 Jun 2027 15:44:34.703   01 Jun 2027 15:45:02.731            28.028              Murmansk2           875.875
        50   01 Jun 2027 15:49:45.667   01 Jun 2027 15:51:21.375            95.708                Anadyr2          2990.875
        51   01 Jun 2027 15:51:56.264   01 Jun 2027 15:52:45.928            49.664                Anadyr1          1552.000
        52   01 Jun 2027 15:53:02.850   01 Jun 2027 15:53:24.031            21.181                Anadyr1           661.906
        53   01 Jun 2027 15:53:27.228   01 Jun 2027 15:56:38.122           190.894               Magadan2          5965.437
        54   01 Jun 2027 17:25:41.038   01 Jun 2027 17:27:12.429            91.391                Anadyr2          2855.969
        55   01 Jun 2027 17:27:31.459   01 Jun 2027 17:29:50.829           139.370                Anadyr1          4355.313
        56   01 Jun 2027 17:30:05.062   01 Jun 2027 17:32:12.896           127.834               Magadan2          3994.812
        57   01 Jun 2027 17:34:01.740   01 Jun 2027 17:34:44.410            42.670               Magadan1          1333.437
        58   01 Jun 2027 17:35:27.814   01 Jun 2027 17:35:50.037            22.223               Magadan2           694.469
        59   01 Jun 2027 18:21:20.278   01 Jun 2027 18:24:24.320           184.042            RioGallegos          5751.312
        60   01 Jun 2027 19:02:51.414   01 Jun 2027 19:03:16.260            24.846                Anadyr1           776.438
        61   01 Jun 2027 19:03:38.242   01 Jun 2027 19:07:42.992           244.750                Norilsk          7648.437
        62   01 Jun 2027 19:08:20.709   01 Jun 2027 19:10:25.694           124.985                Irkutsk          3905.781
        63   01 Jun 2027 19:10:40.555   01 Jun 2027 19:11:23.390            42.835                Irkutsk          1338.594
        64   01 Jun 2027 19:11:26.782   01 Jun 2027 19:12:45.191            78.409                Irkutsk          2450.281
        65   01 Jun 2027 19:22:53.685   01 Jun 2027 19:22:58.412             4.727                Sumatra           147.719
        66   01 Jun 2027 19:24:58.115   01 Jun 2027 19:28:14.626           196.511                Sumatra          6140.969
        67   01 Jun 2027 19:29:40.690   01 Jun 2027 19:30:31.579            50.889                Sumatra          1590.281
        68   01 Jun 2027 20:43:52.364   01 Jun 2027 20:44:40.555            48.191                Novosib          1505.969
        69   01 Jun 2027 20:45:11.844   01 Jun 2027 20:45:39.024            27.180                Novosib           849.375
        70   01 Jun 2027 20:46:18.392   01 Jun 2027 20:46:54.363            35.971                Novosib          1124.094
        71   01 Jun 2027 20:53:04.946   01 Jun 2027 20:55:33.947           149.001                  Delhi          4656.281
        72   01 Jun 2027 20:59:11.634   01 Jun 2027 21:00:38.641            87.007                  Delhi          2718.969
        73   01 Jun 2027 22:18:13.422   01 Jun 2027 22:22:02.747           229.325              Murmansk2          7166.406
        74   01 Jun 2027 22:22:21.646   01 Jun 2027 22:24:22.431           120.785              Murmansk1          3774.531
        75   01 Jun 2027 23:49:48.431   01 Jun 2027 23:50:38.062            49.631               Magadan2          1550.969
        76   01 Jun 2027 23:51:30.021   01 Jun 2027 23:51:32.785             2.764               Magadan2            86.375
        77   01 Jun 2027 23:51:49.801   01 Jun 2027 23:52:06.769            16.968               Magadan1           530.250
        78   01 Jun 2027 23:52:24.413   01 Jun 2027 23:52:45.101            20.688               Magadan1           646.500
        79   01 Jun 2027 23:53:36.049   01 Jun 2027 23:55:16.931           100.882              Murmansk2          3152.563
        80   01 Jun 2027 23:55:21.591   01 Jun 2027 23:56:00.131            38.540                Novosib          1204.375
        81   01 Jun 2027 23:56:21.625   01 Jun 2027 23:57:46.125            84.500              Murmansk1          2640.625
        82   01 Jun 2027 23:58:05.895   01 Jun 2027 23:59:52.737           106.842                 Moscow          3338.812
        83   02 Jun 2027 00:06:45.958   02 Jun 2027 00:07:33.238            47.280                 Moscow          1477.500
        84   02 Jun 2027 00:22:52.549   02 Jun 2027 00:24:05.756            73.207               CapeTown          2287.719
        85   02 Jun 2027 00:27:04.601   02 Jun 2027 00:27:46.313            41.712               CapeTown          1303.500
        86   02 Jun 2027 00:29:12.824   02 Jun 2027 00:30:11.120            58.296               CapeTown          1821.750
        87   02 Jun 2027 01:21:46.178   02 Jun 2027 01:22:38.975            52.797               Magadan2          1649.906
        88   02 Jun 2027 01:29:32.082   02 Jun 2027 01:30:36.624            64.542              Murmansk1          2016.937
        89   02 Jun 2027 01:32:13.447   02 Jun 2027 01:32:39.985            26.538              Murmansk1           829.313
        90   02 Jun 2027 01:32:44.549   02 Jun 2027 01:33:52.054            67.505                 Moscow          2109.531
        91   02 Jun 2027 01:36:03.488   02 Jun 2027 01:36:20.675            17.187                 Moscow           537.094
        92   02 Jun 2027 01:40:01.279   02 Jun 2027 01:40:13.544            12.265                 Moscow           383.281
        93   02 Jun 2027 01:40:33.592   02 Jun 2027 01:41:11.186            37.594                 Moscow          1174.812
        94   02 Jun 2027 01:56:40.043   02 Jun 2027 01:57:28.847            48.804               CapeTown          1525.125
        95   02 Jun 2027 02:06:21.231   02 Jun 2027 02:06:44.184            22.953               CapeTown           717.281
        96   02 Jun 2027 02:53:27.213   02 Jun 2027 02:54:57.625            90.412                Anadyr1          2825.375
        97   02 Jun 2027 02:55:14.633   02 Jun 2027 02:56:18.851            64.218                Anadyr2          2006.812
        98   02 Jun 2027 02:56:21.540   02 Jun 2027 02:57:40.637            79.097               Magadan2          2471.781
        99   02 Jun 2027 03:00:18.807   02 Jun 2027 03:02:10.894           112.087                Anadyr1          3502.719
       100   02 Jun 2027 03:02:10.894   02 Jun 2027 03:03:07.346            56.452                Anadyr2          1764.125
       101   02 Jun 2027 03:05:21.856   02 Jun 2027 03:05:53.667            31.811                Anadyr2           994.094
       102   02 Jun 2027 04:37:06.469   02 Jun 2027 04:37:33.781            27.312                Irkutsk           853.500
       103   02 Jun 2027 04:37:53.139   02 Jun 2027 04:38:49.268            56.129               Magadan2          1754.031
       104   02 Jun 2027 04:39:11.655   02 Jun 2027 04:40:38.654            86.999               Magadan1          2718.719
       105   02 Jun 2027 04:40:48.081   02 Jun 2027 04:41:48.116            60.035                Anadyr2          1876.094
       106   02 Jun 2027 05:19:09.454   02 Jun 2027 05:19:43.614            34.160            RioGallegos          1067.500
       107   02 Jun 2027 06:12:48.462   02 Jun 2027 06:12:58.034             9.572                Novosib           299.125
       108   02 Jun 2027 06:13:16.918   02 Jun 2027 06:16:08.550           171.632                Novosib          5363.500
       109   02 Jun 2027 06:16:25.273   02 Jun 2027 06:17:10.165            44.892                Novosib          1402.875
       110   02 Jun 2027 06:17:27.118   02 Jun 2027 06:17:50.767            23.649                Novosib           739.031
       111   02 Jun 2027 07:49:31.530   02 Jun 2027 07:52:10.271           158.741                Irkutsk          4960.656
       112   02 Jun 2027 07:52:25.941   02 Jun 2027 07:52:50.152            24.211                Irkutsk           756.594
       113   02 Jun 2027 07:53:20.737   02 Jun 2027 07:53:37.363            16.626                Irkutsk           519.563
       114   02 Jun 2027 08:29:14.783   02 Jun 2027 08:29:46.656            31.873            RioGallegos           996.031
       115   02 Jun 2027 09:03:31.082   02 Jun 2027 09:04:49.442            78.360                Sumatra          2448.750
       116   02 Jun 2027 09:26:00.733   02 Jun 2027 09:26:13.114            12.381                Irkutsk           386.906
       117   02 Jun 2027 09:27:40.759   02 Jun 2027 09:28:05.747            24.988                Norilsk           780.875
       118   02 Jun 2027 09:28:11.866   02 Jun 2027 09:28:43.277            31.411                Irkutsk           981.594
       119   02 Jun 2027 09:28:45.646   02 Jun 2027 09:28:59.482            13.836                Norilsk           432.375
       120   02 Jun 2027 10:48:21.379   02 Jun 2027 10:51:34.860           193.481                  Delhi          6046.281
       121   02 Jun 2027 11:03:22.085   02 Jun 2027 11:03:56.305            34.220                Norilsk          1069.375
       122   02 Jun 2027 11:04:11.031   02 Jun 2027 11:04:35.861            24.830                Novosib           775.938
       123   02 Jun 2027 11:05:58.360   02 Jun 2027 11:06:02.913             4.553                Novosib           142.281
       124   02 Jun 2027 12:31:51.377   02 Jun 2027 12:33:20.065            88.688                 Moscow          2771.500
       125   02 Jun 2027 12:34:16.011   02 Jun 2027 12:35:00.620            44.609                 Moscow          1394.031
       126   02 Jun 2027 12:35:03.136   02 Jun 2027 12:35:56.513            53.377                 Moscow          1668.031
       127   02 Jun 2027 12:36:08.788   02 Jun 2027 12:39:13.445           184.657              Murmansk1          5770.531
       128   02 Jun 2027 12:51:45.469   02 Jun 2027 12:55:40.825           235.356                Anadyr1          7354.875
       129   02 Jun 2027 13:48:02.332   02 Jun 2027 13:48:52.727            50.395               CapeTown          1574.844
       130   02 Jun 2027 14:13:12.320   02 Jun 2027 14:14:01.842            49.522              Murmansk2          1547.562
       131   02 Jun 2027 14:14:28.711   02 Jun 2027 14:14:43.229            14.518              Murmansk2           453.687
       132   02 Jun 2027 14:15:25.228   02 Jun 2027 14:16:00.843            35.615              Murmansk1          1112.969
       133   02 Jun 2027 14:26:01.483   02 Jun 2027 14:28:02.249           120.766                Anadyr1          3773.938
       134   02 Jun 2027 14:28:37.842   02 Jun 2027 14:30:05.701            87.859                Anadyr2          2745.594
       135   02 Jun 2027 14:33:26.386   02 Jun 2027 14:33:40.210            13.824                Anadyr1           432.000
       136   02 Jun 2027 15:28:27.338   02 Jun 2027 15:28:52.369            25.031               CapeTown           782.219
       137   02 Jun 2027 15:53:45.638   02 Jun 2027 15:55:40.489           114.851              Murmansk1          3589.094
       138   02 Jun 2027 16:01:46.751   02 Jun 2027 16:03:21.172            94.421                Anadyr2          2950.656
       139   02 Jun 2027 16:03:41.888   02 Jun 2027 16:04:30.061            48.173                Anadyr1          1505.406
       140   02 Jun 2027 16:04:34.584   02 Jun 2027 16:08:26.737           232.153               Magadan1          7254.781
       141   02 Jun 2027 16:13:40.842   02 Jun 2027 16:14:51.085            70.243               Magadan2          2195.094
       142   02 Jun 2027 17:37:42.124   02 Jun 2027 17:38:27.209            45.085                Anadyr1          1408.906
       143   02 Jun 2027 17:38:37.158   02 Jun 2027 17:39:14.795            37.637                Anadyr2          1176.156
       144   02 Jun 2027 17:39:59.343   02 Jun 2027 17:41:17.329            77.986               Magadan1          2437.062
       145   02 Jun 2027 17:43:06.338   02 Jun 2027 17:43:11.814             5.476               Magadan2           171.125
       146   02 Jun 2027 17:43:17.826   02 Jun 2027 17:43:32.275            14.449               Magadan1           451.531
       147   02 Jun 2027 17:43:44.246   02 Jun 2027 17:45:32.837           108.591               Magadan2          3393.469
       148   02 Jun 2027 18:32:58.392   02 Jun 2027 18:35:26.214           147.822            RioGallegos          4619.437
       149   02 Jun 2027 18:37:03.555   02 Jun 2027 18:38:00.098            56.543            RioGallegos          1766.969
       150   02 Jun 2027 18:39:19.004   02 Jun 2027 18:39:39.341            20.337            RioGallegos           635.531
       151   02 Jun 2027 19:15:36.613   02 Jun 2027 19:19:43.375           246.762                Norilsk          7711.313
       152   02 Jun 2027 19:20:06.850   02 Jun 2027 19:21:20.371            73.521                Irkutsk          2297.531
       153   02 Jun 2027 19:22:31.578   02 Jun 2027 19:23:42.317            70.739                Irkutsk          2210.594
       154   02 Jun 2027 19:34:18.680   02 Jun 2027 19:37:32.072           193.392                Sumatra          6043.500
       155   02 Jun 2027 20:55:19.639   02 Jun 2027 20:55:44.092            24.453                Irkutsk           764.156
       156   02 Jun 2027 20:55:44.295   02 Jun 2027 20:57:03.209            78.914                Novosib          2466.063
       157   02 Jun 2027 20:57:21.956   02 Jun 2027 20:58:22.947            60.991                Novosib          1905.969
       158   02 Jun 2027 21:04:19.905   02 Jun 2027 21:07:17.464           177.559                  Delhi          5548.719
       159   02 Jun 2027 21:11:08.382   02 Jun 2027 21:11:54.599            46.217                  Delhi          1444.281
       160   02 Jun 2027 22:30:04.912   02 Jun 2027 22:35:59.880           354.968              Murmansk2         11092.750
       161   03 Jun 2027 00:01:19.036   03 Jun 2027 00:01:51.115            32.079               Magadan1          1002.469
       162   03 Jun 2027 00:02:15.097   03 Jun 2027 00:03:07.972            52.875               Magadan2          1652.344
       163   03 Jun 2027 00:03:52.417   03 Jun 2027 00:04:46.419            54.002               Magadan2          1687.562
       164   03 Jun 2027 00:05:36.760   03 Jun 2027 00:06:32.839            56.079              Murmansk1          1752.469
       165   03 Jun 2027 00:07:10.103   03 Jun 2027 00:07:24.141            14.038              Murmansk2           438.688
       166   03 Jun 2027 00:08:55.951   03 Jun 2027 00:09:32.475            36.524              Murmansk2          1141.375
       167   03 Jun 2027 00:10:45.227   03 Jun 2027 00:11:08.987            23.760              Murmansk2           742.500
       168   03 Jun 2027 00:11:57.702   03 Jun 2027 00:12:08.439            10.737                 Moscow           335.531
       169   03 Jun 2027 00:12:32.354   03 Jun 2027 00:13:06.975            34.621                 Moscow          1081.906
       170   03 Jun 2027 00:13:28.103   03 Jun 2027 00:14:06.075            37.972              Murmansk1          1186.625
       171   03 Jun 2027 00:15:22.730   03 Jun 2027 00:15:56.889            34.159                 Moscow          1067.469
       172   03 Jun 2027 00:16:40.601   03 Jun 2027 00:17:02.077            21.476                 Moscow           671.125
       173   03 Jun 2027 00:17:19.130   03 Jun 2027 00:18:24.077            64.947                 Moscow          2029.594
       174   03 Jun 2027 00:34:16.748   03 Jun 2027 00:34:49.885            33.137               CapeTown          1035.531
       175   03 Jun 2027 00:35:06.162   03 Jun 2027 00:35:45.474            39.312               CapeTown          1228.500
       176   03 Jun 2027 00:39:38.979   03 Jun 2027 00:41:04.538            85.559               CapeTown          2673.719
       177   03 Jun 2027 01:38:18.212   03 Jun 2027 01:39:00.755            42.543               Magadan2          1329.469
       178   03 Jun 2027 01:41:33.781   03 Jun 2027 01:42:28.670            54.889              Murmansk2          1715.281
       179   03 Jun 2027 01:42:28.670   03 Jun 2027 01:43:03.521            34.851              Murmansk1          1089.094
       180   03 Jun 2027 01:44:28.155   03 Jun 2027 01:45:11.301            43.146                Novosib          1348.313
       181   03 Jun 2027 01:46:01.655   03 Jun 2027 01:46:22.097            20.442                 Moscow           638.813
       182   03 Jun 2027 01:48:35.022   03 Jun 2027 01:48:54.265            19.243                 Moscow           601.344
       183   03 Jun 2027 01:52:36.080   03 Jun 2027 01:53:20.022            43.942                 Moscow          1373.187
       184   03 Jun 2027 02:09:02.633   03 Jun 2027 02:10:23.923            81.290               CapeTown          2540.313
       185   03 Jun 2027 03:05:34.466   03 Jun 2027 03:05:52.378            17.912                Anadyr2           559.750
       186   03 Jun 2027 03:05:56.025   03 Jun 2027 03:05:58.826             2.801               Magadan1            87.531
       187   03 Jun 2027 03:06:18.456   03 Jun 2027 03:06:55.701            37.245                Anadyr1          1163.906
       188   03 Jun 2027 03:07:41.913   03 Jun 2027 03:07:49.329             7.416               Magadan1           231.750
       189   03 Jun 2027 03:07:56.113   03 Jun 2027 03:08:19.404            23.291                Anadyr1           727.844
       190   03 Jun 2027 03:09:13.415   03 Jun 2027 03:09:19.484             6.069                Anadyr1           189.656
       191   03 Jun 2027 03:11:24.130   03 Jun 2027 03:12:18.157            54.027                Anadyr2          1688.344
       192   03 Jun 2027 03:12:32.690   03 Jun 2027 03:16:24.996           232.306                Anadyr1          7259.563
       193   03 Jun 2027 03:16:28.647   03 Jun 2027 03:16:54.006            25.359               Magadan2           792.469
       194   03 Jun 2027 03:17:39.541   03 Jun 2027 03:17:57.024            17.483               Magadan2           546.344
       195   03 Jun 2027 04:51:30.409   03 Jun 2027 04:53:44.002           133.593               Magadan1          4174.781
       196   03 Jun 2027 04:53:44.436   03 Jun 2027 04:53:56.970            12.534                Anadyr2           391.688
       197   03 Jun 2027 06:24:19.919   03 Jun 2027 06:25:04.644            44.725               Magadan2          1397.656
       198   03 Jun 2027 06:25:32.610   03 Jun 2027 06:25:34.368             1.758               Magadan2            54.938
       199   03 Jun 2027 06:25:39.820   03 Jun 2027 06:25:40.902             1.082               Magadan2            33.813
       200   03 Jun 2027 06:26:09.197   03 Jun 2027 06:27:27.933            78.736               Magadan2          2460.500
       201   03 Jun 2027 06:27:41.248   03 Jun 2027 06:28:42.834            61.586               Magadan1          1924.562
       202   03 Jun 2027 06:28:56.067   03 Jun 2027 06:29:01.997             5.930               Magadan1           185.313
       203   03 Jun 2027 06:31:00.457   03 Jun 2027 06:31:05.796             5.339              Murmansk1           166.844
       204   03 Jun 2027 08:04:05.836   03 Jun 2027 08:04:19.247            13.411                Irkutsk           419.094
       205   03 Jun 2027 08:04:36.981   03 Jun 2027 08:05:37.371            60.390                Irkutsk          1887.188
       206   03 Jun 2027 08:41:41.475   03 Jun 2027 08:41:53.481            12.006            RioGallegos           375.188
       207   03 Jun 2027 09:15:53.742   03 Jun 2027 09:16:42.946            49.204                Sumatra          1537.625
       208   03 Jun 2027 09:17:30.643   03 Jun 2027 09:18:20.574            49.931                Sumatra          1560.344
       209   03 Jun 2027 09:40:27.856   03 Jun 2027 09:40:40.646            12.790                Novosib           399.687
       210   03 Jun 2027 09:40:45.730   03 Jun 2027 09:40:53.295             7.565                Novosib           236.406
       211   03 Jun 2027 09:41:23.065   03 Jun 2027 09:41:26.227             3.162                Novosib            98.813
       212   03 Jun 2027 11:00:57.855   03 Jun 2027 11:03:14.554           136.699                  Delhi          4271.844
       213   03 Jun 2027 11:03:19.355   03 Jun 2027 11:04:03.446            44.091                  Delhi          1377.844
       214   03 Jun 2027 11:16:37.982   03 Jun 2027 11:16:59.590            21.608                Norilsk           675.250
       215   03 Jun 2027 11:17:47.419   03 Jun 2027 11:17:48.545             1.126                Novosib            35.188
       216   03 Jun 2027 12:44:01.192   03 Jun 2027 12:44:41.793            40.601                 Moscow          1268.781
       217   03 Jun 2027 12:46:21.911   03 Jun 2027 12:46:59.867            37.956                 Moscow          1186.125
       218   03 Jun 2027 12:47:31.742   03 Jun 2027 12:49:28.045           116.303              Murmansk1          3634.469
       219   03 Jun 2027 12:50:34.109   03 Jun 2027 12:50:44.020             9.911              Murmansk2           309.719
       220   03 Jun 2027 12:51:08.234   03 Jun 2027 12:52:04.174            55.940              Murmansk1          1748.125
       221   03 Jun 2027 12:52:04.174   03 Jun 2027 12:52:23.446            19.272              Murmansk2           602.250
       222   03 Jun 2027 12:52:53.927   03 Jun 2027 12:53:14.616            20.689              Murmansk2           646.531
       223   03 Jun 2027 12:55:09.824   03 Jun 2027 12:56:01.913            52.089                Norilsk          1627.781
       224   03 Jun 2027 13:03:14.244   03 Jun 2027 13:06:41.137           206.893                Anadyr1          6465.406
       225   03 Jun 2027 13:07:10.046   03 Jun 2027 13:08:51.942           101.896                Anadyr2          3184.250
       226   03 Jun 2027 14:25:37.573   03 Jun 2027 14:26:42.230            64.657              Murmansk1          2020.531
       227   03 Jun 2027 14:34:47.736   03 Jun 2027 14:35:34.051            46.315              Murmansk2          1447.344
       228   03 Jun 2027 14:37:59.874   03 Jun 2027 14:40:36.951           157.077                Anadyr2          4908.656
       229   03 Jun 2027 15:37:53.320   03 Jun 2027 15:38:51.048            57.728               CapeTown          1804.000
       230   03 Jun 2027 16:06:44.644   03 Jun 2027 16:08:05.892            81.248              Murmansk2          2539.000
       231   03 Jun 2027 16:13:47.964   03 Jun 2027 16:15:21.381            93.417                Anadyr2          2919.281
       232   03 Jun 2027 16:15:23.326   03 Jun 2027 16:16:27.970            64.644                Anadyr1          2020.125
       233   03 Jun 2027 16:16:27.990   03 Jun 2027 16:19:03.550           155.560               Magadan1          4861.250
       234   03 Jun 2027 16:19:09.827   03 Jun 2027 16:20:24.135            74.308               Magadan2          2322.125
       235   03 Jun 2027 16:25:22.939   03 Jun 2027 16:25:51.014            28.075               Magadan1           877.344
       236   03 Jun 2027 17:49:43.053   03 Jun 2027 17:52:15.536           152.483                Anadyr1          4765.094
       237   03 Jun 2027 17:53:20.948   03 Jun 2027 17:54:29.926            68.978                Norilsk          2155.563
       238   03 Jun 2027 17:54:52.480   03 Jun 2027 17:55:17.565            25.085               Magadan2           783.906
       239   03 Jun 2027 17:55:17.565   03 Jun 2027 17:55:23.008             5.443               Magadan1           170.094
       240   03 Jun 2027 17:56:03.932   03 Jun 2027 17:56:11.065             7.133               Magadan1           222.906
       241   03 Jun 2027 17:57:36.010   03 Jun 2027 17:57:44.981             8.971               Magadan2           280.344
       242   03 Jun 2027 18:01:00.217   03 Jun 2027 18:01:10.284            10.067               Magadan2           314.594
       243   03 Jun 2027 18:44:31.554   03 Jun 2027 18:50:05.030           333.476            RioGallegos         10421.125
       244   03 Jun 2027 19:27:35.856   03 Jun 2027 19:28:52.440            76.584                Norilsk          2393.250
       245   03 Jun 2027 19:29:28.061   03 Jun 2027 19:31:44.165           136.104                Norilsk          4253.250
       246   03 Jun 2027 19:31:56.429   03 Jun 2027 19:32:32.816            36.387                Irkutsk          1137.094
       247   03 Jun 2027 19:33:06.759   03 Jun 2027 19:33:30.043            23.284                Irkutsk           727.625
       248   03 Jun 2027 19:34:38.359   03 Jun 2027 19:35:08.760            30.401                Irkutsk           950.031
       249   03 Jun 2027 19:45:53.401   03 Jun 2027 19:48:55.162           181.761                Sumatra          5680.031
       250   03 Jun 2027 19:49:26.591   03 Jun 2027 19:50:20.456            53.865                Sumatra          1683.281
       251   03 Jun 2027 21:07:38.246   03 Jun 2027 21:07:56.366            18.120                Novosib           566.250
       252   03 Jun 2027 21:08:23.601   03 Jun 2027 21:09:27.426            63.825                Novosib          1994.531
       253   03 Jun 2027 21:11:29.596   03 Jun 2027 21:11:35.860             6.264                Novosib           195.750
       254   03 Jun 2027 21:14:28.846   03 Jun 2027 21:15:03.497            34.651                Novosib          1082.844
       255   03 Jun 2027 21:15:48.506   03 Jun 2027 21:16:43.652            55.146                Novosib          1723.313
       256   03 Jun 2027 21:16:45.209   03 Jun 2027 21:19:05.982           140.773                  Delhi          4399.156
       257   03 Jun 2027 21:23:08.498   03 Jun 2027 21:23:39.830            31.332                  Delhi           979.125
       258   03 Jun 2027 22:39:47.920   03 Jun 2027 22:40:05.791            17.871               Magadan2           558.469
       259   03 Jun 2027 22:40:18.851   03 Jun 2027 22:40:31.853            13.002               Magadan2           406.313
       260   03 Jun 2027 22:41:34.466   03 Jun 2027 22:41:34.776             0.310               Magadan2             9.688
       261   03 Jun 2027 22:41:59.205   03 Jun 2027 22:47:48.549           349.344              Murmansk2         10917.000
       262   03 Jun 2027 22:47:49.866   03 Jun 2027 22:51:37.454           227.588                 Moscow          7112.125
       263   04 Jun 2027 00:17:37.769   04 Jun 2027 00:18:26.220            48.451              Murmansk1          1514.094
       264   04 Jun 2027 00:19:08.667   04 Jun 2027 00:19:13.691             5.024              Murmansk1           157.000
       265   04 Jun 2027 00:20:18.516   04 Jun 2027 00:20:30.892            12.376              Murmansk2           386.750
       266   04 Jun 2027 00:20:57.535   04 Jun 2027 00:21:49.017            51.482              Murmansk2          1608.813
       267   04 Jun 2027 00:22:19.052   04 Jun 2027 00:24:03.202           104.150                 Moscow          3254.688
       268   04 Jun 2027 00:28:49.859   04 Jun 2027 00:29:10.492            20.633                 Moscow           644.781
       269   04 Jun 2027 00:45:48.353   04 Jun 2027 00:46:51.144            62.791               CapeTown          1962.219
       270   04 Jun 2027 00:47:25.144   04 Jun 2027 00:48:35.855            70.711               CapeTown          2209.719
       271   04 Jun 2027 01:44:31.623   04 Jun 2027 01:45:33.904            62.281               Magadan1          1946.281
       272   04 Jun 2027 01:45:33.904   04 Jun 2027 01:45:45.761            11.857               Magadan2           370.531
       273   04 Jun 2027 01:47:07.112   04 Jun 2027 01:47:13.157             6.045               Magadan2           188.906
       274   04 Jun 2027 01:49:03.393   04 Jun 2027 01:49:20.471            17.078               Magadan2           533.688
       275   04 Jun 2027 01:49:45.491   04 Jun 2027 01:50:44.423            58.932               Magadan2          1841.625
       276   04 Jun 2027 01:53:35.439   04 Jun 2027 01:55:05.157            89.718              Murmansk2          2803.687
       277   04 Jun 2027 01:56:39.899   04 Jun 2027 01:56:50.361            10.462              Murmansk1           326.938
       278   04 Jun 2027 01:56:51.911   04 Jun 2027 01:57:12.059            20.148                Novosib           629.625
       279   04 Jun 2027 01:57:14.105   04 Jun 2027 01:57:44.300            30.195                 Moscow           943.594
       280   04 Jun 2027 02:00:36.658   04 Jun 2027 02:00:49.053            12.395                 Moscow           387.344
       281   04 Jun 2027 02:01:57.808   04 Jun 2027 02:02:13.183            15.375                 Moscow           480.469
       282   04 Jun 2027 02:21:03.478   04 Jun 2027 02:22:19.357            75.879               CapeTown          2371.219
       283   04 Jun 2027 03:17:43.559   04 Jun 2027 03:17:49.869             6.310               Magadan2           197.188
       284   04 Jun 2027 03:17:49.869   04 Jun 2027 03:18:08.475            18.606               Magadan1           581.438
       285   04 Jun 2027 03:18:12.257   04 Jun 2027 03:18:21.776             9.519                Anadyr1           297.469
       286   04 Jun 2027 03:18:50.400   04 Jun 2027 03:18:55.605             5.205                Anadyr1           162.656
       287   04 Jun 2027 03:18:57.243   04 Jun 2027 03:19:17.010            19.767               Magadan2           617.719
       288   04 Jun 2027 03:20:23.011   04 Jun 2027 03:20:35.483            12.472               Magadan1           389.750
       289   04 Jun 2027 03:23:58.003   04 Jun 2027 03:26:11.407           133.404                Anadyr2          4168.875
       290   04 Jun 2027 03:26:15.523   04 Jun 2027 03:27:00.580            45.057                Anadyr2          1408.031
       291   04 Jun 2027 05:03:51.672   04 Jun 2027 05:04:39.981            48.309                Anadyr1          1509.656
       292   04 Jun 2027 06:35:40.138   04 Jun 2027 06:35:54.798            14.660               Magadan2           458.125
       293   04 Jun 2027 06:36:30.098   04 Jun 2027 06:37:18.488            48.390               Magadan1          1512.187
       294   04 Jun 2027 06:37:30.685   04 Jun 2027 06:37:42.180            11.495               Magadan2           359.219
       295   04 Jun 2027 06:37:44.089   04 Jun 2027 06:38:08.862            24.773               Magadan1           774.156
       296   04 Jun 2027 06:38:08.862   04 Jun 2027 06:39:27.937            79.075               Magadan2          2471.094
       297   04 Jun 2027 06:39:44.283   04 Jun 2027 06:40:34.229            49.946               Magadan1          1560.812
       298   04 Jun 2027 06:41:00.765   04 Jun 2027 06:41:12.667            11.902               Magadan2           371.937
       299   04 Jun 2027 06:43:12.370   04 Jun 2027 06:43:39.865            27.495              Murmansk1           859.219
       300   04 Jun 2027 08:16:46.455   04 Jun 2027 08:17:36.387            49.932                Irkutsk          1560.375
       301   04 Jun 2027 08:54:52.938   04 Jun 2027 08:55:26.467            33.529            RioGallegos          1047.781
       302   04 Jun 2027 09:28:26.052   04 Jun 2027 09:29:02.004            35.952                Sumatra          1123.500
       303   04 Jun 2027 09:30:06.665   04 Jun 2027 09:31:23.605            76.940                Sumatra          2404.375
       304   04 Jun 2027 09:49:39.809   04 Jun 2027 09:49:41.606             1.797                Novosib            56.156
       305   04 Jun 2027 09:52:18.184   04 Jun 2027 09:52:34.129            15.945                Novosib           498.281
       306   04 Jun 2027 09:52:43.843   04 Jun 2027 09:53:11.989            28.146                Novosib           879.563
       307   04 Jun 2027 11:13:47.706   04 Jun 2027 11:15:59.516           131.810                  Delhi          4119.062
       308   04 Jun 2027 11:31:28.792   04 Jun 2027 11:32:10.956            42.164                Norilsk          1317.625
       309   04 Jun 2027 12:57:08.130   04 Jun 2027 12:57:18.064             9.934                 Moscow           310.437
       310   04 Jun 2027 12:58:58.226   04 Jun 2027 12:59:39.154            40.928                 Moscow          1279.000
       311   04 Jun 2027 12:59:42.343   04 Jun 2027 12:59:57.070            14.727              Murmansk1           460.219
       312   04 Jun 2027 13:00:36.742   04 Jun 2027 13:01:22.667            45.925                 Moscow          1435.156
       313   04 Jun 2027 13:01:27.408   04 Jun 2027 13:02:10.738            43.330              Murmansk2          1354.063
       314   04 Jun 2027 13:03:03.748   04 Jun 2027 13:04:05.740            61.992              Murmansk2          1937.250
       315   04 Jun 2027 13:05:43.902   04 Jun 2027 13:06:39.927            56.025              Murmansk1          1750.781
       316   04 Jun 2027 13:14:55.459   04 Jun 2027 13:21:35.131           399.672                Anadyr1         12489.750
       317   04 Jun 2027 14:47:41.299   04 Jun 2027 14:47:42.783             1.484              Murmansk1            46.375
       318   04 Jun 2027 14:49:58.930   04 Jun 2027 14:51:48.083           109.153                Anadyr1          3411.031
       319   04 Jun 2027 14:51:57.396   04 Jun 2027 14:52:35.539            38.143                Anadyr2          1191.969
       320   04 Jun 2027 14:53:47.819   04 Jun 2027 14:55:30.856           103.037                Anadyr2          3219.906
       321   04 Jun 2027 16:20:02.814   04 Jun 2027 16:21:58.148           115.334              Murmansk2          3604.188
       322   04 Jun 2027 16:25:49.276   04 Jun 2027 16:27:21.928            92.652                Anadyr2          2895.375
       323   04 Jun 2027 16:27:40.850   04 Jun 2027 16:28:14.544            33.694                Anadyr1          1052.938
       324   04 Jun 2027 16:28:23.065   04 Jun 2027 16:31:02.000           158.935               Magadan2          4966.719
       325   04 Jun 2027 16:31:12.401   04 Jun 2027 16:31:22.908            10.507               Magadan2           328.344
       326   04 Jun 2027 16:32:04.552   04 Jun 2027 16:33:27.418            82.866               Magadan2          2589.563
       327   04 Jun 2027 18:01:43.765   04 Jun 2027 18:04:26.051           162.286                Anadyr2          5071.437
       328   04 Jun 2027 18:04:36.181   04 Jun 2027 18:08:15.388           219.207                Norilsk          6850.219
       329   04 Jun 2027 18:56:16.642   04 Jun 2027 18:58:41.557           144.915            RioGallegos          4528.594
       330   04 Jun 2027 18:58:48.859   04 Jun 2027 18:59:58.151            69.292            RioGallegos          2165.375
       331   04 Jun 2027 19:00:36.749   04 Jun 2027 19:00:41.522             4.773            RioGallegos           149.156
       332   04 Jun 2027 19:40:03.060   04 Jun 2027 19:41:54.919           111.859               Magadan2          3495.594
       333   04 Jun 2027 19:43:45.274   04 Jun 2027 19:45:04.048            78.774                Norilsk          2461.688
       334   04 Jun 2027 19:45:34.830   04 Jun 2027 19:47:43.170           128.340                Irkutsk          4010.625
       335   04 Jun 2027 19:48:08.999   04 Jun 2027 19:48:39.713            30.714                Novosib           959.812
       336   04 Jun 2027 19:49:21.635   04 Jun 2027 19:50:28.398            66.763                Novosib          2086.344
       337   04 Jun 2027 19:57:35.777   04 Jun 2027 19:58:04.304            28.527                Sumatra           891.469
       338   04 Jun 2027 19:58:55.099   04 Jun 2027 20:00:08.065            72.966                Sumatra          2280.187
       339   04 Jun 2027 20:01:26.712   04 Jun 2027 20:02:08.376            41.664                Sumatra          1302.000
       340   04 Jun 2027 21:19:23.113   04 Jun 2027 21:20:17.664            54.551                Irkutsk          1704.719
       341   04 Jun 2027 21:20:58.302   04 Jun 2027 21:23:32.227           153.925                Novosib          4810.156
       342   04 Jun 2027 21:27:26.073   04 Jun 2027 21:30:58.660           212.587                  Delhi          6643.344
       343   04 Jun 2027 22:51:55.476   04 Jun 2027 22:52:08.510            13.034               Magadan2           407.313
       344   04 Jun 2027 22:52:13.797   04 Jun 2027 22:52:20.558             6.761               Magadan2           211.281
       345   04 Jun 2027 22:52:53.245   04 Jun 2027 22:52:54.929             1.684                Norilsk            52.625
       346   04 Jun 2027 22:53:02.734   04 Jun 2027 22:53:35.631            32.897               Magadan2          1028.031
       347   04 Jun 2027 22:53:55.377   04 Jun 2027 22:58:13.646           258.269              Murmansk2          8070.906
       348   04 Jun 2027 22:58:57.291   04 Jun 2027 23:03:02.702           245.411                 Moscow          7669.094
       349   04 Jun 2027 23:03:05.390   04 Jun 2027 23:04:42.310            96.920                 Moscow          3028.750
       350   05 Jun 2027 00:29:38.998   05 Jun 2027 00:29:50.423            11.425              Murmansk2           357.031
       351   05 Jun 2027 00:30:17.723   05 Jun 2027 00:31:05.461            47.738              Murmansk1          1491.812
       352   05 Jun 2027 00:32:59.039   05 Jun 2027 00:33:50.620            51.581              Murmansk1          1611.906
       353   05 Jun 2027 00:35:03.664   05 Jun 2027 00:35:10.246             6.582                 Moscow           205.688
       354   05 Jun 2027 00:36:09.302   05 Jun 2027 00:36:49.501            40.199                 Moscow          1256.219
       355   05 Jun 2027 00:57:26.272   05 Jun 2027 00:59:09.693           103.421               CapeTown          3231.906
       356   05 Jun 2027 00:59:39.608   05 Jun 2027 01:00:59.670            80.062               CapeTown          2501.938
       357   05 Jun 2027 01:56:06.202   05 Jun 2027 01:56:49.286            43.084               Magadan2          1346.375
       358   05 Jun 2027 01:57:46.800   05 Jun 2027 01:58:01.485            14.685               Magadan1           458.906
       359   05 Jun 2027 01:58:44.602   05 Jun 2027 01:58:51.922             7.320               Magadan1           228.750
       360   05 Jun 2027 01:59:44.491   05 Jun 2027 01:59:47.918             3.427               Magadan1           107.094
       361   05 Jun 2027 02:00:34.365   05 Jun 2027 02:01:02.043            27.678               Magadan2           864.938
       362   05 Jun 2027 02:03:43.742   05 Jun 2027 02:04:01.383            17.641               Magadan2           551.281
       363   05 Jun 2027 02:04:47.467   05 Jun 2027 02:05:03.226            15.759                Norilsk           492.469
       364   05 Jun 2027 02:05:37.031   05 Jun 2027 02:07:20.049           103.018              Murmansk1          3219.313
       365   05 Jun 2027 02:08:50.206   05 Jun 2027 02:08:57.433             7.227              Murmansk1           225.844
       366   05 Jun 2027 02:08:57.481   05 Jun 2027 02:09:18.246            20.765                 Moscow           648.906
       367   05 Jun 2027 02:09:24.308   05 Jun 2027 02:09:49.352            25.044                 Moscow           782.625
       368   05 Jun 2027 02:18:40.972   05 Jun 2027 02:18:56.065            15.093                 Moscow           471.656
       369   05 Jun 2027 02:21:19.085   05 Jun 2027 02:21:21.703             2.618                 Moscow            81.813
       370   05 Jun 2027 02:33:24.299   05 Jun 2027 02:34:03.498            39.199               CapeTown          1224.969
       371   05 Jun 2027 02:37:07.290   05 Jun 2027 02:37:26.675            19.385               CapeTown           605.781
       372   05 Jun 2027 02:40:10.115   05 Jun 2027 02:41:19.526            69.411               CapeTown          2169.094
       373   05 Jun 2027 03:34:51.676   05 Jun 2027 03:35:57.755            66.079                Anadyr1          2064.969
       374   05 Jun 2027 03:36:08.330   05 Jun 2027 03:38:58.657           170.327                Anadyr2          5322.719
       375   05 Jun 2027 03:39:17.381   05 Jun 2027 03:39:41.119            23.738                Anadyr2           741.812
       376   05 Jun 2027 03:39:54.396   05 Jun 2027 03:40:03.557             9.161               Magadan1           286.281
       377   05 Jun 2027 03:40:23.211   05 Jun 2027 03:41:00.087            36.876                Anadyr1          1152.375
       378   05 Jun 2027 03:41:51.868   05 Jun 2027 03:41:56.650             4.782                Anadyr1           149.437
       379   05 Jun 2027 03:42:01.110   05 Jun 2027 03:42:19.640            18.530                Anadyr1           579.062
       380   05 Jun 2027 04:23:24.590   05 Jun 2027 04:24:27.548            62.958            RioGallegos          1967.438
       381   05 Jun 2027 05:12:47.151   05 Jun 2027 05:13:28.130            40.979                Irkutsk          1280.594
       382   05 Jun 2027 05:15:00.164   05 Jun 2027 05:15:35.166            35.002               Magadan2          1093.813
       383   05 Jun 2027 05:15:39.565   05 Jun 2027 05:16:11.402            31.837               Magadan2           994.906
       384   05 Jun 2027 05:16:45.678   05 Jun 2027 05:16:45.714             0.036                Irkutsk             1.125
       385   05 Jun 2027 06:47:57.996   05 Jun 2027 06:48:33.985            35.989               Magadan1          1124.656
       386   05 Jun 2027 06:48:43.170   05 Jun 2027 06:49:06.466            23.296               Magadan2           728.000
       387   05 Jun 2027 06:49:19.917   05 Jun 2027 06:49:44.316            24.399               Magadan1           762.469
       388   05 Jun 2027 06:49:47.378   05 Jun 2027 06:50:10.987            23.609               Magadan2           737.781
       389   05 Jun 2027 06:51:09.399   05 Jun 2027 06:51:47.220            37.821               Magadan1          1181.906
       390   05 Jun 2027 06:52:10.488   05 Jun 2027 06:52:25.440            14.952                Norilsk           467.250
       391   05 Jun 2027 06:52:27.792   05 Jun 2027 06:53:01.232            33.440               Magadan2          1045.000
       392   05 Jun 2027 06:55:01.027   05 Jun 2027 06:55:10.320             9.293              Murmansk1           290.406
       393   05 Jun 2027 06:55:26.990   05 Jun 2027 06:56:23.361            56.371              Murmansk1          1761.594
       394   05 Jun 2027 08:24:19.962   05 Jun 2027 08:24:47.855            27.893                Irkutsk           871.656
       395   05 Jun 2027 08:28:30.543   05 Jun 2027 08:28:39.298             8.755                Norilsk           273.594
       396   05 Jun 2027 08:28:54.661   05 Jun 2027 08:29:30.567            35.906                Irkutsk          1122.063
       397   05 Jun 2027 09:06:53.602   05 Jun 2027 09:07:36.118            42.516            RioGallegos          1328.625
       398   05 Jun 2027 09:41:12.632   05 Jun 2027 09:43:02.604           109.972                Sumatra          3436.625
       399   05 Jun 2027 10:01:34.221   05 Jun 2027 10:02:41.628            67.407                Novosib          2106.469
       400   05 Jun 2027 10:02:57.740   05 Jun 2027 10:03:03.258             5.518                Novosib           172.437
       401   05 Jun 2027 10:03:23.889   05 Jun 2027 10:03:52.414            28.525                Norilsk           891.406
       402   05 Jun 2027 10:03:57.622   05 Jun 2027 10:04:14.277            16.655                Norilsk           520.469
       403   05 Jun 2027 10:04:17.633   05 Jun 2027 10:04:25.468             7.835                Novosib           244.844
       404   05 Jun 2027 10:04:34.935   05 Jun 2027 10:04:46.539            11.604                Novosib           362.625
       405   05 Jun 2027 10:04:54.333   05 Jun 2027 10:04:57.075             2.742                Norilsk            85.688
       406   05 Jun 2027 10:05:01.802   05 Jun 2027 10:05:14.885            13.083                Norilsk           408.844
       407   05 Jun 2027 11:27:00.712   05 Jun 2027 11:29:56.607           175.895                  Delhi          5496.719
       408   05 Jun 2027 11:43:21.215   05 Jun 2027 11:44:12.709            51.494                Norilsk          1609.188
       409   05 Jun 2027 13:08:31.085   05 Jun 2027 13:09:19.656            48.571                 Moscow          1517.844
       410   05 Jun 2027 13:11:29.030   05 Jun 2027 13:12:21.408            52.378                 Moscow          1636.812
       411   05 Jun 2027 13:13:14.836   05 Jun 2027 13:14:11.397            56.561              Murmansk2          1767.531
       412   05 Jun 2027 13:14:37.439   05 Jun 2027 13:16:04.961            87.522              Murmansk1          2735.063
       413   05 Jun 2027 13:16:30.049   05 Jun 2027 13:17:04.981            34.932              Murmansk2          1091.625
       414   05 Jun 2027 13:26:42.707   05 Jun 2027 13:30:29.520           226.813                Anadyr1          7087.906
       415   05 Jun 2027 13:31:38.551   05 Jun 2027 13:33:36.462           117.911                Anadyr2          3684.719
       416   05 Jun 2027 14:50:35.828   05 Jun 2027 14:51:01.926            26.098              Murmansk2           815.563
       417   05 Jun 2027 14:52:05.204   05 Jun 2027 14:52:11.970             6.766              Murmansk1           211.438
       418   05 Jun 2027 14:52:29.707   05 Jun 2027 14:52:38.296             8.589              Murmansk1           268.406
       419   05 Jun 2027 14:54:28.602   05 Jun 2027 14:55:23.532            54.930              Murmansk1          1716.563
       420   05 Jun 2027 15:01:58.530   05 Jun 2027 15:03:16.527            77.997                Anadyr2          2437.406
       421   05 Jun 2027 15:04:04.084   05 Jun 2027 15:04:17.111            13.027                Anadyr2           407.094
       422   05 Jun 2027 15:04:33.535   05 Jun 2027 15:04:45.771            12.236                Anadyr2           382.375
       423   05 Jun 2027 15:05:12.528   05 Jun 2027 15:05:30.162            17.634                Anadyr2           551.062
       424   05 Jun 2027 15:06:24.980   05 Jun 2027 15:09:35.568           190.588               Magadan2          5955.875
       425   05 Jun 2027 15:09:35.568   05 Jun 2027 15:10:58.584            83.016               Magadan1          2594.250
       426   05 Jun 2027 16:37:50.637   05 Jun 2027 16:38:36.526            45.889                Anadyr2          1434.031
       427   05 Jun 2027 16:38:47.907   05 Jun 2027 16:39:22.740            34.833                Anadyr1          1088.531
       428   05 Jun 2027 16:40:19.457   05 Jun 2027 16:42:35.312           135.855               Magadan1          4245.469
       429   05 Jun 2027 16:43:04.726   05 Jun 2027 16:44:21.431            76.705               Magadan1          2397.031
       430   05 Jun 2027 18:13:44.231   05 Jun 2027 18:17:08.763           204.532                Anadyr2          6391.625
       431   05 Jun 2027 18:17:33.134   05 Jun 2027 18:17:57.415            24.281               Magadan2           758.781
       432   05 Jun 2027 18:17:57.415   05 Jun 2027 18:19:10.221            72.806               Magadan1          2275.187
       433   05 Jun 2027 18:19:43.534   05 Jun 2027 18:20:03.211            19.677                Norilsk           614.906
       434   05 Jun 2027 18:23:24.478   05 Jun 2027 18:25:31.158           126.680                Irkutsk          3958.750
       435   05 Jun 2027 19:08:05.445   05 Jun 2027 19:10:49.244           163.799            RioGallegos          5118.719
       436   05 Jun 2027 19:52:05.757   05 Jun 2027 19:53:24.715            78.958               Magadan2          2467.437
       437   05 Jun 2027 19:54:28.659   05 Jun 2027 19:54:32.811             4.152                Norilsk           129.750
       438   05 Jun 2027 19:54:43.443   05 Jun 2027 19:54:51.656             8.213               Magadan2           256.656
       439   05 Jun 2027 19:54:55.894   05 Jun 2027 19:55:27.287            31.393                Norilsk           981.031
       440   05 Jun 2027 19:55:42.811   05 Jun 2027 19:55:46.851             4.040                Irkutsk           126.250
       441   05 Jun 2027 19:56:39.162   05 Jun 2027 19:57:09.161            29.999                Norilsk           937.469
       442   05 Jun 2027 19:57:19.102   05 Jun 2027 20:01:31.006           251.904                Novosib          7872.000
       443   05 Jun 2027 20:03:12.411   05 Jun 2027 20:03:47.629            35.218                Novosib          1100.563
       444   05 Jun 2027 20:09:24.654   05 Jun 2027 20:11:37.619           132.965                Sumatra          4155.156
       445   05 Jun 2027 20:12:41.915   05 Jun 2027 20:13:04.066            22.151                Sumatra           692.219
       446   05 Jun 2027 21:30:45.854   05 Jun 2027 21:30:48.972             3.118                Norilsk            97.438
       447   05 Jun 2027 21:30:53.847   05 Jun 2027 21:30:58.788             4.941                Norilsk           154.406
       448   05 Jun 2027 21:31:26.032   05 Jun 2027 21:31:46.029            19.997                Irkutsk           624.906
       449   05 Jun 2027 21:31:56.019   05 Jun 2027 21:33:41.210           105.191                Novosib          3287.219
       450   05 Jun 2027 21:35:13.408   05 Jun 2027 21:35:53.497            40.089                Novosib          1252.781
       451   05 Jun 2027 21:39:09.821   05 Jun 2027 21:42:55.006           225.185                  Delhi          7037.031
       452   05 Jun 2027 23:03:28.808   05 Jun 2027 23:04:07.142            38.334               Magadan2          1197.937
       453   05 Jun 2027 23:05:52.889   05 Jun 2027 23:07:59.017           126.128              Murmansk1          3941.500
       454   05 Jun 2027 23:08:25.319   05 Jun 2027 23:08:41.305            15.986                Novosib           499.563
       455   05 Jun 2027 23:09:02.455   05 Jun 2027 23:09:57.713            55.258              Murmansk2          1726.812
       456   05 Jun 2027 23:10:26.928   05 Jun 2027 23:14:57.163           270.235                 Moscow          8444.844
       457   06 Jun 2027 00:35:44.316   06 Jun 2027 00:36:32.571            48.255               Magadan1          1507.969
       458   06 Jun 2027 00:39:28.367   06 Jun 2027 00:39:32.349             3.982               Magadan2           124.437
       459   06 Jun 2027 00:41:04.355   06 Jun 2027 00:41:55.825            51.470               Magadan1          1608.438
       460   06 Jun 2027 00:42:08.321   06 Jun 2027 00:45:00.436           172.115              Murmansk2          5378.594
       461   06 Jun 2027 00:45:12.943   06 Jun 2027 00:45:48.083            35.140                 Moscow          1098.125
       462   06 Jun 2027 00:48:22.694   06 Jun 2027 00:49:05.470            42.776                 Moscow          1336.750
       463   06 Jun 2027 01:09:09.834   06 Jun 2027 01:10:45.148            95.314               CapeTown          2978.562
       464   06 Jun 2027 02:05:33.181   06 Jun 2027 02:05:59.387            26.206                Anadyr2           818.937
       465   06 Jun 2027 02:06:31.224   06 Jun 2027 02:06:55.859            24.635                Anadyr1           769.844
       466   06 Jun 2027 02:07:42.399   06 Jun 2027 02:09:48.375           125.976               Magadan1          3936.750
       467   06 Jun 2027 02:16:15.313   06 Jun 2027 02:16:20.256             4.943                Norilsk           154.469
       468   06 Jun 2027 02:16:28.673   06 Jun 2027 02:16:34.058             5.385                Norilsk           168.281
       469   06 Jun 2027 02:16:41.904   06 Jun 2027 02:17:05.914            24.010                Norilsk           750.312
       470   06 Jun 2027 02:17:38.527   06 Jun 2027 02:17:59.484            20.957              Murmansk2           654.906
       471   06 Jun 2027 02:18:35.461   06 Jun 2027 02:19:11.644            36.183              Murmansk1          1130.719
       472   06 Jun 2027 02:20:15.474   06 Jun 2027 02:20:49.694            34.220              Murmansk2          1069.375
       473   06 Jun 2027 02:20:54.010   06 Jun 2027 02:21:10.123            16.113                 Moscow           503.531
       474   06 Jun 2027 02:22:19.003   06 Jun 2027 02:23:40.780            81.777                 Moscow          2555.531
       475   06 Jun 2027 02:46:04.988   06 Jun 2027 02:46:14.751             9.763               CapeTown           305.094
       476   06 Jun 2027 02:46:32.112   06 Jun 2027 02:47:14.321            42.209               CapeTown          1319.031
       477   06 Jun 2027 02:55:07.380   06 Jun 2027 02:55:14.092             6.712               CapeTown           209.750
       478   06 Jun 2027 03:46:19.130   06 Jun 2027 03:47:13.492            54.362                Anadyr2          1698.813
       479   06 Jun 2027 03:47:41.574   06 Jun 2027 03:49:36.339           114.765               Magadan1          3586.406
       480   06 Jun 2027 03:49:45.748   06 Jun 2027 03:53:57.911           252.163               Magadan2          7880.094
       481   06 Jun 2027 05:23:55.828   06 Jun 2027 05:24:46.903            51.075                Irkutsk          1596.094
       482   06 Jun 2027 05:25:41.889   06 Jun 2027 05:29:37.884           235.995                Anadyr1          7374.844
