uniorb/output/strategy_4/Drop/Drop_KinoSat_111107.txt

KinoSat_111107
-------------------------
    Access    *     Start Time (UTCG)     *     Stop Time (UTCG)  *   Duration (s)        *       Station  *  Data (Mbytes)
         1   01 Jun 2027 03:19:04.748   01 Jun 2027 03:19:50.757            46.009              Murmansk2          1437.781
         2   01 Jun 2027 03:19:50.757   01 Jun 2027 03:21:20.508            89.751              Murmansk1          2804.719
         3   01 Jun 2027 04:40:40.623   01 Jun 2027 04:40:52.644            12.021               Magadan1           375.656
         4   01 Jun 2027 04:41:05.519   01 Jun 2027 04:43:29.503           143.984                Anadyr2          4499.500
         5   01 Jun 2027 04:43:37.438   01 Jun 2027 04:44:40.673            63.235               Magadan1          1976.094
         6   01 Jun 2027 04:45:39.123   01 Jun 2027 04:46:11.351            32.228               Magadan2          1007.125
         7   01 Jun 2027 06:18:19.058   01 Jun 2027 06:19:07.149            48.091                Norilsk          1502.844
         8   01 Jun 2027 06:19:20.342   01 Jun 2027 06:20:51.347            91.005                Irkutsk          2843.906
         9   01 Jun 2027 06:21:06.628   01 Jun 2027 06:22:37.101            90.473                Anadyr1          2827.281
        10   01 Jun 2027 06:22:47.328   01 Jun 2027 06:23:29.352            42.024                Norilsk          1313.250
        11   01 Jun 2027 06:59:11.359   01 Jun 2027 06:59:31.399            20.040            RioGallegos           626.250
        12   01 Jun 2027 07:00:55.698   01 Jun 2027 07:01:30.563            34.865            RioGallegos          1089.531
        13   01 Jun 2027 07:02:44.507   01 Jun 2027 07:03:41.607            57.100            RioGallegos          1784.375
        14   01 Jun 2027 07:53:45.997   01 Jun 2027 07:55:05.014            79.017               Magadan2          2469.281
        15   01 Jun 2027 07:55:05.014   01 Jun 2027 07:56:42.725            97.711               Magadan1          3053.469
        16   01 Jun 2027 07:56:47.576   01 Jun 2027 07:57:29.743            42.167              Murmansk1          1317.719
        17   01 Jun 2027 07:57:34.354   01 Jun 2027 07:57:38.438             4.084              Murmansk1           127.625
        18   01 Jun 2027 07:57:50.428   01 Jun 2027 07:58:28.765            38.337                Novosib          1198.031
        19   01 Jun 2027 07:58:54.564   01 Jun 2027 08:00:46.569           112.005              Murmansk1          3500.156
        20   01 Jun 2027 08:00:46.569   01 Jun 2027 08:02:09.963            83.394              Murmansk2          2606.062
        21   01 Jun 2027 08:33:01.250   01 Jun 2027 08:34:28.874            87.624            RioGallegos          2738.250
        22   01 Jun 2027 08:34:49.395   01 Jun 2027 08:35:18.369            28.974            RioGallegos           905.437
        23   01 Jun 2027 09:08:38.591   01 Jun 2027 09:09:20.661            42.070                Sumatra          1314.687
        24   01 Jun 2027 09:10:23.972   01 Jun 2027 09:10:52.623            28.651                Sumatra           895.344
        25   01 Jun 2027 09:30:29.695   01 Jun 2027 09:31:08.956            39.261                Irkutsk          1226.906
        26   01 Jun 2027 09:31:50.475   01 Jun 2027 09:32:41.632            51.157                Novosib          1598.656
        27   01 Jun 2027 09:32:45.727   01 Jun 2027 09:33:30.008            44.281              Murmansk1          1383.781
        28   01 Jun 2027 09:33:34.295   01 Jun 2027 09:35:07.209            92.914                Novosib          2903.563
        29   01 Jun 2027 10:10:30.890   01 Jun 2027 10:11:08.759            37.869            RioGallegos          1183.406
        30   01 Jun 2027 10:12:27.648   01 Jun 2027 10:12:43.327            15.679            RioGallegos           489.969
        31   01 Jun 2027 10:14:06.397   01 Jun 2027 10:14:56.082            49.685            RioGallegos          1552.656
        32   01 Jun 2027 10:44:42.973   01 Jun 2027 10:45:47.950            64.977                Sumatra          2030.531
        33   01 Jun 2027 10:46:15.792   01 Jun 2027 10:48:06.844           111.052                Sumatra          3470.375
        34   01 Jun 2027 11:07:45.814   01 Jun 2027 11:08:21.973            36.159              Murmansk1          1129.969
        35   01 Jun 2027 11:08:26.240   01 Jun 2027 11:09:03.130            36.890                Irkutsk          1152.812
        36   01 Jun 2027 11:09:27.529   01 Jun 2027 11:11:44.147           136.618                Novosib          4269.313
        37   01 Jun 2027 11:11:46.122   01 Jun 2027 11:14:04.524           138.402                Norilsk          4325.063
        38   01 Jun 2027 11:14:26.988   01 Jun 2027 11:16:03.929            96.941              Murmansk2          3029.406
        39   01 Jun 2027 12:29:51.508   01 Jun 2027 12:34:11.129           259.621                  Delhi          8113.156
        40   01 Jun 2027 12:36:17.595   01 Jun 2027 12:36:25.604             8.009                  Delhi           250.281
        41   01 Jun 2027 12:38:07.512   01 Jun 2027 12:39:05.871            58.359                 Moscow          1823.719
        42   01 Jun 2027 12:39:42.253   01 Jun 2027 12:42:00.817           138.564                Novosib          4330.125
        43   01 Jun 2027 12:42:24.981   01 Jun 2027 12:43:36.504            71.523                Norilsk          2235.094
        44   01 Jun 2027 12:44:31.013   01 Jun 2027 12:45:25.161            54.148                Norilsk          1692.125
        45   01 Jun 2027 12:46:15.444   01 Jun 2027 12:47:23.485            68.041                Norilsk          2126.281
        46   01 Jun 2027 14:12:45.381   01 Jun 2027 14:14:24.092            98.711                 Moscow          3084.719
        47   01 Jun 2027 14:16:15.317   01 Jun 2027 14:19:02.861           167.544              Murmansk2          5235.750
        48   01 Jun 2027 14:19:02.861   01 Jun 2027 14:20:36.116            93.255              Murmansk1          2914.219
        49   01 Jun 2027 14:24:37.583   01 Jun 2027 14:24:58.650            21.067                Norilsk           658.344
        50   01 Jun 2027 14:31:47.369   01 Jun 2027 14:33:09.464            82.095                Anadyr2          2565.469
        51   01 Jun 2027 14:33:29.042   01 Jun 2027 14:34:53.452            84.410                Anadyr1          2637.813
        52   01 Jun 2027 15:26:02.646   01 Jun 2027 15:26:37.439            34.793               CapeTown          1087.281
        53   01 Jun 2027 15:29:51.567   01 Jun 2027 15:30:17.598            26.031               CapeTown           813.469
        54   01 Jun 2027 15:34:22.778   01 Jun 2027 15:34:36.192            13.414               CapeTown           419.188
        55   01 Jun 2027 15:52:36.666   01 Jun 2027 15:52:44.049             7.383                 Moscow           230.719
        56   01 Jun 2027 15:53:58.465   01 Jun 2027 15:54:30.128            31.663                 Moscow           989.469
        57   01 Jun 2027 15:54:57.383   01 Jun 2027 15:57:10.203           132.820              Murmansk2          4150.625
        58   01 Jun 2027 15:57:29.386   01 Jun 2027 15:57:57.647            28.261              Murmansk2           883.156
        59   01 Jun 2027 15:59:14.714   01 Jun 2027 15:59:30.801            16.087              Murmansk2           502.719
        60   01 Jun 2027 16:06:39.945   01 Jun 2027 16:09:17.127           157.182                Anadyr2          4911.937
        61   01 Jun 2027 17:02:46.683   01 Jun 2027 17:03:54.810            68.127               CapeTown          2128.969
        62   01 Jun 2027 17:09:38.606   01 Jun 2027 17:09:40.295             1.689               CapeTown            52.781
        63   01 Jun 2027 17:35:43.433   01 Jun 2027 17:39:37.702           234.269              Murmansk2          7320.906
        64   01 Jun 2027 17:42:29.066   01 Jun 2027 17:44:24.477           115.411                Anadyr1          3606.594
        65   01 Jun 2027 17:45:06.735   01 Jun 2027 17:45:16.163             9.428               Magadan1           294.625
        66   01 Jun 2027 17:45:16.163   01 Jun 2027 17:45:30.096            13.933               Magadan2           435.406
        67   01 Jun 2027 17:45:57.198   01 Jun 2027 17:46:40.058            42.860               Magadan2          1339.375
        68   01 Jun 2027 17:46:40.058   01 Jun 2027 17:46:59.238            19.180               Magadan1           599.375
        69   01 Jun 2027 17:49:05.599   01 Jun 2027 17:49:33.355            27.756               Magadan1           867.375
        70   01 Jun 2027 17:52:50.920   01 Jun 2027 17:53:06.345            15.425               Magadan2           482.031
        71   01 Jun 2027 19:18:24.264   01 Jun 2027 19:20:22.737           118.473                Anadyr1          3702.281
        72   01 Jun 2027 19:20:33.931   01 Jun 2027 19:22:27.877           113.946                Anadyr2          3560.812
        73   01 Jun 2027 19:22:45.098   01 Jun 2027 19:24:03.367            78.269                Norilsk          2445.906
        74   01 Jun 2027 19:24:25.420   01 Jun 2027 19:25:25.190            59.770               Magadan1          1867.812
        75   01 Jun 2027 19:25:37.478   01 Jun 2027 19:25:47.854            10.376               Magadan1           324.250
        76   01 Jun 2027 19:26:05.743   01 Jun 2027 19:26:11.969             6.226               Magadan1           194.562
        77   01 Jun 2027 19:29:37.036   01 Jun 2027 19:29:51.024            13.988               Magadan1           437.125
        78   01 Jun 2027 19:30:50.151   01 Jun 2027 19:31:07.256            17.105               Magadan1           534.531
        79   01 Jun 2027 19:31:14.966   01 Jun 2027 19:31:32.604            17.638               Magadan1           551.188
        80   01 Jun 2027 20:13:06.943   01 Jun 2027 20:16:29.634           202.691            RioGallegos          6334.094
        81   01 Jun 2027 20:17:08.966   01 Jun 2027 20:17:48.080            39.114            RioGallegos          1222.313
        82   01 Jun 2027 20:54:04.390   01 Jun 2027 20:56:28.422           144.032                Anadyr2          4501.000
        83   01 Jun 2027 20:56:35.381   01 Jun 2027 20:59:18.425           163.044                Norilsk          5095.125
        84   01 Jun 2027 21:00:34.292   01 Jun 2027 21:01:32.401            58.109                Irkutsk          1815.906
        85   01 Jun 2027 21:01:56.574   01 Jun 2027 21:02:18.060            21.486                Irkutsk           671.437
        86   01 Jun 2027 21:03:52.142   01 Jun 2027 21:05:47.471           115.329                Irkutsk          3604.031
        87   01 Jun 2027 21:16:35.679   01 Jun 2027 21:17:51.586            75.907                Sumatra          2372.094
        88   01 Jun 2027 22:32:10.910   01 Jun 2027 22:33:29.677            78.767                Norilsk          2461.469
        89   01 Jun 2027 22:34:17.056   01 Jun 2027 22:34:52.490            35.434               Magadan1          1107.312
        90   01 Jun 2027 22:35:12.367   01 Jun 2027 22:35:36.712            24.345               Magadan2           760.781
        91   01 Jun 2027 22:35:56.925   01 Jun 2027 22:36:07.040            10.115                Norilsk           316.094
        92   01 Jun 2027 22:36:17.264   01 Jun 2027 22:38:56.281           159.017                Novosib          4969.281
        93   01 Jun 2027 22:44:21.684   01 Jun 2027 22:47:31.487           189.803                  Delhi          5931.344
        94   02 Jun 2027 00:03:41.370   02 Jun 2027 00:04:29.379            48.009                Anadyr1          1500.281
        95   02 Jun 2027 00:05:17.250   02 Jun 2027 00:05:26.294             9.044                Anadyr2           282.625
        96   02 Jun 2027 00:06:46.529   02 Jun 2027 00:06:53.808             7.279                Anadyr1           227.469
        97   02 Jun 2027 00:07:19.520   02 Jun 2027 00:08:07.626            48.106                Anadyr2          1503.312
        98   02 Jun 2027 00:08:10.690   02 Jun 2027 00:08:23.194            12.504                Norilsk           390.750
        99   02 Jun 2027 00:08:28.470   02 Jun 2027 00:09:09.443            40.973               Magadan1          1280.406
       100   02 Jun 2027 00:09:25.514   02 Jun 2027 00:10:04.717            39.203               Magadan1          1225.094
       101   02 Jun 2027 00:10:37.849   02 Jun 2027 00:13:38.411           180.562              Murmansk1          5642.562
       102   02 Jun 2027 00:16:09.406   02 Jun 2027 00:16:47.446            38.040                 Moscow          1188.750
       103   02 Jun 2027 00:17:07.274   02 Jun 2027 00:18:10.613            63.339                 Moscow          1979.344
       104   02 Jun 2027 00:29:50.708   02 Jun 2027 00:30:51.303            60.595                  Delhi          1893.594
       105   02 Jun 2027 01:35:58.307   02 Jun 2027 01:37:31.358            93.051                Anadyr2          2907.844
       106   02 Jun 2027 01:38:24.479   02 Jun 2027 01:38:42.675            18.196                Anadyr1           568.625
       107   02 Jun 2027 01:38:50.753   02 Jun 2027 01:38:56.370             5.617                Anadyr2           175.531
       108   02 Jun 2027 01:41:20.872   02 Jun 2027 01:42:22.449            61.577               Magadan2          1924.281
       109   02 Jun 2027 01:42:31.423   02 Jun 2027 01:42:53.741            22.318               Magadan1           697.437
       110   02 Jun 2027 01:43:00.155   02 Jun 2027 01:43:24.582            24.427               Magadan1           763.344
       111   02 Jun 2027 01:43:39.633   02 Jun 2027 01:43:49.024             9.391               Magadan1           293.469
       112   02 Jun 2027 01:44:11.133   02 Jun 2027 01:44:22.288            11.155                Norilsk           348.594
       113   02 Jun 2027 01:44:53.705   02 Jun 2027 01:45:59.830            66.125               Magadan2          2066.406
       114   02 Jun 2027 01:46:18.579   02 Jun 2027 01:47:07.730            49.151              Murmansk2          1535.969
       115   02 Jun 2027 01:47:16.580   02 Jun 2027 01:47:36.380            19.800              Murmansk1           618.750
       116   02 Jun 2027 01:48:18.079   02 Jun 2027 01:48:18.616             0.537              Murmansk1            16.781
       117   02 Jun 2027 01:49:44.782   02 Jun 2027 01:50:52.677            67.895                 Moscow          2121.719
       118   02 Jun 2027 01:55:39.505   02 Jun 2027 01:56:05.439            25.934                 Moscow           810.437
       119   02 Jun 2027 02:01:42.506   02 Jun 2027 02:01:52.069             9.563                 Moscow           298.844
       120   02 Jun 2027 02:16:09.243   02 Jun 2027 02:17:31.669            82.426               CapeTown          2575.813
       121   02 Jun 2027 03:14:51.506   02 Jun 2027 03:15:13.663            22.157               Magadan2           692.406
       122   02 Jun 2027 03:15:31.030   02 Jun 2027 03:15:41.195            10.165               Magadan1           317.656
       123   02 Jun 2027 03:15:48.804   02 Jun 2027 03:15:55.142             6.338               Magadan1           198.062
       124   02 Jun 2027 03:16:11.104   02 Jun 2027 03:16:37.510            26.406               Magadan1           825.187
       125   02 Jun 2027 03:31:13.005   02 Jun 2027 03:31:30.550            17.545              Murmansk1           548.281
       126   02 Jun 2027 03:31:44.055   02 Jun 2027 03:33:19.702            95.647                 Moscow          2988.969
       127   02 Jun 2027 03:33:24.953   02 Jun 2027 03:34:13.614            48.661              Murmansk2          1520.656
       128   02 Jun 2027 03:36:19.433   02 Jun 2027 03:36:56.321            36.888                 Moscow          1152.750
       129   02 Jun 2027 03:37:01.853   02 Jun 2027 03:37:20.133            18.280                 Moscow           571.250
       130   02 Jun 2027 03:52:17.632   02 Jun 2027 03:54:21.270           123.638               CapeTown          3863.687
       131   02 Jun 2027 04:52:47.502   02 Jun 2027 04:53:45.871            58.369                Anadyr1          1824.031
       132   02 Jun 2027 04:53:45.871   02 Jun 2027 04:53:53.814             7.943                Anadyr2           248.219
       133   02 Jun 2027 04:54:11.401   02 Jun 2027 04:54:40.362            28.961               Magadan2           905.031
       134   02 Jun 2027 04:54:47.218   02 Jun 2027 04:57:50.572           183.354               Magadan2          5729.813
       135   02 Jun 2027 06:31:24.538   02 Jun 2027 06:32:21.287            56.749                Irkutsk          1773.406
       136   02 Jun 2027 08:06:22.885   02 Jun 2027 08:07:07.253            44.368               Magadan2          1386.500
       137   02 Jun 2027 08:07:07.253   02 Jun 2027 08:07:35.124            27.871               Magadan1           870.969
       138   02 Jun 2027 08:08:42.233   02 Jun 2027 08:09:51.089            68.856               Magadan2          2151.750
       139   02 Jun 2027 08:12:25.683   02 Jun 2027 08:12:53.392            27.709                Norilsk           865.906
       140   02 Jun 2027 08:13:41.025   02 Jun 2027 08:14:10.053            29.028                Norilsk           907.125
       141   02 Jun 2027 08:45:01.370   02 Jun 2027 08:45:11.564            10.194            RioGallegos           318.563
       142   02 Jun 2027 08:45:59.985   02 Jun 2027 08:47:24.647            84.662            RioGallegos          2645.688
       143   02 Jun 2027 08:52:09.728   02 Jun 2027 08:53:14.533            64.805            RioGallegos          2025.156
       144   02 Jun 2027 09:20:19.570   02 Jun 2027 09:21:14.549            54.979                Sumatra          1718.094
       145   02 Jun 2027 09:21:57.110   02 Jun 2027 09:22:45.380            48.270                Sumatra          1508.438
       146   02 Jun 2027 09:27:00.197   02 Jun 2027 09:27:51.773            51.576                Sumatra          1611.750
       147   02 Jun 2027 09:41:36.729   02 Jun 2027 09:41:43.105             6.376                Norilsk           199.250
       148   02 Jun 2027 09:42:26.066   02 Jun 2027 09:42:31.941             5.875                Novosib           183.594
       149   02 Jun 2027 09:42:35.898   02 Jun 2027 09:42:55.328            19.430                Novosib           607.187
       150   02 Jun 2027 09:43:02.381   02 Jun 2027 09:43:55.123            52.742                Novosib          1648.188
       151   02 Jun 2027 09:44:05.690   02 Jun 2027 09:44:29.510            23.820                Irkutsk           744.375
       152   02 Jun 2027 09:44:44.038   02 Jun 2027 09:45:02.711            18.673                Irkutsk           583.531
       153   02 Jun 2027 09:45:41.458   02 Jun 2027 09:46:12.160            30.702                Novosib           959.438
       154   02 Jun 2027 10:23:05.408   02 Jun 2027 10:23:22.833            17.425            RioGallegos           544.531
       155   02 Jun 2027 10:24:19.706   02 Jun 2027 10:25:00.356            40.650            RioGallegos          1270.313
       156   02 Jun 2027 10:57:19.011   02 Jun 2027 10:57:34.008            14.997                Sumatra           468.656
       157   02 Jun 2027 10:57:52.377   02 Jun 2027 10:58:42.645            50.268                Sumatra          1570.875
       158   02 Jun 2027 11:19:58.208   02 Jun 2027 11:20:05.325             7.117                Novosib           222.406
       159   02 Jun 2027 11:20:07.096   02 Jun 2027 11:21:03.460            56.364                Novosib          1761.375
       160   02 Jun 2027 11:21:09.413   02 Jun 2027 11:21:28.848            19.435                Novosib           607.344
       161   02 Jun 2027 11:21:35.809   02 Jun 2027 11:21:37.572             1.763                Novosib            55.094
       162   02 Jun 2027 11:21:38.472   02 Jun 2027 11:21:42.159             3.687                Norilsk           115.219
       163   02 Jun 2027 12:42:46.740   02 Jun 2027 12:46:53.543           246.803                  Delhi          7712.594
       164   02 Jun 2027 12:51:04.327   02 Jun 2027 12:51:17.663            13.336                 Moscow           416.750
       165   02 Jun 2027 12:51:59.800   02 Jun 2027 12:53:37.230            97.430              Murmansk2          3044.687
       166   02 Jun 2027 12:53:37.230   02 Jun 2027 12:53:38.274             1.044              Murmansk1            32.625
       167   02 Jun 2027 12:53:44.693   02 Jun 2027 12:54:03.612            18.919              Murmansk1           591.219
       168   02 Jun 2027 12:59:24.215   02 Jun 2027 12:59:45.200            20.985                Norilsk           655.781
       169   02 Jun 2027 14:05:06.536   02 Jun 2027 14:07:07.514           120.978               CapeTown          3780.563
       170   02 Jun 2027 14:24:59.636   02 Jun 2027 14:26:25.499            85.863                 Moscow          2683.219
       171   02 Jun 2027 14:28:26.528   02 Jun 2027 14:31:17.317           170.789              Murmansk1          5337.156
       172   02 Jun 2027 14:35:18.422   02 Jun 2027 14:35:40.451            22.029              Murmansk1           688.406
       173   02 Jun 2027 14:43:31.045   02 Jun 2027 14:43:55.605            24.560                Anadyr1           767.500
       174   02 Jun 2027 14:44:21.191   02 Jun 2027 14:45:08.269            47.078                Anadyr2          1471.188
       175   02 Jun 2027 14:46:17.709   02 Jun 2027 14:47:03.177            45.468                Anadyr2          1420.875
       176   02 Jun 2027 14:47:45.181   02 Jun 2027 14:49:03.758            78.577                Anadyr2          2455.531
       177   02 Jun 2027 16:05:47.837   02 Jun 2027 16:06:32.192            44.355                 Moscow          1386.094
       178   02 Jun 2027 16:06:54.478   02 Jun 2027 16:07:16.396            21.918              Murmansk2           684.937
       179   02 Jun 2027 16:07:31.040   02 Jun 2027 16:07:52.561            21.521              Murmansk1           672.531
       180   02 Jun 2027 16:09:11.663   02 Jun 2027 16:09:31.186            19.523              Murmansk2           610.094
       181   02 Jun 2027 16:11:16.716   02 Jun 2027 16:11:55.934            39.218              Murmansk1          1225.562
       182   02 Jun 2027 16:18:39.295   02 Jun 2027 16:20:38.489           119.194                Anadyr1          3724.812
       183   02 Jun 2027 16:20:38.489   02 Jun 2027 16:20:44.904             6.415                Anadyr2           200.469
       184   02 Jun 2027 16:23:52.393   02 Jun 2027 16:26:25.399           153.006               Magadan2          4781.438
       185   02 Jun 2027 17:49:13.822   02 Jun 2027 17:50:51.866            98.044              Murmansk1          3063.875
       186   02 Jun 2027 17:54:30.508   02 Jun 2027 17:57:03.224           152.716                Anadyr2          4772.375
       187   02 Jun 2027 17:57:27.650   02 Jun 2027 17:59:34.969           127.319               Magadan2          3978.719
       188   02 Jun 2027 18:02:49.338   02 Jun 2027 18:03:23.024            33.686               Magadan1          1052.688
       189   02 Jun 2027 19:30:25.020   02 Jun 2027 19:32:24.233           119.213                Anadyr1          3725.406
       190   02 Jun 2027 19:32:31.309   02 Jun 2027 19:34:16.331           105.022                Anadyr2          3281.938
       191   02 Jun 2027 19:34:24.321   02 Jun 2027 19:36:26.277           121.956               Magadan1          3811.125
       192   02 Jun 2027 19:42:01.227   02 Jun 2027 19:42:37.148            35.921               Magadan2          1122.531
       193   02 Jun 2027 20:24:53.396   02 Jun 2027 20:28:10.612           197.216            RioGallegos          6163.000
       194   02 Jun 2027 21:06:32.992   02 Jun 2027 21:07:04.802            31.810                Anadyr2           994.063
       195   02 Jun 2027 21:07:11.964   02 Jun 2027 21:07:21.456             9.492                Anadyr2           296.625
       196   02 Jun 2027 21:08:06.035   02 Jun 2027 21:08:13.268             7.233                Anadyr2           226.031
       197   02 Jun 2027 21:08:16.153   02 Jun 2027 21:10:39.964           143.811                Norilsk          4494.094
       198   02 Jun 2027 21:12:27.243   02 Jun 2027 21:13:02.970            35.727                Irkutsk          1116.469
       199   02 Jun 2027 21:13:40.425   02 Jun 2027 21:14:23.159            42.734                Irkutsk          1335.437
       200   02 Jun 2027 21:14:27.569   02 Jun 2027 21:15:07.733            40.164                Novosib          1255.125
       201   02 Jun 2027 21:15:25.539   02 Jun 2027 21:15:47.396            21.857                Novosib           683.031
       202   02 Jun 2027 21:16:40.646   02 Jun 2027 21:17:40.362            59.716                Novosib          1866.125
       203   02 Jun 2027 21:26:12.634   02 Jun 2027 21:28:37.551           144.917                Sumatra          4528.656
       204   02 Jun 2027 22:44:12.924   02 Jun 2027 22:44:32.558            19.634                Norilsk           613.563
       205   02 Jun 2027 22:44:50.724   02 Jun 2027 22:46:21.880            91.156               Magadan2          2848.625
       206   02 Jun 2027 22:47:14.045   02 Jun 2027 22:47:16.445             2.400               Magadan2            75.000
       207   02 Jun 2027 22:47:22.290   02 Jun 2027 22:47:34.112            11.822               Magadan2           369.438
       208   02 Jun 2027 22:48:04.838   02 Jun 2027 22:49:04.034            59.196                Irkutsk          1849.875
       209   02 Jun 2027 22:49:23.829   02 Jun 2027 22:49:38.123            14.294                Novosib           446.687
       210   02 Jun 2027 22:50:09.544   02 Jun 2027 22:50:36.374            26.830                Novosib           838.437
       211   02 Jun 2027 22:53:38.965   02 Jun 2027 22:54:10.106            31.141                Novosib           973.156
       212   02 Jun 2027 22:54:32.675   02 Jun 2027 22:55:03.977            31.302                Novosib           978.188
       213   02 Jun 2027 22:56:01.285   02 Jun 2027 22:59:07.145           185.860                  Delhi          5808.125
       214   03 Jun 2027 00:15:49.553   03 Jun 2027 00:16:05.261            15.708                Anadyr2           490.875
       215   03 Jun 2027 00:16:48.714   03 Jun 2027 00:17:20.705            31.991                Anadyr1           999.719
       216   03 Jun 2027 00:19:51.792   03 Jun 2027 00:20:05.781            13.989                Anadyr1           437.156
       217   03 Jun 2027 00:20:12.162   03 Jun 2027 00:20:25.315            13.153                Norilsk           411.031
       218   03 Jun 2027 00:20:43.806   03 Jun 2027 00:23:19.905           156.099               Magadan1          4878.094
       219   03 Jun 2027 00:23:41.943   03 Jun 2027 00:25:04.431            82.488              Murmansk1          2577.750
       220   03 Jun 2027 00:27:26.699   03 Jun 2027 00:29:55.553           148.854                 Moscow          4651.687
       221   03 Jun 2027 01:47:43.258   03 Jun 2027 01:50:07.533           144.275                Anadyr1          4508.594
       222   03 Jun 2027 01:50:47.618   03 Jun 2027 01:50:54.167             6.549                Anadyr2           204.656
       223   03 Jun 2027 01:51:00.733   03 Jun 2027 01:51:19.433            18.700                Anadyr1           584.375
       224   03 Jun 2027 01:52:48.845   03 Jun 2027 01:54:13.510            84.665               Magadan2          2645.781
       225   03 Jun 2027 01:55:59.731   03 Jun 2027 01:56:03.044             3.313                Norilsk           103.531
       226   03 Jun 2027 01:56:11.512   03 Jun 2027 01:56:26.099            14.587                Norilsk           455.844
       227   03 Jun 2027 01:56:55.726   03 Jun 2027 01:57:42.928            47.202               Magadan1          1475.063
       228   03 Jun 2027 01:58:19.988   03 Jun 2027 01:59:38.092            78.104              Murmansk2          2440.750
       229   03 Jun 2027 02:01:00.660   03 Jun 2027 02:02:18.424            77.764                Novosib          2430.125
       230   03 Jun 2027 02:11:43.093   03 Jun 2027 02:12:44.649            61.556                 Moscow          1923.625
       231   03 Jun 2027 02:33:46.198   03 Jun 2027 02:33:55.782             9.584               CapeTown           299.500
       232   03 Jun 2027 02:34:48.226   03 Jun 2027 02:35:23.980            35.754               CapeTown          1117.312
       233   03 Jun 2027 03:27:29.626   03 Jun 2027 03:27:42.805            13.179                Anadyr1           411.844
       234   03 Jun 2027 03:29:26.161   03 Jun 2027 03:33:20.548           234.387                Anadyr1          7324.594
       235   03 Jun 2027 03:33:59.629   03 Jun 2027 03:34:35.008            35.379                Anadyr2          1105.594
       236   03 Jun 2027 05:04:08.119   03 Jun 2027 05:04:49.160            41.041                Anadyr1          1282.531
       237   03 Jun 2027 05:04:58.468   03 Jun 2027 05:06:49.971           111.503               Magadan2          3484.469
       238   03 Jun 2027 05:07:10.748   03 Jun 2027 05:11:00.833           230.085                Anadyr2          7190.156
       239   03 Jun 2027 06:40:50.601   03 Jun 2027 06:40:55.105             4.504               Magadan2           140.750
       240   03 Jun 2027 06:40:55.105   03 Jun 2027 06:41:05.659            10.554               Magadan1           329.813
       241   03 Jun 2027 06:41:11.340   03 Jun 2027 06:41:55.098            43.758               Magadan1          1367.437
       242   03 Jun 2027 06:42:11.004   03 Jun 2027 06:43:05.238            54.234               Magadan2          1694.812
       243   03 Jun 2027 06:43:30.864   03 Jun 2027 06:43:46.409            15.545               Magadan1           485.781
       244   03 Jun 2027 06:44:14.103   03 Jun 2027 06:45:07.154            53.051                Anadyr2          1657.844
       245   03 Jun 2027 08:15:19.838   03 Jun 2027 08:15:49.492            29.654               Magadan1           926.687
       246   03 Jun 2027 08:16:50.396   03 Jun 2027 08:17:01.150            10.754                Irkutsk           336.062
       247   03 Jun 2027 08:17:03.428   03 Jun 2027 08:17:48.957            45.529               Magadan1          1422.781
       248   03 Jun 2027 08:17:51.904   03 Jun 2027 08:18:08.377            16.473                Norilsk           514.781
       249   03 Jun 2027 08:18:16.181   03 Jun 2027 08:19:09.226            53.045               Magadan1          1657.656
       250   03 Jun 2027 08:19:25.810   03 Jun 2027 08:19:40.753            14.943               Magadan2           466.969
       251   03 Jun 2027 08:20:41.040   03 Jun 2027 08:21:02.376            21.336               Magadan2           666.750
       252   03 Jun 2027 08:21:08.947   03 Jun 2027 08:21:16.197             7.250              Murmansk2           226.563
       253   03 Jun 2027 08:23:33.722   03 Jun 2027 08:23:39.567             5.845                Norilsk           182.656
       254   03 Jun 2027 08:30:33.119   03 Jun 2027 08:30:39.460             6.341              Murmansk1           198.156
       255   03 Jun 2027 08:57:04.839   03 Jun 2027 08:58:10.440            65.601            RioGallegos          2050.031
       256   03 Jun 2027 09:08:00.061   03 Jun 2027 09:08:43.809            43.748            RioGallegos          1367.125
       257   03 Jun 2027 09:32:07.265   03 Jun 2027 09:33:02.488            55.223                Sumatra          1725.719
       258   03 Jun 2027 09:54:26.061   03 Jun 2027 09:54:31.303             5.242                Irkutsk           163.812
       259   03 Jun 2027 09:54:55.750   03 Jun 2027 09:55:01.333             5.583                Novosib           174.469
       260   03 Jun 2027 09:55:19.606   03 Jun 2027 09:55:59.285            39.679                Novosib          1239.969
       261   03 Jun 2027 09:56:24.523   03 Jun 2027 09:56:33.237             8.714                Irkutsk           272.312
       262   03 Jun 2027 09:56:36.593   03 Jun 2027 09:56:45.076             8.483                Novosib           265.094
       263   03 Jun 2027 09:57:02.489   03 Jun 2027 09:57:53.426            50.937                Irkutsk          1591.781
       264   03 Jun 2027 09:58:12.380   03 Jun 2027 09:58:15.407             3.027                Novosib            94.594
       265   03 Jun 2027 09:59:30.171   03 Jun 2027 09:59:32.865             2.694                Novosib            84.188
       266   03 Jun 2027 10:35:47.534   03 Jun 2027 10:36:02.824            15.290            RioGallegos           477.813
       267   03 Jun 2027 10:36:34.697   03 Jun 2027 10:37:03.944            29.247            RioGallegos           913.969
       268   03 Jun 2027 10:40:19.272   03 Jun 2027 10:41:06.954            47.682            RioGallegos          1490.062
       269   03 Jun 2027 11:12:46.330   03 Jun 2027 11:14:40.791           114.461                Sumatra          3576.906
       270   03 Jun 2027 11:30:16.596   03 Jun 2027 11:30:46.068            29.472                Novosib           921.000
       271   03 Jun 2027 11:31:57.772   03 Jun 2027 11:32:10.949            13.177                Novosib           411.781
       272   03 Jun 2027 11:33:16.956   03 Jun 2027 11:33:21.403             4.447                Novosib           138.969
       273   03 Jun 2027 11:33:22.908   03 Jun 2027 11:33:46.368            23.460                Novosib           733.125
       274   03 Jun 2027 11:33:49.859   03 Jun 2027 11:33:54.017             4.158                Novosib           129.938
       275   03 Jun 2027 12:56:11.541   03 Jun 2027 12:58:57.589           166.048                  Delhi          5189.000
       276   03 Jun 2027 13:03:26.410   03 Jun 2027 13:03:32.918             6.508                 Moscow           203.375
       277   03 Jun 2027 13:03:59.583   03 Jun 2027 13:06:33.984           154.401              Murmansk2          4825.031
       278   03 Jun 2027 13:07:39.337   03 Jun 2027 13:07:57.866            18.529                Norilsk           579.031
       279   03 Jun 2027 13:09:18.153   03 Jun 2027 13:09:44.785            26.632                Norilsk           832.250
       280   03 Jun 2027 14:16:09.493   03 Jun 2027 14:18:45.635           156.142               CapeTown          4879.437
       281   03 Jun 2027 14:21:32.772   03 Jun 2027 14:22:08.528            35.756               CapeTown          1117.375
       282   03 Jun 2027 14:37:42.630   03 Jun 2027 14:38:29.868            47.238                 Moscow          1476.188
       283   03 Jun 2027 14:40:39.631   03 Jun 2027 14:41:18.546            38.915              Murmansk1          1216.094
       284   03 Jun 2027 14:41:53.655   03 Jun 2027 14:43:19.046            85.391              Murmansk2          2668.469
       285   03 Jun 2027 14:55:19.776   03 Jun 2027 14:55:56.639            36.863                Anadyr2          1151.969
       286   03 Jun 2027 14:57:03.175   03 Jun 2027 14:58:27.625            84.450                Anadyr1          2639.063
       287   03 Jun 2027 14:58:54.064   03 Jun 2027 14:59:10.720            16.656                Anadyr2           520.500
       288   03 Jun 2027 14:59:43.419   03 Jun 2027 14:59:54.560            11.141                Anadyr2           348.156
       289   03 Jun 2027 15:00:46.385   03 Jun 2027 15:01:03.413            17.028                Anadyr2           532.125
       290   03 Jun 2027 15:50:37.205   03 Jun 2027 15:52:22.602           105.397               CapeTown          3293.656
       291   03 Jun 2027 16:19:25.862   03 Jun 2027 16:20:38.548            72.686              Murmansk1          2271.437
       292   03 Jun 2027 16:23:55.904   03 Jun 2027 16:24:57.954            62.050              Murmansk1          1939.063
       293   03 Jun 2027 16:30:39.150   03 Jun 2027 16:32:08.897            89.747                Anadyr1          2804.594
       294   03 Jun 2027 16:32:47.896   03 Jun 2027 16:33:03.407            15.511                Anadyr2           484.719
       295   03 Jun 2027 16:34:51.335   03 Jun 2027 16:37:42.962           171.627               Magadan1          5363.344
       296   03 Jun 2027 18:06:31.988   03 Jun 2027 18:08:53.112           141.124                Anadyr1          4410.125
       297   03 Jun 2027 18:08:59.222   03 Jun 2027 18:11:24.260           145.038               Magadan2          4532.438
       298   03 Jun 2027 18:12:46.983   03 Jun 2027 18:14:09.815            82.832               Magadan2          2588.500
       299   03 Jun 2027 18:19:57.903   03 Jun 2027 18:20:06.482             8.579               Magadan1           268.094
       300   03 Jun 2027 19:42:25.509   03 Jun 2027 19:46:15.854           230.345                Anadyr1          7198.281
       301   03 Jun 2027 19:46:21.418   03 Jun 2027 19:48:07.881           106.463               Magadan2          3326.969
       302   03 Jun 2027 19:48:07.881   03 Jun 2027 19:48:46.064            38.183               Magadan1          1193.219
       303   03 Jun 2027 19:51:26.317   03 Jun 2027 19:53:28.206           121.889                Irkutsk          3809.031
       304   03 Jun 2027 19:54:51.148   03 Jun 2027 19:55:01.090             9.942                Irkutsk           310.687
       305   03 Jun 2027 20:36:43.240   03 Jun 2027 20:37:40.372            57.132            RioGallegos          1785.375
       306   03 Jun 2027 20:38:04.347   03 Jun 2027 20:38:36.795            32.448            RioGallegos          1014.000
       307   03 Jun 2027 20:39:55.195   03 Jun 2027 20:39:55.752             0.557            RioGallegos            17.406
       308   03 Jun 2027 20:45:47.034   03 Jun 2027 20:46:11.486            24.452            RioGallegos           764.125
       309   03 Jun 2027 21:19:50.587   03 Jun 2027 21:20:44.372            53.785                Anadyr2          1680.781
       310   03 Jun 2027 21:20:47.217   03 Jun 2027 21:22:20.424            93.207                Norilsk          2912.719
       311   03 Jun 2027 21:22:45.269   03 Jun 2027 21:23:15.602            30.333               Magadan1           947.906
       312   03 Jun 2027 21:24:57.828   03 Jun 2027 21:25:06.821             8.993                Norilsk           281.031
       313   03 Jun 2027 21:25:26.494   03 Jun 2027 21:25:28.190             1.696               Magadan2            53.000
       314   03 Jun 2027 21:25:30.191   03 Jun 2027 21:25:49.427            19.236                Norilsk           601.125
       315   03 Jun 2027 21:25:49.543   03 Jun 2027 21:27:11.488            81.945                Novosib          2560.781
       316   03 Jun 2027 21:28:33.728   03 Jun 2027 21:29:09.921            36.193                Novosib          1131.031
       317   03 Jun 2027 21:29:46.337   03 Jun 2027 21:30:32.723            46.386                Novosib          1449.563
       318   03 Jun 2027 21:38:03.387   03 Jun 2027 21:40:12.285           128.898                Sumatra          4028.063
       319   03 Jun 2027 22:52:32.448   03 Jun 2027 22:53:19.942            47.494                Anadyr2          1484.187
       320   03 Jun 2027 22:56:14.967   03 Jun 2027 22:56:32.311            17.344                Norilsk           542.000
       321   03 Jun 2027 22:56:52.490   03 Jun 2027 22:58:08.590            76.100               Magadan1          2378.125
       322   03 Jun 2027 22:58:08.590   03 Jun 2027 22:58:24.142            15.552               Magadan2           486.000
       323   03 Jun 2027 22:58:49.669   03 Jun 2027 22:59:19.174            29.505               Magadan2           922.031
       324   03 Jun 2027 23:00:08.108   03 Jun 2027 23:00:53.979            45.871                Irkutsk          1433.469
       325   03 Jun 2027 23:01:15.693   03 Jun 2027 23:01:40.646            24.953                Novosib           779.781
       326   03 Jun 2027 23:02:20.590   03 Jun 2027 23:03:06.724            46.134                Novosib          1441.688
       327   03 Jun 2027 23:07:46.723   03 Jun 2027 23:11:20.016           213.293                  Delhi          6665.406
       328   04 Jun 2027 00:25:59.625   04 Jun 2027 00:25:59.756             0.131                Anadyr1             4.094
       329   04 Jun 2027 00:27:59.936   04 Jun 2027 00:28:31.626            31.690                Anadyr1           990.312
       330   04 Jun 2027 00:31:37.066   04 Jun 2027 00:31:50.333            13.267                Anadyr2           414.594
       331   04 Jun 2027 00:32:06.575   04 Jun 2027 00:32:11.217             4.642                Anadyr2           145.062
       332   04 Jun 2027 00:32:13.450   04 Jun 2027 00:32:27.531            14.081                Norilsk           440.031
       333   04 Jun 2027 00:33:00.494   04 Jun 2027 00:34:10.591            70.097                Norilsk          2190.531
       334   04 Jun 2027 00:34:32.647   04 Jun 2027 00:37:19.994           167.347              Murmansk1          5229.594
       335   04 Jun 2027 00:38:13.500   04 Jun 2027 00:38:35.733            22.233                Novosib           694.781
       336   04 Jun 2027 00:39:00.122   04 Jun 2027 00:40:12.009            71.887                 Moscow          2246.469
       337   04 Jun 2027 00:40:29.250   04 Jun 2027 00:42:12.695           103.445                 Moscow          3232.656
       338   04 Jun 2027 01:09:06.479   04 Jun 2027 01:09:36.453            29.974               CapeTown           936.688
       339   04 Jun 2027 01:59:29.332   04 Jun 2027 02:00:09.198            39.866                Anadyr1          1245.813
       340   04 Jun 2027 02:00:42.984   04 Jun 2027 02:01:13.667            30.683                Anadyr1           958.844
       341   04 Jun 2027 02:02:06.671   04 Jun 2027 02:02:36.453            29.782                Anadyr1           930.687
       342   04 Jun 2027 02:04:16.709   04 Jun 2027 02:05:48.900            92.191               Magadan2          2880.969
       343   04 Jun 2027 02:07:58.576   04 Jun 2027 02:08:28.023            29.447                Norilsk           920.219
       344   04 Jun 2027 02:10:21.558   04 Jun 2027 02:11:38.710            77.152              Murmansk1          2411.000
       345   04 Jun 2027 02:12:29.820   04 Jun 2027 02:13:02.378            32.558                Novosib          1017.437
       346   04 Jun 2027 02:13:40.090   04 Jun 2027 02:15:11.268            91.178                 Moscow          2849.313
       347   04 Jun 2027 02:37:46.941   04 Jun 2027 02:38:54.962            68.021               CapeTown          2125.656
       348   04 Jun 2027 03:35:46.338   04 Jun 2027 03:35:50.930             4.592                Anadyr2           143.500
       349   04 Jun 2027 03:36:22.016   04 Jun 2027 03:36:35.808            13.792                Anadyr2           431.000
       350   04 Jun 2027 03:37:12.708   04 Jun 2027 03:37:33.025            20.317                Anadyr1           634.906
       351   04 Jun 2027 03:40:11.530   04 Jun 2027 03:41:27.551            76.021                Anadyr1          2375.656
       352   04 Jun 2027 03:41:52.366   04 Jun 2027 03:42:31.082            38.716               Magadan2          1209.875
       353   04 Jun 2027 03:42:55.523   04 Jun 2027 03:43:18.048            22.525                Anadyr1           703.906
       354   04 Jun 2027 03:43:48.061   04 Jun 2027 03:43:51.004             2.943                Anadyr1            91.969
       355   04 Jun 2027 03:44:00.438   04 Jun 2027 03:45:21.436            80.998                Anadyr1          2531.188
       356   04 Jun 2027 03:45:26.235   04 Jun 2027 03:46:59.410            93.175                Anadyr1          2911.719
       357   04 Jun 2027 05:17:49.166   04 Jun 2027 05:18:52.606            63.440               Magadan1          1982.500
       358   04 Jun 2027 05:18:55.140   04 Jun 2027 05:19:13.159            18.019                Anadyr1           563.094
       359   04 Jun 2027 05:19:32.955   04 Jun 2027 05:21:03.587            90.632               Magadan1          2832.250
       360   04 Jun 2027 05:21:05.857   04 Jun 2027 05:22:45.075            99.218                Anadyr2          3100.562
       361   04 Jun 2027 06:50:54.144   04 Jun 2027 06:51:12.052            17.908                Anadyr1           559.625
       362   04 Jun 2027 06:51:16.414   04 Jun 2027 06:51:42.937            26.523               Magadan2           828.844
       363   04 Jun 2027 06:51:48.884   04 Jun 2027 06:52:48.130            59.246               Magadan1          1851.438
       364   04 Jun 2027 06:52:55.665   04 Jun 2027 06:52:58.200             2.535               Magadan2            79.219
       365   04 Jun 2027 06:53:08.219   04 Jun 2027 06:53:27.508            19.289               Magadan2           602.781
       366   04 Jun 2027 06:53:33.538   04 Jun 2027 06:54:48.101            74.563                Anadyr1          2330.094
       367   04 Jun 2027 06:54:49.991   04 Jun 2027 06:55:08.400            18.409               Magadan2           575.281
       368   04 Jun 2027 06:55:19.954   04 Jun 2027 06:55:33.500            13.546                Anadyr1           423.313
       369   04 Jun 2027 06:56:01.275   04 Jun 2027 06:56:02.235             0.960               Magadan1            30.000
       370   04 Jun 2027 06:56:09.039   04 Jun 2027 06:56:14.948             5.909               Magadan1           184.656
       371   04 Jun 2027 06:56:25.495   04 Jun 2027 06:56:40.643            15.148                Anadyr1           473.375
       372   04 Jun 2027 06:56:54.205   04 Jun 2027 06:56:57.779             3.574               Magadan2           111.687
       373   04 Jun 2027 06:57:06.725   04 Jun 2027 06:57:29.325            22.600                Anadyr1           706.250
       374   04 Jun 2027 06:57:29.325   04 Jun 2027 06:58:01.336            32.011                Anadyr2          1000.344
       375   04 Jun 2027 08:27:51.701   04 Jun 2027 08:29:01.625            69.924               Magadan1          2185.125
       376   04 Jun 2027 08:29:06.628   04 Jun 2027 08:30:00.843            54.215               Magadan2          1694.219
       377   04 Jun 2027 08:30:09.067   04 Jun 2027 08:30:25.710            16.643               Magadan1           520.094
       378   04 Jun 2027 08:30:36.133   04 Jun 2027 08:31:10.882            34.749               Magadan1          1085.906
       379   04 Jun 2027 08:31:23.771   04 Jun 2027 08:31:39.355            15.584                Irkutsk           487.000
       380   04 Jun 2027 08:32:06.045   04 Jun 2027 08:32:45.417            39.372                Irkutsk          1230.375
       381   04 Jun 2027 08:33:05.163   04 Jun 2027 08:33:13.617             8.454               Magadan2           264.188
       382   04 Jun 2027 08:42:07.212   04 Jun 2027 08:42:07.491             0.279              Murmansk1             8.719
       383   04 Jun 2027 09:09:11.775   04 Jun 2027 09:10:13.072            61.297            RioGallegos          1915.531
       384   04 Jun 2027 09:44:00.948   04 Jun 2027 09:45:27.270            86.322                Sumatra          2697.563
       385   04 Jun 2027 10:05:09.579   04 Jun 2027 10:05:21.632            12.053                Irkutsk           376.656
       386   04 Jun 2027 10:06:34.607   04 Jun 2027 10:07:17.940            43.333                Irkutsk          1354.156
       387   04 Jun 2027 10:07:24.233   04 Jun 2027 10:07:33.107             8.874                Novosib           277.313
       388   04 Jun 2027 10:07:39.492   04 Jun 2027 10:07:50.677            11.185                Irkutsk           349.531
       389   04 Jun 2027 10:07:52.275   04 Jun 2027 10:08:08.186            15.911                Irkutsk           497.219
       390   04 Jun 2027 10:08:10.321   04 Jun 2027 10:08:13.384             3.063                Norilsk            95.719
       391   04 Jun 2027 10:08:15.398   04 Jun 2027 10:08:26.157            10.759                Novosib           336.219
       392   04 Jun 2027 10:08:36.189   04 Jun 2027 10:09:05.511            29.322                Irkutsk           916.313
       393   04 Jun 2027 10:09:13.216   04 Jun 2027 10:10:10.801            57.585                Irkutsk          1799.531
       394   04 Jun 2027 10:10:16.923   04 Jun 2027 10:10:29.735            12.812                Norilsk           400.375
       395   04 Jun 2027 10:48:39.955   04 Jun 2027 10:49:11.021            31.066            RioGallegos           970.812
       396   04 Jun 2027 10:49:54.125   04 Jun 2027 10:50:30.921            36.796            RioGallegos          1149.875
       397   04 Jun 2027 11:23:43.044   04 Jun 2027 11:24:00.161            17.117                Sumatra           534.906
       398   04 Jun 2027 11:24:31.623   04 Jun 2027 11:25:20.318            48.695                Sumatra          1521.719
       399   04 Jun 2027 11:31:21.516   04 Jun 2027 11:32:38.749            77.233                  Delhi          2413.531
       400   04 Jun 2027 11:42:46.508   04 Jun 2027 11:42:52.379             5.871                Novosib           183.469
       401   04 Jun 2027 11:43:05.979   04 Jun 2027 11:43:42.676            36.697                Norilsk          1146.781
       402   04 Jun 2027 11:43:56.474   04 Jun 2027 11:44:16.046            19.572                Novosib           611.625
       403   04 Jun 2027 11:44:44.494   04 Jun 2027 11:45:11.790            27.296                Norilsk           853.000
       404   04 Jun 2027 11:45:26.301   04 Jun 2027 11:45:43.323            17.022                Novosib           531.938
       405   04 Jun 2027 11:45:46.118   04 Jun 2027 11:45:56.153            10.035                Norilsk           313.594
       406   04 Jun 2027 11:46:05.449   04 Jun 2027 11:46:38.784            33.335                Novosib          1041.719
       407   04 Jun 2027 13:12:37.388   04 Jun 2027 13:13:39.813            62.425                 Moscow          1950.781
       408   04 Jun 2027 13:13:49.978   04 Jun 2027 13:14:08.095            18.117                 Moscow           566.156
       409   04 Jun 2027 13:15:14.273   04 Jun 2027 13:15:51.920            37.647                 Moscow          1176.469
       410   04 Jun 2027 13:16:00.831   04 Jun 2027 13:19:22.322           201.491              Murmansk2          6296.594
       411   04 Jun 2027 13:19:33.900   04 Jun 2027 13:19:40.293             6.393                Norilsk           199.781
       412   04 Jun 2027 13:21:11.441   04 Jun 2027 13:21:46.790            35.349                Norilsk          1104.656
       413   04 Jun 2027 14:27:32.484   04 Jun 2027 14:29:09.876            97.392               CapeTown          3043.500
       414   04 Jun 2027 14:30:24.959   04 Jun 2027 14:30:29.724             4.765               CapeTown           148.906
       415   04 Jun 2027 14:31:41.314   04 Jun 2027 14:32:24.431            43.117               CapeTown          1347.406
       416   04 Jun 2027 14:32:53.268   04 Jun 2027 14:34:03.248            69.980               CapeTown          2186.875
       417   04 Jun 2027 14:49:50.472   04 Jun 2027 14:50:01.714            11.242                 Moscow           351.312
       418   04 Jun 2027 14:52:54.683   04 Jun 2027 14:55:20.689           146.006              Murmansk2          4562.687
       419   04 Jun 2027 15:07:11.707   04 Jun 2027 15:09:07.532           115.825                Anadyr2          3619.531
       420   04 Jun 2027 15:11:16.160   04 Jun 2027 15:11:26.331            10.171                Anadyr1           317.844
       421   04 Jun 2027 15:11:36.356   04 Jun 2027 15:11:55.153            18.797                Anadyr1           587.406
       422   04 Jun 2027 15:12:28.359   04 Jun 2027 15:13:16.245            47.886                Anadyr1          1496.438
       423   04 Jun 2027 16:08:34.016   04 Jun 2027 16:10:22.198           108.182               CapeTown          3380.687
       424   04 Jun 2027 16:32:00.257   04 Jun 2027 16:32:53.751            53.494              Murmansk2          1671.687
       425   04 Jun 2027 16:33:13.860   04 Jun 2027 16:33:35.159            21.299              Murmansk1           665.594
       426   04 Jun 2027 16:39:18.929   04 Jun 2027 16:39:54.734            35.805              Murmansk2          1118.906
       427   04 Jun 2027 16:42:39.414   04 Jun 2027 16:43:51.046            71.632                Anadyr1          2238.500
       428   04 Jun 2027 16:43:52.858   04 Jun 2027 16:44:29.974            37.116                Anadyr2          1159.875
       429   04 Jun 2027 16:46:20.650   04 Jun 2027 16:47:26.859            66.209               Magadan1          2069.031
       430   04 Jun 2027 16:48:25.431   04 Jun 2027 16:50:15.367           109.936               Magadan2          3435.500
       431   04 Jun 2027 18:18:33.471   04 Jun 2027 18:22:38.316           244.845                Anadyr2          7651.406
       432   04 Jun 2027 18:22:47.165   04 Jun 2027 18:23:16.286            29.121               Magadan1           910.031
       433   04 Jun 2027 18:23:22.547   04 Jun 2027 18:24:45.880            83.333               Magadan2          2604.156
       434   04 Jun 2027 18:28:34.840   04 Jun 2027 18:28:43.007             8.167               Magadan2           255.219
       435   04 Jun 2027 19:54:25.682   04 Jun 2027 19:56:26.901           121.219                Anadyr2          3788.094
       436   04 Jun 2027 19:56:28.516   04 Jun 2027 19:58:32.918           124.402                Anadyr1          3887.563
       437   04 Jun 2027 19:58:35.267   04 Jun 2027 20:00:49.717           134.450               Magadan1          4201.562
       438   04 Jun 2027 20:02:25.366   04 Jun 2027 20:05:08.970           163.604                Irkutsk          5112.625
       439   04 Jun 2027 20:08:20.777   04 Jun 2027 20:08:34.010            13.233                Irkutsk           413.531
       440   04 Jun 2027 20:19:21.637   04 Jun 2027 20:20:47.778            86.141                Sumatra          2691.906
       441   04 Jun 2027 20:22:24.840   04 Jun 2027 20:22:27.461             2.621                Sumatra            81.906
       442   04 Jun 2027 21:30:03.727   04 Jun 2027 21:30:11.291             7.564                Anadyr2           236.375
       443   04 Jun 2027 21:31:10.639   04 Jun 2027 21:32:10.778            60.139                Anadyr1          1879.344
       444   04 Jun 2027 21:32:17.908   04 Jun 2027 21:34:19.316           121.408                Norilsk          3794.000
       445   04 Jun 2027 21:36:18.561   04 Jun 2027 21:37:46.397            87.836                Irkutsk          2744.875
       446   04 Jun 2027 21:40:42.054   04 Jun 2027 21:41:52.982            70.928                Novosib          2216.500
       447   04 Jun 2027 21:49:59.922   04 Jun 2027 21:50:52.691            52.769                Sumatra          1649.031
       448   04 Jun 2027 21:55:46.103   04 Jun 2027 21:55:56.502            10.399                Sumatra           324.969
       449   04 Jun 2027 21:56:46.820   04 Jun 2027 21:58:45.022           118.202                Sumatra          3693.812
       450   04 Jun 2027 23:08:17.001   04 Jun 2027 23:08:37.553            20.552                Norilsk           642.250
       451   04 Jun 2027 23:08:53.768   04 Jun 2027 23:09:02.890             9.122               Magadan2           285.063
       452   04 Jun 2027 23:09:29.568   04 Jun 2027 23:11:06.932            97.364               Magadan1          3042.625
       453   04 Jun 2027 23:12:09.120   04 Jun 2027 23:14:44.602           155.482                Novosib          4858.813
       454   04 Jun 2027 23:19:36.844   04 Jun 2027 23:20:44.629            67.785                  Delhi          2118.281
       455   04 Jun 2027 23:22:14.520   04 Jun 2027 23:22:55.714            41.194                  Delhi          1287.312
       456   04 Jun 2027 23:27:34.690   04 Jun 2027 23:28:09.278            34.588                  Delhi          1080.875
       457   05 Jun 2027 00:37:40.701   05 Jun 2027 00:37:51.621            10.920                Anadyr1           341.250
       458   05 Jun 2027 00:37:53.274   05 Jun 2027 00:38:01.350             8.076                Anadyr2           252.375
       459   05 Jun 2027 00:38:19.359   05 Jun 2027 00:38:58.872            39.513                Anadyr1          1234.781
       460   05 Jun 2027 00:38:58.872   05 Jun 2027 00:40:02.773            63.901                Anadyr2          1996.906
       461   05 Jun 2027 00:42:56.141   05 Jun 2027 00:43:23.463            27.322                Anadyr1           853.812
       462   05 Jun 2027 00:43:50.853   05 Jun 2027 00:45:07.640            76.787               Magadan1          2399.594
       463   05 Jun 2027 00:45:07.640   05 Jun 2027 00:45:13.062             5.422               Magadan2           169.437
       464   05 Jun 2027 00:46:05.362   05 Jun 2027 00:46:12.455             7.093                Norilsk           221.656
       465   05 Jun 2027 00:46:18.625   05 Jun 2027 00:47:24.869            66.244               Magadan1          2070.125
       466   05 Jun 2027 00:47:45.233   05 Jun 2027 00:49:11.359            86.126              Murmansk2          2691.438
       467   05 Jun 2027 00:49:27.404   05 Jun 2027 00:50:30.306            62.902                Novosib          1965.687
       468   05 Jun 2027 00:50:41.525   05 Jun 2027 00:50:57.916            16.391                 Moscow           512.219
       469   05 Jun 2027 00:55:28.371   05 Jun 2027 00:56:15.010            46.639                 Moscow          1457.469
       470   05 Jun 2027 01:18:25.355   05 Jun 2027 01:19:24.332            58.977               CapeTown          1843.031
       471   05 Jun 2027 01:19:38.566   05 Jun 2027 01:19:43.950             5.384               CapeTown           168.250
       472   05 Jun 2027 02:11:16.622   05 Jun 2027 02:12:06.400            49.778                Anadyr1          1555.562
       473   05 Jun 2027 02:12:41.611   05 Jun 2027 02:13:40.390            58.779                Anadyr1          1836.844
       474   05 Jun 2027 02:15:44.889   05 Jun 2027 02:17:25.507           100.618               Magadan2          3144.312
       475   05 Jun 2027 02:21:32.603   05 Jun 2027 02:21:41.054             8.451                Norilsk           264.094
       476   05 Jun 2027 02:21:45.896   05 Jun 2027 02:22:04.546            18.650                Norilsk           582.813
       477   05 Jun 2027 02:22:23.238   05 Jun 2027 02:23:39.064            75.826              Murmansk1          2369.563
       478   05 Jun 2027 02:24:38.316   05 Jun 2027 02:25:19.050            40.734                Novosib          1272.938
       479   05 Jun 2027 02:25:39.214   05 Jun 2027 02:27:08.746            89.532                 Moscow          2797.875
       480   05 Jun 2027 02:37:09.156   05 Jun 2027 02:37:19.259            10.103                 Moscow           315.719
       481   05 Jun 2027 02:50:47.747   05 Jun 2027 02:52:40.775           113.028               CapeTown          3532.125
       482   05 Jun 2027 03:52:30.312   05 Jun 2027 03:53:20.111            49.799               Magadan1          1556.219
