uniorb/output/strategy_4/Drop/Drop_KinoSat_111607.txt

KinoSat_111607
-------------------------
    Access    *     Start Time (UTCG)     *     Stop Time (UTCG)  *   Duration (s)        *       Station  *  Data (Mbytes)
         1   01 Jun 2027 03:01:08.653   01 Jun 2027 03:01:34.950            26.297                  Delhi           255.500
         2   01 Jun 2027 04:35:06.428   01 Jun 2027 04:35:20.959            14.531              Murmansk1           454.094
         3   01 Jun 2027 04:35:20.959   01 Jun 2027 04:36:04.842            43.883              Murmansk2          1371.344
         4   01 Jun 2027 04:36:04.842   01 Jun 2027 04:36:34.856            30.014              Murmansk1           937.937
         5   01 Jun 2027 04:36:40.207   01 Jun 2027 04:37:26.968            46.761              Murmansk1          1461.281
         6   01 Jun 2027 04:37:58.431   01 Jun 2027 04:39:45.345           106.914              Murmansk2          3341.063
         7   01 Jun 2027 04:40:05.731   01 Jun 2027 04:40:56.210            50.479                 Moscow          1577.469
         8   01 Jun 2027 04:41:25.062   01 Jun 2027 04:41:50.054            24.992                 Moscow           781.000
         9   01 Jun 2027 04:55:22.512   01 Jun 2027 04:56:59.597            97.085               CapeTown          3033.906
        10   01 Jun 2027 05:58:55.576   01 Jun 2027 06:03:34.963           279.387               Magadan1          8730.844
        11   01 Jun 2027 06:04:22.667   01 Jun 2027 06:04:57.432            34.765              Murmansk2          1086.406
        12   01 Jun 2027 06:09:43.925   01 Jun 2027 06:10:41.527            57.602              Murmansk1          1800.063
        13   01 Jun 2027 06:10:41.527   01 Jun 2027 06:10:58.123            16.596              Murmansk2           518.625
        14   01 Jun 2027 06:11:18.486   01 Jun 2027 06:14:50.738           212.252              Murmansk1          6632.875
        15   01 Jun 2027 07:33:59.792   01 Jun 2027 07:34:13.553            13.761                Anadyr1           430.031
        16   01 Jun 2027 07:34:44.993   01 Jun 2027 07:37:22.756           157.763                Norilsk          4930.094
        17   01 Jun 2027 07:37:28.246   01 Jun 2027 07:39:54.459           146.213                Anadyr1          4569.156
        18   01 Jun 2027 09:08:32.210   01 Jun 2027 09:14:58.932           386.722                Anadyr1         12085.062
        19   01 Jun 2027 10:45:32.332   01 Jun 2027 10:46:05.147            32.815                Irkutsk          1025.469
        20   01 Jun 2027 10:46:55.714   01 Jun 2027 10:49:51.985           176.271               Magadan1          5508.469
        21   01 Jun 2027 10:50:35.956   01 Jun 2027 10:52:15.006            99.050              Murmansk1          3095.313
        22   01 Jun 2027 11:26:15.724   01 Jun 2027 11:27:21.960            66.236            RioGallegos          2069.875
        23   01 Jun 2027 11:28:01.369   01 Jun 2027 11:29:11.527            70.158            RioGallegos          2192.438
        24   01 Jun 2027 11:30:31.465   01 Jun 2027 11:30:37.758             6.293            RioGallegos           196.656
        25   01 Jun 2027 12:00:53.455   01 Jun 2027 12:03:12.155           138.700                Sumatra          4334.375
        26   01 Jun 2027 12:15:13.893   01 Jun 2027 12:19:44.182           270.289                Irkutsk          8446.531
        27   01 Jun 2027 12:20:36.410   01 Jun 2027 12:21:20.054            43.644                Norilsk          1363.875
        28   01 Jun 2027 13:06:42.861   01 Jun 2027 13:10:33.731           230.870            RioGallegos          7214.688
        29   01 Jun 2027 13:53:07.402   01 Jun 2027 13:54:44.708            97.306                Novosib          3040.813
        30   01 Jun 2027 13:55:46.413   01 Jun 2027 13:58:01.056           134.643                Novosib          4207.594
        31   01 Jun 2027 14:00:00.852   01 Jun 2027 14:00:14.806            13.954                Norilsk           436.063
        32   01 Jun 2027 14:00:42.262   01 Jun 2027 14:01:48.589            66.327                Norilsk          2072.719
        33   01 Jun 2027 15:29:29.343   01 Jun 2027 15:32:02.341           152.998                 Moscow          4781.188
        34   01 Jun 2027 15:32:56.776   01 Jun 2027 15:34:11.178            74.402              Murmansk1          2325.062
        35   01 Jun 2027 15:37:09.010   01 Jun 2027 15:40:09.872           180.862                Norilsk          5651.938
        36   01 Jun 2027 15:40:21.918   01 Jun 2027 15:42:50.568           148.650                Norilsk          4645.312
        37   01 Jun 2027 17:06:59.425   01 Jun 2027 17:07:28.688            29.263                 Moscow           914.469
        38   01 Jun 2027 17:10:05.042   01 Jun 2027 17:11:04.738            59.696              Murmansk1          1865.500
        39   01 Jun 2027 17:11:38.682   01 Jun 2027 17:12:03.770            25.088                 Moscow           784.000
        40   01 Jun 2027 17:16:28.582   01 Jun 2027 17:16:58.466            29.884                 Moscow           933.875
        41   01 Jun 2027 17:19:42.481   01 Jun 2027 17:19:54.617            12.136              Murmansk1           379.250
        42   01 Jun 2027 17:23:57.275   01 Jun 2027 17:25:33.791            96.516                Anadyr2          3016.125
        43   01 Jun 2027 18:19:30.326   01 Jun 2027 18:20:26.798            56.472               CapeTown          1764.750
        44   01 Jun 2027 18:24:45.511   01 Jun 2027 18:25:01.597            16.086               CapeTown           502.688
        45   01 Jun 2027 18:27:00.336   01 Jun 2027 18:27:32.703            32.367               CapeTown          1011.469
        46   01 Jun 2027 18:49:30.926   01 Jun 2027 18:54:38.161           307.235              Murmansk1          9601.094
        47   01 Jun 2027 18:54:39.048   01 Jun 2027 18:55:57.879            78.831              Murmansk1          2463.469
        48   01 Jun 2027 20:35:28.332   01 Jun 2027 20:39:12.921           224.589                Anadyr2          7018.406
        49   01 Jun 2027 20:40:01.639   01 Jun 2027 20:42:40.562           158.923               Magadan2          4966.344
        50   01 Jun 2027 20:43:26.636   01 Jun 2027 20:43:42.251            15.615               Magadan1           487.969
        51   01 Jun 2027 20:44:15.431   01 Jun 2027 20:44:40.350            24.919               Magadan1           778.719
        52   01 Jun 2027 20:47:16.191   01 Jun 2027 20:48:13.420            57.229               Magadan2          1788.406
        53   01 Jun 2027 21:32:38.363   01 Jun 2027 21:34:27.767           109.404            RioGallegos          3418.875
        54   01 Jun 2027 22:11:19.457   01 Jun 2027 22:13:25.297           125.840                Anadyr2          3932.500
        55   01 Jun 2027 22:13:29.261   01 Jun 2027 22:15:09.781           100.520                Norilsk          3141.250
        56   01 Jun 2027 22:15:55.804   01 Jun 2027 22:16:11.948            16.144               Magadan1           504.500
        57   01 Jun 2027 22:16:16.801   01 Jun 2027 22:16:54.901            38.100                Norilsk          1190.625
        58   01 Jun 2027 22:18:41.302   01 Jun 2027 22:18:59.701            18.399                Irkutsk           574.969
        59   01 Jun 2027 22:19:19.203   01 Jun 2027 22:19:29.421            10.218                Irkutsk           319.312
        60   01 Jun 2027 22:20:08.632   01 Jun 2027 22:21:22.627            73.995                Irkutsk          2312.344
        61   01 Jun 2027 22:34:14.096   01 Jun 2027 22:35:44.988            90.892                Sumatra          2840.375
        62   01 Jun 2027 23:13:39.589   01 Jun 2027 23:14:23.790            44.201            RioGallegos          1381.281
        63   01 Jun 2027 23:46:41.372   01 Jun 2027 23:49:06.092           144.720                Anadyr2          4522.500
        64   01 Jun 2027 23:49:47.970   01 Jun 2027 23:49:48.431             0.461               Magadan2            14.406
        65   01 Jun 2027 23:50:01.816   01 Jun 2027 23:50:13.175            11.359                Norilsk           354.969
        66   01 Jun 2027 23:50:34.853   01 Jun 2027 23:50:54.405            19.552                Norilsk           611.000
        67   01 Jun 2027 23:51:30.021   01 Jun 2027 23:51:49.801            19.780               Magadan1           618.125
        68   01 Jun 2027 23:52:06.769   01 Jun 2027 23:52:24.413            17.644               Magadan1           551.375
        69   01 Jun 2027 23:52:45.101   01 Jun 2027 23:53:23.356            38.255               Magadan1          1195.469
        70   01 Jun 2027 23:53:58.651   01 Jun 2027 23:55:21.591            82.940                Novosib          2591.875
        71   01 Jun 2027 23:57:40.735   01 Jun 2027 23:58:23.146            42.411                Novosib          1325.344
        72   02 Jun 2027 00:00:15.167   02 Jun 2027 00:00:19.127             3.960                Novosib           123.750
        73   02 Jun 2027 00:02:52.928   02 Jun 2027 00:03:02.684             9.756                Novosib           304.875
        74   02 Jun 2027 00:03:19.471   02 Jun 2027 00:03:22.627             3.156                Novosib            98.625
        75   02 Jun 2027 00:06:17.089   02 Jun 2027 00:06:40.231            23.142                  Delhi           723.188
        76   02 Jun 2027 00:09:24.534   02 Jun 2027 00:09:26.859             2.325                Sumatra            72.656
        77   02 Jun 2027 00:10:01.668   02 Jun 2027 00:11:05.854            64.186                Sumatra          2005.813
        78   02 Jun 2027 00:43:38.525   02 Jun 2027 00:44:06.919            28.394            RioGallegos           887.313
        79   02 Jun 2027 00:47:18.806   02 Jun 2027 00:47:28.664             9.858            RioGallegos           308.063
        80   02 Jun 2027 00:50:12.861   02 Jun 2027 00:50:48.052            35.191            RioGallegos          1099.719
        81   02 Jun 2027 01:21:42.861   02 Jun 2027 01:22:22.066            39.205                Anadyr1          1225.156
        82   02 Jun 2027 01:22:47.075   02 Jun 2027 01:23:06.879            19.804                Anadyr2           618.875
        83   02 Jun 2027 01:23:22.505   02 Jun 2027 01:23:46.303            23.798                Anadyr2           743.688
        84   02 Jun 2027 01:25:11.964   02 Jun 2027 01:27:10.522           118.558                Norilsk          3704.938
        85   02 Jun 2027 01:28:03.760   02 Jun 2027 01:28:15.963            12.203               Magadan1           381.344
        86   02 Jun 2027 01:28:21.758   02 Jun 2027 01:29:10.659            48.901              Murmansk1          1528.156
        87   02 Jun 2027 01:29:10.878   02 Jun 2027 01:30:37.514            86.636                Irkutsk          2707.375
        88   02 Jun 2027 01:32:10.793   02 Jun 2027 01:32:48.420            37.627                Novosib          1175.844
        89   02 Jun 2027 01:36:23.754   02 Jun 2027 01:37:02.229            38.475                  Delhi          1202.344
        90   02 Jun 2027 01:43:31.633   02 Jun 2027 01:44:05.410            33.777                  Delhi          1055.531
        91   02 Jun 2027 02:18:03.224   02 Jun 2027 02:18:07.430             4.206            RioGallegos           131.438
        92   02 Jun 2027 02:18:51.377   02 Jun 2027 02:19:25.254            33.877            RioGallegos          1058.656
        93   02 Jun 2027 02:19:29.957   02 Jun 2027 02:20:55.646            85.689            RioGallegos          2677.781
        94   02 Jun 2027 02:25:00.630   02 Jun 2027 02:25:55.992            55.362            RioGallegos          1730.062
        95   02 Jun 2027 02:57:19.235   02 Jun 2027 02:57:38.346            19.111                Anadyr2           597.219
        96   02 Jun 2027 02:59:47.267   02 Jun 2027 03:00:04.636            17.369                Anadyr2           542.781
        97   02 Jun 2027 03:08:07.468   02 Jun 2027 03:08:53.423            45.955                Norilsk          1436.094
        98   02 Jun 2027 03:08:56.347   02 Jun 2027 03:12:37.989           221.642                Irkutsk          6926.312
        99   02 Jun 2027 03:13:49.960   02 Jun 2027 03:13:49.975             0.015              Murmansk1             0.469
       100   02 Jun 2027 04:48:54.374   02 Jun 2027 04:48:59.062             4.688                Novosib           146.500
       101   02 Jun 2027 04:50:02.182   02 Jun 2027 04:54:16.238           254.056                 Moscow          7939.250
       102   02 Jun 2027 05:06:25.811   02 Jun 2027 05:09:21.113           175.302               CapeTown          5478.188
       103   02 Jun 2027 06:03:08.914   02 Jun 2027 06:05:19.547           130.633                Anadyr1          4082.281
       104   02 Jun 2027 06:05:26.619   02 Jun 2027 06:07:48.734           142.115               Magadan2          4441.094
       105   02 Jun 2027 06:09:39.978   02 Jun 2027 06:11:19.772            99.794               Magadan1          3118.563
       106   02 Jun 2027 06:11:19.772   02 Jun 2027 06:11:43.490            23.718               Magadan2           741.188
       107   02 Jun 2027 06:11:48.304   02 Jun 2027 06:12:03.958            15.654               Magadan2           489.188
       108   02 Jun 2027 06:12:19.201   02 Jun 2027 06:13:36.972            77.771               Magadan2          2430.344
       109   02 Jun 2027 07:48:12.388   02 Jun 2027 07:50:18.558           126.170                Anadyr1          3942.812
       110   02 Jun 2027 07:50:23.151   02 Jun 2027 07:50:45.107            21.956               Magadan2           686.125
       111   02 Jun 2027 09:20:49.102   02 Jun 2027 09:21:06.528            17.426               Magadan1           544.562
       112   02 Jun 2027 09:21:10.769   02 Jun 2027 09:21:25.713            14.944               Magadan1           467.000
       113   02 Jun 2027 09:21:52.365   02 Jun 2027 09:22:29.731            37.366               Magadan1          1167.688
       114   02 Jun 2027 09:22:29.731   02 Jun 2027 09:23:47.296            77.565               Magadan2          2423.906
       115   02 Jun 2027 09:23:47.296   02 Jun 2027 09:25:48.345           121.049               Magadan1          3782.781
       116   02 Jun 2027 09:26:35.375   02 Jun 2027 09:27:25.162            49.787               Magadan1          1555.844
       117   02 Jun 2027 10:02:28.354   02 Jun 2027 10:03:04.461            36.107            RioGallegos          1128.344
       118   02 Jun 2027 10:39:39.527   02 Jun 2027 10:41:32.028           112.501                Sumatra          3515.656
       119   02 Jun 2027 10:57:05.158   02 Jun 2027 10:58:41.032            95.874               Magadan2          2996.062
       120   02 Jun 2027 10:58:47.381   02 Jun 2027 10:58:47.855             0.474                Irkutsk            14.813
       121   02 Jun 2027 10:59:34.287   02 Jun 2027 11:00:17.686            43.399                Norilsk          1356.219
       122   02 Jun 2027 11:00:17.734   02 Jun 2027 11:01:04.313            46.579               Magadan1          1455.594
       123   02 Jun 2027 11:01:13.398   02 Jun 2027 11:01:14.060             0.662                Irkutsk            20.687
       124   02 Jun 2027 11:01:14.783   02 Jun 2027 11:01:27.803            13.020                Norilsk           406.875
       125   02 Jun 2027 11:02:05.140   02 Jun 2027 11:02:35.608            30.468                Irkutsk           952.125
       126   02 Jun 2027 11:02:45.112   02 Jun 2027 11:02:45.502             0.390                Irkutsk            12.187
       127   02 Jun 2027 11:02:48.004   02 Jun 2027 11:02:53.159             5.155                Novosib           161.094
       128   02 Jun 2027 11:03:19.535   02 Jun 2027 11:03:34.300            14.765                Novosib           461.406
       129   02 Jun 2027 11:38:30.530   02 Jun 2027 11:39:26.173            55.643            RioGallegos          1738.844
       130   02 Jun 2027 11:47:04.602   02 Jun 2027 11:47:52.410            47.808            RioGallegos          1494.000
       131   02 Jun 2027 12:12:58.945   02 Jun 2027 12:13:59.514            60.569                Sumatra          1892.781
       132   02 Jun 2027 12:27:37.445   02 Jun 2027 12:28:37.146            59.701                Irkutsk          1865.656
       133   02 Jun 2027 12:29:06.626   02 Jun 2027 12:30:05.045            58.419                Novosib          1825.594
       134   02 Jun 2027 12:32:40.281   02 Jun 2027 12:32:52.014            11.733                Norilsk           366.656
       135   02 Jun 2027 12:35:14.081   02 Jun 2027 12:35:45.608            31.527                Norilsk           985.219
       136   02 Jun 2027 12:42:27.604   02 Jun 2027 12:42:59.544            31.940                Norilsk           998.125
       137   02 Jun 2027 13:20:37.156   02 Jun 2027 13:21:31.500            54.344            RioGallegos          1698.250
       138   02 Jun 2027 13:57:30.526   02 Jun 2027 13:57:39.442             8.916                  Delhi           278.625
       139   02 Jun 2027 14:00:03.113   02 Jun 2027 14:02:16.306           133.193                  Delhi          4162.281
       140   02 Jun 2027 14:05:35.090   02 Jun 2027 14:06:11.001            35.911                Novosib          1122.219
       141   02 Jun 2027 14:09:10.329   02 Jun 2027 14:10:42.525            92.196                Novosib          2881.125
       142   02 Jun 2027 14:10:44.246   02 Jun 2027 14:12:12.713            88.467                Norilsk          2764.594
       143   02 Jun 2027 14:12:44.622   02 Jun 2027 14:14:27.730           103.108                Norilsk          3222.125
       144   02 Jun 2027 15:41:31.283   02 Jun 2027 15:43:48.211           136.928                 Moscow          4279.000
       145   02 Jun 2027 15:45:01.349   02 Jun 2027 15:46:08.803            67.454              Murmansk2          2107.938
       146   02 Jun 2027 15:49:56.284   02 Jun 2027 15:54:12.883           256.599                Norilsk          8018.719
       147   02 Jun 2027 15:54:25.738   02 Jun 2027 15:54:36.580            10.842                Norilsk           338.812
       148   02 Jun 2027 17:19:31.175   02 Jun 2027 17:20:00.878            29.703                 Moscow           928.219
       149   02 Jun 2027 17:20:12.016   02 Jun 2027 17:20:38.200            26.184                 Moscow           818.250
       150   02 Jun 2027 17:22:24.510   02 Jun 2027 17:23:19.405            54.895              Murmansk1          1715.469
       151   02 Jun 2027 17:24:35.929   02 Jun 2027 17:24:36.140             0.211                 Moscow             6.594
       152   02 Jun 2027 17:25:28.050   02 Jun 2027 17:25:47.503            19.453              Murmansk2           607.906
       153   02 Jun 2027 17:31:42.221   02 Jun 2027 17:32:02.043            19.822              Murmansk2           619.438
       154   02 Jun 2027 17:35:53.467   02 Jun 2027 17:37:21.924            88.457                Anadyr2          2764.281
       155   02 Jun 2027 17:44:42.989   02 Jun 2027 17:45:00.668            17.679                Anadyr2           552.469
       156   02 Jun 2027 18:31:10.053   02 Jun 2027 18:32:59.850           109.797               CapeTown          3431.156
       157   02 Jun 2027 18:40:10.967   02 Jun 2027 18:40:53.669            42.702               CapeTown          1334.438
       158   02 Jun 2027 19:02:12.713   02 Jun 2027 19:05:54.719           222.006              Murmansk1          6937.688
       159   02 Jun 2027 19:06:32.447   02 Jun 2027 19:07:01.334            28.887              Murmansk2           902.719
       160   02 Jun 2027 19:14:37.369   02 Jun 2027 19:15:52.478            75.109               Magadan1          2347.156
       161   02 Jun 2027 20:47:29.981   02 Jun 2027 20:49:05.014            95.033                Anadyr2          2969.781
       162   02 Jun 2027 20:49:07.812   02 Jun 2027 20:51:19.933           132.121                Anadyr1          4128.781
       163   02 Jun 2027 20:51:46.059   02 Jun 2027 20:52:01.370            15.311               Magadan2           478.469
       164   02 Jun 2027 20:52:04.135   02 Jun 2027 20:53:29.562            85.427               Magadan1          2669.594
       165   02 Jun 2027 20:53:42.819   02 Jun 2027 20:54:26.024            43.205               Magadan2          1350.156
       166   02 Jun 2027 20:55:09.373   02 Jun 2027 20:55:39.505            30.132               Magadan2           941.625
       167   02 Jun 2027 20:57:55.510   02 Jun 2027 20:58:05.207             9.697               Magadan1           303.031
       168   02 Jun 2027 20:58:42.177   02 Jun 2027 20:59:00.634            18.457               Magadan1           576.781
       169   02 Jun 2027 21:01:22.146   02 Jun 2027 21:01:40.070            17.924               Magadan2           560.125
       170   02 Jun 2027 21:43:31.213   02 Jun 2027 21:46:06.037           154.824            RioGallegos          4838.250
       171   02 Jun 2027 22:23:19.073   02 Jun 2027 22:25:26.407           127.334                Anadyr2          3979.187
       172   02 Jun 2027 22:25:31.119   02 Jun 2027 22:26:56.945            85.826                Norilsk          2682.062
       173   02 Jun 2027 22:27:04.570   02 Jun 2027 22:28:03.121            58.551               Magadan1          1829.719
       174   02 Jun 2027 22:28:40.473   02 Jun 2027 22:29:25.131            44.658               Magadan1          1395.562
       175   02 Jun 2027 22:30:18.978   02 Jun 2027 22:30:56.674            37.696                Irkutsk          1178.000
       176   02 Jun 2027 22:33:01.672   02 Jun 2027 22:33:23.621            21.949                Irkutsk           685.906
       177   02 Jun 2027 22:45:11.502   02 Jun 2027 22:47:03.874           112.372                Sumatra          3511.625
       178   02 Jun 2027 22:49:29.047   02 Jun 2027 22:50:36.564            67.517                Sumatra          2109.906
       179   02 Jun 2027 23:58:34.690   02 Jun 2027 23:58:53.392            18.702                Anadyr1           584.438
       180   02 Jun 2027 23:58:59.778   03 Jun 2027 00:00:09.719            69.941                Anadyr2          2185.656
       181   03 Jun 2027 00:01:06.504   03 Jun 2027 00:01:20.715            14.211                Anadyr1           444.094
       182   03 Jun 2027 00:01:30.672   03 Jun 2027 00:01:46.002            15.330                Anadyr1           479.063
       183   03 Jun 2027 00:01:51.115   03 Jun 2027 00:03:07.972            76.857               Magadan1          2401.781
       184   03 Jun 2027 00:03:17.611   03 Jun 2027 00:03:52.417            34.806               Magadan2          1087.688
       185   03 Jun 2027 00:04:46.419   03 Jun 2027 00:04:49.049             2.630               Magadan2            82.187
       186   03 Jun 2027 00:05:08.370   03 Jun 2027 00:06:12.418            64.048                Irkutsk          2001.500
       187   03 Jun 2027 00:06:51.838   03 Jun 2027 00:07:26.774            34.936                Novosib          1091.750
       188   03 Jun 2027 00:08:54.511   03 Jun 2027 00:09:19.880            25.369                Novosib           792.781
       189   03 Jun 2027 00:11:42.093   03 Jun 2027 00:11:47.451             5.358                Novosib           167.438
       190   03 Jun 2027 00:11:52.708   03 Jun 2027 00:11:59.101             6.393                Novosib           199.781
       191   03 Jun 2027 00:15:20.903   03 Jun 2027 00:15:59.531            38.628                Novosib          1207.125
       192   03 Jun 2027 00:16:34.261   03 Jun 2027 00:17:26.722            52.461                  Delhi          1639.406
       193   03 Jun 2027 00:27:54.893   03 Jun 2027 00:28:49.373            54.480                Sumatra          1702.500
       194   03 Jun 2027 01:00:54.098   03 Jun 2027 01:01:11.559            17.461            RioGallegos           545.656
       195   03 Jun 2027 01:02:53.559   03 Jun 2027 01:03:11.625            18.066            RioGallegos           564.563
       196   03 Jun 2027 01:05:14.531   03 Jun 2027 01:05:17.129             2.598            RioGallegos            81.188
       197   03 Jun 2027 01:32:40.366   03 Jun 2027 01:33:40.338            59.972                Anadyr1          1874.125
       198   03 Jun 2027 01:34:14.956   03 Jun 2027 01:34:51.157            36.201                Anadyr2          1131.281
       199   03 Jun 2027 01:35:14.629   03 Jun 2027 01:35:29.909            15.280                Anadyr1           477.500
       200   03 Jun 2027 01:37:14.170   03 Jun 2027 01:39:12.922           118.752                Norilsk          3711.000
       201   03 Jun 2027 01:40:05.507   03 Jun 2027 01:41:09.934            64.427              Murmansk2          2013.344
       202   03 Jun 2027 01:41:16.468   03 Jun 2027 01:42:28.670            72.202              Murmansk1          2256.312
       203   03 Jun 2027 01:45:18.301   03 Jun 2027 01:45:25.475             7.174                Novosib           224.187
       204   03 Jun 2027 01:45:34.260   03 Jun 2027 01:45:43.124             8.864              Murmansk2           277.000
       205   03 Jun 2027 01:48:21.869   03 Jun 2027 01:48:54.410            32.541                  Delhi          1016.906
       206   03 Jun 2027 01:52:11.355   03 Jun 2027 01:52:40.777            29.422                  Delhi           919.437
       207   03 Jun 2027 01:55:08.290   03 Jun 2027 01:55:41.212            32.922                  Delhi          1028.812
       208   03 Jun 2027 02:30:21.175   03 Jun 2027 02:33:00.435           159.260            RioGallegos          4976.875
       209   03 Jun 2027 02:34:37.782   03 Jun 2027 02:35:05.286            27.504            RioGallegos           859.500
       210   03 Jun 2027 03:22:31.195   03 Jun 2027 03:23:43.074            71.879                Irkutsk          2246.219
       211   03 Jun 2027 03:23:59.461   03 Jun 2027 03:24:42.547            43.086              Murmansk2          1346.437
       212   03 Jun 2027 03:24:58.609   03 Jun 2027 03:26:08.702            70.093              Murmansk2          2190.406
       213   03 Jun 2027 03:26:19.297   03 Jun 2027 03:28:08.658           109.361                  Delhi          3417.531
       214   03 Jun 2027 04:39:48.568   03 Jun 2027 04:40:53.182            64.614                Anadyr2          2019.188
       215   03 Jun 2027 04:59:30.481   03 Jun 2027 04:59:44.924            14.443                Novosib           451.344
       216   03 Jun 2027 05:00:17.258   03 Jun 2027 05:00:24.092             6.834                 Moscow           213.563
       217   03 Jun 2027 05:01:07.961   03 Jun 2027 05:01:31.924            23.963                 Moscow           748.844
       218   03 Jun 2027 05:02:53.400   03 Jun 2027 05:03:12.921            19.521                 Moscow           610.031
       219   03 Jun 2027 05:03:35.529   03 Jun 2027 05:04:08.697            33.168                 Moscow          1036.500
       220   03 Jun 2027 05:18:26.516   03 Jun 2027 05:21:01.223           154.707               CapeTown          4834.594
       221   03 Jun 2027 06:21:31.469   03 Jun 2027 06:22:15.241            43.772                Anadyr2          1367.875
       222   03 Jun 2027 06:22:20.925   03 Jun 2027 06:22:36.163            15.238                Anadyr2           476.188
       223   03 Jun 2027 06:22:37.309   03 Jun 2027 06:23:31.448            54.139               Magadan1          1691.844
       224   03 Jun 2027 06:25:58.112   03 Jun 2027 06:26:16.075            17.963                Anadyr2           561.344
       225   03 Jun 2027 06:58:39.984   03 Jun 2027 06:59:06.704            26.720               CapeTown           835.000
       226   03 Jun 2027 07:02:01.313   03 Jun 2027 07:02:26.089            24.776               CapeTown           774.250
       227   03 Jun 2027 07:57:49.763   03 Jun 2027 07:57:51.846             2.083               Magadan2            65.094
       228   03 Jun 2027 07:57:52.410   03 Jun 2027 07:58:35.735            43.325               Magadan2          1353.906
       229   03 Jun 2027 07:58:42.454   03 Jun 2027 07:59:16.021            33.567               Magadan2          1048.969
       230   03 Jun 2027 07:59:24.940   03 Jun 2027 07:59:57.409            32.469               Magadan1          1014.656
       231   03 Jun 2027 08:00:12.564   03 Jun 2027 08:01:24.215            71.651                Anadyr1          2239.094
       232   03 Jun 2027 08:41:22.045   03 Jun 2027 08:41:41.475            19.430            RioGallegos           607.187
       233   03 Jun 2027 09:32:54.124   03 Jun 2027 09:33:19.869            25.745               Magadan1           804.531
       234   03 Jun 2027 09:33:23.766   03 Jun 2027 09:33:54.563            30.797               Magadan2           962.406
       235   03 Jun 2027 09:34:35.235   03 Jun 2027 09:35:46.169            70.934               Magadan2          2216.687
       236   03 Jun 2027 09:36:03.057   03 Jun 2027 09:37:32.293            89.236                Anadyr1          2788.625
       237   03 Jun 2027 09:37:49.633   03 Jun 2027 09:38:00.032            10.399               Magadan2           324.969
       238   03 Jun 2027 09:38:11.951   03 Jun 2027 09:38:47.710            35.759               Magadan1          1117.469
       239   03 Jun 2027 09:41:59.075   03 Jun 2027 09:42:21.794            22.719              Murmansk2           709.969
       240   03 Jun 2027 10:14:19.143   03 Jun 2027 10:15:17.069            57.926            RioGallegos          1810.188
       241   03 Jun 2027 10:50:48.167   03 Jun 2027 10:52:29.210           101.043                Sumatra          3157.594
       242   03 Jun 2027 11:09:08.584   03 Jun 2027 11:09:34.154            25.570                Irkutsk           799.062
       243   03 Jun 2027 11:10:38.424   03 Jun 2027 11:11:21.262            42.838                Irkutsk          1338.688
       244   03 Jun 2027 11:11:28.891   03 Jun 2027 11:12:18.972            50.081                Norilsk          1565.031
       245   03 Jun 2027 11:12:26.188   03 Jun 2027 11:13:11.960            45.772                Irkutsk          1430.375
       246   03 Jun 2027 11:13:20.726   03 Jun 2027 11:13:45.438            24.712                Irkutsk           772.250
       247   03 Jun 2027 11:14:25.487   03 Jun 2027 11:14:36.003            10.516                Novosib           328.625
       248   03 Jun 2027 11:14:49.355   03 Jun 2027 11:14:50.252             0.897                Norilsk            28.031
       249   03 Jun 2027 11:14:51.115   03 Jun 2027 11:15:19.251            28.136                Novosib           879.250
       250   03 Jun 2027 11:51:29.504   03 Jun 2027 11:52:05.816            36.312            RioGallegos          1134.750
       251   03 Jun 2027 11:54:08.161   03 Jun 2027 11:55:20.900            72.739            RioGallegos          2273.094
       252   03 Jun 2027 12:25:25.112   03 Jun 2027 12:27:07.046           101.934                Sumatra          3185.438
       253   03 Jun 2027 12:40:06.119   03 Jun 2027 12:40:48.479            42.360                Irkutsk          1323.750
       254   03 Jun 2027 12:43:48.551   03 Jun 2027 12:44:24.496            35.945                Norilsk          1123.281
       255   03 Jun 2027 12:46:46.557   03 Jun 2027 12:46:50.531             3.974                Norilsk           124.188
       256   03 Jun 2027 12:47:35.121   03 Jun 2027 12:48:09.843            34.722              Murmansk2          1085.062
       257   03 Jun 2027 14:09:52.828   03 Jun 2027 14:11:01.544            68.716                  Delhi          2147.375
       258   03 Jun 2027 14:14:22.844   03 Jun 2027 14:15:01.872            39.028                  Delhi          1219.625
       259   03 Jun 2027 14:17:02.574   03 Jun 2027 14:18:00.074            57.500                  Delhi          1796.875
       260   03 Jun 2027 14:18:08.020   03 Jun 2027 14:21:08.644           180.624                Novosib          5644.500
       261   03 Jun 2027 14:21:58.609   03 Jun 2027 14:22:39.576            40.967                Norilsk          1280.219
       262   03 Jun 2027 14:24:09.169   03 Jun 2027 14:24:46.903            37.734                Norilsk          1179.187
       263   03 Jun 2027 14:26:28.147   03 Jun 2027 14:26:48.778            20.631                Norilsk           644.719
       264   03 Jun 2027 15:53:36.218   03 Jun 2027 15:56:53.352           197.134                 Moscow          6160.437
       265   03 Jun 2027 15:57:07.574   03 Jun 2027 15:58:05.112            57.538              Murmansk1          1798.063
       266   03 Jun 2027 15:58:30.502   03 Jun 2027 15:59:28.258            57.756              Murmansk1          1804.875
       267   03 Jun 2027 16:02:49.696   03 Jun 2027 16:04:52.187           122.491                Norilsk          3827.844
       268   03 Jun 2027 16:06:26.435   03 Jun 2027 16:07:21.216            54.781                Norilsk          1711.906
       269   03 Jun 2027 17:07:25.867   03 Jun 2027 17:07:47.562            21.695               CapeTown           677.969
       270   03 Jun 2027 17:32:08.922   03 Jun 2027 17:32:19.343            10.421                 Moscow           325.656
       271   03 Jun 2027 17:33:21.334   03 Jun 2027 17:34:37.065            75.731                 Moscow          2366.594
       272   03 Jun 2027 17:34:46.194   03 Jun 2027 17:35:40.922            54.728              Murmansk2          1710.250
       273   03 Jun 2027 17:37:44.882   03 Jun 2027 17:38:20.673            35.791              Murmansk2          1118.469
       274   03 Jun 2027 17:40:01.733   03 Jun 2027 17:40:05.577             3.844              Murmansk1           120.125
       275   03 Jun 2027 17:42:33.200   03 Jun 2027 17:43:41.251            68.051              Murmansk1          2126.594
       276   03 Jun 2027 17:47:50.870   03 Jun 2027 17:48:26.780            35.910                Anadyr2          1122.187
       277   03 Jun 2027 17:48:47.253   03 Jun 2027 17:49:11.343            24.090                Anadyr1           752.812
       278   03 Jun 2027 18:43:22.150   03 Jun 2027 18:45:00.385            98.235               CapeTown          3069.844
       279   03 Jun 2027 19:14:59.145   03 Jun 2027 19:19:40.942           281.797              Murmansk2          8806.156
       280   03 Jun 2027 19:19:59.814   03 Jun 2027 19:21:00.003            60.189              Murmansk1          1880.906
       281   03 Jun 2027 19:26:27.400   03 Jun 2027 19:26:52.321            24.921               Magadan2           778.781
       282   03 Jun 2027 19:29:05.471   03 Jun 2027 19:29:30.223            24.752               Magadan1           773.500
       283   03 Jun 2027 19:35:15.247   03 Jun 2027 19:35:46.106            30.859               Magadan2           964.344
       284   03 Jun 2027 20:59:31.530   03 Jun 2027 21:02:26.522           174.992                Anadyr2          5468.500
       285   03 Jun 2027 21:02:57.425   03 Jun 2027 21:03:27.632            30.207               Magadan2           943.969
       286   03 Jun 2027 21:03:44.657   03 Jun 2027 21:04:56.630            71.973               Magadan1          2249.156
       287   03 Jun 2027 21:05:08.224   03 Jun 2027 21:05:54.561            46.337               Magadan2          1448.031
       288   03 Jun 2027 21:06:15.506   03 Jun 2027 21:06:32.402            16.896               Magadan2           528.000
       289   03 Jun 2027 21:06:50.191   03 Jun 2027 21:07:04.379            14.188               Magadan2           443.375
       290   03 Jun 2027 21:08:33.381   03 Jun 2027 21:08:51.206            17.825               Magadan1           557.031
       291   03 Jun 2027 21:54:55.128   03 Jun 2027 21:57:50.224           175.096            RioGallegos          5471.750
       292   03 Jun 2027 22:00:03.515   03 Jun 2027 22:01:01.375            57.860            RioGallegos          1808.125
       293   03 Jun 2027 22:35:18.191   03 Jun 2027 22:36:24.773            66.582                Anadyr2          2080.687
       294   03 Jun 2027 22:37:00.147   03 Jun 2027 22:37:33.876            33.729                Anadyr2          1054.031
       295   03 Jun 2027 22:37:46.568   03 Jun 2027 22:39:10.929            84.361               Magadan2          2636.281
       296   03 Jun 2027 22:39:29.474   03 Jun 2027 22:40:32.189            62.715                Norilsk          1959.844
       297   03 Jun 2027 22:42:02.849   03 Jun 2027 22:42:54.929            52.080                Irkutsk          1627.500
       298   03 Jun 2027 22:44:37.472   03 Jun 2027 22:45:20.763            43.291                Irkutsk          1352.844
       299   03 Jun 2027 22:56:28.475   03 Jun 2027 22:57:44.097            75.622                Sumatra          2363.187
       300   03 Jun 2027 23:01:33.908   03 Jun 2027 23:02:31.747            57.839                Sumatra          1807.469
       301   04 Jun 2027 00:10:26.819   04 Jun 2027 00:11:36.899            70.080                Anadyr1          2190.000
       302   04 Jun 2027 00:12:10.952   04 Jun 2027 00:13:06.628            55.676                Anadyr2          1739.875
       303   04 Jun 2027 00:13:15.437   04 Jun 2027 00:14:58.614           103.177                Norilsk          3224.281
       304   04 Jun 2027 00:15:20.572   04 Jun 2027 00:16:11.251            50.679               Magadan2          1583.719
       305   04 Jun 2027 00:16:11.251   04 Jun 2027 00:16:48.177            36.926               Magadan1          1153.937
       306   04 Jun 2027 00:17:37.205   04 Jun 2027 00:18:32.082            54.877                Novosib          1714.906
       307   04 Jun 2027 00:19:02.983   04 Jun 2027 00:19:32.512            29.529                Novosib           922.781
       308   04 Jun 2027 00:20:01.358   04 Jun 2027 00:20:32.108            30.750                Novosib           960.938
       309   04 Jun 2027 00:26:33.844   04 Jun 2027 00:28:55.026           141.182                  Delhi          4411.937
       310   04 Jun 2027 01:11:41.999   04 Jun 2027 01:12:01.833            19.834            RioGallegos           619.812
       311   04 Jun 2027 01:15:00.011   04 Jun 2027 01:15:32.042            32.031            RioGallegos          1000.969
       312   04 Jun 2027 01:44:23.031   04 Jun 2027 01:45:11.551            48.520                Anadyr1          1516.250
       313   04 Jun 2027 01:45:39.620   04 Jun 2027 01:46:22.354            42.734                Anadyr1          1335.437
       314   04 Jun 2027 01:46:42.493   04 Jun 2027 01:46:57.599            15.106                Anadyr1           472.062
       315   04 Jun 2027 01:49:16.286   04 Jun 2027 01:51:06.667           110.381                Norilsk          3449.406
       316   04 Jun 2027 01:51:55.530   04 Jun 2027 01:53:35.439            99.909              Murmansk2          3122.156
       317   04 Jun 2027 01:53:46.388   04 Jun 2027 01:56:21.689           155.301                Novosib          4853.156
       318   04 Jun 2027 02:42:44.716   04 Jun 2027 02:45:06.130           141.414            RioGallegos          4419.187
       319   04 Jun 2027 02:46:27.803   04 Jun 2027 02:47:33.361            65.558            RioGallegos          2048.688
       320   04 Jun 2027 03:34:53.991   04 Jun 2027 03:35:16.812            22.821              Murmansk2           713.156
       321   04 Jun 2027 03:35:27.250   04 Jun 2027 03:36:31.013            63.763                Norilsk          1992.594
       322   04 Jun 2027 03:36:45.918   04 Jun 2027 03:38:03.305            77.387                Novosib          2418.344
       323   04 Jun 2027 03:39:27.506   04 Jun 2027 03:40:33.662            66.156                  Delhi          2067.375
       324   04 Jun 2027 03:42:53.984   04 Jun 2027 03:43:48.996            55.012                  Delhi          1719.125
       325   04 Jun 2027 05:11:37.311   04 Jun 2027 05:12:06.292            28.981                 Moscow           905.656
       326   04 Jun 2027 05:12:22.087   04 Jun 2027 05:12:44.738            22.651                 Moscow           707.844
       327   04 Jun 2027 05:13:26.147   04 Jun 2027 05:14:10.812            44.665                 Moscow          1395.781
       328   04 Jun 2027 05:30:32.361   04 Jun 2027 05:31:15.690            43.329               CapeTown          1354.031
       329   04 Jun 2027 05:35:19.323   04 Jun 2027 05:35:34.895            15.572               CapeTown           486.625
       330   04 Jun 2027 06:33:02.717   04 Jun 2027 06:35:04.430           121.713                Anadyr2          3803.531
       331   04 Jun 2027 06:35:14.952   04 Jun 2027 06:35:40.138            25.186               Magadan2           787.062
       332   04 Jun 2027 06:35:45.047   04 Jun 2027 06:36:20.007            34.960                Anadyr1          1092.500
       333   04 Jun 2027 08:09:51.418   04 Jun 2027 08:10:19.152            27.734                Anadyr2           866.688
       334   04 Jun 2027 08:10:28.215   04 Jun 2027 08:11:19.569            51.354                Anadyr2          1604.813
       335   04 Jun 2027 08:11:34.194   04 Jun 2027 08:11:59.544            25.350               Magadan2           792.188
       336   04 Jun 2027 08:12:12.235   04 Jun 2027 08:13:15.546            63.311                Anadyr2          1978.469
       337   04 Jun 2027 08:53:33.265   04 Jun 2027 08:54:03.945            30.680            RioGallegos           958.750
       338   04 Jun 2027 09:45:11.973   04 Jun 2027 09:45:31.457            19.484               Magadan1           608.875
       339   04 Jun 2027 09:45:44.366   04 Jun 2027 09:45:56.469            12.103               Magadan1           378.219
       340   04 Jun 2027 09:46:43.436   04 Jun 2027 09:47:20.517            37.081               Magadan2          1158.781
       341   04 Jun 2027 09:47:44.185   04 Jun 2027 09:48:21.286            37.101               Magadan2          1159.406
       342   04 Jun 2027 09:49:22.393   04 Jun 2027 09:49:26.952             4.559                Irkutsk           142.469
       343   04 Jun 2027 09:49:50.487   04 Jun 2027 09:50:29.774            39.287               Magadan2          1227.719
       344   04 Jun 2027 09:50:37.171   04 Jun 2027 09:51:03.072            25.901               Magadan1           809.406
       345   04 Jun 2027 09:51:07.149   04 Jun 2027 09:51:10.944             3.795                Irkutsk           118.594
       346   04 Jun 2027 09:52:19.725   04 Jun 2027 09:52:51.770            32.045                Norilsk          1001.406
       347   04 Jun 2027 10:27:05.026   04 Jun 2027 10:28:12.588            67.562            RioGallegos          2111.313
       348   04 Jun 2027 11:02:11.763   04 Jun 2027 11:02:28.955            17.192                Sumatra           537.250
       349   04 Jun 2027 11:05:43.251   04 Jun 2027 11:07:13.881            90.630                Sumatra          2832.188
       350   04 Jun 2027 11:22:25.844   04 Jun 2027 11:22:46.479            20.635                Irkutsk           644.844
       351   04 Jun 2027 11:23:04.693   04 Jun 2027 11:23:41.611            36.918                Irkutsk          1153.687
       352   04 Jun 2027 11:24:11.792   04 Jun 2027 11:25:08.506            56.714                Irkutsk          1772.313
       353   04 Jun 2027 11:25:27.127   04 Jun 2027 11:26:24.270            57.143                Irkutsk          1785.719
       354   04 Jun 2027 11:26:30.127   04 Jun 2027 11:26:34.252             4.125                Norilsk           128.906
       355   04 Jun 2027 11:26:48.381   04 Jun 2027 11:27:06.482            18.101                Norilsk           565.656
       356   04 Jun 2027 11:27:21.871   04 Jun 2027 11:28:32.385            70.514                Novosib          2203.563
       357   04 Jun 2027 12:03:13.304   04 Jun 2027 12:03:31.949            18.645            RioGallegos           582.656
       358   04 Jun 2027 12:37:28.731   04 Jun 2027 12:38:33.277            64.546                Sumatra          2017.062
       359   04 Jun 2027 12:45:39.345   04 Jun 2027 12:46:18.813            39.468                  Delhi          1233.375
       360   04 Jun 2027 12:52:07.060   04 Jun 2027 12:55:19.984           192.924                Novosib          6028.875
       361   04 Jun 2027 14:22:23.391   04 Jun 2027 14:25:30.462           187.071                  Delhi          5845.969
       362   04 Jun 2027 14:26:22.466   04 Jun 2027 14:27:31.828            69.362                  Delhi          2167.562
       363   04 Jun 2027 14:30:47.197   04 Jun 2027 14:31:52.124            64.927                Novosib          2028.969
       364   04 Jun 2027 14:33:05.809   04 Jun 2027 14:35:06.880           121.071                Novosib          3783.469
       365   04 Jun 2027 16:05:44.256   04 Jun 2027 16:07:38.234           113.978                 Moscow          3561.813
       366   04 Jun 2027 16:09:15.519   04 Jun 2027 16:09:23.667             8.148              Murmansk1           254.625
       367   04 Jun 2027 16:09:59.590   04 Jun 2027 16:11:01.935            62.345              Murmansk2          1948.281
       368   04 Jun 2027 16:15:53.493   04 Jun 2027 16:18:26.531           153.038                Norilsk          4782.438
       369   04 Jun 2027 17:19:16.812   04 Jun 2027 17:20:50.173            93.361               CapeTown          2917.531
       370   04 Jun 2027 17:28:18.688   04 Jun 2027 17:28:46.472            27.784               CapeTown           868.250
       371   04 Jun 2027 17:44:54.165   04 Jun 2027 17:45:28.649            34.484                 Moscow          1077.625
       372   04 Jun 2027 17:46:31.527   04 Jun 2027 17:49:39.357           187.830                 Moscow          5869.687
       373   04 Jun 2027 17:52:01.736   04 Jun 2027 17:52:09.849             8.113              Murmansk2           253.531
       374   04 Jun 2027 17:56:06.465   04 Jun 2027 17:56:58.522            52.057              Murmansk1          1626.781
       375   04 Jun 2027 18:55:38.126   04 Jun 2027 18:57:03.711            85.585               CapeTown          2674.531
       376   04 Jun 2027 18:59:05.426   04 Jun 2027 19:00:11.849            66.423               CapeTown          2075.719
       377   04 Jun 2027 19:27:51.763   04 Jun 2027 19:32:24.677           272.914              Murmansk2          8528.563
       378   04 Jun 2027 19:32:27.504   04 Jun 2027 19:33:09.038            41.534              Murmansk1          1297.937
       379   04 Jun 2027 19:38:20.017   04 Jun 2027 19:40:03.060           103.043               Magadan2          3220.094
       380   04 Jun 2027 21:11:32.935   04 Jun 2027 21:15:16.178           223.243                Anadyr1          6976.344
       381   04 Jun 2027 21:15:23.128   04 Jun 2027 21:16:43.899            80.771                Anadyr2          2524.094
       382   04 Jun 2027 21:16:53.380   04 Jun 2027 21:18:35.981           102.601               Magadan2          3206.281
       383   04 Jun 2027 21:18:35.981   04 Jun 2027 21:18:54.573            18.592               Magadan1           581.000
       384   04 Jun 2027 21:20:52.801   04 Jun 2027 21:21:19.901            27.100               Magadan1           846.875
       385   04 Jun 2027 22:06:30.949   04 Jun 2027 22:09:24.325           173.376            RioGallegos          5418.000
       386   04 Jun 2027 22:12:27.834   04 Jun 2027 22:13:02.632            34.798            RioGallegos          1087.438
       387   04 Jun 2027 22:47:16.724   04 Jun 2027 22:48:17.670            60.946                Anadyr1          1904.563
       388   04 Jun 2027 22:49:15.354   04 Jun 2027 22:49:30.111            14.757                Anadyr1           461.156
       389   04 Jun 2027 22:49:49.461   04 Jun 2027 22:51:40.127           110.666               Magadan2          3458.312
       390   04 Jun 2027 22:51:55.476   04 Jun 2027 22:52:08.510            13.034               Magadan2           407.313
       391   04 Jun 2027 22:52:53.245   04 Jun 2027 22:53:00.848             7.603                Norilsk           237.594
       392   04 Jun 2027 22:53:02.734   04 Jun 2027 22:53:35.631            32.897               Magadan2          1028.031
       393   04 Jun 2027 22:53:50.899   04 Jun 2027 22:54:37.136            46.237                Irkutsk          1444.906
       394   04 Jun 2027 23:01:57.656   04 Jun 2027 23:02:35.501            37.845                Irkutsk          1182.656
       395   04 Jun 2027 23:07:57.584   04 Jun 2027 23:09:21.344            83.760                Sumatra          2617.500
       396   04 Jun 2027 23:13:48.910   04 Jun 2027 23:14:06.397            17.487                Sumatra           546.469
       397   04 Jun 2027 23:44:45.693   04 Jun 2027 23:44:50.447             4.754            RioGallegos           148.563
       398   04 Jun 2027 23:45:34.909   04 Jun 2027 23:45:48.784            13.875            RioGallegos           433.594
       399   04 Jun 2027 23:52:40.516   04 Jun 2027 23:53:05.327            24.811            RioGallegos           775.344
       400   05 Jun 2027 00:22:17.683   05 Jun 2027 00:23:34.781            77.098                Anadyr1          2409.313
       401   05 Jun 2027 00:23:34.781   05 Jun 2027 00:23:46.096            11.315                Anadyr2           353.594
       402   05 Jun 2027 00:24:12.251   05 Jun 2027 00:24:36.907            24.656                Anadyr2           770.500
       403   05 Jun 2027 00:24:52.882   05 Jun 2027 00:25:01.686             8.804                Anadyr2           275.125
       404   05 Jun 2027 00:25:17.601   05 Jun 2027 00:27:00.636           103.035                Norilsk          3219.844
       405   05 Jun 2027 00:27:58.946   05 Jun 2027 00:28:11.476            12.530               Magadan2           391.563
       406   05 Jun 2027 00:29:09.896   05 Jun 2027 00:31:18.704           128.808                Irkutsk          4025.250
       407   05 Jun 2027 00:31:38.881   05 Jun 2027 00:32:07.029            28.148                Novosib           879.625
       408   05 Jun 2027 00:37:55.298   05 Jun 2027 00:40:44.624           169.326                  Delhi          5291.438
       409   05 Jun 2027 01:19:14.402   05 Jun 2027 01:19:21.048             6.646            RioGallegos           207.688
       410   05 Jun 2027 01:20:10.726   05 Jun 2027 01:21:03.106            52.380            RioGallegos          1636.875
       411   05 Jun 2027 01:28:14.004   05 Jun 2027 01:28:44.400            30.396            RioGallegos           949.875
       412   05 Jun 2027 01:56:04.986   05 Jun 2027 01:56:16.710            11.724                Anadyr1           366.375
       413   05 Jun 2027 01:56:38.042   05 Jun 2027 01:56:50.337            12.295                Anadyr2           384.219
       414   05 Jun 2027 01:56:50.337   05 Jun 2027 01:57:09.999            19.662                Anadyr1           614.437
       415   05 Jun 2027 01:57:24.569   05 Jun 2027 01:58:22.954            58.385                Anadyr2          1824.531
       416   05 Jun 2027 02:01:18.289   05 Jun 2027 02:02:41.115            82.826                Norilsk          2588.313
       417   05 Jun 2027 02:03:49.052   05 Jun 2027 02:04:29.299            40.247              Murmansk1          1257.719
       418   05 Jun 2027 02:05:04.591   05 Jun 2027 02:05:42.438            37.847                Novosib          1182.719
       419   05 Jun 2027 02:06:30.132   05 Jun 2027 02:07:26.927            56.795                Irkutsk          1774.844
       420   05 Jun 2027 02:10:42.054   05 Jun 2027 02:10:48.046             5.992                Novosib           187.250
       421   05 Jun 2027 02:11:33.287   05 Jun 2027 02:12:14.686            41.399                Irkutsk          1293.719
       422   05 Jun 2027 02:17:01.620   05 Jun 2027 02:17:24.482            22.862                  Delhi           714.438
       423   05 Jun 2027 02:20:41.682   05 Jun 2027 02:21:06.273            24.591                  Delhi           768.469
       424   05 Jun 2027 02:55:19.673   05 Jun 2027 02:56:20.752            61.079            RioGallegos          1908.719
       425   05 Jun 2027 02:57:12.782   05 Jun 2027 02:58:09.924            57.142            RioGallegos          1785.688
       426   05 Jun 2027 02:58:51.262   05 Jun 2027 02:59:11.458            20.196            RioGallegos           631.125
       427   05 Jun 2027 03:46:22.684   05 Jun 2027 03:46:44.595            21.911                Norilsk           684.719
       428   05 Jun 2027 03:46:48.925   05 Jun 2027 03:48:02.726            73.801                Norilsk          2306.281
       429   05 Jun 2027 03:48:12.869   05 Jun 2027 03:49:42.961            90.092              Murmansk1          2815.375
       430   05 Jun 2027 03:49:48.287   05 Jun 2027 03:50:42.345            54.058              Murmansk2          1689.312
       431   05 Jun 2027 05:23:48.097   05 Jun 2027 05:24:26.067            37.970                 Moscow          1186.562
       432   05 Jun 2027 05:25:01.527   05 Jun 2027 05:25:19.114            17.587                 Moscow           549.594
       433   05 Jun 2027 05:27:35.750   05 Jun 2027 05:27:45.048             9.298                 Moscow           290.563
       434   05 Jun 2027 05:28:31.569   05 Jun 2027 05:28:34.527             2.958                 Moscow            92.437
       435   05 Jun 2027 05:29:41.894   05 Jun 2027 05:30:09.209            27.315                 Moscow           853.594
       436   05 Jun 2027 05:42:43.609   05 Jun 2027 05:44:35.474           111.865               CapeTown          3495.781
       437   05 Jun 2027 06:45:40.753   05 Jun 2027 06:45:47.968             7.215               Magadan1           225.469
       438   05 Jun 2027 06:45:58.054   05 Jun 2027 06:46:28.008            29.954               Magadan2           936.062
       439   05 Jun 2027 06:46:34.942   05 Jun 2027 06:47:40.894            65.952               Magadan2          2061.000
       440   05 Jun 2027 06:47:57.996   05 Jun 2027 06:48:33.985            35.989               Magadan1          1124.656
       441   05 Jun 2027 06:49:09.911   05 Jun 2027 06:49:58.294            48.383                Anadyr2          1511.969
       442   05 Jun 2027 08:21:45.898   05 Jun 2027 08:22:20.808            34.910                Anadyr2          1090.937
       443   05 Jun 2027 08:22:20.808   05 Jun 2027 08:22:50.199            29.391                Anadyr1           918.469
       444   05 Jun 2027 08:22:52.809   05 Jun 2027 08:23:33.246            40.437                Anadyr2          1263.656
       445   05 Jun 2027 08:24:01.388   05 Jun 2027 08:24:51.844            50.456               Magadan2          1576.750
       446   05 Jun 2027 08:25:03.286   05 Jun 2027 08:25:51.568            48.282                Anadyr1          1508.813
       447   05 Jun 2027 09:04:18.875   05 Jun 2027 09:04:56.684            37.809            RioGallegos          1181.531
       448   05 Jun 2027 09:57:01.314   05 Jun 2027 09:57:58.018            56.704               Magadan1          1772.000
       449   05 Jun 2027 09:58:08.618   05 Jun 2027 09:58:15.120             6.502               Magadan2           203.188
       450   05 Jun 2027 09:58:54.436   05 Jun 2027 09:59:41.154            46.718               Magadan1          1459.937
       451   05 Jun 2027 09:59:57.538   05 Jun 2027 10:01:50.832           113.294               Magadan1          3540.438
       452   05 Jun 2027 10:02:27.543   05 Jun 2027 10:03:04.269            36.726                Irkutsk          1147.688
       453   05 Jun 2027 10:04:14.277   05 Jun 2027 10:04:21.318             7.041                Norilsk           220.031
       454   05 Jun 2027 10:38:10.400   05 Jun 2027 10:39:14.256            63.856            RioGallegos          1995.500
       455   05 Jun 2027 11:13:45.604   05 Jun 2027 11:14:59.966            74.362                Sumatra          2323.812
       456   05 Jun 2027 11:34:08.925   05 Jun 2027 11:34:51.271            42.346                Irkutsk          1323.313
       457   05 Jun 2027 11:35:08.558   05 Jun 2027 11:35:24.909            16.351                Irkutsk           510.969
       458   05 Jun 2027 11:35:37.156   05 Jun 2027 11:36:04.223            27.067                Novosib           845.844
       459   05 Jun 2027 11:36:32.608   05 Jun 2027 11:36:53.428            20.820                Norilsk           650.625
       460   05 Jun 2027 11:37:03.452   05 Jun 2027 11:37:32.676            29.224                Irkutsk           913.250
       461   05 Jun 2027 11:38:03.818   05 Jun 2027 11:38:31.495            27.677                Norilsk           864.906
       462   05 Jun 2027 11:38:33.626   05 Jun 2027 11:38:41.292             7.666                Novosib           239.562
       463   05 Jun 2027 11:38:47.856   05 Jun 2027 11:39:14.335            26.479                Norilsk           827.469
       464   05 Jun 2027 11:39:27.493   05 Jun 2027 11:40:28.975            61.482                Novosib          1921.312
       465   05 Jun 2027 12:15:42.349   05 Jun 2027 12:16:24.416            42.067            RioGallegos          1314.594
       466   05 Jun 2027 12:49:55.269   05 Jun 2027 12:51:01.693            66.424                Sumatra          2075.750
       467   05 Jun 2027 12:53:16.485   05 Jun 2027 12:53:38.390            21.905                Sumatra           684.531
       468   05 Jun 2027 12:54:10.733   05 Jun 2027 12:55:10.063            59.330                Sumatra          1854.062
       469   05 Jun 2027 13:04:50.677   05 Jun 2027 13:05:29.341            38.664                Novosib          1208.250
       470   05 Jun 2027 13:07:19.975   05 Jun 2027 13:08:03.429            43.454                Novosib          1357.937
       471   05 Jun 2027 13:10:25.985   05 Jun 2027 13:10:51.151            25.166                Norilsk           786.437
       472   05 Jun 2027 13:16:15.537   05 Jun 2027 13:16:39.962            24.425                Norilsk           763.281
       473   05 Jun 2027 14:35:04.693   05 Jun 2027 14:37:06.261           121.568                  Delhi          3799.000
       474   05 Jun 2027 14:38:18.591   05 Jun 2027 14:39:57.666            99.075                  Delhi          3096.094
       475   05 Jun 2027 14:44:00.117   05 Jun 2027 14:44:52.202            52.085                Novosib          1627.656
       476   05 Jun 2027 14:46:57.255   05 Jun 2027 14:47:10.067            12.812                Norilsk           400.375
       477   05 Jun 2027 14:47:54.658   05 Jun 2027 14:48:26.755            32.097                Norilsk          1003.031
       478   05 Jun 2027 14:48:26.880   05 Jun 2027 14:50:55.108           148.228                Novosib          4632.125
       479   05 Jun 2027 16:00:06.022   05 Jun 2027 16:00:38.798            32.776               CapeTown          1024.250
       480   05 Jun 2027 16:17:55.560   05 Jun 2027 16:19:02.642            67.082                 Moscow          2096.312
       481   05 Jun 2027 16:21:25.245   05 Jun 2027 16:21:51.345            26.100              Murmansk2           815.625
       482   05 Jun 2027 16:21:51.345   05 Jun 2027 16:22:19.767            28.422              Murmansk1           888.187
