uniorb/output/strategy_4/Drop/Drop_KinoSat_111308.txt

KinoSat_111308
-------------------------
    Access    *     Start Time (UTCG)     *     Stop Time (UTCG)  *   Duration (s)        *       Station  *  Data (Mbytes)
         1   01 Jun 2027 03:00:09.650   01 Jun 2027 03:00:12.057             2.407                Norilsk            75.219
         2   01 Jun 2027 03:00:39.709   01 Jun 2027 03:01:48.740            69.031                Novosib          2157.219
         3   01 Jun 2027 03:01:51.327   01 Jun 2027 03:02:16.045            24.718                 Moscow           772.437
         4   01 Jun 2027 03:02:19.613   01 Jun 2027 03:03:02.562            42.949              Murmansk2          1342.156
         5   01 Jun 2027 03:03:02.562   01 Jun 2027 03:03:09.986             7.424              Murmansk1           232.000
         6   01 Jun 2027 03:03:26.731   01 Jun 2027 03:04:21.230            54.499                Novosib          1703.094
         7   01 Jun 2027 03:04:28.110   01 Jun 2027 03:05:07.676            39.566              Murmansk2          1236.438
         8   01 Jun 2027 03:05:53.130   01 Jun 2027 03:08:08.183           135.053                 Moscow          4220.406
         9   01 Jun 2027 03:20:35.886   01 Jun 2027 03:23:56.629           200.743               CapeTown          6273.219
        10   01 Jun 2027 03:24:36.533   01 Jun 2027 03:24:59.739            23.206               CapeTown           725.187
        11   01 Jun 2027 04:24:22.622   01 Jun 2027 04:27:48.975           206.353                Anadyr1          6448.531
        12   01 Jun 2027 04:35:53.877   01 Jun 2027 04:37:04.579            70.702                Norilsk          2209.437
        13   01 Jun 2027 04:37:26.968   01 Jun 2027 04:38:05.490            38.522              Murmansk1          1203.813
        14   01 Jun 2027 05:59:49.449   01 Jun 2027 06:00:03.018            13.569                Anadyr1           424.031
        15   01 Jun 2027 06:00:16.963   01 Jun 2027 06:01:56.497            99.534                Anadyr1          3110.437
        16   01 Jun 2027 06:02:06.920   01 Jun 2027 06:04:01.692           114.772               Magadan2          3586.625
        17   01 Jun 2027 06:04:01.692   01 Jun 2027 06:05:08.761            67.069               Magadan1          2095.906
        18   01 Jun 2027 06:46:04.886   01 Jun 2027 06:46:30.371            25.485            RioGallegos           796.406
        19   01 Jun 2027 06:47:43.470   01 Jun 2027 06:48:45.117            61.647            RioGallegos          1926.469
        20   01 Jun 2027 07:35:52.443   01 Jun 2027 07:38:57.762           185.319               Magadan2          5791.219
        21   01 Jun 2027 07:39:00.466   01 Jun 2027 07:39:54.459            53.993                Anadyr2          1687.281
        22   01 Jun 2027 07:39:54.459   01 Jun 2027 07:40:28.436            33.977                Anadyr1          1061.781
        23   01 Jun 2027 09:11:47.707   01 Jun 2027 09:14:25.916           158.209               Magadan2          4944.031
        24   01 Jun 2027 09:14:25.916   01 Jun 2027 09:15:27.548            61.632               Magadan1          1926.000
        25   01 Jun 2027 09:16:10.896   01 Jun 2027 09:16:14.105             3.209               Magadan1           100.281
        26   01 Jun 2027 09:16:55.432   01 Jun 2027 09:17:01.773             6.341                Irkutsk           198.156
        27   01 Jun 2027 09:17:31.014   01 Jun 2027 09:19:20.172           109.158              Murmansk2          3411.188
        28   01 Jun 2027 09:19:20.172   01 Jun 2027 09:20:16.885            56.713              Murmansk1          1772.281
        29   01 Jun 2027 09:51:45.424   01 Jun 2027 09:55:46.599           241.175            RioGallegos          7536.719
        30   01 Jun 2027 10:26:43.745   01 Jun 2027 10:28:59.129           135.384                Sumatra          4230.750
        31   01 Jun 2027 10:35:11.523   01 Jun 2027 10:36:14.059            62.536                Sumatra          1954.250
        32   01 Jun 2027 10:49:05.013   01 Jun 2027 10:51:21.849           136.836                Irkutsk          4276.125
        33   01 Jun 2027 10:51:37.702   01 Jun 2027 10:53:02.204            84.502                Norilsk          2640.688
        34   01 Jun 2027 11:31:17.931   01 Jun 2027 11:31:52.508            34.577            RioGallegos          1080.531
        35   01 Jun 2027 11:32:23.959   01 Jun 2027 11:32:44.108            20.149            RioGallegos           629.656
        36   01 Jun 2027 11:33:54.933   01 Jun 2027 11:35:05.141            70.208            RioGallegos          2194.000
        37   01 Jun 2027 11:35:26.371   01 Jun 2027 11:36:01.449            35.078            RioGallegos          1096.188
        38   01 Jun 2027 12:05:25.338   01 Jun 2027 12:06:48.342            83.004                Sumatra          2593.875
        39   01 Jun 2027 12:09:18.008   01 Jun 2027 12:10:31.646            73.638                Sumatra          2301.188
        40   01 Jun 2027 12:18:16.245   01 Jun 2027 12:18:35.890            19.645                Novosib           613.906
        41   01 Jun 2027 12:19:15.828   01 Jun 2027 12:19:43.960            28.132                Novosib           879.125
        42   01 Jun 2027 12:20:45.782   01 Jun 2027 12:22:55.283           129.501                Novosib          4046.906
        43   01 Jun 2027 12:23:26.430   01 Jun 2027 12:25:06.488           100.058                Irkutsk          3126.813
        44   01 Jun 2027 12:25:12.311   01 Jun 2027 12:26:18.211            65.900                Norilsk          2059.375
        45   01 Jun 2027 13:51:27.882   01 Jun 2027 13:54:07.243           159.361                  Delhi          4980.031
        46   01 Jun 2027 13:56:32.511   01 Jun 2027 13:57:41.261            68.750                 Moscow          2148.438
        47   01 Jun 2027 13:58:38.769   01 Jun 2027 14:00:24.069           105.300              Murmansk1          3290.625
        48   01 Jun 2027 14:00:24.069   01 Jun 2027 14:01:08.250            44.181              Murmansk2          1380.656
        49   01 Jun 2027 14:01:23.237   01 Jun 2027 14:03:03.272           100.035                Novosib          3126.094
        50   01 Jun 2027 14:05:07.883   01 Jun 2027 14:06:08.788            60.905                Norilsk          1903.281
        51   01 Jun 2027 15:10:35.692   01 Jun 2027 15:10:41.674             5.982               CapeTown           186.938
        52   01 Jun 2027 15:11:45.252   01 Jun 2027 15:13:15.344            90.092               CapeTown          2815.375
        53   01 Jun 2027 15:32:02.341   01 Jun 2027 15:32:05.841             3.500                 Moscow           109.375
        54   01 Jun 2027 15:32:48.054   01 Jun 2027 15:33:19.481            31.427                 Moscow           982.094
        55   01 Jun 2027 15:35:22.634   01 Jun 2027 15:36:17.209            54.575              Murmansk2          1705.469
        56   01 Jun 2027 15:36:50.980   01 Jun 2027 15:37:17.651            26.671              Murmansk2           833.469
        57   01 Jun 2027 15:49:55.381   01 Jun 2027 15:51:21.375            85.994                Anadyr2          2687.313
        58   01 Jun 2027 15:51:56.264   01 Jun 2027 15:52:31.061            34.797                Anadyr1          1087.406
        59   01 Jun 2027 15:52:54.072   01 Jun 2027 15:53:02.850             8.778                Anadyr1           274.313
        60   01 Jun 2027 16:44:39.023   01 Jun 2027 16:47:03.639           144.616               CapeTown          4519.250
        61   01 Jun 2027 17:14:14.057   01 Jun 2027 17:17:26.996           192.939              Murmansk2          6029.344
        62   01 Jun 2027 17:18:05.531   01 Jun 2027 17:19:29.162            83.631              Murmansk2          2613.469
        63   01 Jun 2027 17:25:17.933   01 Jun 2027 17:25:33.791            15.858                Anadyr1           495.563
        64   01 Jun 2027 17:26:31.215   01 Jun 2027 17:26:34.175             2.960                Anadyr1            92.500
        65   01 Jun 2027 17:29:18.527   01 Jun 2027 17:30:05.062            46.535               Magadan1          1454.219
        66   01 Jun 2027 17:30:47.483   01 Jun 2027 17:31:17.989            30.506               Magadan1           953.312
        67   01 Jun 2027 17:31:41.544   01 Jun 2027 17:32:12.896            31.352               Magadan2           979.750
        68   01 Jun 2027 19:01:11.433   01 Jun 2027 19:03:06.862           115.429                Anadyr2          3607.156
        69   01 Jun 2027 19:03:16.260   01 Jun 2027 19:05:21.501           125.241                Anadyr1          3913.781
        70   01 Jun 2027 19:05:48.145   01 Jun 2027 19:07:18.366            90.221               Magadan2          2819.406
        71   01 Jun 2027 19:07:18.366   01 Jun 2027 19:08:43.996            85.630               Magadan1          2675.938
        72   01 Jun 2027 20:37:04.844   01 Jun 2027 20:40:48.356           223.512                Anadyr1          6984.750
        73   01 Jun 2027 20:40:58.301   01 Jun 2027 20:41:09.081            10.780                Norilsk           336.875
        74   01 Jun 2027 20:41:15.752   01 Jun 2027 20:43:26.636           130.884               Magadan1          4090.125
        75   01 Jun 2027 20:43:26.636   01 Jun 2027 20:44:11.475            44.839               Magadan2          1401.219
        76   01 Jun 2027 20:45:40.722   01 Jun 2027 20:46:21.391            40.669                Irkutsk          1270.906
        77   01 Jun 2027 20:47:04.475   01 Jun 2027 20:47:57.111            52.636                Irkutsk          1644.875
        78   01 Jun 2027 21:31:19.450   01 Jun 2027 21:32:38.363            78.913            RioGallegos          2466.031
        79   01 Jun 2027 21:37:10.071   01 Jun 2027 21:37:27.221            17.150            RioGallegos           535.937
        80   01 Jun 2027 21:40:43.030   01 Jun 2027 21:40:48.272             5.242            RioGallegos           163.813
        81   01 Jun 2027 22:12:35.712   01 Jun 2027 22:14:58.570           142.858                Anadyr1          4464.313
        82   01 Jun 2027 22:15:09.781   01 Jun 2027 22:16:16.801            67.020                Norilsk          2094.375
        83   01 Jun 2027 22:16:47.897   01 Jun 2027 22:17:32.315            44.418               Magadan1          1388.063
        84   01 Jun 2027 22:18:59.701   01 Jun 2027 22:19:19.203            19.502                Irkutsk           609.437
        85   01 Jun 2027 22:19:29.421   01 Jun 2027 22:20:08.632            39.211                Irkutsk          1225.344
        86   01 Jun 2027 22:20:52.396   01 Jun 2027 22:20:55.485             3.089                Novosib            96.531
        87   01 Jun 2027 22:22:31.013   01 Jun 2027 22:22:36.752             5.739                Novosib           179.344
        88   01 Jun 2027 22:22:45.619   01 Jun 2027 22:22:58.998            13.379                Novosib           418.094
        89   01 Jun 2027 22:23:11.623   01 Jun 2027 22:23:17.815             6.192                Novosib           193.500
        90   01 Jun 2027 22:24:24.420   01 Jun 2027 22:26:35.390           130.970                Novosib          4092.812
        91   01 Jun 2027 22:42:37.124   01 Jun 2027 22:42:56.752            19.628                Sumatra           613.375
        92   01 Jun 2027 23:47:08.008   01 Jun 2027 23:49:06.729           118.721                Anadyr1          3710.031
        93   01 Jun 2027 23:49:49.179   01 Jun 2027 23:50:04.690            15.511                Anadyr1           484.719
        94   01 Jun 2027 23:50:54.405   01 Jun 2027 23:51:14.131            19.726                Norilsk           616.438
        95   01 Jun 2027 23:51:32.785   01 Jun 2027 23:52:24.413            51.628               Magadan2          1613.375
        96   01 Jun 2027 23:52:24.413   01 Jun 2027 23:52:45.101            20.688               Magadan1           646.500
        97   01 Jun 2027 23:54:48.336   01 Jun 2027 23:56:09.413            81.077                Irkutsk          2533.656
        98   01 Jun 2027 23:57:14.260   01 Jun 2027 23:57:36.886            22.626                Novosib           707.063
        99   01 Jun 2027 23:57:45.215   01 Jun 2027 23:58:33.907            48.692                Irkutsk          1521.625
       100   02 Jun 2027 00:02:22.220   02 Jun 2027 00:03:15.740            53.520                  Delhi          1672.500
       101   02 Jun 2027 00:04:48.792   02 Jun 2027 00:05:04.291            15.499                  Delhi           484.344
       102   02 Jun 2027 00:09:45.121   02 Jun 2027 00:10:00.937            15.816                  Delhi           494.250
       103   02 Jun 2027 00:10:40.403   02 Jun 2027 00:11:49.489            69.086                  Delhi          2158.937
       104   02 Jun 2027 01:20:33.515   02 Jun 2027 01:20:46.734            13.219                Anadyr2           413.094
       105   02 Jun 2027 01:21:42.861   02 Jun 2027 01:22:22.066            39.205                Anadyr2          1225.156
       106   02 Jun 2027 01:22:22.066   02 Jun 2027 01:22:47.075            25.009                Anadyr1           781.531
       107   02 Jun 2027 01:23:22.505   02 Jun 2027 01:23:32.577            10.072                Anadyr1           314.750
       108   02 Jun 2027 01:23:46.303   02 Jun 2027 01:23:57.994            11.691                Anadyr2           365.344
       109   02 Jun 2027 01:25:49.196   02 Jun 2027 01:26:15.601            26.405                Anadyr1           825.156
       110   02 Jun 2027 01:26:44.029   02 Jun 2027 01:28:48.316           124.287               Magadan2          3883.969
       111   02 Jun 2027 01:29:10.659   02 Jun 2027 01:30:36.624            85.965              Murmansk1          2686.406
       112   02 Jun 2027 01:30:36.624   02 Jun 2027 01:31:34.658            58.034              Murmansk2          1813.562
       113   02 Jun 2027 01:35:42.385   02 Jun 2027 01:36:03.488            21.103                 Moscow           659.469
       114   02 Jun 2027 01:39:39.925   02 Jun 2027 01:39:49.745             9.820                Novosib           306.875
       115   02 Jun 2027 01:42:22.142   02 Jun 2027 01:42:47.572            25.430                  Delhi           794.687
       116   02 Jun 2027 01:44:23.844   02 Jun 2027 01:44:58.439            34.595                  Delhi          1081.094
       117   02 Jun 2027 02:02:27.599   02 Jun 2027 02:02:56.378            28.779               CapeTown           899.344
       118   02 Jun 2027 02:54:04.688   02 Jun 2027 02:56:18.851           134.163                Anadyr2          4192.594
       119   02 Jun 2027 02:56:18.851   02 Jun 2027 02:56:42.100            23.249                Anadyr1           726.531
       120   02 Jun 2027 02:58:21.098   02 Jun 2027 02:58:31.186            10.088                Anadyr2           315.250
       121   02 Jun 2027 02:58:47.262   02 Jun 2027 02:59:41.526            54.264               Magadan1          1695.750
       122   02 Jun 2027 03:12:14.750   02 Jun 2027 03:12:53.939            39.189                Norilsk          1224.656
       123   02 Jun 2027 03:12:57.765   02 Jun 2027 03:13:03.400             5.635              Murmansk2           176.094
       124   02 Jun 2027 03:13:14.552   02 Jun 2027 03:13:33.362            18.810                 Moscow           587.812
       125   02 Jun 2027 03:13:40.814   02 Jun 2027 03:14:25.595            44.781                Norilsk          1399.406
       126   02 Jun 2027 03:14:29.752   02 Jun 2027 03:15:49.339            79.587                Novosib          2487.094
       127   02 Jun 2027 03:15:53.446   02 Jun 2027 03:17:22.856            89.410                 Moscow          2794.062
       128   02 Jun 2027 03:17:46.548   02 Jun 2027 03:18:35.376            48.828                 Moscow          1525.875
       129   02 Jun 2027 03:32:22.635   02 Jun 2027 03:35:55.470           212.835               CapeTown          6651.094
       130   02 Jun 2027 04:28:52.608   02 Jun 2027 04:31:18.827           146.219                Anadyr2          4569.344
       131   02 Jun 2027 04:32:12.452   02 Jun 2027 04:32:27.504            15.052                Anadyr1           470.375
       132   02 Jun 2027 04:33:25.097   02 Jun 2027 04:33:42.385            17.288               Magadan1           540.250
       133   02 Jun 2027 04:35:15.359   02 Jun 2027 04:35:33.821            18.462               Magadan2           576.938
       134   02 Jun 2027 04:35:44.972   02 Jun 2027 04:37:30.192           105.220               Magadan1          3288.125
       135   02 Jun 2027 04:39:27.833   02 Jun 2027 04:39:47.164            19.331                Norilsk           604.094
       136   02 Jun 2027 06:13:08.086   02 Jun 2027 06:15:06.117           118.031                Anadyr2          3688.469
       137   02 Jun 2027 06:15:27.436   02 Jun 2027 06:15:38.132            10.696               Magadan2           334.250
       138   02 Jun 2027 06:16:04.962   02 Jun 2027 06:16:28.581            23.619                Anadyr2           738.094
       139   02 Jun 2027 06:16:36.226   02 Jun 2027 06:17:18.192            41.966                Norilsk          1311.438
       140   02 Jun 2027 07:46:36.319   02 Jun 2027 07:48:12.388            96.069                Anadyr1          3002.156
       141   02 Jun 2027 07:49:30.442   02 Jun 2027 07:52:53.225           202.783                Anadyr2          6336.969
       142   02 Jun 2027 09:23:47.296   02 Jun 2027 09:26:35.375           168.079               Magadan2          5252.469
       143   02 Jun 2027 09:26:57.553   02 Jun 2027 09:27:09.334            11.781                Irkutsk           368.156
       144   02 Jun 2027 09:28:11.866   02 Jun 2027 09:28:14.447             2.581                Irkutsk            80.656
       145   02 Jun 2027 09:28:16.251   02 Jun 2027 09:28:17.080             0.829                Norilsk            25.906
       146   02 Jun 2027 09:28:36.961   02 Jun 2027 09:29:15.133            38.172                Novosib          1192.875
       147   02 Jun 2027 10:03:53.470   02 Jun 2027 10:04:37.828            44.358            RioGallegos          1386.188
       148   02 Jun 2027 10:38:39.187   02 Jun 2027 10:39:39.527            60.340                Sumatra          1885.625
       149   02 Jun 2027 10:51:34.860   02 Jun 2027 10:52:03.957            29.097                  Delhi           909.281
       150   02 Jun 2027 10:59:41.038   02 Jun 2027 11:00:07.798            26.760                Irkutsk           836.250
       151   02 Jun 2027 11:00:46.628   02 Jun 2027 11:00:48.495             1.867                Novosib            58.344
       152   02 Jun 2027 11:01:08.920   02 Jun 2027 11:01:33.428            24.508                Novosib           765.875
       153   02 Jun 2027 11:02:12.488   02 Jun 2027 11:02:33.056            20.568                Novosib           642.750
       154   02 Jun 2027 11:02:35.608   02 Jun 2027 11:02:45.112             9.504                Irkutsk           297.000
       155   02 Jun 2027 11:02:50.801   02 Jun 2027 11:03:22.085            31.284                Norilsk           977.625
       156   02 Jun 2027 11:03:24.537   02 Jun 2027 11:03:54.659            30.122                Irkutsk           941.313
       157   02 Jun 2027 11:04:11.031   02 Jun 2027 11:04:35.861            24.830                Novosib           775.938
       158   02 Jun 2027 11:04:43.305   02 Jun 2027 11:05:58.360            75.055                Novosib          2345.469
       159   02 Jun 2027 12:19:14.714   02 Jun 2027 12:21:33.511           138.797                Sumatra          4337.406
       160   02 Jun 2027 12:30:36.184   02 Jun 2027 12:30:44.384             8.200                Novosib           256.250
       161   02 Jun 2027 12:31:17.837   02 Jun 2027 12:31:50.501            32.664                Novosib          1020.750
       162   02 Jun 2027 12:32:42.372   02 Jun 2027 12:32:58.181            15.809                Novosib           494.031
       163   02 Jun 2027 12:33:14.479   02 Jun 2027 12:33:27.112            12.633                Novosib           394.781
       164   02 Jun 2027 12:34:39.870   02 Jun 2027 12:35:14.081            34.211                Norilsk          1069.094
       165   02 Jun 2027 12:35:35.389   02 Jun 2027 12:35:42.182             6.793              Murmansk2           212.281
       166   02 Jun 2027 12:38:17.222   02 Jun 2027 12:38:30.469            13.247                Norilsk           413.969
       167   02 Jun 2027 12:42:03.939   02 Jun 2027 12:42:16.311            12.372                Norilsk           386.625
       168   02 Jun 2027 14:07:15.810   02 Jun 2027 14:10:20.579           184.769                 Moscow          5774.031
       169   02 Jun 2027 14:10:32.660   02 Jun 2027 14:11:03.910            31.250                 Moscow           976.562
       170   02 Jun 2027 14:11:21.072   02 Jun 2027 14:13:12.320           111.248              Murmansk2          3476.500
       171   02 Jun 2027 14:14:01.842   02 Jun 2027 14:14:28.711            26.869              Murmansk2           839.656
       172   02 Jun 2027 14:14:30.505   02 Jun 2027 14:14:49.363            18.858                Norilsk           589.313
       173   02 Jun 2027 14:16:07.307   02 Jun 2027 14:16:33.857            26.550                Norilsk           829.687
       174   02 Jun 2027 14:18:27.780   02 Jun 2027 14:19:15.687            47.907                Norilsk          1497.094
       175   02 Jun 2027 15:22:02.531   02 Jun 2027 15:25:00.181           177.650               CapeTown          5551.563
       176   02 Jun 2027 15:44:25.555   02 Jun 2027 15:44:53.949            28.394                 Moscow           887.313
       177   02 Jun 2027 15:47:38.341   02 Jun 2027 15:48:19.172            40.831              Murmansk2          1275.969
       178   02 Jun 2027 15:49:11.034   02 Jun 2027 15:49:53.875            42.841              Murmansk1          1338.781
       179   02 Jun 2027 16:01:48.203   02 Jun 2027 16:03:21.172            92.969                Anadyr2          2905.281
       180   02 Jun 2027 16:03:41.888   02 Jun 2027 16:03:56.760            14.872                Anadyr1           464.750
       181   02 Jun 2027 16:04:30.061   02 Jun 2027 16:05:01.417            31.356                Anadyr1           979.875
       182   02 Jun 2027 16:05:03.807   02 Jun 2027 16:05:39.571            35.764                Anadyr1          1117.625
       183   02 Jun 2027 16:56:42.585   02 Jun 2027 16:57:12.191            29.606               CapeTown           925.187
       184   02 Jun 2027 16:58:55.711   02 Jun 2027 16:59:48.827            53.116               CapeTown          1659.875
       185   02 Jun 2027 17:26:49.432   02 Jun 2027 17:27:47.259            57.827              Murmansk2          1807.094
       186   02 Jun 2027 17:28:01.213   02 Jun 2027 17:28:56.062            54.849              Murmansk2          1714.031
       187   02 Jun 2027 17:29:22.063   02 Jun 2027 17:30:07.451            45.388              Murmansk2          1418.375
       188   02 Jun 2027 17:32:02.043   02 Jun 2027 17:32:15.834            13.791              Murmansk1           430.969
       189   02 Jun 2027 17:37:18.409   02 Jun 2027 17:37:42.124            23.715                Anadyr1           741.094
       190   02 Jun 2027 17:38:08.555   02 Jun 2027 17:38:27.209            18.654                Anadyr2           582.938
       191   02 Jun 2027 17:39:29.997   02 Jun 2027 17:39:32.771             2.774                Anadyr2            86.687
       192   02 Jun 2027 17:39:41.581   02 Jun 2027 17:40:02.703            21.122                Anadyr2           660.062
       193   02 Jun 2027 17:40:52.103   02 Jun 2027 17:42:00.390            68.287               Magadan2          2133.969
       194   02 Jun 2027 17:42:00.390   02 Jun 2027 17:43:03.322            62.932               Magadan1          1966.625
       195   02 Jun 2027 17:47:28.604   02 Jun 2027 17:47:31.279             2.675               Magadan2            83.594
       196   02 Jun 2027 19:13:13.011   02 Jun 2027 19:15:07.315           114.304                Anadyr1          3572.000
       197   02 Jun 2027 19:15:18.262   02 Jun 2027 19:17:13.814           115.552                Anadyr2          3611.000
       198   02 Jun 2027 19:17:31.674   02 Jun 2027 19:19:26.465           114.791               Magadan1          3587.219
       199   02 Jun 2027 19:21:26.967   02 Jun 2027 19:21:38.077            11.110               Magadan1           347.187
       200   02 Jun 2027 19:22:22.835   02 Jun 2027 19:23:16.172            53.337               Magadan1          1666.781
       201   02 Jun 2027 20:49:05.014   02 Jun 2027 20:51:14.213           129.199                Anadyr2          4037.469
       202   02 Jun 2027 20:51:19.933   02 Jun 2027 20:53:14.772           114.839                Anadyr1          3588.719
       203   02 Jun 2027 20:53:15.241   02 Jun 2027 20:54:56.224           100.983                Norilsk          3155.719
       204   02 Jun 2027 20:55:39.505   02 Jun 2027 20:56:17.139            37.634               Magadan2          1176.062
       205   02 Jun 2027 20:56:51.835   02 Jun 2027 20:57:04.230            12.395                Irkutsk           387.344
       206   02 Jun 2027 20:57:28.376   02 Jun 2027 20:57:58.560            30.184                Norilsk           943.250
       207   02 Jun 2027 20:58:37.687   02 Jun 2027 20:59:38.775            61.088                Irkutsk          1909.000
       208   02 Jun 2027 21:00:53.032   02 Jun 2027 21:02:37.536           104.504                Irkutsk          3265.750
       209   02 Jun 2027 21:13:13.827   02 Jun 2027 21:14:11.909            58.082                Sumatra          1815.062
       210   02 Jun 2027 21:16:50.013   02 Jun 2027 21:17:42.471            52.458                Sumatra          1639.312
       211   02 Jun 2027 22:26:26.972   02 Jun 2027 22:26:56.854            29.882                Anadyr1           933.813
       212   02 Jun 2027 22:26:56.945   02 Jun 2027 22:28:56.899           119.954                Norilsk          3748.563
       213   02 Jun 2027 22:30:56.674   02 Jun 2027 22:32:10.275            73.601                Irkutsk          2300.031
       214   02 Jun 2027 22:32:12.774   02 Jun 2027 22:32:42.776            30.002                Novosib           937.562
       215   02 Jun 2027 22:34:51.065   02 Jun 2027 22:35:11.400            20.335                Novosib           635.469
       216   02 Jun 2027 22:44:39.026   02 Jun 2027 22:45:11.502            32.476                Sumatra          1014.875
       217   02 Jun 2027 22:47:03.874   02 Jun 2027 22:47:30.673            26.799                Sumatra           837.469
       218   02 Jun 2027 22:48:42.213   02 Jun 2027 22:49:11.464            29.251                Sumatra           914.094
       219   02 Jun 2027 22:56:48.891   02 Jun 2027 22:57:21.792            32.901                Sumatra          1028.156
       220   02 Jun 2027 23:58:53.392   03 Jun 2027 00:01:06.504           133.112                Anadyr1          4159.750
       221   03 Jun 2027 00:01:20.715   03 Jun 2027 00:01:30.672             9.957                Anadyr1           311.156
       222   03 Jun 2027 00:02:56.527   03 Jun 2027 00:03:14.862            18.335                Norilsk           572.969
       223   03 Jun 2027 00:03:34.058   03 Jun 2027 00:05:38.651           124.593               Magadan1          3893.531
       224   03 Jun 2027 00:06:32.839   03 Jun 2027 00:07:14.848            42.009              Murmansk1          1312.781
       225   03 Jun 2027 00:07:24.141   03 Jun 2027 00:08:20.306            56.165              Murmansk2          1755.156
       226   03 Jun 2027 00:08:55.951   03 Jun 2027 00:09:32.475            36.524              Murmansk2          1141.375
       227   03 Jun 2027 00:14:13.673   03 Jun 2027 00:15:09.242            55.569                  Delhi          1736.531
       228   03 Jun 2027 00:21:04.601   03 Jun 2027 00:21:39.408            34.807                  Delhi          1087.719
       229   03 Jun 2027 00:26:24.797   03 Jun 2027 00:26:40.972            16.175                  Delhi           505.469
       230   03 Jun 2027 00:58:26.782   03 Jun 2027 00:58:31.191             4.409            RioGallegos           137.781
       231   03 Jun 2027 00:58:59.975   03 Jun 2027 00:59:15.129            15.154            RioGallegos           473.563
       232   03 Jun 2027 01:01:46.830   03 Jun 2027 01:02:03.474            16.644            RioGallegos           520.125
       233   03 Jun 2027 01:03:11.625   03 Jun 2027 01:04:07.657            56.032            RioGallegos          1751.000
       234   03 Jun 2027 01:32:14.656   03 Jun 2027 01:32:26.926            12.270                Anadyr1           383.437
       235   03 Jun 2027 01:33:40.338   03 Jun 2027 01:34:14.956            34.618                Anadyr1          1081.813
       236   03 Jun 2027 01:34:30.713   03 Jun 2027 01:34:51.157            20.444                Anadyr1           638.875
       237   03 Jun 2027 01:37:57.957   03 Jun 2027 01:38:24.372            26.415                Anadyr2           825.469
       238   03 Jun 2027 01:38:26.047   03 Jun 2027 01:40:03.595            97.548               Magadan1          3048.375
       239   03 Jun 2027 01:40:18.004   03 Jun 2027 01:40:48.494            30.490               Magadan1           952.813
       240   03 Jun 2027 01:41:09.934   03 Jun 2027 01:41:33.781            23.847              Murmansk2           745.219
       241   03 Jun 2027 01:42:28.670   03 Jun 2027 01:43:28.895            60.225              Murmansk2          1882.031
       242   03 Jun 2027 01:44:17.771   03 Jun 2027 01:44:28.155            10.384                Novosib           324.500
       243   03 Jun 2027 01:44:47.474   03 Jun 2027 01:44:54.644             7.170              Murmansk1           224.062
       244   03 Jun 2027 01:45:11.301   03 Jun 2027 01:45:18.301             7.000                Novosib           218.750
       245   03 Jun 2027 01:45:25.475   03 Jun 2027 01:45:33.170             7.695                Novosib           240.469
       246   03 Jun 2027 01:46:01.655   03 Jun 2027 01:46:22.097            20.442                 Moscow           638.813
       247   03 Jun 2027 01:48:54.265   03 Jun 2027 01:48:59.980             5.715                 Moscow           178.594
       248   03 Jun 2027 01:50:48.341   03 Jun 2027 01:51:26.000            37.659                Novosib          1176.844
       249   03 Jun 2027 01:54:32.536   03 Jun 2027 01:54:39.852             7.316                 Moscow           228.625
       250   03 Jun 2027 01:56:26.040   03 Jun 2027 01:57:13.950            47.910                  Delhi          1497.188
       251   03 Jun 2027 02:16:43.043   03 Jun 2027 02:17:23.502            40.459               CapeTown          1264.344
       252   03 Jun 2027 03:05:52.378   03 Jun 2027 03:05:57.282             4.904                Anadyr2           153.250
       253   03 Jun 2027 03:06:52.040   03 Jun 2027 03:07:30.638            38.598                Anadyr2          1206.188
       254   03 Jun 2027 03:10:14.910   03 Jun 2027 03:10:30.264            15.354                Anadyr1           479.812
       255   03 Jun 2027 03:10:59.863   03 Jun 2027 03:11:30.454            30.591               Magadan2           955.969
       256   03 Jun 2027 03:26:08.702   03 Jun 2027 03:26:38.527            29.825              Murmansk1           932.031
       257   03 Jun 2027 03:26:47.444   03 Jun 2027 03:27:14.368            26.924                Novosib           841.375
       258   03 Jun 2027 03:27:14.844   03 Jun 2027 03:29:52.649           157.805                 Moscow          4931.406
       259   03 Jun 2027 03:44:14.519   03 Jun 2027 03:47:27.367           192.848               CapeTown          6026.500
       260   03 Jun 2027 04:40:53.182   03 Jun 2027 04:44:25.098           211.916                Anadyr2          6622.375
       261   03 Jun 2027 04:47:36.694   03 Jun 2027 04:50:42.689           185.995               Magadan2          5812.344
       262   03 Jun 2027 06:21:42.302   03 Jun 2027 06:21:52.587            10.285               Magadan1           321.406
       263   03 Jun 2027 06:22:15.241   03 Jun 2027 06:22:20.925             5.684                Anadyr2           177.625
       264   03 Jun 2027 06:22:36.163   03 Jun 2027 06:23:07.055            30.892                Anadyr2           965.375
       265   03 Jun 2027 06:23:09.910   03 Jun 2027 06:23:22.173            12.263                Anadyr1           383.219
       266   03 Jun 2027 06:23:22.173   03 Jun 2027 06:24:20.573            58.400                Anadyr2          1825.000
       267   03 Jun 2027 06:24:49.879   03 Jun 2027 06:25:58.112            68.233                Anadyr2          2132.281
       268   03 Jun 2027 06:26:09.197   03 Jun 2027 06:27:27.933            78.736               Magadan1          2460.500
       269   03 Jun 2027 07:56:43.274   03 Jun 2027 07:57:49.763            66.489               Magadan1          2077.781
       270   03 Jun 2027 07:58:08.013   03 Jun 2027 07:58:17.367             9.354                Anadyr1           292.312
       271   03 Jun 2027 07:58:35.735   03 Jun 2027 07:58:42.454             6.719               Magadan2           209.969
       272   03 Jun 2027 07:59:08.258   03 Jun 2027 08:00:12.564            64.306                Anadyr1          2009.562
       273   03 Jun 2027 08:00:24.405   03 Jun 2027 08:01:33.855            69.450               Magadan2          2170.312
       274   03 Jun 2027 08:01:49.174   03 Jun 2027 08:02:40.191            51.017               Magadan2          1594.281
       275   03 Jun 2027 08:02:44.184   03 Jun 2027 08:03:27.628            43.444                Anadyr2          1357.625
       276   03 Jun 2027 08:03:43.961   03 Jun 2027 08:04:18.937            34.976               Magadan1          1093.000
       277   03 Jun 2027 08:04:36.928   03 Jun 2027 08:04:39.141             2.213                Anadyr2            69.156
       278   03 Jun 2027 08:05:56.571   03 Jun 2027 08:06:01.026             4.455              Murmansk1           139.219
       279   03 Jun 2027 08:06:14.577   03 Jun 2027 08:06:36.418            21.841              Murmansk1           682.531
       280   03 Jun 2027 08:40:23.107   03 Jun 2027 08:41:22.045            58.938            RioGallegos          1841.813
       281   03 Jun 2027 09:18:20.574   03 Jun 2027 09:19:35.765            75.191                Sumatra          2349.719
       282   03 Jun 2027 09:33:51.988   03 Jun 2027 09:33:54.563             2.575               Magadan1            80.469
       283   03 Jun 2027 09:33:54.563   03 Jun 2027 09:34:35.235            40.672               Magadan2          1271.000
       284   03 Jun 2027 09:35:46.169   03 Jun 2027 09:36:37.649            51.480               Magadan2          1608.750
       285   03 Jun 2027 09:37:48.367   03 Jun 2027 09:37:55.524             7.157                Irkutsk           223.656
       286   03 Jun 2027 09:38:33.895   03 Jun 2027 09:39:06.305            32.410                Irkutsk          1012.813
       287   03 Jun 2027 09:39:08.781   03 Jun 2027 09:40:01.253            52.472                Irkutsk          1639.750
       288   03 Jun 2027 09:40:27.409   03 Jun 2027 09:40:29.436             2.027                Irkutsk            63.344
       289   03 Jun 2027 09:40:32.137   03 Jun 2027 09:40:44.469            12.332                Irkutsk           385.375
       290   03 Jun 2027 09:40:53.295   03 Jun 2027 09:41:23.065            29.770                Novosib           930.312
       291   03 Jun 2027 10:16:05.228   03 Jun 2027 10:17:20.770            75.542            RioGallegos          2360.687
       292   03 Jun 2027 10:50:40.271   03 Jun 2027 10:50:48.167             7.896                Sumatra           246.750
       293   03 Jun 2027 10:54:08.115   03 Jun 2027 10:54:50.819            42.704                Sumatra          1334.500
       294   03 Jun 2027 11:09:45.671   03 Jun 2027 11:09:56.184            10.513                  Delhi           328.531
       295   03 Jun 2027 11:10:33.288   03 Jun 2027 11:10:35.423             2.135                  Delhi            66.719
       296   03 Jun 2027 11:10:40.627   03 Jun 2027 11:11:02.733            22.106                  Delhi           690.812
       297   03 Jun 2027 11:11:21.262   03 Jun 2027 11:11:38.588            17.326                Irkutsk           541.438
       298   03 Jun 2027 11:12:08.157   03 Jun 2027 11:12:26.188            18.031                Irkutsk           563.469
       299   03 Jun 2027 11:13:11.960   03 Jun 2027 11:13:20.726             8.766                Irkutsk           273.937
       300   03 Jun 2027 11:13:45.438   03 Jun 2027 11:14:33.142            47.704                Irkutsk          1490.750
       301   03 Jun 2027 11:14:50.252   03 Jun 2027 11:15:00.247             9.995                Norilsk           312.344
       302   03 Jun 2027 11:15:09.239   03 Jun 2027 11:15:48.607            39.368                Norilsk          1230.250
       303   03 Jun 2027 11:16:02.775   03 Jun 2027 11:16:42.964            40.189                Irkutsk          1255.906
       304   03 Jun 2027 11:16:48.455   03 Jun 2027 11:17:25.764            37.309                Novosib          1165.906
       305   03 Jun 2027 11:56:52.666   03 Jun 2027 11:57:48.262            55.596            RioGallegos          1737.375
       306   03 Jun 2027 12:37:05.308   03 Jun 2027 12:37:54.899            49.591                  Delhi          1549.719
       307   03 Jun 2027 12:38:34.874   03 Jun 2027 12:39:41.183            66.309                  Delhi          2072.156
       308   03 Jun 2027 12:43:00.308   03 Jun 2027 12:43:34.575            34.267                Novosib          1070.844
       309   03 Jun 2027 12:45:18.165   03 Jun 2027 12:46:54.838            96.673                Novosib          3021.031
       310   03 Jun 2027 12:52:14.967   03 Jun 2027 12:52:15.095             0.128                Norilsk             4.000
       311   03 Jun 2027 12:54:29.491   03 Jun 2027 12:55:09.824            40.333                Norilsk          1260.406
       312   03 Jun 2027 14:19:15.512   03 Jun 2027 14:22:20.831           185.319                 Moscow          5791.219
       313   03 Jun 2027 14:22:43.797   03 Jun 2027 14:24:17.825            94.028              Murmansk1          2938.375
       314   03 Jun 2027 14:24:17.825   03 Jun 2027 14:24:25.264             7.439              Murmansk2           232.469
       315   03 Jun 2027 14:25:06.104   03 Jun 2027 14:25:36.247            30.143              Murmansk2           941.969
       316   03 Jun 2027 14:27:08.107   03 Jun 2027 14:27:32.847            24.740                Norilsk           773.125
       317   03 Jun 2027 14:28:35.740   03 Jun 2027 14:30:06.881            91.141                Norilsk          2848.156
       318   03 Jun 2027 15:33:38.809   03 Jun 2027 15:34:32.385            53.576               CapeTown          1674.250
       319   03 Jun 2027 15:42:47.189   03 Jun 2027 15:42:59.069            11.880               CapeTown           371.250
       320   03 Jun 2027 15:56:53.352   03 Jun 2027 15:57:40.873            47.521                 Moscow          1485.031
       321   03 Jun 2027 15:59:56.102   03 Jun 2027 16:01:42.117           106.015              Murmansk2          3312.969
       322   03 Jun 2027 16:02:02.018   03 Jun 2027 16:02:21.604            19.586              Murmansk2           612.063
       323   03 Jun 2027 16:04:06.857   03 Jun 2027 16:04:41.483            34.626              Murmansk1          1082.063
       324   03 Jun 2027 16:13:43.030   03 Jun 2027 16:13:47.964             4.934                Anadyr2           154.187
       325   03 Jun 2027 16:14:01.775   03 Jun 2027 16:15:23.326            81.551                Anadyr1          2548.469
       326   03 Jun 2027 16:16:28.532   03 Jun 2027 16:17:04.579            36.047                Anadyr2          1126.469
       327   03 Jun 2027 17:08:48.955   03 Jun 2027 17:10:51.153           122.198               CapeTown          3818.688
       328   03 Jun 2027 17:39:28.262   03 Jun 2027 17:41:05.136            96.874              Murmansk2          3027.312
       329   03 Jun 2027 17:41:14.638   03 Jun 2027 17:42:33.200            78.562              Murmansk1          2455.062
       330   03 Jun 2027 17:44:04.269   03 Jun 2027 17:44:21.633            17.364              Murmansk1           542.625
       331   03 Jun 2027 17:49:19.198   03 Jun 2027 17:50:16.969            57.771                Anadyr2          1805.344
       332   03 Jun 2027 17:52:34.237   03 Jun 2027 17:54:52.480           138.243               Magadan2          4320.094
       333   03 Jun 2027 17:55:17.565   03 Jun 2027 17:55:23.008             5.443               Magadan1           170.094
       334   03 Jun 2027 17:57:36.010   03 Jun 2027 17:57:44.981             8.971               Magadan1           280.344
       335   03 Jun 2027 19:25:14.553   03 Jun 2027 19:27:07.455           112.902                Anadyr1          3528.188
       336   03 Jun 2027 19:27:19.867   03 Jun 2027 19:28:06.072            46.205                Anadyr2          1443.906
       337   03 Jun 2027 19:28:51.973   03 Jun 2027 19:29:54.287            62.314               Magadan2          1947.312
       338   03 Jun 2027 19:30:22.345   03 Jun 2027 19:31:15.011            52.666               Magadan2          1645.813
       339   03 Jun 2027 19:31:15.011   03 Jun 2027 19:31:28.590            13.579               Magadan1           424.344
       340   03 Jun 2027 19:32:36.216   03 Jun 2027 19:33:18.006            41.790               Magadan2          1305.938
       341   03 Jun 2027 19:33:40.792   03 Jun 2027 19:34:31.298            50.506               Magadan2          1578.312
       342   03 Jun 2027 19:35:49.458   03 Jun 2027 19:35:55.675             6.217               Magadan2           194.281
       343   03 Jun 2027 20:22:03.695   03 Jun 2027 20:24:09.521           125.826            RioGallegos          3932.062
       344   03 Jun 2027 21:01:04.796   03 Jun 2027 21:01:32.936            28.140                Anadyr1           879.375
       345   03 Jun 2027 21:02:26.522   03 Jun 2027 21:03:21.446            54.924                Anadyr2          1716.375
       346   03 Jun 2027 21:03:27.632   03 Jun 2027 21:05:08.224           100.592               Magadan2          3143.500
       347   03 Jun 2027 21:05:52.707   03 Jun 2027 21:06:54.852            62.145                Norilsk          1942.031
       348   03 Jun 2027 21:07:04.379   03 Jun 2027 21:08:18.387            74.008               Magadan1          2312.750
       349   03 Jun 2027 21:08:21.978   03 Jun 2027 21:09:00.595            38.617                Irkutsk          1206.781
       350   03 Jun 2027 21:09:32.154   03 Jun 2027 21:10:13.180            41.026                Norilsk          1282.062
       351   03 Jun 2027 21:14:11.509   03 Jun 2027 21:14:51.599            40.090                Irkutsk          1252.813
       352   03 Jun 2027 21:23:41.684   03 Jun 2027 21:25:37.169           115.485                Sumatra          3608.906
       353   03 Jun 2027 22:36:24.773   03 Jun 2027 22:37:00.147            35.374                Anadyr2          1105.438
       354   03 Jun 2027 22:37:33.876   03 Jun 2027 22:38:54.456            80.580                Anadyr2          2518.125
       355   03 Jun 2027 22:38:58.485   03 Jun 2027 22:39:29.474            30.989                Norilsk           968.406
       356   03 Jun 2027 22:39:33.964   03 Jun 2027 22:39:47.920            13.956               Magadan2           436.125
       357   03 Jun 2027 22:39:50.548   03 Jun 2027 22:40:05.791            15.243               Magadan2           476.344
       358   03 Jun 2027 22:40:31.853   03 Jun 2027 22:41:14.566            42.713               Magadan1          1334.781
       359   03 Jun 2027 22:42:54.929   03 Jun 2027 22:44:08.738            73.809                Irkutsk          2306.531
       360   03 Jun 2027 22:47:27.113   03 Jun 2027 22:47:39.195            12.082                Novosib           377.562
       361   03 Jun 2027 22:47:42.667   03 Jun 2027 22:47:48.559             5.892                Novosib           184.125
       362   03 Jun 2027 22:54:43.276   03 Jun 2027 22:55:37.789            54.513                  Delhi          1703.531
       363   03 Jun 2027 22:56:43.355   03 Jun 2027 22:57:50.756            67.401                  Delhi          2106.281
       364   03 Jun 2027 23:42:33.276   03 Jun 2027 23:43:04.037            30.761            RioGallegos           961.281
       365   04 Jun 2027 00:11:36.899   04 Jun 2027 00:12:10.952            34.053                Anadyr2          1064.156
       366   04 Jun 2027 00:12:10.952   04 Jun 2027 00:12:52.302            41.350                Anadyr1          1292.188
       367   04 Jun 2027 00:14:58.614   04 Jun 2027 00:16:00.690            62.076                Norilsk          1939.875
       368   04 Jun 2027 00:16:11.251   04 Jun 2027 00:16:32.443            21.192               Magadan2           662.250
       369   04 Jun 2027 00:16:47.077   04 Jun 2027 00:17:01.601            14.524                Norilsk           453.875
       370   04 Jun 2027 00:17:20.044   04 Jun 2027 00:17:44.856            24.812               Magadan1           775.375
       371   04 Jun 2027 00:18:05.350   04 Jun 2027 00:19:31.245            85.895              Murmansk2          2684.219
       372   04 Jun 2027 00:19:31.245   04 Jun 2027 00:21:49.017           137.772              Murmansk1          4305.375
       373   04 Jun 2027 00:26:08.967   04 Jun 2027 00:26:33.844            24.877                  Delhi           777.406
       374   04 Jun 2027 00:28:55.026   04 Jun 2027 00:29:02.223             7.197                  Delhi           224.906
       375   04 Jun 2027 00:34:05.605   04 Jun 2027 00:34:18.662            13.057                  Delhi           408.031
       376   04 Jun 2027 00:36:18.147   04 Jun 2027 00:38:29.966           131.819                  Delhi          4119.344
       377   04 Jun 2027 01:43:56.101   04 Jun 2027 01:44:23.031            26.930                Anadyr1           841.563
       378   04 Jun 2027 01:45:11.551   04 Jun 2027 01:45:39.620            28.069                Anadyr1           877.156
       379   04 Jun 2027 01:46:04.930   04 Jun 2027 01:46:22.354            17.424                Anadyr2           544.500
       380   04 Jun 2027 01:46:36.574   04 Jun 2027 01:47:07.937            31.363                Anadyr2           980.094
       381   04 Jun 2027 01:50:03.683   04 Jun 2027 01:51:00.999            57.316               Magadan2          1791.125
       382   04 Jun 2027 01:51:06.667   04 Jun 2027 01:51:15.343             8.676                Norilsk           271.125
       383   04 Jun 2027 01:51:29.041   04 Jun 2027 01:52:02.836            33.795               Magadan1          1056.094
       384   04 Jun 2027 01:52:49.549   04 Jun 2027 01:53:01.633            12.084                Norilsk           377.625
       385   04 Jun 2027 01:53:09.854   04 Jun 2027 01:55:27.707           137.853              Murmansk1          4307.906
       386   04 Jun 2027 01:57:44.300   04 Jun 2027 01:58:21.153            36.853                 Moscow          1151.656
       387   04 Jun 2027 02:04:02.420   04 Jun 2027 02:04:20.729            18.309                  Delhi           572.156
       388   04 Jun 2027 02:09:46.307   04 Jun 2027 02:10:05.639            19.332                  Delhi           604.125
       389   04 Jun 2027 02:23:34.008   04 Jun 2027 02:25:22.547           108.539               CapeTown          3391.844
       390   04 Jun 2027 03:21:44.467   04 Jun 2027 03:21:47.997             3.530               Magadan1           110.312
       391   04 Jun 2027 03:21:58.565   04 Jun 2027 03:22:54.978            56.413               Magadan1          1762.906
       392   04 Jun 2027 03:38:38.979   04 Jun 2027 03:39:00.807            21.828              Murmansk1           682.125
       393   04 Jun 2027 03:39:03.782   04 Jun 2027 03:39:56.934            53.152              Murmansk1          1661.000
       394   04 Jun 2027 03:40:40.055   04 Jun 2027 03:41:11.078            31.023              Murmansk1           969.469
       395   04 Jun 2027 03:41:15.121   04 Jun 2027 03:42:31.879            76.758                 Moscow          2398.687
       396   04 Jun 2027 04:52:55.684   04 Jun 2027 04:54:08.762            73.078                Anadyr1          2283.688
       397   04 Jun 2027 04:59:01.195   04 Jun 2027 05:04:19.831           318.636               Magadan1          9957.375
       398   04 Jun 2027 06:36:20.007   04 Jun 2027 06:36:59.857            39.850                Anadyr2          1245.313
       399   04 Jun 2027 06:36:59.857   04 Jun 2027 06:37:58.425            58.568                Anadyr1          1830.250
       400   04 Jun 2027 06:38:08.862   04 Jun 2027 06:39:27.937            79.075               Magadan1          2471.094
       401   04 Jun 2027 08:09:33.767   04 Jun 2027 08:09:39.799             6.032                Irkutsk           188.500
       402   04 Jun 2027 08:09:53.035   04 Jun 2027 08:10:20.795            27.760               Magadan2           867.500
       403   04 Jun 2027 08:10:57.249   04 Jun 2027 08:11:05.123             7.874               Magadan1           246.062
       404   04 Jun 2027 08:11:08.166   04 Jun 2027 08:12:12.235            64.069                Anadyr1          2002.156
       405   04 Jun 2027 08:12:28.507   04 Jun 2027 08:13:33.091            64.584               Magadan2          2018.250
       406   04 Jun 2027 08:13:52.211   04 Jun 2027 08:14:34.781            42.570               Magadan1          1330.313
       407   04 Jun 2027 08:14:37.608   04 Jun 2027 08:15:26.795            49.187               Magadan1          1537.094
       408   04 Jun 2027 08:15:31.332   04 Jun 2027 08:15:44.944            13.612                Anadyr1           425.375
       409   04 Jun 2027 08:15:50.495   04 Jun 2027 08:16:17.715            27.220                Anadyr1           850.625
       410   04 Jun 2027 08:16:29.258   04 Jun 2027 08:17:09.175            39.917               Magadan1          1247.406
       411   04 Jun 2027 08:52:11.461   04 Jun 2027 08:53:10.826            59.365            RioGallegos          1855.156
       412   04 Jun 2027 08:58:03.875   04 Jun 2027 08:58:15.011            11.136            RioGallegos           348.000
       413   04 Jun 2027 09:29:10.781   04 Jun 2027 09:30:06.665            55.884                Sumatra          1746.375
       414   04 Jun 2027 09:47:22.347   04 Jun 2027 09:48:11.038            48.691                Irkutsk          1521.594
       415   04 Jun 2027 09:48:14.379   04 Jun 2027 09:48:15.285             0.906                Irkutsk            28.312
       416   04 Jun 2027 09:49:41.606   04 Jun 2027 09:50:06.286            24.680                Novosib           771.250
       417   04 Jun 2027 09:51:10.944   04 Jun 2027 09:51:13.939             2.995                Irkutsk            93.594
       418   04 Jun 2027 09:52:05.479   04 Jun 2027 09:52:30.415            24.936                Irkutsk           779.250
       419   04 Jun 2027 09:52:34.129   04 Jun 2027 09:52:43.843             9.714                Novosib           303.563
       420   04 Jun 2027 09:52:51.770   04 Jun 2027 09:52:55.557             3.787                Norilsk           118.344
       421   04 Jun 2027 09:52:56.122   04 Jun 2027 09:53:10.986            14.864                Irkutsk           464.500
       422   04 Jun 2027 10:29:03.760   04 Jun 2027 10:29:52.734            48.974            RioGallegos          1530.438
       423   04 Jun 2027 10:36:50.405   04 Jun 2027 10:37:37.992            47.587            RioGallegos          1487.094
       424   04 Jun 2027 11:05:03.965   04 Jun 2027 11:05:43.251            39.286                Sumatra          1227.688
       425   04 Jun 2027 11:13:01.104   04 Jun 2027 11:13:03.178             2.074                  Delhi            64.812
       426   04 Jun 2027 11:17:49.523   04 Jun 2027 11:17:54.176             4.653                  Delhi           145.406
       427   04 Jun 2027 11:21:47.757   04 Jun 2027 11:22:01.296            13.539                  Delhi           423.094
       428   04 Jun 2027 11:24:59.163   04 Jun 2027 11:26:01.382            62.219                Novosib          1944.344
       429   04 Jun 2027 11:26:15.439   04 Jun 2027 11:26:15.894             0.455                Novosib            14.219
       430   04 Jun 2027 11:26:24.270   04 Jun 2027 11:27:27.421            63.151                Irkutsk          1973.469
       431   04 Jun 2027 11:27:41.805   04 Jun 2027 11:28:02.852            21.047                Norilsk           657.719
       432   04 Jun 2027 11:28:14.499   04 Jun 2027 11:28:35.127            20.628                Irkutsk           644.625
       433   04 Jun 2027 11:28:39.184   04 Jun 2027 11:28:56.620            17.436                Norilsk           544.875
       434   04 Jun 2027 12:47:21.356   04 Jun 2027 12:48:07.090            45.734                  Delhi          1429.187
       435   04 Jun 2027 12:49:41.266   04 Jun 2027 12:52:02.420           141.154                  Delhi          4411.063
       436   04 Jun 2027 12:55:29.143   04 Jun 2027 12:56:30.935            61.792                Novosib          1931.000
       437   04 Jun 2027 12:58:59.453   04 Jun 2027 12:59:48.076            48.623                Novosib          1519.469
       438   04 Jun 2027 13:00:48.028   04 Jun 2027 13:00:53.244             5.216                Norilsk           163.000
       439   04 Jun 2027 13:02:34.859   04 Jun 2027 13:03:10.577            35.718                Norilsk          1116.187
       440   04 Jun 2027 14:31:18.118   04 Jun 2027 14:34:35.521           197.403                 Moscow          6168.844
       441   04 Jun 2027 14:34:48.685   04 Jun 2027 14:36:09.116            80.431              Murmansk2          2513.469
       442   04 Jun 2027 14:37:29.853   04 Jun 2027 14:38:05.351            35.498              Murmansk2          1109.313
       443   04 Jun 2027 14:39:56.870   04 Jun 2027 14:40:51.018            54.148                Norilsk          1692.125
       444   04 Jun 2027 14:42:32.605   04 Jun 2027 14:43:25.770            53.165                Norilsk          1661.406
       445   04 Jun 2027 15:45:21.587   04 Jun 2027 15:46:22.180            60.593               CapeTown          1893.531
       446   04 Jun 2027 15:56:22.795   04 Jun 2027 15:56:29.987             7.192               CapeTown           224.750
       447   04 Jun 2027 16:09:26.420   04 Jun 2027 16:09:56.745            30.325                 Moscow           947.656
       448   04 Jun 2027 16:10:54.028   04 Jun 2027 16:11:16.974            22.946                 Moscow           717.062
       449   04 Jun 2027 16:12:16.008   04 Jun 2027 16:13:02.615            46.607              Murmansk2          1456.469
       450   04 Jun 2027 16:14:03.396   04 Jun 2027 16:14:23.466            20.070              Murmansk1           627.188
       451   04 Jun 2027 16:15:47.607   04 Jun 2027 16:17:19.109            91.502              Murmansk1          2859.438
       452   04 Jun 2027 16:25:39.337   04 Jun 2027 16:27:40.850           121.513                Anadyr1          3797.281
       453   04 Jun 2027 17:20:58.320   04 Jun 2027 17:22:29.314            90.994               CapeTown          2843.563
       454   04 Jun 2027 17:52:11.131   04 Jun 2027 17:57:44.349           333.218              Murmansk2         10413.062
       455   04 Jun 2027 18:04:21.400   04 Jun 2027 18:05:44.375            82.975               Magadan1          2592.969
       456   04 Jun 2027 18:07:03.095   04 Jun 2027 18:07:08.140             5.045               Magadan1           157.656
       457   04 Jun 2027 18:07:20.757   04 Jun 2027 18:08:05.874            45.117               Magadan1          1409.906
       458   04 Jun 2027 19:37:16.016   04 Jun 2027 19:39:21.543           125.527                Anadyr2          3922.719
       459   04 Jun 2027 19:39:34.124   04 Jun 2027 19:43:30.421           236.297               Magadan1          7384.281
       460   04 Jun 2027 19:44:18.103   04 Jun 2027 19:44:34.823            16.720               Magadan1           522.500
       461   04 Jun 2027 19:47:16.280   04 Jun 2027 19:47:49.874            33.594               Magadan1          1049.812
       462   04 Jun 2027 20:33:07.905   04 Jun 2027 20:35:49.720           161.815            RioGallegos          5056.719
       463   04 Jun 2027 20:38:42.475   04 Jun 2027 20:39:07.059            24.584            RioGallegos           768.250
       464   04 Jun 2027 21:13:04.128   04 Jun 2027 21:13:34.790            30.662                Anadyr2           958.187
       465   04 Jun 2027 21:14:14.170   04 Jun 2027 21:15:23.128            68.958                Anadyr2          2154.938
       466   04 Jun 2027 21:15:30.070   04 Jun 2027 21:15:57.089            27.019               Magadan2           844.344
       467   04 Jun 2027 21:16:05.963   04 Jun 2027 21:16:53.380            47.417               Magadan1          1481.781
       468   04 Jun 2027 21:17:01.232   04 Jun 2027 21:17:46.301            45.069                Norilsk          1408.406
       469   04 Jun 2027 21:18:00.151   04 Jun 2027 21:18:01.068             0.917                Norilsk            28.656
       470   04 Jun 2027 21:18:13.506   04 Jun 2027 21:18:27.128            13.622                Norilsk           425.688
       471   04 Jun 2027 21:18:52.749   04 Jun 2027 21:18:54.335             1.586                Norilsk            49.562
       472   04 Jun 2027 21:20:01.210   04 Jun 2027 21:20:58.303            57.093                Irkutsk          1784.156
       473   04 Jun 2027 21:22:35.779   04 Jun 2027 21:23:13.575            37.796                Irkutsk          1181.125
       474   04 Jun 2027 21:26:17.357   04 Jun 2027 21:28:11.084           113.727                Irkutsk          3553.969
       475   04 Jun 2027 21:39:14.400   04 Jun 2027 21:40:27.768            73.368                Sumatra          2292.750
       476   04 Jun 2027 22:48:17.670   04 Jun 2027 22:48:44.718            27.048                Anadyr1           845.250
       477   04 Jun 2027 22:50:04.742   04 Jun 2027 22:50:51.295            46.553                Anadyr1          1454.781
       478   04 Jun 2027 22:51:00.225   04 Jun 2027 22:52:53.245           113.020                Norilsk          3531.875
       479   04 Jun 2027 22:54:54.295   04 Jun 2027 22:56:04.073            69.778                Irkutsk          2180.563
       480   04 Jun 2027 22:58:28.071   04 Jun 2027 22:58:57.550            29.479                Novosib           921.219
       481   04 Jun 2027 23:05:01.532   04 Jun 2027 23:05:22.062            20.530                Novosib           641.563
       482   04 Jun 2027 23:07:06.909   04 Jun 2027 23:08:09.352            62.443                  Delhi          1951.344
