uniorb/output/strategy_4/Drop/Drop_KinoSat_111504.txt

KinoSat_111504
-------------------------
    Access    *     Start Time (UTCG)     *     Stop Time (UTCG)  *   Duration (s)        *       Station  *  Data (Mbytes)
         1   01 Jun 2027 03:30:47.189   01 Jun 2027 03:31:00.066            12.877              Murmansk2           402.406
         2   01 Jun 2027 03:31:07.748   01 Jun 2027 03:33:57.976           170.228              Murmansk2          5319.625
         3   01 Jun 2027 03:36:40.428   01 Jun 2027 03:38:23.624           103.196                 Moscow          3224.875
         4   01 Jun 2027 03:52:00.543   01 Jun 2027 03:56:49.956           289.413               CapeTown          9044.156
         5   01 Jun 2027 04:01:42.654   01 Jun 2027 04:02:23.461            40.807               CapeTown          1275.219
         6   01 Jun 2027 05:07:39.051   01 Jun 2027 05:08:14.968            35.917              Murmansk1          1122.406
         7   01 Jun 2027 05:08:21.116   01 Jun 2027 05:08:52.352            31.236                 Moscow           976.125
         8   01 Jun 2027 05:09:02.777   01 Jun 2027 05:10:15.030            72.253              Murmansk1          2257.906
         9   01 Jun 2027 05:10:15.030   01 Jun 2027 05:10:34.074            19.044              Murmansk2           595.125
        10   01 Jun 2027 05:10:34.074   01 Jun 2027 05:10:48.180            14.106              Murmansk1           440.812
        11   01 Jun 2027 06:30:59.431   01 Jun 2027 06:31:31.589            32.158                Anadyr1          1004.937
        12   01 Jun 2027 06:31:48.512   01 Jun 2027 06:31:55.895             7.383                Norilsk           230.719
        13   01 Jun 2027 06:32:07.888   01 Jun 2027 06:34:50.094           162.206                Anadyr2          5068.938
        14   01 Jun 2027 06:34:51.227   01 Jun 2027 06:36:33.862           102.635                Anadyr1          3207.344
        15   01 Jun 2027 08:07:55.694   01 Jun 2027 08:07:58.234             2.540               Magadan2            79.375
        16   01 Jun 2027 08:08:16.587   01 Jun 2027 08:12:07.964           231.377                Anadyr1          7230.531
        17   01 Jun 2027 09:41:42.095   01 Jun 2027 09:42:03.022            20.927                Irkutsk           653.969
        18   01 Jun 2027 09:42:53.739   01 Jun 2027 09:43:15.036            21.297               Magadan2           665.531
        19   01 Jun 2027 09:43:35.876   01 Jun 2027 09:46:20.433           164.557               Magadan1          5142.406
        20   01 Jun 2027 09:46:20.433   01 Jun 2027 09:47:27.708            67.275               Magadan2          2102.344
        21   01 Jun 2027 09:47:34.275   01 Jun 2027 09:47:48.797            14.522                Irkutsk           453.812
        22   01 Jun 2027 11:19:52.976   01 Jun 2027 11:23:35.894           222.918                Irkutsk          6966.187
        23   01 Jun 2027 12:03:44.704   01 Jun 2027 12:04:08.887            24.183            RioGallegos           755.719
        24   01 Jun 2027 12:34:44.122   01 Jun 2027 12:36:50.190           126.068                Sumatra          3939.625
        25   01 Jun 2027 12:38:35.351   01 Jun 2027 12:39:49.927            74.576                Sumatra          2330.500
        26   01 Jun 2027 12:51:04.204   01 Jun 2027 12:51:28.979            24.775                Irkutsk           774.219
        27   01 Jun 2027 12:51:59.841   01 Jun 2027 12:54:14.120           134.279                Irkutsk          4196.219
        28   01 Jun 2027 14:20:06.673   01 Jun 2027 14:22:39.889           153.216                  Delhi          4788.000
        29   01 Jun 2027 14:26:23.297   01 Jun 2027 14:27:13.951            50.654                 Moscow          1582.938
        30   01 Jun 2027 14:28:38.022   01 Jun 2027 14:31:40.507           182.485                Novosib          5702.656
        31   01 Jun 2027 14:31:44.477   01 Jun 2027 14:32:09.470            24.993                Norilsk           781.031
        32   01 Jun 2027 14:35:13.815   01 Jun 2027 14:35:44.707            30.892                Norilsk           965.375
        33   01 Jun 2027 15:42:54.606   01 Jun 2027 15:44:42.716           108.110               CapeTown          3378.438
        34   01 Jun 2027 16:02:29.527   01 Jun 2027 16:03:35.128            65.601                 Moscow          2050.031
        35   01 Jun 2027 16:05:57.150   01 Jun 2027 16:08:32.681           155.531              Murmansk1          4860.344
        36   01 Jun 2027 16:21:05.241   01 Jun 2027 16:22:43.173            97.932                Anadyr1          3060.375
        37   01 Jun 2027 16:22:49.822   01 Jun 2027 16:23:24.498            34.676                Anadyr1          1083.625
        38   01 Jun 2027 17:15:33.247   01 Jun 2027 17:17:50.870           137.623               CapeTown          4300.719
        39   01 Jun 2027 17:43:02.559   01 Jun 2027 17:47:20.162           257.603                 Moscow          8050.094
        40   01 Jun 2027 17:57:49.347   01 Jun 2027 17:57:49.722             0.375                Anadyr2            11.719
        41   01 Jun 2027 17:58:14.509   01 Jun 2027 17:58:43.038            28.529                Anadyr1           891.531
        42   01 Jun 2027 18:01:45.603   01 Jun 2027 18:03:30.001           104.398               Magadan2          3262.438
        43   01 Jun 2027 18:52:41.279   01 Jun 2027 18:53:43.450            62.171               CapeTown          1942.844
        44   01 Jun 2027 19:26:16.220   01 Jun 2027 19:28:47.170           150.950              Murmansk2          4717.187
        45   01 Jun 2027 19:33:17.327   01 Jun 2027 19:33:30.896            13.569                Anadyr2           424.031
        46   01 Jun 2027 19:34:35.786   01 Jun 2027 19:36:02.417            86.631               Magadan2          2707.219
        47   01 Jun 2027 19:36:02.417   01 Jun 2027 19:37:00.060            57.643               Magadan1          1801.344
        48   01 Jun 2027 19:37:14.181   01 Jun 2027 19:37:37.705            23.524               Magadan1           735.125
        49   01 Jun 2027 19:37:58.886   01 Jun 2027 19:38:16.494            17.608               Magadan2           550.250
        50   01 Jun 2027 19:40:24.032   01 Jun 2027 19:40:36.186            12.154               Magadan2           379.813
        51   01 Jun 2027 19:40:59.554   01 Jun 2027 19:41:16.897            17.343               Magadan2           541.969
        52   01 Jun 2027 19:43:11.313   01 Jun 2027 19:43:23.828            12.515               Magadan2           391.094
        53   01 Jun 2027 21:07:58.704   01 Jun 2027 21:11:48.057           229.353                Anadyr2          7167.281
        54   01 Jun 2027 21:12:26.937   01 Jun 2027 21:14:41.468           134.531                Norilsk          4204.094
        55   01 Jun 2027 21:15:15.372   01 Jun 2027 21:16:04.976            49.604               Magadan2          1550.125
        56   01 Jun 2027 21:17:43.095   01 Jun 2027 21:18:07.049            23.954               Magadan2           748.562
        57   01 Jun 2027 21:19:39.267   01 Jun 2027 21:19:53.615            14.348               Magadan2           448.375
        58   01 Jun 2027 21:20:23.553   01 Jun 2027 21:20:42.883            19.330               Magadan2           604.063
        59   01 Jun 2027 21:20:45.562   01 Jun 2027 21:20:48.015             2.453               Magadan2            76.656
        60   01 Jun 2027 21:20:54.928   01 Jun 2027 21:21:10.380            15.452               Magadan2           482.875
        61   01 Jun 2027 22:02:28.336   01 Jun 2027 22:04:45.820           137.484            RioGallegos          4296.375
        62   01 Jun 2027 22:05:03.443   01 Jun 2027 22:05:47.057            43.614            RioGallegos          1362.938
        63   01 Jun 2027 22:43:36.379   01 Jun 2027 22:45:18.912           102.533                Anadyr2          3204.156
        64   01 Jun 2027 22:45:32.036   01 Jun 2027 22:46:21.137            49.101                Anadyr2          1534.406
        65   01 Jun 2027 22:46:34.962   01 Jun 2027 22:47:30.953            55.991                Norilsk          1749.719
        66   01 Jun 2027 22:47:37.018   01 Jun 2027 22:48:20.527            43.509               Magadan2          1359.656
        67   01 Jun 2027 22:48:41.731   01 Jun 2027 22:49:37.204            55.473               Magadan2          1733.531
        68   01 Jun 2027 22:50:01.272   01 Jun 2027 22:50:31.378            30.106                Irkutsk           940.812
        69   01 Jun 2027 22:51:37.544   01 Jun 2027 22:52:20.291            42.747                Irkutsk          1335.844
        70   01 Jun 2027 22:52:48.439   01 Jun 2027 22:53:15.238            26.799                Novosib           837.469
        71   01 Jun 2027 23:00:42.639   01 Jun 2027 23:00:58.532            15.893                Irkutsk           496.656
        72   01 Jun 2027 23:03:48.534   01 Jun 2027 23:04:27.319            38.785                Sumatra          1212.031
        73   01 Jun 2027 23:05:54.170   01 Jun 2027 23:07:14.522            80.352                Sumatra          2511.000
        74   01 Jun 2027 23:11:12.759   01 Jun 2027 23:11:26.977            14.218                Sumatra           444.312
        75   01 Jun 2027 23:11:43.624   01 Jun 2027 23:13:14.184            90.560                Sumatra          2830.000
        76   02 Jun 2027 00:18:51.905   02 Jun 2027 00:19:08.289            16.384                Anadyr1           512.000
        77   02 Jun 2027 00:19:08.289   02 Jun 2027 00:19:18.987            10.698                Anadyr2           334.313
        78   02 Jun 2027 00:20:37.682   02 Jun 2027 00:21:11.345            33.663                Anadyr1          1051.969
        79   02 Jun 2027 00:21:45.478   02 Jun 2027 00:21:52.498             7.020                Norilsk           219.375
        80   02 Jun 2027 00:22:25.223   02 Jun 2027 00:23:55.035            89.812               Magadan1          2806.625
        81   02 Jun 2027 00:24:55.938   02 Jun 2027 00:25:29.007            33.069                Norilsk          1033.406
        82   02 Jun 2027 00:25:37.789   02 Jun 2027 00:26:29.940            52.151                Irkutsk          1629.719
        83   02 Jun 2027 00:26:44.633   02 Jun 2027 00:28:06.051            81.418                Novosib          2544.312
        84   02 Jun 2027 00:30:58.768   02 Jun 2027 00:31:24.064            25.296                Novosib           790.500
        85   02 Jun 2027 00:33:23.970   02 Jun 2027 00:33:37.874            13.904                Novosib           434.500
        86   02 Jun 2027 00:33:48.433   02 Jun 2027 00:35:04.990            76.557                  Delhi          2392.406
        87   02 Jun 2027 00:37:42.472   02 Jun 2027 00:38:22.253            39.781                  Delhi          1243.156
        88   02 Jun 2027 00:44:21.554   02 Jun 2027 00:45:02.017            40.463                  Delhi          1264.469
        89   02 Jun 2027 01:14:04.734   02 Jun 2027 01:15:07.563            62.829            RioGallegos          1963.406
        90   02 Jun 2027 01:23:19.904   02 Jun 2027 01:23:46.770            26.866            RioGallegos           839.562
        91   02 Jun 2027 01:51:56.902   02 Jun 2027 01:52:11.980            15.078                Anadyr2           471.187
        92   02 Jun 2027 01:52:49.456   02 Jun 2027 01:53:44.235            54.779                Anadyr2          1711.844
        93   02 Jun 2027 01:53:44.235   02 Jun 2027 01:54:16.980            32.745                Anadyr1          1023.281
        94   02 Jun 2027 01:57:45.290   02 Jun 2027 01:59:17.689            92.399                Norilsk          2887.469
        95   02 Jun 2027 02:00:07.107   02 Jun 2027 02:01:39.255            92.148              Murmansk2          2879.625
        96   02 Jun 2027 02:01:49.363   02 Jun 2027 02:02:18.113            28.750                Novosib           898.437
        97   02 Jun 2027 02:02:44.102   02 Jun 2027 02:03:04.410            20.308                Novosib           634.625
        98   02 Jun 2027 02:05:04.911   02 Jun 2027 02:05:19.585            14.674                 Moscow           458.563
        99   02 Jun 2027 02:08:46.424   02 Jun 2027 02:09:49.044            62.620                Irkutsk          1956.875
       100   02 Jun 2027 02:10:57.023   02 Jun 2027 02:11:33.395            36.372                  Delhi          1136.625
       101   02 Jun 2027 02:17:45.857   02 Jun 2027 02:18:45.793            59.936                  Delhi          1873.000
       102   02 Jun 2027 03:36:35.953   02 Jun 2027 03:36:47.256            11.303                Anadyr1           353.219
       103   02 Jun 2027 03:43:24.374   02 Jun 2027 03:44:49.663            85.289              Murmansk1          2665.281
       104   02 Jun 2027 03:45:09.975   02 Jun 2027 03:47:54.595           164.620              Murmansk2          5144.375
       105   02 Jun 2027 03:48:44.815   02 Jun 2027 03:51:37.841           173.026                 Moscow          5407.062
       106   02 Jun 2027 04:03:38.994   02 Jun 2027 04:13:00.301           561.307               CapeTown         17540.844
       107   02 Jun 2027 04:13:42.817   02 Jun 2027 04:14:44.390            61.573               CapeTown          1924.156
       108   02 Jun 2027 05:07:37.378   02 Jun 2027 05:08:55.281            77.903                Anadyr2          2434.469
       109   02 Jun 2027 05:09:13.662   02 Jun 2027 05:10:09.644            55.982               Magadan2          1749.437
       110   02 Jun 2027 05:21:47.962   02 Jun 2027 05:22:48.941            60.979                 Moscow          1905.594
       111   02 Jun 2027 06:41:46.344   02 Jun 2027 06:48:34.632           408.288                Anadyr1         12759.000
       112   02 Jun 2027 08:20:32.383   02 Jun 2027 08:20:49.190            16.807                Anadyr2           525.219
       113   02 Jun 2027 08:21:16.985   02 Jun 2027 08:21:46.891            29.906               Magadan2           934.562
       114   02 Jun 2027 08:21:51.539   02 Jun 2027 08:22:59.043            67.504               Magadan2          2109.500
       115   02 Jun 2027 09:52:56.420   02 Jun 2027 09:53:02.738             6.318               Magadan1           197.437
       116   02 Jun 2027 09:53:05.121   02 Jun 2027 09:53:08.882             3.761                Irkutsk           117.531
       117   02 Jun 2027 09:53:31.493   02 Jun 2027 09:54:02.608            31.115                Irkutsk           972.344
       118   02 Jun 2027 09:54:08.657   02 Jun 2027 09:54:36.676            28.019                Irkutsk           875.594
       119   02 Jun 2027 09:54:36.864   02 Jun 2027 09:55:25.209            48.345               Magadan1          1510.781
       120   02 Jun 2027 09:55:52.420   02 Jun 2027 09:56:15.353            22.933               Magadan2           716.656
       121   02 Jun 2027 09:56:38.022   02 Jun 2027 09:57:08.893            30.871                Irkutsk           964.719
       122   02 Jun 2027 09:57:31.115   02 Jun 2027 09:57:47.613            16.498                Irkutsk           515.562
       123   02 Jun 2027 09:57:50.417   02 Jun 2027 09:57:54.859             4.442                Irkutsk           138.812
       124   02 Jun 2027 09:57:57.125   02 Jun 2027 09:58:31.857            34.732                Irkutsk          1085.375
       125   02 Jun 2027 09:59:04.208   02 Jun 2027 09:59:41.172            36.964              Murmansk2          1155.125
       126   02 Jun 2027 10:00:21.881   02 Jun 2027 10:00:47.736            25.855                Novosib           807.969
       127   02 Jun 2027 10:34:37.266   02 Jun 2027 10:35:35.228            57.962            RioGallegos          1811.313
       128   02 Jun 2027 11:09:42.607   02 Jun 2027 11:12:08.589           145.982                Sumatra          4561.937
       129   02 Jun 2027 11:30:51.898   02 Jun 2027 11:30:54.146             2.248                Novosib            70.250
       130   02 Jun 2027 11:31:04.516   02 Jun 2027 11:32:10.495            65.979                Irkutsk          2061.844
       131   02 Jun 2027 11:32:22.205   02 Jun 2027 11:33:03.416            41.211                Norilsk          1287.844
       132   02 Jun 2027 11:33:10.296   02 Jun 2027 11:33:22.549            12.253                Norilsk           382.906
       133   02 Jun 2027 11:33:37.659   02 Jun 2027 11:33:55.558            17.899                Novosib           559.344
       134   02 Jun 2027 11:34:07.717   02 Jun 2027 11:34:10.669             2.952                Irkutsk            92.250
       135   02 Jun 2027 11:34:16.687   02 Jun 2027 11:34:19.795             3.108                Novosib            97.125
       136   02 Jun 2027 11:34:42.969   02 Jun 2027 11:35:43.687            60.718                Irkutsk          1897.437
       137   02 Jun 2027 12:13:10.982   02 Jun 2027 12:13:20.971             9.989            RioGallegos           312.156
       138   02 Jun 2027 12:15:39.834   02 Jun 2027 12:17:50.541           130.707            RioGallegos          4084.594
       139   02 Jun 2027 13:02:05.172   02 Jun 2027 13:03:41.762            96.590                Novosib          3018.437
       140   02 Jun 2027 13:05:13.504   02 Jun 2027 13:05:31.645            18.141                Norilsk           566.906
       141   02 Jun 2027 13:06:53.674   02 Jun 2027 13:07:18.696            25.022                Norilsk           781.938
       142   02 Jun 2027 13:11:15.019   02 Jun 2027 13:11:56.809            41.790                Norilsk          1305.938
       143   02 Jun 2027 14:33:22.980   02 Jun 2027 14:34:28.844            65.864                  Delhi          2058.250
       144   02 Jun 2027 14:36:52.123   02 Jun 2027 14:37:30.481            38.358                  Delhi          1198.687
       145   02 Jun 2027 14:38:16.098   02 Jun 2027 14:39:19.149            63.051                 Moscow          1970.344
       146   02 Jun 2027 14:39:42.034   02 Jun 2027 14:40:08.764            26.730                 Moscow           835.312
       147   02 Jun 2027 14:41:33.017   02 Jun 2027 14:42:43.920            70.903              Murmansk2          2215.719
       148   02 Jun 2027 14:42:49.332   02 Jun 2027 14:43:12.538            23.206              Murmansk1           725.188
       149   02 Jun 2027 14:43:39.180   02 Jun 2027 14:45:38.015           118.835                Novosib          3713.594
       150   02 Jun 2027 14:46:46.027   02 Jun 2027 14:47:16.178            30.151                Norilsk           942.219
       151   02 Jun 2027 15:53:51.194   02 Jun 2027 15:56:04.212           133.018               CapeTown          4156.813
       152   02 Jun 2027 16:14:46.820   02 Jun 2027 16:15:37.694            50.874                 Moscow          1589.813
       153   02 Jun 2027 16:18:10.001   02 Jun 2027 16:18:47.075            37.074              Murmansk1          1158.562
       154   02 Jun 2027 16:19:32.574   02 Jun 2027 16:20:05.628            33.054                 Moscow          1032.937
       155   02 Jun 2027 16:20:52.608   02 Jun 2027 16:21:30.022            37.414              Murmansk1          1169.188
       156   02 Jun 2027 16:32:53.581   02 Jun 2027 16:34:44.496           110.915                Anadyr1          3466.094
       157   02 Jun 2027 16:35:02.389   02 Jun 2027 16:35:13.589            11.200                Anadyr1           350.000
       158   02 Jun 2027 16:35:48.350   02 Jun 2027 16:36:10.079            21.729                Anadyr1           679.031
       159   02 Jun 2027 16:38:49.826   02 Jun 2027 16:39:01.581            11.755                Anadyr2           367.344
       160   02 Jun 2027 17:27:32.808   02 Jun 2027 17:28:03.501            30.693               CapeTown           959.156
       161   02 Jun 2027 17:30:02.854   02 Jun 2027 17:30:11.526             8.672               CapeTown           271.000
       162   02 Jun 2027 17:30:45.923   02 Jun 2027 17:31:23.373            37.450               CapeTown          1170.312
       163   02 Jun 2027 17:34:17.838   02 Jun 2027 17:35:28.712            70.874               CapeTown          2214.813
       164   02 Jun 2027 17:56:43.417   02 Jun 2027 17:59:30.859           167.442                 Moscow          5232.563
       165   02 Jun 2027 18:00:21.449   02 Jun 2027 18:00:49.963            28.514              Murmansk2           891.062
       166   02 Jun 2027 18:08:55.797   02 Jun 2027 18:09:51.140            55.343                Anadyr2          1729.469
       167   02 Jun 2027 18:12:30.302   02 Jun 2027 18:13:09.346            39.044               Magadan1          1220.125
       168   02 Jun 2027 18:13:09.346   02 Jun 2027 18:13:38.091            28.745               Magadan2           898.281
       169   02 Jun 2027 18:13:56.864   02 Jun 2027 18:15:12.041            75.177               Magadan1          2349.281
       170   02 Jun 2027 19:44:05.217   02 Jun 2027 19:47:49.975           224.758                Anadyr2          7023.687
       171   02 Jun 2027 19:48:14.650   02 Jun 2027 19:51:19.633           184.983               Magadan1          5780.719
       172   02 Jun 2027 21:19:59.460   02 Jun 2027 21:23:40.671           221.211                Anadyr2          6912.844
       173   02 Jun 2027 21:24:28.807   02 Jun 2027 21:27:26.348           177.541                Norilsk          5548.156
       174   02 Jun 2027 21:28:33.147   02 Jun 2027 21:29:09.045            35.898               Magadan2          1121.812
       175   02 Jun 2027 21:29:16.878   02 Jun 2027 21:30:55.502            98.624                Irkutsk          3082.000
       176   02 Jun 2027 22:14:17.830   02 Jun 2027 22:15:29.252            71.422            RioGallegos          2231.937
       177   02 Jun 2027 22:15:32.153   02 Jun 2027 22:16:10.710            38.557            RioGallegos          1204.906
       178   02 Jun 2027 22:22:47.155   02 Jun 2027 22:22:48.846             1.691            RioGallegos            52.844
       179   02 Jun 2027 22:23:21.240   02 Jun 2027 22:23:45.798            24.558            RioGallegos           767.438
       180   02 Jun 2027 22:55:32.900   02 Jun 2027 22:56:03.024            30.124                Anadyr2           941.375
       181   02 Jun 2027 22:57:49.221   02 Jun 2027 22:58:05.913            16.692                Norilsk           521.625
       182   02 Jun 2027 22:58:19.760   02 Jun 2027 22:59:01.793            42.033                Anadyr2          1313.531
       183   02 Jun 2027 22:59:09.299   02 Jun 2027 23:00:03.635            54.336               Magadan1          1698.000
       184   02 Jun 2027 23:00:15.644   02 Jun 2027 23:00:21.294             5.650               Magadan2           176.563
       185   02 Jun 2027 23:00:57.263   02 Jun 2027 23:01:33.645            36.382                Norilsk          1136.938
       186   02 Jun 2027 23:01:56.026   02 Jun 2027 23:02:59.362            63.336                Irkutsk          1979.250
       187   02 Jun 2027 23:03:27.292   02 Jun 2027 23:04:44.958            77.666                Novosib          2427.063
       188   02 Jun 2027 23:05:39.118   02 Jun 2027 23:06:13.905            34.787                Novosib          1087.094
       189   02 Jun 2027 23:15:38.214   02 Jun 2027 23:17:57.751           139.537                Sumatra          4360.531
       190   03 Jun 2027 00:30:10.019   03 Jun 2027 00:31:01.584            51.565                Anadyr2          1611.406
       191   03 Jun 2027 00:31:11.033   03 Jun 2027 00:32:25.591            74.558                Anadyr2          2329.937
       192   03 Jun 2027 00:33:47.729   03 Jun 2027 00:33:52.151             4.422                Norilsk           138.188
       193   03 Jun 2027 00:34:27.410   03 Jun 2027 00:36:29.740           122.330               Magadan2          3822.812
       194   03 Jun 2027 00:37:41.150   03 Jun 2027 00:38:18.621            37.471                Irkutsk          1170.969
       195   03 Jun 2027 00:38:49.557   03 Jun 2027 00:39:57.351            67.794                Novosib          2118.562
       196   03 Jun 2027 00:40:24.079   03 Jun 2027 00:40:57.242            33.163                Novosib          1036.344
       197   03 Jun 2027 00:43:03.325   03 Jun 2027 00:43:22.968            19.643                Novosib           613.844
       198   03 Jun 2027 00:45:22.386   03 Jun 2027 00:46:18.119            55.733                  Delhi          1741.656
       199   03 Jun 2027 00:47:32.698   03 Jun 2027 00:48:45.104            72.406                  Delhi          2262.687
       200   03 Jun 2027 00:57:16.642   03 Jun 2027 00:57:23.467             6.825                  Delhi           213.281
       201   03 Jun 2027 01:26:14.582   03 Jun 2027 01:26:47.108            32.526            RioGallegos          1016.437
       202   03 Jun 2027 01:27:54.685   03 Jun 2027 01:28:41.848            47.163            RioGallegos          1473.844
       203   03 Jun 2027 01:33:36.299   03 Jun 2027 01:34:21.454            45.155            RioGallegos          1411.094
       204   03 Jun 2027 02:03:37.935   03 Jun 2027 02:03:57.256            19.321                Anadyr2           603.781
       205   03 Jun 2027 02:04:49.817   03 Jun 2027 02:05:02.089            12.272                Anadyr1           383.500
       206   03 Jun 2027 02:05:45.556   03 Jun 2027 02:05:59.534            13.978                Anadyr2           436.813
       207   03 Jun 2027 02:06:20.345   03 Jun 2027 02:06:35.033            14.688                Anadyr1           459.000
       208   03 Jun 2027 02:09:46.818   03 Jun 2027 02:11:09.113            82.295                Norilsk          2571.719
       209   03 Jun 2027 02:12:05.208   03 Jun 2027 02:13:40.539            95.331              Murmansk1          2979.094
       210   03 Jun 2027 02:14:27.660   03 Jun 2027 02:14:56.277            28.617                Novosib           894.281
       211   03 Jun 2027 02:15:24.081   03 Jun 2027 02:15:35.075            10.994                Novosib           343.563
       212   03 Jun 2027 02:16:36.597   03 Jun 2027 02:16:51.615            15.018                 Moscow           469.313
       213   03 Jun 2027 02:18:40.217   03 Jun 2027 02:18:53.236            13.019                Novosib           406.844
       214   03 Jun 2027 02:19:27.369   03 Jun 2027 02:19:40.409            13.040                 Moscow           407.500
       215   03 Jun 2027 02:22:12.384   03 Jun 2027 02:22:20.709             8.325                  Delhi           260.156
       216   03 Jun 2027 02:24:33.287   03 Jun 2027 02:24:37.812             4.525                Novosib           141.406
       217   03 Jun 2027 02:25:39.685   03 Jun 2027 02:26:01.992            22.307                  Delhi           697.094
       218   03 Jun 2027 02:28:48.132   03 Jun 2027 02:29:34.829            46.697                  Delhi          1459.281
       219   03 Jun 2027 03:37:06.029   03 Jun 2027 03:38:49.125           103.096                Anadyr2          3221.750
       220   03 Jun 2027 03:56:24.088   03 Jun 2027 03:56:50.962            26.874              Murmansk2           839.812
       221   03 Jun 2027 03:56:55.948   03 Jun 2027 03:57:09.921            13.973                 Moscow           436.656
       222   03 Jun 2027 03:57:10.727   03 Jun 2027 03:57:30.114            19.387              Murmansk2           605.844
       223   03 Jun 2027 03:57:30.575   03 Jun 2027 03:58:20.273            49.698                Novosib          1553.062
       224   03 Jun 2027 03:58:33.278   03 Jun 2027 03:58:39.310             6.032              Murmansk2           188.500
       225   03 Jun 2027 03:58:57.840   03 Jun 2027 03:59:50.493            52.653                 Moscow          1645.406
       226   03 Jun 2027 03:59:50.685   03 Jun 2027 04:00:09.859            19.174              Murmansk1           599.188
       227   03 Jun 2027 04:00:47.204   03 Jun 2027 04:03:50.174           182.970                 Moscow          5717.813
       228   03 Jun 2027 04:15:23.138   03 Jun 2027 04:19:09.460           226.322               CapeTown          7072.562
       229   03 Jun 2027 04:19:38.518   03 Jun 2027 04:21:42.985           124.467               CapeTown          3889.594
       230   03 Jun 2027 04:26:16.020   03 Jun 2027 04:27:06.798            50.778               CapeTown          1586.812
       231   03 Jun 2027 05:13:00.797   03 Jun 2027 05:13:05.943             5.146                Anadyr1           160.813
       232   03 Jun 2027 05:13:23.793   03 Jun 2027 05:13:51.050            27.257                Anadyr1           851.781
       233   03 Jun 2027 05:14:16.769   03 Jun 2027 05:15:06.209            49.440                Anadyr1          1545.000
       234   03 Jun 2027 05:18:23.522   03 Jun 2027 05:19:50.490            86.968               Magadan1          2717.750
       235   03 Jun 2027 05:21:21.581   03 Jun 2027 05:22:26.871            65.290                Anadyr2          2040.312
       236   03 Jun 2027 05:23:35.449   03 Jun 2027 05:23:45.368             9.919                Anadyr1           309.969
       237   03 Jun 2027 05:23:59.061   03 Jun 2027 05:24:24.411            25.350                Anadyr1           792.188
       238   03 Jun 2027 06:52:42.031   03 Jun 2027 06:53:30.005            47.974               Magadan2          1499.187
       239   03 Jun 2027 06:54:28.189   03 Jun 2027 06:54:55.687            27.498               Magadan1           859.313
       240   03 Jun 2027 06:55:03.162   03 Jun 2027 06:55:34.802            31.640                Anadyr2           988.750
       241   03 Jun 2027 06:55:53.189   03 Jun 2027 06:56:52.614            59.425                Anadyr2          1857.031
       242   03 Jun 2027 06:56:52.614   03 Jun 2027 06:57:31.627            39.013                Anadyr1          1219.156
       243   03 Jun 2027 08:27:49.452   03 Jun 2027 08:28:21.674            32.222                Anadyr1          1006.938
       244   03 Jun 2027 08:28:21.674   03 Jun 2027 08:28:53.589            31.915                Anadyr2           997.344
       245   03 Jun 2027 08:29:40.340   03 Jun 2027 08:29:58.271            17.931                Anadyr2           560.344
       246   03 Jun 2027 08:30:13.878   03 Jun 2027 08:30:18.024             4.146               Magadan2           129.563
       247   03 Jun 2027 08:30:38.826   03 Jun 2027 08:31:00.179            21.353               Magadan1           667.281
       248   03 Jun 2027 08:31:38.412   03 Jun 2027 08:32:28.732            50.320                Anadyr1          1572.500
       249   03 Jun 2027 08:32:41.946   03 Jun 2027 08:33:40.664            58.718                Anadyr1          1834.937
       250   03 Jun 2027 08:33:46.980   03 Jun 2027 08:34:32.018            45.038               Magadan2          1407.438
       251   03 Jun 2027 08:34:45.475   03 Jun 2027 08:35:53.946            68.471                Anadyr2          2139.719
       252   03 Jun 2027 10:06:39.027   03 Jun 2027 10:06:55.428            16.401                Irkutsk           512.531
       253   03 Jun 2027 10:07:49.921   03 Jun 2027 10:08:01.750            11.829               Magadan1           369.656
       254   03 Jun 2027 10:08:05.820   03 Jun 2027 10:08:59.110            53.290                Irkutsk          1665.313
       255   03 Jun 2027 10:09:05.736   03 Jun 2027 10:09:36.969            31.233               Magadan1           976.031
       256   03 Jun 2027 10:09:42.336   03 Jun 2027 10:09:56.007            13.671                Irkutsk           427.219
       257   03 Jun 2027 10:10:08.285   03 Jun 2027 10:10:29.786            21.501                Novosib           671.906
       258   03 Jun 2027 10:11:08.138   03 Jun 2027 10:11:17.351             9.213                Norilsk           287.906
       259   03 Jun 2027 10:11:20.052   03 Jun 2027 10:11:58.290            38.238                Irkutsk          1194.938
       260   03 Jun 2027 10:46:43.611   03 Jun 2027 10:47:29.865            46.254            RioGallegos          1445.438
       261   03 Jun 2027 10:53:49.734   03 Jun 2027 10:54:51.309            61.575            RioGallegos          1924.219
       262   03 Jun 2027 11:24:39.867   03 Jun 2027 11:24:46.271             6.404                Sumatra           200.125
       263   03 Jun 2027 11:34:41.070   03 Jun 2027 11:35:20.028            38.958                  Delhi          1217.438
       264   03 Jun 2027 11:42:59.937   03 Jun 2027 11:44:10.176            70.239                Irkutsk          2194.969
       265   03 Jun 2027 11:44:16.771   03 Jun 2027 11:45:05.436            48.665                Norilsk          1520.781
       266   03 Jun 2027 11:45:09.329   03 Jun 2027 11:45:41.626            32.297                Novosib          1009.281
       267   03 Jun 2027 11:45:49.273   03 Jun 2027 11:46:23.738            34.465                Norilsk          1077.031
       268   03 Jun 2027 11:46:46.057   03 Jun 2027 11:47:45.747            59.690                Irkutsk          1865.313
       269   03 Jun 2027 12:26:01.050   03 Jun 2027 12:26:40.477            39.427            RioGallegos          1232.094
       270   03 Jun 2027 13:00:52.824   03 Jun 2027 13:02:12.704            79.880                Sumatra          2496.250
       271   03 Jun 2027 13:04:36.795   03 Jun 2027 13:04:58.235            21.440                Sumatra           670.000
       272   03 Jun 2027 13:08:47.093   03 Jun 2027 13:09:53.710            66.617                  Delhi          2081.781
       273   03 Jun 2027 13:14:07.622   03 Jun 2027 13:14:40.997            33.375                Novosib          1042.969
       274   03 Jun 2027 13:15:39.093   03 Jun 2027 13:15:58.558            19.465                Novosib           608.281
       275   03 Jun 2027 13:16:51.999   03 Jun 2027 13:18:11.574            79.575                Irkutsk          2486.719
       276   03 Jun 2027 14:50:11.649   03 Jun 2027 14:51:26.923            75.274                 Moscow          2352.313
       277   03 Jun 2027 14:52:39.596   03 Jun 2027 14:52:51.220            11.624                 Moscow           363.250
       278   03 Jun 2027 14:53:26.126   03 Jun 2027 14:53:53.131            27.005                 Moscow           843.906
       279   03 Jun 2027 14:54:51.227   03 Jun 2027 14:55:32.197            40.970              Murmansk1          1280.313
       280   03 Jun 2027 14:55:49.116   03 Jun 2027 14:56:49.097            59.981              Murmansk2          1874.406
       281   03 Jun 2027 14:56:57.981   03 Jun 2027 14:58:00.322            62.341                Norilsk          1948.156
       282   03 Jun 2027 14:58:40.933   03 Jun 2027 14:59:18.436            37.503                Norilsk          1171.969
       283   03 Jun 2027 15:01:00.993   03 Jun 2027 15:02:23.356            82.363                Norilsk          2573.844
       284   03 Jun 2027 16:05:11.522   03 Jun 2027 16:06:11.961            60.439               CapeTown          1888.719
       285   03 Jun 2027 16:08:24.415   03 Jun 2027 16:08:32.829             8.414               CapeTown           262.938
       286   03 Jun 2027 16:09:01.638   03 Jun 2027 16:09:13.962            12.324               CapeTown           385.125
       287   03 Jun 2027 16:10:47.940   03 Jun 2027 16:11:17.453            29.513               CapeTown           922.281
       288   03 Jun 2027 16:27:08.038   03 Jun 2027 16:27:39.695            31.657                 Moscow           989.281
       289   03 Jun 2027 16:28:17.753   03 Jun 2027 16:29:06.697            48.944                 Moscow          1529.500
       290   03 Jun 2027 16:30:08.894   03 Jun 2027 16:31:25.874            76.980                 Moscow          2405.625
       291   03 Jun 2027 16:34:32.566   03 Jun 2027 16:34:58.125            25.559              Murmansk1           798.719
       292   03 Jun 2027 16:38:45.011   03 Jun 2027 16:40:12.321            87.310              Murmansk2          2728.437
       293   03 Jun 2027 16:44:45.330   03 Jun 2027 16:45:39.464            54.134                Anadyr1          1691.688
       294   03 Jun 2027 16:53:24.913   03 Jun 2027 16:53:37.241            12.328                Anadyr1           385.250
       295   03 Jun 2027 17:39:35.153   03 Jun 2027 17:41:53.182           138.029               CapeTown          4313.406
       296   03 Jun 2027 18:09:25.669   03 Jun 2027 18:12:17.727           172.058              Murmansk2          5376.813
       297   03 Jun 2027 18:12:52.064   03 Jun 2027 18:13:31.184            39.120              Murmansk2          1222.500
       298   03 Jun 2027 18:16:43.599   03 Jun 2027 18:18:03.283            79.684              Murmansk1          2490.125
       299   03 Jun 2027 18:23:57.183   03 Jun 2027 18:25:13.043            75.860               Magadan1          2370.625
       300   03 Jun 2027 18:29:36.029   03 Jun 2027 18:30:21.365            45.336               Magadan2          1416.750
       301   03 Jun 2027 19:56:06.913   03 Jun 2027 19:57:47.161           100.248                Anadyr1          3132.750
       302   03 Jun 2027 19:57:48.519   03 Jun 2027 19:59:51.509           122.990                Anadyr2          3843.438
       303   03 Jun 2027 20:00:04.478   03 Jun 2027 20:02:55.876           171.398               Magadan1          5356.188
       304   03 Jun 2027 21:31:59.914   03 Jun 2027 21:34:07.950           128.036                Anadyr2          4001.125
       305   03 Jun 2027 21:34:17.245   03 Jun 2027 21:39:27.589           310.344                Norilsk          9698.250
       306   03 Jun 2027 21:40:05.654   03 Jun 2027 21:40:53.223            47.569                Irkutsk          1486.531
       307   03 Jun 2027 21:41:37.004   03 Jun 2027 21:41:38.659             1.655                Irkutsk            51.719
       308   03 Jun 2027 21:44:54.686   03 Jun 2027 21:45:43.402            48.716                Irkutsk          1522.375
       309   03 Jun 2027 21:57:55.296   03 Jun 2027 21:59:01.647            66.351                Sumatra          2073.469
       310   03 Jun 2027 22:26:10.040   03 Jun 2027 22:26:51.990            41.950            RioGallegos          1310.938
       311   03 Jun 2027 22:34:26.504   03 Jun 2027 22:34:28.907             2.403            RioGallegos            75.094
       312   03 Jun 2027 22:35:26.652   03 Jun 2027 22:35:45.886            19.234            RioGallegos           601.062
       313   03 Jun 2027 23:07:28.520   03 Jun 2027 23:08:06.275            37.755                Anadyr1          1179.844
       314   03 Jun 2027 23:08:11.750   03 Jun 2027 23:09:21.587            69.837                Anadyr2          2182.406
       315   03 Jun 2027 23:09:33.764   03 Jun 2027 23:10:18.888            45.124                Anadyr1          1410.125
       316   03 Jun 2027 23:10:24.570   03 Jun 2027 23:11:10.773            46.203               Magadan2          1443.844
       317   03 Jun 2027 23:11:20.938   03 Jun 2027 23:11:35.044            14.106                Norilsk           440.812
       318   03 Jun 2027 23:11:36.041   03 Jun 2027 23:11:44.789             8.748               Magadan1           273.375
       319   03 Jun 2027 23:11:53.090   03 Jun 2027 23:12:13.274            20.184               Magadan1           630.750
       320   03 Jun 2027 23:13:39.417   03 Jun 2027 23:13:51.147            11.730               Magadan2           366.563
       321   03 Jun 2027 23:13:52.424   03 Jun 2027 23:14:12.097            19.673                Irkutsk           614.781
       322   03 Jun 2027 23:15:01.308   03 Jun 2027 23:15:58.226            56.918                Novosib          1778.687
       323   03 Jun 2027 23:17:31.987   03 Jun 2027 23:18:00.640            28.653                Novosib           895.406
       324   03 Jun 2027 23:18:30.772   03 Jun 2027 23:20:47.727           136.955                Novosib          4279.844
       325   03 Jun 2027 23:38:44.711   03 Jun 2027 23:39:22.154            37.443                Sumatra          1170.094
       326   04 Jun 2027 00:12:46.268   04 Jun 2027 00:12:50.529             4.261            RioGallegos           133.156
       327   04 Jun 2027 00:13:25.753   04 Jun 2027 00:13:36.328            10.575            RioGallegos           330.469
       328   04 Jun 2027 00:14:07.104   04 Jun 2027 00:14:25.565            18.461            RioGallegos           576.906
       329   04 Jun 2027 00:41:56.033   04 Jun 2027 00:42:56.520            60.487                Anadyr1          1890.219
       330   04 Jun 2027 00:43:32.948   04 Jun 2027 00:43:44.925            11.977                Anadyr1           374.281
       331   04 Jun 2027 00:44:25.153   04 Jun 2027 00:44:38.499            13.346                Anadyr2           417.063
       332   04 Jun 2027 00:45:49.981   04 Jun 2027 00:45:52.520             2.539                Norilsk            79.344
       333   04 Jun 2027 00:46:29.154   04 Jun 2027 00:47:41.445            72.291               Magadan2          2259.094
       334   04 Jun 2027 00:48:30.230   04 Jun 2027 00:48:34.888             4.658               Magadan1           145.563
       335   04 Jun 2027 00:48:43.620   04 Jun 2027 00:48:54.361            10.741               Magadan1           335.656
       336   04 Jun 2027 00:49:06.459   04 Jun 2027 00:49:35.940            29.481                Norilsk           921.281
       337   04 Jun 2027 00:49:42.722   04 Jun 2027 00:51:41.075           118.353                Novosib          3698.531
       338   04 Jun 2027 00:52:20.436   04 Jun 2027 00:52:38.432            17.996                Novosib           562.375
       339   04 Jun 2027 00:54:39.923   04 Jun 2027 00:55:17.433            37.510                Novosib          1172.188
       340   04 Jun 2027 00:57:11.856   04 Jun 2027 00:58:01.137            49.281                  Delhi          1540.031
       341   04 Jun 2027 00:59:06.357   04 Jun 2027 00:59:19.113            12.756                  Delhi           398.625
       342   04 Jun 2027 01:03:26.393   04 Jun 2027 01:03:38.532            12.139                  Delhi           379.344
       343   04 Jun 2027 01:04:34.291   04 Jun 2027 01:05:12.499            38.208                  Delhi          1194.000
       344   04 Jun 2027 01:38:26.120   04 Jun 2027 01:39:35.238            69.118            RioGallegos          2159.938
       345   04 Jun 2027 01:41:03.589   04 Jun 2027 01:41:31.011            27.422            RioGallegos           856.937
       346   04 Jun 2027 01:44:53.273   04 Jun 2027 01:45:06.232            12.959            RioGallegos           404.969
       347   04 Jun 2027 01:47:21.752   04 Jun 2027 01:47:24.558             2.806            RioGallegos            87.687
       348   04 Jun 2027 02:15:18.993   04 Jun 2027 02:15:41.407            22.414                Anadyr1           700.437
       349   04 Jun 2027 02:16:47.123   04 Jun 2027 02:17:01.818            14.695                Anadyr1           459.219
       350   04 Jun 2027 02:17:42.954   04 Jun 2027 02:18:11.934            28.980                Anadyr1           905.625
       351   04 Jun 2027 02:20:49.651   04 Jun 2027 02:20:56.689             7.038                Anadyr2           219.937
       352   04 Jun 2027 02:21:12.977   04 Jun 2027 02:21:39.173            26.196                Anadyr1           818.625
       353   04 Jun 2027 02:21:43.266   04 Jun 2027 02:22:15.065            31.799               Magadan1           993.719
       354   04 Jun 2027 02:22:34.706   04 Jun 2027 02:23:02.861            28.155                Norilsk           879.844
       355   04 Jun 2027 02:24:04.253   04 Jun 2027 02:25:33.007            88.754              Murmansk2          2773.563
       356   04 Jun 2027 02:25:33.007   04 Jun 2027 02:25:42.019             9.012              Murmansk1           281.625
       357   04 Jun 2027 02:26:29.243   04 Jun 2027 02:26:52.680            23.437                Novosib           732.406
       358   04 Jun 2027 02:27:51.131   04 Jun 2027 02:28:32.276            41.145                Irkutsk          1285.781
       359   04 Jun 2027 02:31:59.089   04 Jun 2027 02:32:23.217            24.128                Irkutsk           754.000
       360   04 Jun 2027 02:34:21.933   04 Jun 2027 02:34:46.571            24.638                  Delhi           769.938
       361   04 Jun 2027 02:38:06.306   04 Jun 2027 02:38:44.443            38.137                  Delhi          1191.781
       362   04 Jun 2027 02:43:38.723   04 Jun 2027 02:43:54.091            15.368                  Delhi           480.250
       363   04 Jun 2027 02:56:19.385   04 Jun 2027 02:56:33.144            13.759               CapeTown           429.969
       364   04 Jun 2027 03:53:23.542   04 Jun 2027 03:53:24.466             0.924                Anadyr2            28.875
       365   04 Jun 2027 03:53:26.590   04 Jun 2027 03:54:20.246            53.656               Magadan1          1676.750
       366   04 Jun 2027 03:57:40.402   04 Jun 2027 03:57:43.658             3.256               Magadan2           101.750
       367   04 Jun 2027 03:57:52.783   04 Jun 2027 03:58:18.131            25.348                Anadyr1           792.125
       368   04 Jun 2027 04:08:44.335   04 Jun 2027 04:09:19.891            35.556                Norilsk          1111.125
       369   04 Jun 2027 04:09:32.065   04 Jun 2027 04:12:23.163           171.098              Murmansk2          5346.813
       370   04 Jun 2027 04:12:47.058   04 Jun 2027 04:15:59.187           192.129                 Moscow          6004.031
       371   04 Jun 2027 05:30:26.548   04 Jun 2027 05:34:15.314           228.766               Magadan1          7148.937
       372   04 Jun 2027 05:34:17.272   04 Jun 2027 05:36:22.529           125.257                Anadyr1          3914.281
       373   04 Jun 2027 05:36:22.529   04 Jun 2027 05:36:43.589            21.060                Anadyr2           658.125
       374   04 Jun 2027 05:46:03.002   04 Jun 2027 05:46:25.343            22.341              Murmansk2           698.156
       375   04 Jun 2027 07:05:08.960   04 Jun 2027 07:05:13.154             4.194                Anadyr2           131.063
       376   04 Jun 2027 07:05:31.914   04 Jun 2027 07:05:36.361             4.447               Magadan2           138.969
       377   04 Jun 2027 07:06:05.366   04 Jun 2027 07:06:29.968            24.602               Magadan1           768.813
       378   04 Jun 2027 07:06:34.664   04 Jun 2027 07:07:01.350            26.686               Magadan2           833.937
       379   04 Jun 2027 07:07:05.066   04 Jun 2027 07:07:24.467            19.401                Anadyr2           606.281
       380   04 Jun 2027 07:07:39.401   04 Jun 2027 07:08:53.534            74.133                Anadyr1          2316.656
       381   04 Jun 2027 07:09:04.940   04 Jun 2027 07:10:14.599            69.659               Magadan2          2176.844
       382   04 Jun 2027 08:39:30.831   04 Jun 2027 08:39:35.322             4.491               Magadan2           140.344
       383   04 Jun 2027 08:40:33.772   04 Jun 2027 08:40:46.219            12.447               Magadan1           388.969
       384   04 Jun 2027 08:40:51.516   04 Jun 2027 08:41:18.740            27.224                Anadyr1           850.750
       385   04 Jun 2027 08:41:31.965   04 Jun 2027 08:42:11.064            39.099               Magadan2          1221.844
       386   04 Jun 2027 08:42:41.457   04 Jun 2027 08:43:14.140            32.683               Magadan2          1021.344
       387   04 Jun 2027 08:44:29.632   04 Jun 2027 08:45:20.385            50.753               Magadan1          1586.031
       388   04 Jun 2027 08:45:25.575   04 Jun 2027 08:46:33.988            68.413               Magadan2          2137.906
       389   04 Jun 2027 08:46:44.734   04 Jun 2027 08:47:42.423            57.689                Anadyr2          1802.781
       390   04 Jun 2027 09:23:24.801   04 Jun 2027 09:23:28.723             3.922            RioGallegos           122.562
       391   04 Jun 2027 09:28:24.328   04 Jun 2027 09:28:39.377            15.049            RioGallegos           470.281
       392   04 Jun 2027 10:02:07.191   04 Jun 2027 10:02:58.470            51.279                Sumatra          1602.469
       393   04 Jun 2027 10:18:32.994   04 Jun 2027 10:19:39.811            66.817               Magadan1          2088.031
       394   04 Jun 2027 10:20:52.419   04 Jun 2027 10:20:53.259             0.840                Irkutsk            26.250
       395   04 Jun 2027 10:21:07.048   04 Jun 2027 10:21:16.127             9.079                Norilsk           283.719
       396   04 Jun 2027 10:21:50.450   04 Jun 2027 10:21:59.905             9.455                Norilsk           295.469
       397   04 Jun 2027 10:22:15.096   04 Jun 2027 10:22:38.739            23.643               Magadan2           738.844
       398   04 Jun 2027 10:22:46.312   04 Jun 2027 10:23:24.873            38.561                Novosib          1205.031
       399   04 Jun 2027 10:23:33.101   04 Jun 2027 10:23:44.268            11.167                Norilsk           348.969
       400   04 Jun 2027 10:23:46.937   04 Jun 2027 10:24:01.873            14.936                Irkutsk           466.750
       401   04 Jun 2027 10:58:53.589   04 Jun 2027 11:00:09.135            75.546            RioGallegos          2360.813
       402   04 Jun 2027 11:33:33.712   04 Jun 2027 11:34:05.912            32.200                Sumatra          1006.250
       403   04 Jun 2027 11:36:04.650   04 Jun 2027 11:36:24.634            19.984                Sumatra           624.500
       404   04 Jun 2027 11:46:44.152   04 Jun 2027 11:47:38.602            54.450                  Delhi          1701.563
       405   04 Jun 2027 11:53:36.965   04 Jun 2027 11:53:46.130             9.165                  Delhi           286.406
       406   04 Jun 2027 11:54:21.686   04 Jun 2027 11:54:58.520            36.834                Irkutsk          1151.062
       407   04 Jun 2027 11:55:22.146   04 Jun 2027 11:55:30.407             8.261                Norilsk           258.156
       408   04 Jun 2027 11:55:34.072   04 Jun 2027 11:55:38.385             4.313                Novosib           134.781
       409   04 Jun 2027 11:55:40.746   04 Jun 2027 11:56:23.699            42.953                Novosib          1342.281
       410   04 Jun 2027 11:56:47.111   04 Jun 2027 11:57:22.197            35.086                Irkutsk          1096.437
       411   04 Jun 2027 11:57:24.468   04 Jun 2027 11:57:25.774             1.306                Norilsk            40.813
       412   04 Jun 2027 11:57:36.581   04 Jun 2027 11:57:45.097             8.516                Novosib           266.125
       413   04 Jun 2027 11:57:47.311   04 Jun 2027 11:58:16.385            29.074                Irkutsk           908.562
       414   04 Jun 2027 11:58:52.513   04 Jun 2027 11:59:20.122            27.609                Irkutsk           862.781
       415   04 Jun 2027 11:59:36.246   04 Jun 2027 12:00:31.751            55.505                Novosib          1734.531
       416   04 Jun 2027 12:04:37.216   04 Jun 2027 12:04:58.218            21.002                Norilsk           656.313
       417   04 Jun 2027 12:39:05.642   04 Jun 2027 12:41:50.098           164.456            RioGallegos          5139.250
       418   04 Jun 2027 13:23:36.614   04 Jun 2027 13:23:47.620            11.006                  Delhi           343.937
       419   04 Jun 2027 13:25:42.420   04 Jun 2027 13:26:49.188            66.768                Novosib          2086.500
       420   04 Jun 2027 13:27:33.892   04 Jun 2027 13:27:53.701            19.809                Novosib           619.031
       421   04 Jun 2027 13:28:37.789   04 Jun 2027 13:29:55.282            77.493                Novosib          2421.656
       422   04 Jun 2027 13:34:29.731   04 Jun 2027 13:35:37.436            67.705                Novosib          2115.781
       423   04 Jun 2027 13:39:12.508   04 Jun 2027 13:39:14.971             2.463                Norilsk            76.969
       424   04 Jun 2027 13:40:00.379   04 Jun 2027 13:40:32.808            32.429                Norilsk          1013.406
       425   04 Jun 2027 15:02:10.006   04 Jun 2027 15:03:18.870            68.864                 Moscow          2152.000
       426   04 Jun 2027 15:04:28.072   04 Jun 2027 15:05:58.264            90.192                 Moscow          2818.500
       427   04 Jun 2027 15:06:53.143   04 Jun 2027 15:07:10.058            16.915              Murmansk1           528.594
       428   04 Jun 2027 15:07:46.185   04 Jun 2027 15:08:03.250            17.065              Murmansk1           533.281
       429   04 Jun 2027 15:09:09.779   04 Jun 2027 15:09:11.890             2.111                 Moscow            65.969
       430   04 Jun 2027 15:09:29.696   04 Jun 2027 15:10:41.337            71.641              Murmansk1          2238.781
       431   04 Jun 2027 15:11:20.553   04 Jun 2027 15:11:21.365             0.812                Norilsk            25.375
       432   04 Jun 2027 15:13:03.942   04 Jun 2027 15:15:11.697           127.755                Norilsk          3992.344
       433   04 Jun 2027 16:16:43.796   04 Jun 2027 16:17:21.709            37.913               CapeTown          1184.781
       434   04 Jun 2027 16:20:35.298   04 Jun 2027 16:20:51.254            15.956               CapeTown           498.625
       435   04 Jun 2027 16:21:34.849   04 Jun 2027 16:22:02.363            27.514               CapeTown           859.812
       436   04 Jun 2027 16:26:58.326   04 Jun 2027 16:27:07.390             9.064               CapeTown           283.250
       437   04 Jun 2027 16:39:33.585   04 Jun 2027 16:39:57.516            23.931                 Moscow           747.844
       438   04 Jun 2027 16:40:26.232   04 Jun 2027 16:40:28.514             2.282                 Moscow            71.313
       439   04 Jun 2027 16:41:27.176   04 Jun 2027 16:42:07.299            40.123                 Moscow          1253.844
       440   04 Jun 2027 16:42:41.617   04 Jun 2027 16:44:18.597            96.980              Murmansk2          3030.625
       441   04 Jun 2027 16:50:46.995   04 Jun 2027 16:51:13.405            26.410              Murmansk2           825.312
       442   04 Jun 2027 16:53:45.416   04 Jun 2027 16:54:31.882            46.466              Murmansk1          1452.063
       443   04 Jun 2027 16:56:39.415   04 Jun 2027 16:57:48.796            69.381                Anadyr1          2168.156
       444   04 Jun 2027 17:01:18.810   04 Jun 2027 17:01:46.402            27.592                Anadyr2           862.250
       445   04 Jun 2027 17:05:33.856   04 Jun 2027 17:05:43.123             9.267                Anadyr2           289.594
       446   04 Jun 2027 17:06:10.004   04 Jun 2027 17:06:10.295             0.291                Anadyr1             9.094
       447   04 Jun 2027 17:51:40.273   04 Jun 2027 17:52:15.741            35.468               CapeTown          1108.375
       448   04 Jun 2027 17:55:44.516   04 Jun 2027 17:56:40.654            56.138               CapeTown          1754.313
       449   04 Jun 2027 18:22:02.792   04 Jun 2027 18:23:00.969            58.177              Murmansk1          1818.031
       450   04 Jun 2027 18:24:09.587   04 Jun 2027 18:27:00.540           170.953              Murmansk2          5342.281
       451   04 Jun 2027 18:35:36.044   04 Jun 2027 18:36:02.042            25.998               Magadan1           812.438
       452   04 Jun 2027 18:36:02.042   04 Jun 2027 18:37:16.498            74.456               Magadan2          2326.750
       453   04 Jun 2027 18:38:41.853   04 Jun 2027 18:38:48.721             6.868               Magadan1           214.625
       454   04 Jun 2027 18:39:30.869   04 Jun 2027 18:39:48.138            17.269               Magadan1           539.656
       455   04 Jun 2027 18:41:38.296   04 Jun 2027 18:42:16.407            38.111               Magadan2          1190.969
       456   04 Jun 2027 20:08:08.587   04 Jun 2027 20:09:47.659            99.072                Anadyr1          3096.000
       457   04 Jun 2027 20:10:13.269   04 Jun 2027 20:12:02.285           109.016                Anadyr2          3406.750
       458   04 Jun 2027 20:12:02.503   04 Jun 2027 20:13:49.982           107.479               Magadan1          3358.719
       459   04 Jun 2027 20:13:49.982   04 Jun 2027 20:14:09.929            19.947               Magadan2           623.344
       460   04 Jun 2027 20:15:23.955   04 Jun 2027 20:15:55.278            31.323               Magadan1           978.844
       461   04 Jun 2027 20:16:37.116   04 Jun 2027 20:17:14.209            37.093               Magadan1          1159.156
       462   04 Jun 2027 20:20:32.679   04 Jun 2027 20:21:12.826            40.147               Magadan2          1254.594
       463   04 Jun 2027 20:22:44.410   04 Jun 2027 20:22:55.676            11.266               Magadan1           352.063
       464   04 Jun 2027 21:05:53.170   04 Jun 2027 21:07:15.037            81.867            RioGallegos          2558.344
       465   04 Jun 2027 21:43:59.998   04 Jun 2027 21:46:09.265           129.267                Anadyr2          4039.594
       466   04 Jun 2027 21:46:11.491   04 Jun 2027 21:47:59.096           107.605                Norilsk          3362.656
       467   04 Jun 2027 21:48:17.828   04 Jun 2027 21:49:49.360            91.532                Norilsk          2860.375
       468   04 Jun 2027 21:50:53.417   04 Jun 2027 21:51:29.081            35.664                Norilsk          1114.500
       469   04 Jun 2027 21:51:39.197   04 Jun 2027 21:52:38.234            59.037                Irkutsk          1844.906
       470   04 Jun 2027 21:57:14.083   04 Jun 2027 21:57:18.663             4.580                Irkutsk           143.125
       471   04 Jun 2027 22:07:14.242   04 Jun 2027 22:08:45.145            90.903                Sumatra          2840.719
       472   04 Jun 2027 22:11:31.707   04 Jun 2027 22:12:14.452            42.745                Sumatra          1335.781
       473   04 Jun 2027 23:19:23.145   04 Jun 2027 23:22:11.042           167.897                Anadyr2          5246.781
       474   04 Jun 2027 23:22:27.679   04 Jun 2027 23:22:42.793            15.114               Magadan2           472.312
       475   04 Jun 2027 23:22:52.491   04 Jun 2027 23:23:24.052            31.561               Magadan1           986.281
       476   04 Jun 2027 23:23:34.702   04 Jun 2027 23:24:39.373            64.671               Magadan2          2020.969
       477   04 Jun 2027 23:26:43.150   04 Jun 2027 23:28:07.257            84.107                Novosib          2628.344
       478   04 Jun 2027 23:32:42.915   04 Jun 2027 23:33:01.090            18.175                Novosib           567.969
       479   04 Jun 2027 23:35:39.323   04 Jun 2027 23:35:53.496            14.173                Novosib           442.906
       480   04 Jun 2027 23:41:34.851   04 Jun 2027 23:42:13.987            39.136                Sumatra          1223.000
       481   04 Jun 2027 23:44:18.038   04 Jun 2027 23:45:28.770            70.732                Sumatra          2210.375
       482   05 Jun 2027 00:18:48.656   05 Jun 2027 00:19:07.809            19.153            RioGallegos           598.531
