uniorb/output/strategy_4/Drop/Drop_KinoSat_110104.txt

KinoSat_110104
-------------------------
    Access    *     Start Time (UTCG)     *     Stop Time (UTCG)  *   Duration (s)        *       Station  *  Data (Mbytes)
         1   01 Jun 2027 04:18:48.844   01 Jun 2027 04:19:18.513            29.669                Norilsk          3708.625
         2   01 Jun 2027 04:19:21.035   01 Jun 2027 04:19:51.911            30.876                Novosib          3859.500
         3   01 Jun 2027 04:20:15.365   01 Jun 2027 04:20:41.539            26.174              Murmansk2          3271.750
         4   01 Jun 2027 04:20:44.897   01 Jun 2027 04:21:00.543            15.646              Murmansk2          1955.750
         5   01 Jun 2027 04:21:07.622   01 Jun 2027 04:21:43.728            36.106              Murmansk2          4513.250
         6   01 Jun 2027 04:21:58.761   01 Jun 2027 04:22:50.694            51.933                Irkutsk          6491.625
         7   01 Jun 2027 04:23:09.819   01 Jun 2027 04:23:29.032            19.213              Murmansk2          2401.625
         8   01 Jun 2027 04:23:55.760   01 Jun 2027 04:24:22.166            26.406                Norilsk          3300.750
         9   01 Jun 2027 04:24:44.748   01 Jun 2027 04:24:50.438             5.690                Norilsk           711.250
        10   01 Jun 2027 05:00:56.571   01 Jun 2027 05:02:34.135            97.564            RioGallegos         12195.500
        11   01 Jun 2027 05:35:37.104   01 Jun 2027 05:37:53.696           136.592                Sumatra         17074.000
        12   01 Jun 2027 05:40:49.146   01 Jun 2027 05:42:44.116           114.970                  Delhi         14371.250
        13   01 Jun 2027 05:48:36.131   01 Jun 2027 05:50:28.472           112.341                  Delhi         14042.625
        14   01 Jun 2027 05:58:32.519   01 Jun 2027 05:59:15.086            42.567                Novosib          5320.875
        15   01 Jun 2027 05:59:28.088   01 Jun 2027 05:59:46.107            18.019              Murmansk1          2252.375
        16   01 Jun 2027 07:22:36.256   01 Jun 2027 07:24:17.068           100.812                  Delhi         12601.500
        17   01 Jun 2027 07:30:30.049   01 Jun 2027 07:31:06.625            36.576                 Moscow          4572.000
        18   01 Jun 2027 07:31:25.452   01 Jun 2027 07:31:42.162            16.710                Novosib          2088.750
        19   01 Jun 2027 07:31:57.091   01 Jun 2027 07:32:35.499            38.408                Norilsk          4801.000
        20   01 Jun 2027 07:32:46.441   01 Jun 2027 07:34:14.224            87.783              Murmansk2         10972.875
        21   01 Jun 2027 07:34:34.633   01 Jun 2027 07:34:44.993            10.360                Norilsk          1295.000
        22   01 Jun 2027 07:34:49.424   01 Jun 2027 07:36:32.402           102.978                 Moscow         12872.250
        23   01 Jun 2027 08:40:24.249   01 Jun 2027 08:43:20.632           176.383               CapeTown         22047.875
        24   01 Jun 2027 08:48:04.909   01 Jun 2027 08:49:27.442            82.533               CapeTown         10316.625
        25   01 Jun 2027 12:33:36.409   01 Jun 2027 12:33:42.714             6.305               Magadan2           788.125
        26   01 Jun 2027 12:34:38.172   01 Jun 2027 12:35:53.492            75.320               Magadan1          9415.000
        27   01 Jun 2027 12:38:57.385   01 Jun 2027 12:42:21.117           203.732               Magadan2         25466.500
        28   01 Jun 2027 12:43:42.701   01 Jun 2027 12:45:42.261           119.560               Magadan2         14945.000
        29   01 Jun 2027 15:06:09.365   01 Jun 2027 15:10:46.283           276.918            RioGallegos         34614.750
        30   01 Jun 2027 15:57:53.578   01 Jun 2027 15:58:30.494            36.916                Irkutsk          4614.500
        31   01 Jun 2027 16:02:39.023   01 Jun 2027 16:05:46.327           187.304                Sumatra         23413.000
        32   01 Jun 2027 17:27:40.404   01 Jun 2027 17:29:47.096           126.692                Novosib         15836.500
        33   01 Jun 2027 17:32:18.740   01 Jun 2027 17:34:54.008           155.268                  Delhi         19163.000
        34   02 Jun 2027 04:35:11.169   02 Jun 2027 04:35:30.899            19.730              Murmansk2          2466.250
        35   02 Jun 2027 05:52:55.757   02 Jun 2027 05:55:13.615           137.858                  Delhi         17232.250
        36   02 Jun 2027 05:55:57.833   02 Jun 2027 05:57:41.305           103.472                  Delhi         12934.000
        37   02 Jun 2027 06:10:41.055   02 Jun 2027 06:11:30.006            48.951              Murmansk1          6118.875
        38   02 Jun 2027 06:11:46.404   02 Jun 2027 06:12:10.036            23.632                Novosib          2954.000
        39   02 Jun 2027 06:12:20.812   02 Jun 2027 06:13:56.798            95.986                 Moscow         11998.250
        40   02 Jun 2027 06:14:02.532   02 Jun 2027 06:17:44.336           221.804              Murmansk1         27725.500
        41   02 Jun 2027 07:47:14.202   02 Jun 2027 07:50:08.297           174.095                 Moscow         21761.875
        42   02 Jun 2027 07:50:17.989   02 Jun 2027 07:53:37.377           199.388              Murmansk1         24923.500
        43   02 Jun 2027 08:52:02.547   02 Jun 2027 09:02:09.886           607.339               CapeTown         75917.375
        44   02 Jun 2027 09:16:44.683   02 Jun 2027 09:17:13.123            28.440                 Moscow          3555.000
        45   02 Jun 2027 09:19:59.770   02 Jun 2027 09:23:36.815           217.045              Murmansk2         27130.625
        46   02 Jun 2027 09:24:43.253   02 Jun 2027 09:28:21.113           217.860              Murmansk1         27232.500
        47   02 Jun 2027 09:29:32.627   02 Jun 2027 09:29:35.341             2.714              Murmansk2           339.250
        48   02 Jun 2027 09:31:46.754   02 Jun 2027 09:41:10.115           563.361                Anadyr1         70420.125
        49   02 Jun 2027 11:07:18.225   02 Jun 2027 11:07:35.012            16.787                Anadyr2          2098.375
        50   02 Jun 2027 11:07:39.898   02 Jun 2027 11:09:43.297           123.399                Anadyr1         15424.875
        51   02 Jun 2027 12:45:34.693   02 Jun 2027 12:47:22.762           108.069               Magadan1         13508.625
        52   02 Jun 2027 12:49:56.933   02 Jun 2027 12:50:31.711            34.778               Magadan1          4347.250
        53   02 Jun 2027 12:51:53.567   02 Jun 2027 12:52:29.038            35.471               Magadan2          4433.875
        54   02 Jun 2027 12:55:07.213   02 Jun 2027 12:55:08.367             1.154               Magadan1           144.250
        55   02 Jun 2027 14:21:25.162   02 Jun 2027 14:22:23.152            57.990               Magadan1          7248.750
        56   02 Jun 2027 15:13:10.651   02 Jun 2027 15:15:30.442           139.791            RioGallegos         17473.875
        57   02 Jun 2027 15:20:43.158   02 Jun 2027 15:22:41.392           118.234            RioGallegos         14779.250
        58   02 Jun 2027 16:00:55.528   02 Jun 2027 16:02:06.252            70.724                Irkutsk          8840.500
        59   02 Jun 2027 16:14:38.866   02 Jun 2027 16:17:07.765           148.899                Sumatra         18612.375
        60   02 Jun 2027 16:22:12.525   02 Jun 2027 16:24:17.276           124.751                Sumatra         15593.875
        61   02 Jun 2027 17:39:44.651   02 Jun 2027 17:41:42.364           117.713                Novosib         14714.125
        62   02 Jun 2027 17:44:11.243   02 Jun 2027 17:47:42.656           211.413                  Delhi         26426.625
        63   02 Jun 2027 20:49:53.041   02 Jun 2027 20:51:23.874            90.833              Murmansk1         11354.125
        64   02 Jun 2027 20:53:29.275   02 Jun 2027 20:55:10.356           101.081                 Moscow         12016.375
        65   03 Jun 2027 03:11:07.533   03 Jun 2027 03:15:32.678           265.145              Murmansk1         33143.125
        66   03 Jun 2027 04:20:40.892   03 Jun 2027 04:22:41.599           120.707                Sumatra         15088.375
        67   03 Jun 2027 04:28:20.341   03 Jun 2027 04:30:21.606           121.265                Sumatra         15158.125
        68   03 Jun 2027 04:45:41.746   03 Jun 2027 04:46:18.881            37.135                Novosib          4641.875
        69   03 Jun 2027 04:47:04.883   03 Jun 2027 04:47:31.784            26.901              Murmansk2          3362.625
        70   03 Jun 2027 04:47:38.291   03 Jun 2027 04:48:30.081            51.790                Norilsk          6473.750
        71   03 Jun 2027 04:48:42.468   03 Jun 2027 04:49:14.481            32.013                 Moscow          4001.625
        72   03 Jun 2027 04:49:39.166   03 Jun 2027 04:54:08.488           269.322              Murmansk1         33665.250
        73   03 Jun 2027 06:09:36.607   03 Jun 2027 06:17:18.226           461.619                  Delhi         57702.375
        74   03 Jun 2027 06:22:55.710   03 Jun 2027 06:23:22.940            27.230              Murmansk2          3403.750
        75   03 Jun 2027 06:23:36.455   03 Jun 2027 06:24:03.011            26.556                Novosib          3319.500
        76   03 Jun 2027 06:24:17.441   03 Jun 2027 06:26:01.840           104.399                 Moscow         13049.875
        77   03 Jun 2027 06:26:36.698   03 Jun 2027 06:29:44.574           187.876              Murmansk1         23484.500
        78   03 Jun 2027 07:49:15.175   03 Jun 2027 07:49:38.414            23.239                 Moscow          2904.875
        79   03 Jun 2027 07:52:34.034   03 Jun 2027 07:52:55.304            21.270                 Moscow          2658.750
        80   03 Jun 2027 07:53:38.912   03 Jun 2027 07:55:12.978            94.066                 Moscow         11758.250
        81   03 Jun 2027 07:57:52.330   03 Jun 2027 08:02:09.227           256.897                 Moscow         32112.125
        82   03 Jun 2027 08:02:20.459   03 Jun 2027 08:05:39.031           198.572              Murmansk1         24821.500
        83   03 Jun 2027 09:06:25.276   03 Jun 2027 09:14:41.831           496.555               CapeTown         62069.375
        84   03 Jun 2027 09:32:01.093   03 Jun 2027 09:33:11.922            70.829              Murmansk1          8853.625
        85   03 Jun 2027 09:33:25.625   03 Jun 2027 09:34:52.296            86.671                 Moscow         10833.875
        86   03 Jun 2027 09:36:44.907   03 Jun 2027 09:40:46.550           241.643              Murmansk1         30205.375
        87   03 Jun 2027 09:41:34.289   03 Jun 2027 09:41:36.505             2.216              Murmansk2           277.000
        88   03 Jun 2027 09:43:41.830   03 Jun 2027 09:50:55.996           434.166                Anadyr2         54270.750
        89   03 Jun 2027 11:19:18.904   03 Jun 2027 11:19:31.545            12.641                Anadyr1          1580.125
        90   03 Jun 2027 12:57:33.722   03 Jun 2027 13:00:25.461           171.739               Magadan2         21467.375
        91   03 Jun 2027 13:04:18.569   03 Jun 2027 13:07:46.377           207.808               Magadan2         25976.000
        92   03 Jun 2027 14:53:47.649   03 Jun 2027 14:54:47.969            60.320                Sumatra          7540.000
        93   03 Jun 2027 15:25:06.100   03 Jun 2027 15:26:46.631           100.531            RioGallegos         12566.375
        94   03 Jun 2027 16:13:47.786   03 Jun 2027 16:16:00.140           132.354                Irkutsk         16544.250
        95   03 Jun 2027 16:17:51.603   03 Jun 2027 16:20:01.413           129.810                Irkutsk         16226.250
        96   03 Jun 2027 16:26:44.346   03 Jun 2027 16:28:09.507            85.161                Sumatra         10645.125
        97   03 Jun 2027 17:49:19.707   03 Jun 2027 17:49:58.180            38.473                Novosib          4809.125
        98   03 Jun 2027 17:51:59.955   03 Jun 2027 17:52:53.012            53.057                Novosib          6632.125
        99   03 Jun 2027 17:53:38.994   03 Jun 2027 17:55:00.257            81.263                Novosib         10157.875
       100   03 Jun 2027 17:56:07.440   03 Jun 2027 17:58:30.368           142.928                  Delhi         17866.000
       101   03 Jun 2027 21:02:17.762   03 Jun 2027 21:02:43.957            26.195                 Moscow          3274.375
       102   03 Jun 2027 21:03:54.342   03 Jun 2027 21:05:34.966           100.624                 Moscow         12578.000
       103   03 Jun 2027 21:29:24.304   03 Jun 2027 21:30:21.529            57.225               CapeTown          7153.125
       104   04 Jun 2027 02:59:21.289   04 Jun 2027 03:01:22.176           120.887                Sumatra          8446.625
       105   04 Jun 2027 03:22:54.919   04 Jun 2027 03:24:48.223           113.304              Murmansk1         14163.000
       106   04 Jun 2027 04:32:49.285   04 Jun 2027 04:34:00.970            71.685                Sumatra          8960.625
       107   04 Jun 2027 04:35:39.521   04 Jun 2027 04:37:30.259           110.738                Sumatra         13842.250
       108   04 Jun 2027 04:59:06.970   04 Jun 2027 05:01:26.602           139.632                 Moscow         17454.000
       109   04 Jun 2027 05:01:33.909   04 Jun 2027 05:06:05.743           271.834              Murmansk1         33979.250
       110   04 Jun 2027 06:24:49.010   04 Jun 2027 06:29:04.244           255.234                  Delhi         31904.250
       111   04 Jun 2027 06:29:16.886   04 Jun 2027 06:29:57.649            40.763                 Moscow          5095.375
       112   04 Jun 2027 06:34:51.996   04 Jun 2027 06:38:06.377           194.381                 Moscow         24297.625
       113   04 Jun 2027 06:38:33.325   04 Jun 2027 06:41:45.086           191.761              Murmansk2         23970.125
       114   04 Jun 2027 08:04:34.835   04 Jun 2027 08:06:05.815            90.980                 Moscow         11372.500
       115   04 Jun 2027 08:09:57.029   04 Jun 2027 08:11:09.231            72.202              Murmansk1          9025.250
       116   04 Jun 2027 08:11:23.913   04 Jun 2027 08:14:09.488           165.575                 Moscow         20696.875
       117   04 Jun 2027 08:14:14.855   04 Jun 2027 08:17:40.737           205.882              Murmansk1         25735.250
       118   04 Jun 2027 09:19:49.914   04 Jun 2027 09:27:05.710           435.796               CapeTown         54474.500
       119   04 Jun 2027 09:44:24.742   04 Jun 2027 09:45:13.817            49.075              Murmansk1          6134.375
       120   04 Jun 2027 09:45:27.360   04 Jun 2027 09:48:03.782           156.422                 Moscow         19552.750
       121   04 Jun 2027 09:48:46.485   04 Jun 2027 09:52:42.349           235.864              Murmansk1         29483.000
       122   04 Jun 2027 09:53:35.973   04 Jun 2027 09:53:37.412             1.439              Murmansk2           179.875
       123   04 Jun 2027 09:55:38.277   04 Jun 2027 10:02:03.445           385.168                Anadyr2         48146.000
       124   04 Jun 2027 13:09:33.377   04 Jun 2027 13:10:01.993            28.616               Magadan1          3577.000
       125   04 Jun 2027 13:10:19.035   04 Jun 2027 13:19:07.991           528.956               Magadan2         66119.500
       126   04 Jun 2027 15:04:49.087   04 Jun 2027 15:08:08.555           199.468                Sumatra         24933.500
       127   04 Jun 2027 15:13:11.538   04 Jun 2027 15:13:36.074            24.536                Sumatra          3067.000
       128   04 Jun 2027 16:38:55.794   04 Jun 2027 16:38:57.770             1.976                Sumatra           247.000
       129   04 Jun 2027 16:39:57.886   04 Jun 2027 16:42:07.695           129.809                  Delhi         16226.125
       130   04 Jun 2027 18:00:47.155   04 Jun 2027 18:01:11.705            24.550                Novosib          3068.750
       131   04 Jun 2027 18:02:29.631   04 Jun 2027 18:04:05.022            95.391                Novosib         11923.875
       132   04 Jun 2027 18:08:07.048   04 Jun 2027 18:09:46.067            99.019                  Delhi         12377.375
       133   04 Jun 2027 18:15:40.555   04 Jun 2027 18:17:43.589           123.034                  Delhi         15379.250
       134   04 Jun 2027 19:42:39.187   04 Jun 2027 19:44:17.532            98.345                 Moscow         12293.125
       135   04 Jun 2027 21:39:43.020   04 Jun 2027 21:40:34.775            51.755               CapeTown          6469.375
       136   04 Jun 2027 21:41:23.915   04 Jun 2027 21:43:08.247           104.332               CapeTown         10969.750
       137   05 Jun 2027 03:35:12.793   05 Jun 2027 03:36:54.061           101.268                Norilsk         12658.500
       138   05 Jun 2027 04:45:03.974   05 Jun 2027 04:45:31.580            27.606                Sumatra          3450.750
       139   05 Jun 2027 04:47:04.342   05 Jun 2027 04:49:26.704           142.362                Sumatra         17795.250
       140   05 Jun 2027 05:00:51.527   05 Jun 2027 05:00:55.968             4.441                  Delhi           555.125
       141   05 Jun 2027 05:10:41.317   05 Jun 2027 05:11:37.071            55.754              Murmansk2          6969.250
       142   05 Jun 2027 05:11:44.188   05 Jun 2027 05:13:36.755           112.567                 Moscow         14070.875
       143   05 Jun 2027 05:14:20.376   05 Jun 2027 05:18:03.544           223.168              Murmansk2         27896.000
       144   05 Jun 2027 06:36:46.655   05 Jun 2027 06:38:35.372           108.717                  Delhi         13589.625
       145   05 Jun 2027 06:38:57.351   05 Jun 2027 06:41:28.865           151.514                Novosib         18939.250
       146   05 Jun 2027 06:46:51.302   05 Jun 2027 06:47:34.525            43.223              Murmansk1          5402.875
       147   05 Jun 2027 06:47:39.893   05 Jun 2027 06:50:10.425           150.532                 Moscow         18816.500
       148   05 Jun 2027 06:50:48.747   05 Jun 2027 06:53:45.856           177.109              Murmansk1         22138.625
       149   05 Jun 2027 08:16:34.947   05 Jun 2027 08:18:03.182            88.235                 Moscow         11029.375
       150   05 Jun 2027 08:20:06.584   05 Jun 2027 08:20:38.467            31.883              Murmansk1          3985.375
       151   05 Jun 2027 08:20:58.130   05 Jun 2027 08:21:28.798            30.668              Murmansk2          3833.500
       152   05 Jun 2027 08:21:28.798   05 Jun 2027 08:23:19.306           110.508              Murmansk1         13813.500
       153   05 Jun 2027 08:23:21.685   05 Jun 2027 08:23:59.119            37.434                Norilsk          4679.250
       154   05 Jun 2027 08:24:46.403   05 Jun 2027 08:26:08.993            82.590                 Moscow         10323.750
       155   05 Jun 2027 08:26:16.022   05 Jun 2027 08:29:42.470           206.448              Murmansk1         25806.000
       156   05 Jun 2027 08:33:22.537   05 Jun 2027 08:37:09.085           226.548                Anadyr2         28318.500
       157   05 Jun 2027 09:32:46.023   05 Jun 2027 09:39:22.887           396.864               CapeTown         49608.000
       158   05 Jun 2027 13:26:06.488   05 Jun 2027 13:26:23.291            16.803               Magadan1          2100.375
       159   05 Jun 2027 13:28:24.484   05 Jun 2027 13:32:48.950           264.466               Magadan2         33058.250
       160   05 Jun 2027 15:05:03.115   05 Jun 2027 15:05:29.112            25.997                Irkutsk          3249.625
       161   05 Jun 2027 15:15:55.221   05 Jun 2027 15:23:37.277           462.056                Sumatra         57757.000
       162   05 Jun 2027 16:40:43.170   05 Jun 2027 16:43:49.441           186.271                Novosib         23283.875
       163   05 Jun 2027 16:45:56.922   05 Jun 2027 16:46:16.089            19.167                  Delhi          2395.875
       164   05 Jun 2027 16:50:36.195   05 Jun 2027 16:55:05.007           268.812                  Delhi         33601.500
       165   05 Jun 2027 21:38:34.415   05 Jun 2027 21:39:09.811            35.396                 Moscow          4424.500
       166   05 Jun 2027 21:50:22.363   05 Jun 2027 21:51:14.911            52.548               CapeTown          6568.500
       167   05 Jun 2027 21:56:44.541   05 Jun 2027 21:57:54.318            69.777               CapeTown          6800.125
       168   06 Jun 2027 04:57:26.044   06 Jun 2027 04:59:06.788           100.744                Sumatra         12593.000
       169   06 Jun 2027 05:11:16.623   06 Jun 2027 05:12:03.199            46.576                  Delhi          5822.000
       170   06 Jun 2027 05:22:57.052   06 Jun 2027 05:25:45.519           168.467                 Moscow         21058.375
       171   06 Jun 2027 05:26:14.638   06 Jun 2027 05:30:01.851           227.213              Murmansk2         28401.625
       172   06 Jun 2027 06:48:40.750   06 Jun 2027 06:50:30.873           110.123                  Delhi         13765.375
       173   06 Jun 2027 06:50:57.596   06 Jun 2027 06:52:52.992           115.396                Novosib         14424.500
       174   06 Jun 2027 06:53:17.790   06 Jun 2027 06:53:56.016            38.226                Novosib          4778.250
       175   06 Jun 2027 06:53:59.430   06 Jun 2027 06:54:31.724            32.294                 Moscow          4036.750
       176   06 Jun 2027 06:59:03.541   06 Jun 2027 07:02:14.004           190.463                 Moscow         23807.875
       177   06 Jun 2027 07:02:24.638   06 Jun 2027 07:05:46.838           202.200              Murmansk2         25275.000
       178   06 Jun 2027 08:28:33.906   06 Jun 2027 08:30:03.367            89.461                 Moscow         11182.625
       179   06 Jun 2027 08:32:08.319   06 Jun 2027 08:33:32.286            83.967              Murmansk2         10495.875
       180   06 Jun 2027 08:33:32.286   06 Jun 2027 08:35:31.559           119.273              Murmansk1         14909.125
       181   06 Jun 2027 08:35:49.636   06 Jun 2027 08:38:07.647           138.011                 Moscow         17251.375
       182   06 Jun 2027 08:38:20.735   06 Jun 2027 08:41:44.194           203.459              Murmansk1         25432.375
       183   06 Jun 2027 08:44:49.939   06 Jun 2027 08:50:21.826           331.887                Anadyr2         41485.875
       184   06 Jun 2027 10:29:02.312   06 Jun 2027 10:29:07.849             5.537                Anadyr1           692.125
       185   06 Jun 2027 12:07:17.895   06 Jun 2027 12:07:32.986            15.091               Magadan1          1886.375
       186   06 Jun 2027 13:33:34.213   06 Jun 2027 13:33:50.558            16.345               Magadan2          2043.125
       187   06 Jun 2027 13:35:19.738   06 Jun 2027 13:36:51.528            91.790               Magadan1         11473.750
       188   06 Jun 2027 13:41:12.441   06 Jun 2027 13:41:43.088            30.647               Magadan1          3830.875
       189   06 Jun 2027 13:43:09.512   06 Jun 2027 13:43:22.132            12.620               Magadan1          1577.500
       190   06 Jun 2027 13:45:13.781   06 Jun 2027 13:46:28.941            75.160               Magadan2          9395.000
       191   06 Jun 2027 15:14:53.668   06 Jun 2027 15:18:43.885           230.217                Irkutsk         28777.125
       192   06 Jun 2027 15:29:20.870   06 Jun 2027 15:34:16.213           295.343                Sumatra         36917.875
       193   06 Jun 2027 16:54:27.967   06 Jun 2027 16:55:59.831            91.864                Novosib         11483.000
       194   06 Jun 2027 16:57:24.858   06 Jun 2027 17:05:02.874           458.016                  Delhi         57252.000
       195   06 Jun 2027 20:10:34.647   06 Jun 2027 20:12:11.561            96.914                 Moscow         12114.250
       196   06 Jun 2027 22:02:36.460   06 Jun 2027 22:02:53.074            16.614               CapeTown          2076.750
       197   06 Jun 2027 22:05:07.757   06 Jun 2027 22:06:58.851           111.094               CapeTown          3160.750
       198   07 Jun 2027 03:58:47.461   07 Jun 2027 03:59:22.455            34.994              Murmansk2          4374.250
       199   07 Jun 2027 05:09:57.547   07 Jun 2027 05:11:43.335           105.788                Sumatra         13223.500
       200   07 Jun 2027 05:22:02.405   07 Jun 2027 05:22:43.101            40.696                  Delhi          5087.000
       201   07 Jun 2027 05:24:24.185   07 Jun 2027 05:26:37.825           133.640                  Delhi         16705.000
       202   07 Jun 2027 05:34:50.423   07 Jun 2027 05:35:31.401            40.978              Murmansk2          5122.250
       203   07 Jun 2027 05:35:36.776   07 Jun 2027 05:36:25.422            48.646                Novosib          6080.750
       204   07 Jun 2027 05:36:55.245   07 Jun 2027 05:37:53.231            57.986                 Moscow          7248.250
       205   07 Jun 2027 05:38:07.783   07 Jun 2027 05:42:00.615           232.832              Murmansk1         29104.000
       206   07 Jun 2027 07:03:50.208   07 Jun 2027 07:07:04.182           193.974                Novosib         24246.750
       207   07 Jun 2027 07:11:31.537   07 Jun 2027 07:11:58.036            26.499                Norilsk          3312.375
       208   07 Jun 2027 07:12:11.225   07 Jun 2027 07:14:17.100           125.875                 Moscow         15734.375
       209   07 Jun 2027 07:14:27.481   07 Jun 2027 07:17:48.017           200.536              Murmansk2         25067.000
       210   07 Jun 2027 08:18:32.610   07 Jun 2027 08:23:17.509           284.899               CapeTown         35612.375
       211   07 Jun 2027 08:40:32.758   07 Jun 2027 08:40:59.427            26.669                 Moscow          3333.625
       212   07 Jun 2027 08:44:10.038   07 Jun 2027 08:45:33.133            83.095              Murmansk1         10386.875
       213   07 Jun 2027 08:45:33.133   07 Jun 2027 08:47:33.872           120.739              Murmansk2         15092.375
       214   07 Jun 2027 08:47:34.864   07 Jun 2027 08:50:05.311           150.447                 Moscow         18805.875
       215   07 Jun 2027 08:50:21.230   07 Jun 2027 08:53:42.774           201.544              Murmansk2         25193.000
       216   07 Jun 2027 10:40:05.055   07 Jun 2027 10:40:54.991            49.936                Anadyr1          6242.000
       217   07 Jun 2027 12:09:57.589   07 Jun 2027 12:14:49.799           292.210               Magadan2         36526.250
       218   07 Jun 2027 14:40:02.140   07 Jun 2027 14:41:10.376            68.236            RioGallegos          8529.500
       219   07 Jun 2027 15:27:07.266   07 Jun 2027 15:28:45.803            98.537                Irkutsk         12317.125
       220   07 Jun 2027 15:33:43.298   07 Jun 2027 15:34:52.987            69.689                Irkutsk          8711.125
       221   07 Jun 2027 15:39:11.167   07 Jun 2027 15:41:41.133           149.966                Sumatra         18745.750
       222   07 Jun 2027 15:44:53.211   07 Jun 2027 15:45:23.997            30.786                Sumatra          3848.250
       223   07 Jun 2027 17:03:04.158   07 Jun 2027 17:06:16.701           192.543                Novosib         24067.875
       224   07 Jun 2027 17:09:01.774   07 Jun 2027 17:10:19.560            77.786                  Delhi          9723.250
       225   07 Jun 2027 17:12:01.571   07 Jun 2027 17:15:38.067           216.496                  Delhi         27062.000
       226   07 Jun 2027 18:49:59.575   07 Jun 2027 18:50:40.031            40.456                  Delhi          5057.000
       227   07 Jun 2027 20:14:36.464   07 Jun 2027 20:15:53.639            77.175                 Moscow          9646.875
       228   07 Jun 2027 20:17:08.134   07 Jun 2027 20:19:40.536           152.402                 Moscow         18410.875
       229   08 Jun 2027 05:22:42.832   08 Jun 2027 05:24:31.988           109.156                Sumatra         13644.500
       230   08 Jun 2027 05:29:02.937   08 Jun 2027 05:31:42.613           159.676                  Delhi         19959.500
       231   08 Jun 2027 05:47:00.631   08 Jun 2027 05:47:43.396            42.765              Murmansk2          5345.625
       232   08 Jun 2027 05:47:47.509   08 Jun 2027 05:48:33.935            46.426                Novosib          5803.250
       233   08 Jun 2027 05:48:50.755   08 Jun 2027 05:50:00.116            69.361                 Moscow          8670.125
       234   08 Jun 2027 05:50:09.536   08 Jun 2027 05:53:59.811           230.275              Murmansk1         28784.375
       235   08 Jun 2027 07:13:36.944   08 Jun 2027 07:14:29.711            52.767                 Moscow          6595.875
       236   08 Jun 2027 07:22:36.042   08 Jun 2027 07:23:05.554            29.512              Murmansk1          3689.000
       237   08 Jun 2027 07:24:54.752   08 Jun 2027 07:26:19.696            84.944                 Moscow         10618.000
       238   08 Jun 2027 07:26:27.834   08 Jun 2027 07:29:49.349           201.515              Murmansk1         25189.375
       239   08 Jun 2027 08:29:21.386   08 Jun 2027 08:36:45.828           444.442               CapeTown         55555.250
       240   08 Jun 2027 08:56:11.715   08 Jun 2027 08:57:43.371            91.656              Murmansk1         11457.000
       241   08 Jun 2027 08:57:43.371   08 Jun 2027 08:59:28.194           104.823              Murmansk2         13102.875
       242   08 Jun 2027 08:59:54.370   08 Jun 2027 09:02:01.797           127.427                 Moscow         15928.375
       243   08 Jun 2027 09:02:23.221   08 Jun 2027 09:05:47.497           204.276              Murmansk2         25534.500
       244   08 Jun 2027 09:08:17.578   08 Jun 2027 09:16:06.922           469.344                Anadyr2         58668.000
       245   08 Jun 2027 10:10:21.462   08 Jun 2027 10:13:42.148           200.686               CapeTown         25085.750
       246   08 Jun 2027 10:43:32.791   08 Jun 2027 10:45:08.054            95.263                Anadyr1         11907.875
       247   08 Jun 2027 12:21:53.922   08 Jun 2027 12:23:15.120            81.198               Magadan2         10149.750
       248   08 Jun 2027 12:27:43.140   08 Jun 2027 12:31:26.151           223.011               Magadan1         27876.375
       249   08 Jun 2027 14:53:15.854   08 Jun 2027 14:54:30.350            74.496            RioGallegos          9312.000
       250   08 Jun 2027 15:37:17.436   08 Jun 2027 15:39:25.224           127.788                Irkutsk         15973.500
       251   08 Jun 2027 15:45:00.243   08 Jun 2027 15:46:48.472           108.229                Irkutsk         13528.625
       252   08 Jun 2027 15:50:59.601   08 Jun 2027 15:56:46.864           347.263                Sumatra         43407.875
       253   08 Jun 2027 17:20:45.123   08 Jun 2027 17:26:49.468           364.345                  Delhi         45543.125
       254   08 Jun 2027 20:26:47.435   08 Jun 2027 20:27:33.133            45.698                 Moscow          5712.250
       255   08 Jun 2027 20:29:23.643   08 Jun 2027 20:31:33.755           130.112                 Moscow          6368.249
       256   09 Jun 2027 05:40:31.960   09 Jun 2027 05:41:35.359            63.399                Sumatra          7924.875
       257   09 Jun 2027 05:42:58.273   09 Jun 2027 05:43:11.842            13.569                  Delhi          1696.125
       258   09 Jun 2027 05:44:15.476   09 Jun 2027 05:46:05.958           110.482                  Delhi         13810.250
       259   09 Jun 2027 05:58:51.409   09 Jun 2027 06:00:30.153            98.744                Novosib         12343.000
       260   09 Jun 2027 06:00:56.873   09 Jun 2027 06:02:06.297            69.424                 Moscow          8678.000
       261   09 Jun 2027 06:02:30.158   09 Jun 2027 06:05:59.387           209.229              Murmansk1         26153.625
       262   09 Jun 2027 07:25:31.910   09 Jun 2027 07:25:52.866            20.956                 Moscow          2619.500
       263   09 Jun 2027 07:36:38.526   09 Jun 2027 07:38:21.777           103.251                 Moscow         12906.375
       264   09 Jun 2027 07:38:24.696   09 Jun 2027 07:41:50.819           206.123              Murmansk1         25765.375
       265   09 Jun 2027 08:40:38.473   09 Jun 2027 08:49:43.452           544.979               CapeTown         68122.375
       266   09 Jun 2027 09:04:41.022   09 Jun 2027 09:04:54.935            13.913                 Moscow          1739.125
       267   09 Jun 2027 09:08:13.311   09 Jun 2027 09:09:33.727            80.416              Murmansk1         10052.000
       268   09 Jun 2027 09:09:33.727   09 Jun 2027 09:11:03.103            89.376              Murmansk2         11172.000
       269   09 Jun 2027 09:12:18.018   09 Jun 2027 09:13:56.880            98.862                 Moscow         12357.750
       270   09 Jun 2027 09:15:13.784   09 Jun 2027 09:16:45.471            91.687              Murmansk2         11460.875
       271   09 Jun 2027 09:17:45.747   09 Jun 2027 09:17:49.009             3.262              Murmansk1           407.750
       272   09 Jun 2027 09:20:08.317   09 Jun 2027 09:28:48.851           520.534                Anadyr2         65066.750
       273   09 Jun 2027 10:16:16.801   09 Jun 2027 10:24:31.919           495.118               CapeTown         61889.750
       274   09 Jun 2027 12:33:51.337   09 Jun 2027 12:34:52.605            61.268               Magadan2          7658.500
       275   09 Jun 2027 12:39:11.465   09 Jun 2027 12:42:36.551           205.086               Magadan1         25635.750
       276   09 Jun 2027 14:17:39.324   09 Jun 2027 14:19:14.291            94.967               Magadan1         11870.875
       277   09 Jun 2027 15:03:15.091   09 Jun 2027 15:05:38.250           143.159            RioGallegos         17894.875
       278   09 Jun 2027 15:06:32.242   09 Jun 2027 15:06:57.372            25.130            RioGallegos          3141.250
       279   09 Jun 2027 15:49:13.244   09 Jun 2027 15:50:46.297            93.053                Irkutsk         11631.625
       280   09 Jun 2027 15:58:09.140   09 Jun 2027 15:58:45.420            36.280                Irkutsk          4535.000
       281   09 Jun 2027 16:02:53.944   09 Jun 2027 16:06:01.398           187.454                Sumatra         23431.750
       282   09 Jun 2027 17:25:03.091   09 Jun 2027 17:25:58.888            55.797                Novosib          6974.625
       283   09 Jun 2027 17:27:55.663   09 Jun 2027 17:30:01.818           126.155                Novosib         15769.375
       284   09 Jun 2027 17:32:33.519   09 Jun 2027 17:35:09.358           155.839                  Delhi         19479.875
       285   09 Jun 2027 17:38:23.882   09 Jun 2027 17:44:55.726           391.844                  Delhi         32470.500
       286   10 Jun 2027 04:35:26.915   10 Jun 2027 04:36:31.441            64.526              Murmansk2          8065.750
       287   10 Jun 2027 05:53:10.938   10 Jun 2027 05:55:28.640           137.702                  Delhi         17212.750
       288   10 Jun 2027 05:58:43.923   10 Jun 2027 06:00:58.707           134.784                  Delhi         16848.000
       289   10 Jun 2027 06:10:55.944   10 Jun 2027 06:11:47.311            51.367              Murmansk2          6420.875
       290   10 Jun 2027 06:12:05.199   10 Jun 2027 06:12:24.906            19.707                Novosib          2463.375
       291   10 Jun 2027 06:13:01.916   10 Jun 2027 06:14:11.878            69.962                 Moscow          8745.250
       292   10 Jun 2027 06:14:17.274   10 Jun 2027 06:17:59.315           222.041              Murmansk2         27755.125
       293   10 Jun 2027 07:47:27.215   10 Jun 2027 07:47:35.170             7.955              Murmansk2           994.375
       294   10 Jun 2027 07:47:41.443   10 Jun 2027 07:50:23.306           161.863                 Moscow         20232.875
       295   10 Jun 2027 07:50:24.546   10 Jun 2027 07:53:52.396           207.850              Murmansk2         25981.250
       296   10 Jun 2027 08:52:18.497   10 Jun 2027 09:02:25.636           607.139               CapeTown         75892.375
       297   10 Jun 2027 09:16:59.352   10 Jun 2027 09:17:08.495             9.143                 Moscow          1142.875
       298   10 Jun 2027 09:20:14.793   10 Jun 2027 09:21:26.086            71.293              Murmansk1          8911.625
       299   10 Jun 2027 09:21:26.086   10 Jun 2027 09:24:08.111           162.025              Murmansk2         20253.125
       300   10 Jun 2027 09:24:40.433   10 Jun 2027 09:27:11.184           150.751              Murmansk1         18843.875
       301   10 Jun 2027 09:27:11.184   10 Jun 2027 09:28:35.691            84.507              Murmansk2         10563.375
       302   10 Jun 2027 09:29:47.361   10 Jun 2027 09:29:50.362             3.001              Murmansk1           375.125
       303   10 Jun 2027 09:32:01.593   10 Jun 2027 09:40:39.450           517.857                Anadyr1         64732.125
       304   10 Jun 2027 11:17:08.241   10 Jun 2027 11:17:21.336            13.095                Anadyr2          1636.875
       305   10 Jun 2027 12:44:52.023   10 Jun 2027 12:46:27.531            95.508                Anadyr2         11938.500
       306   10 Jun 2027 12:46:54.190   10 Jun 2027 12:48:26.371            92.181               Magadan1         11522.625
       307   10 Jun 2027 12:50:03.688   10 Jun 2027 12:52:08.858           125.170               Magadan2         15646.250
       308   10 Jun 2027 14:28:08.682   10 Jun 2027 14:28:48.709            40.027               Magadan2          5003.375
       309   10 Jun 2027 15:13:25.511   10 Jun 2027 15:15:44.315           138.804            RioGallegos         17350.500
       310   10 Jun 2027 15:20:59.142   10 Jun 2027 15:22:56.283           117.141            RioGallegos         14642.625
       311   10 Jun 2027 16:01:10.460   10 Jun 2027 16:02:20.646            70.186                Irkutsk          8773.250
       312   10 Jun 2027 16:14:53.909   10 Jun 2027 16:17:21.659           147.750                Sumatra         18468.750
       313   10 Jun 2027 16:25:49.504   10 Jun 2027 16:26:16.657            27.153                Sumatra          3394.125
       314   10 Jun 2027 17:40:00.297   10 Jun 2027 17:41:57.114           116.817                Novosib         14602.125
       315   10 Jun 2027 17:44:26.106   10 Jun 2027 17:47:55.933           209.827                  Delhi         26228.375
       316   10 Jun 2027 19:15:26.231   10 Jun 2027 19:15:30.260             4.029                 Moscow           503.625
       317   10 Jun 2027 19:21:23.551   10 Jun 2027 19:22:29.300            65.749                  Delhi          8218.625
       318   10 Jun 2027 20:47:23.579   10 Jun 2027 20:48:04.691            41.112              Murmansk2          5139.000
       319   10 Jun 2027 20:50:08.280   10 Jun 2027 20:51:38.953            90.673              Murmansk2         11334.125
       320   10 Jun 2027 20:53:44.410   10 Jun 2027 20:55:25.123           100.713                 Moscow         12589.125
       321   11 Jun 2027 03:11:20.566   11 Jun 2027 03:15:40.552           259.986              Murmansk2         32498.250
       322   11 Jun 2027 04:20:55.990   11 Jun 2027 04:22:55.628           119.638                Sumatra         14954.750
       323   11 Jun 2027 04:28:35.401   11 Jun 2027 04:30:36.806           121.405                Sumatra         15175.625
       324   11 Jun 2027 04:46:00.364   11 Jun 2027 04:46:09.286             8.922              Murmansk1          1115.250
       325   11 Jun 2027 04:47:19.355   11 Jun 2027 04:47:46.432            27.077              Murmansk1          3384.625
       326   11 Jun 2027 04:47:54.762   11 Jun 2027 04:48:45.227            50.465                Norilsk          6308.125
       327   11 Jun 2027 04:48:59.174   11 Jun 2027 04:49:29.704            30.530                 Moscow          3816.250
       328   11 Jun 2027 04:49:53.886   11 Jun 2027 04:54:23.397           269.511              Murmansk2         33688.875
       329   11 Jun 2027 06:09:51.397   11 Jun 2027 06:17:32.973           461.576                  Delhi         57697.000
       330   11 Jun 2027 06:23:11.329   11 Jun 2027 06:23:37.509            26.180              Murmansk2          3272.500
       331   11 Jun 2027 06:23:59.770   11 Jun 2027 06:24:17.840            18.070                Novosib          2258.750
       332   11 Jun 2027 06:24:31.550   11 Jun 2027 06:26:16.912           105.362                 Moscow         13170.250
       333   11 Jun 2027 06:26:52.019   11 Jun 2027 06:29:59.560           187.541              Murmansk2         23442.625
       334   11 Jun 2027 07:49:30.199   11 Jun 2027 07:49:50.378            20.179                 Moscow          2522.375
       335   11 Jun 2027 07:52:49.041   11 Jun 2027 07:53:10.077            21.036                 Moscow          2629.500
       336   11 Jun 2027 07:53:55.527   11 Jun 2027 07:55:27.180            91.653                 Moscow         11456.625
       337   11 Jun 2027 07:58:10.054   11 Jun 2027 08:02:24.225           254.171                 Moscow         31771.375
       338   11 Jun 2027 08:02:36.089   11 Jun 2027 08:05:54.052           197.963              Murmansk2         24745.375
       339   11 Jun 2027 09:06:42.008   11 Jun 2027 09:14:57.392           495.384               CapeTown         61923.000
       340   11 Jun 2027 09:32:16.113   11 Jun 2027 09:33:27.801            71.688              Murmansk1          8961.000
       341   11 Jun 2027 09:33:40.285   11 Jun 2027 09:35:07.114            86.829                 Moscow         10853.625
       342   11 Jun 2027 09:36:59.765   11 Jun 2027 09:39:09.117           129.352              Murmansk2         16169.000
       343   11 Jun 2027 09:39:09.117   11 Jun 2027 09:40:58.539           109.422              Murmansk1         13677.750
       344   11 Jun 2027 09:41:49.023   11 Jun 2027 09:41:51.522             2.499              Murmansk2           312.375
       345   11 Jun 2027 09:43:56.705   11 Jun 2027 09:52:40.080           523.375                Anadyr2         65421.875
       346   11 Jun 2027 11:19:33.898   11 Jun 2027 11:19:46.206            12.308                Anadyr2          1538.500
       347   11 Jun 2027 11:23:48.087   11 Jun 2027 11:24:21.158            33.071                Anadyr1          4133.875
       348   11 Jun 2027 12:57:48.685   11 Jun 2027 13:04:33.792           405.107               Magadan2         50638.375
       349   11 Jun 2027 14:54:00.988   11 Jun 2027 14:55:11.618            70.630                Sumatra          8828.750
       350   11 Jun 2027 15:25:20.999   11 Jun 2027 15:27:00.847            99.848            RioGallegos         12481.000
       351   11 Jun 2027 16:15:28.575   11 Jun 2027 16:18:06.327           157.752                Irkutsk         19719.000
       352   11 Jun 2027 16:26:59.507   11 Jun 2027 16:28:33.757            94.250                Sumatra         11781.250
       353   11 Jun 2027 16:29:58.562   11 Jun 2027 16:31:48.840           110.278                Sumatra         13784.750
       354   11 Jun 2027 17:50:13.379   11 Jun 2027 17:52:15.077           121.698                Novosib         15212.250
       355   11 Jun 2027 17:56:22.379   11 Jun 2027 17:58:44.304           141.925                  Delhi         17740.625
       356   11 Jun 2027 21:02:32.758   11 Jun 2027 21:04:09.478            96.720                 Moscow         12090.000
       357   11 Jun 2027 21:05:50.042   11 Jun 2027 21:06:10.221            20.179                 Moscow          2522.375
       358   11 Jun 2027 21:28:36.803   11 Jun 2027 21:29:39.303            62.500               CapeTown          7812.500
       359   11 Jun 2027 21:30:38.608   11 Jun 2027 21:31:35.043            56.435               CapeTown          7054.375
       360   12 Jun 2027 02:59:33.678   12 Jun 2027 03:08:07.859           514.181                Sumatra          4401.625
       361   12 Jun 2027 03:23:09.446   12 Jun 2027 03:25:02.691           113.245              Murmansk1         14155.625
       362   12 Jun 2027 04:33:04.512   12 Jun 2027 04:34:15.195            70.683                Sumatra          8835.375
       363   12 Jun 2027 04:35:54.298   12 Jun 2027 04:37:44.975           110.677                Sumatra         13834.625
       364   12 Jun 2027 04:59:24.293   12 Jun 2027 05:01:41.784           137.491                 Moscow         17186.375
       365   12 Jun 2027 05:01:48.642   12 Jun 2027 05:06:20.665           272.023              Murmansk2         34002.875
       366   12 Jun 2027 06:25:03.824   12 Jun 2027 06:26:56.940           113.116                  Delhi         14139.500
       367   12 Jun 2027 06:27:12.247   12 Jun 2027 06:29:23.376           131.129                Novosib         16391.125
       368   12 Jun 2027 06:29:34.370   12 Jun 2027 06:30:13.883            39.513                 Moscow          4939.125
       369   12 Jun 2027 06:35:08.050   12 Jun 2027 06:38:21.441           193.391                 Moscow         24173.875
       370   12 Jun 2027 06:38:48.624   12 Jun 2027 06:42:00.080           191.456              Murmansk1         23932.000
       371   12 Jun 2027 08:04:49.829   12 Jun 2027 08:06:20.573            90.744                 Moscow         11343.000
       372   12 Jun 2027 08:09:47.996   12 Jun 2027 08:11:37.501           109.505              Murmansk2         13688.125
       373   12 Jun 2027 08:11:38.454   12 Jun 2027 08:14:24.472           166.018                 Moscow         20752.250
       374   12 Jun 2027 08:14:29.454   12 Jun 2027 08:17:55.760           206.306              Murmansk1         25788.250
       375   12 Jun 2027 09:20:05.874   12 Jun 2027 09:27:21.116           435.242               CapeTown         54405.250
       376   12 Jun 2027 09:44:39.371   12 Jun 2027 09:45:16.008            36.637              Murmansk2          4579.625
       377   12 Jun 2027 09:45:42.021   12 Jun 2027 09:48:15.488           153.467                 Moscow         19183.375
       378   12 Jun 2027 09:49:01.341   12 Jun 2027 09:50:21.338            79.997              Murmansk1          9999.625
       379   12 Jun 2027 09:50:21.338   12 Jun 2027 09:52:57.465           156.127              Murmansk2         19515.875
       380   12 Jun 2027 09:53:50.708   12 Jun 2027 09:53:52.425             1.717              Murmansk1           214.625
       381   12 Jun 2027 09:55:53.182   12 Jun 2027 10:00:32.929           279.747                Anadyr1         34968.375
       382   12 Jun 2027 11:34:53.463   12 Jun 2027 11:37:55.001           181.538               Magadan2         22692.250
       383   12 Jun 2027 13:09:48.355   12 Jun 2027 13:10:34.247            45.892               Magadan1          5736.500
       384   12 Jun 2027 13:13:30.424   12 Jun 2027 13:14:39.898            69.474               Magadan1          8684.250
       385   12 Jun 2027 13:16:55.015   12 Jun 2027 13:19:22.978           147.963               Magadan2         18495.375
       386   12 Jun 2027 15:05:00.119   12 Jun 2027 15:08:37.427           217.308                Sumatra         27163.500
       387   12 Jun 2027 15:13:17.877   12 Jun 2027 15:13:50.376            32.499                Sumatra          4062.375
       388   12 Jun 2027 16:28:56.169   12 Jun 2027 16:30:01.936            65.767                Irkutsk          8220.875
       389   12 Jun 2027 16:40:10.158   12 Jun 2027 16:42:24.133           133.975                  Delhi         16746.875
       390   12 Jun 2027 16:46:49.173   12 Jun 2027 16:47:17.260            28.087                Sumatra          3510.875
       391   12 Jun 2027 18:01:02.154   12 Jun 2027 18:01:26.312            24.158                Novosib          3019.750
       392   12 Jun 2027 18:02:44.752   12 Jun 2027 18:04:20.080            95.328                Novosib         11916.000
       393   12 Jun 2027 18:08:22.059   12 Jun 2027 18:10:00.255            98.196                  Delhi         12274.500
       394   12 Jun 2027 18:15:55.691   12 Jun 2027 18:17:58.656           122.965                  Delhi         15370.625
       395   12 Jun 2027 19:42:34.651   12 Jun 2027 19:44:32.024           117.373                 Moscow         14671.625
       396   12 Jun 2027 21:16:36.800   12 Jun 2027 21:17:52.681            75.881                 Moscow          9485.125
       397   12 Jun 2027 21:41:38.862   12 Jun 2027 21:43:22.909           104.047               CapeTown          6014.125
       398   13 Jun 2027 03:35:33.440   13 Jun 2027 03:36:51.567            78.127                Novosib          9765.875
       399   13 Jun 2027 03:36:53.864   13 Jun 2027 03:37:27.240            33.376                Norilsk          4172.000
       400   13 Jun 2027 04:45:19.341   13 Jun 2027 04:45:45.931            26.590                Sumatra          3323.750
       401   13 Jun 2027 04:47:19.443   13 Jun 2027 04:49:41.517           142.074                Sumatra         17759.250
       402   13 Jun 2027 05:00:56.364   13 Jun 2027 05:03:08.093           131.729                  Delhi         16466.125
       403   13 Jun 2027 05:10:55.803   13 Jun 2027 05:11:54.404            58.601              Murmansk1          7325.125
       404   13 Jun 2027 05:11:58.470   13 Jun 2027 05:13:51.910           113.440                 Moscow         14180.000
       405   13 Jun 2027 05:14:35.879   13 Jun 2027 05:18:18.479           222.600              Murmansk2         27825.000
       406   13 Jun 2027 06:37:01.411   13 Jun 2027 06:38:49.980           108.569                  Delhi         13571.125
       407   13 Jun 2027 06:39:12.054   13 Jun 2027 06:41:44.074           152.020                Novosib         19002.500
       408   13 Jun 2027 06:47:06.875   13 Jun 2027 06:47:49.009            42.134              Murmansk2          5266.750
       409   13 Jun 2027 06:47:56.432   13 Jun 2027 06:50:25.482           149.050                 Moscow         18631.250
       410   13 Jun 2027 06:50:44.591   13 Jun 2027 06:54:00.856           196.265              Murmansk1         24533.125
       411   13 Jun 2027 08:16:49.933   13 Jun 2027 08:18:17.987            88.054                 Moscow         11006.750
       412   13 Jun 2027 08:20:21.608   13 Jun 2027 08:23:36.351           194.743              Murmansk1         24342.875
       413   13 Jun 2027 08:23:52.856   13 Jun 2027 08:25:04.414            71.558                Norilsk          8944.750
       414   13 Jun 2027 08:25:04.695   13 Jun 2027 08:29:57.495           292.800              Murmansk2         36600.000
       415   13 Jun 2027 08:33:36.511   13 Jun 2027 08:37:25.937           229.426                Anadyr1         28678.250
       416   13 Jun 2027 10:12:06.119   13 Jun 2027 10:12:50.632            44.513                Anadyr2          5564.125
       417   13 Jun 2027 10:14:37.570   13 Jun 2027 10:17:23.877           166.307                Anadyr1         20788.375
       418   13 Jun 2027 13:28:40.239   13 Jun 2027 13:31:23.545           163.306               Magadan1         20413.250
       419   13 Jun 2027 15:05:06.137   13 Jun 2027 15:05:53.046            46.909                Irkutsk          5863.625
       420   13 Jun 2027 15:16:09.567   13 Jun 2027 15:23:50.268           460.701                Sumatra         57587.625
       421   13 Jun 2027 16:41:35.116   13 Jun 2027 16:44:14.278           159.162                Novosib         19895.250
       422   13 Jun 2027 16:46:11.101   13 Jun 2027 16:46:47.549            36.448                  Delhi          4556.000
       423   13 Jun 2027 16:50:42.009   13 Jun 2027 16:55:19.378           277.369                  Delhi         34671.125
       424   13 Jun 2027 19:57:25.748   13 Jun 2027 19:58:54.436            88.688                 Moscow         11086.000
       425   13 Jun 2027 21:50:37.583   13 Jun 2027 21:51:29.265            51.682               CapeTown          6460.250
       426   13 Jun 2027 22:00:22.952   13 Jun 2027 22:00:45.958            23.006               CapeTown          2611.875
