uniorb/output/strategy_4/Drop/Drop_KinoSat_111706.txt

KinoSat_111706
-------------------------
    Access    *     Start Time (UTCG)     *     Stop Time (UTCG)  *   Duration (s)        *       Station  *  Data (Mbytes)
         1   01 Jun 2027 03:00:38.579   01 Jun 2027 03:01:48.909            70.330              Murmansk1          2197.812
         2   01 Jun 2027 03:01:52.018   01 Jun 2027 03:03:23.219            91.201                Norilsk          2850.031
         3   01 Jun 2027 03:03:48.677   01 Jun 2027 03:05:47.471           118.794                Irkutsk          3712.313
         4   01 Jun 2027 03:08:31.824   01 Jun 2027 03:11:04.337           152.513                  Delhi          4766.031
         5   01 Jun 2027 04:40:37.606   01 Jun 2027 04:43:21.241           163.635              Murmansk1          5113.594
         6   01 Jun 2027 04:43:21.241   01 Jun 2027 04:45:16.659           115.418              Murmansk2          3606.813
         7   01 Jun 2027 04:45:44.390   01 Jun 2027 04:45:58.626            14.236                 Moscow           444.875
         8   01 Jun 2027 04:47:08.617   01 Jun 2027 04:48:32.847            84.230                 Moscow          2632.188
         9   01 Jun 2027 05:00:39.068   01 Jun 2027 05:03:31.349           172.281               CapeTown          5383.781
        10   01 Jun 2027 06:05:08.761   01 Jun 2027 06:05:29.791            21.030               Magadan1           657.187
        11   01 Jun 2027 06:05:32.445   01 Jun 2027 06:08:31.229           178.784               Magadan1          5587.000
        12   01 Jun 2027 06:15:36.845   01 Jun 2027 06:16:09.030            32.185              Murmansk1          1005.781
        13   01 Jun 2027 06:16:11.793   01 Jun 2027 06:17:12.582            60.789                 Moscow          1899.656
        14   01 Jun 2027 06:17:36.295   01 Jun 2027 06:19:28.685           112.390              Murmansk1          3512.188
        15   01 Jun 2027 06:19:28.685   01 Jun 2027 06:19:43.926            15.241              Murmansk2           476.281
        16   01 Jun 2027 06:19:43.926   01 Jun 2027 06:20:28.780            44.854              Murmansk1          1401.688
        17   01 Jun 2027 07:40:28.436   01 Jun 2027 07:42:00.297            91.861                Anadyr2          2870.656
        18   01 Jun 2027 07:42:15.051   01 Jun 2027 07:42:29.893            14.842                Norilsk           463.812
        19   01 Jun 2027 07:42:33.051   01 Jun 2027 07:43:13.481            40.430               Magadan1          1263.438
        20   01 Jun 2027 07:43:13.481   01 Jun 2027 07:43:25.425            11.944               Magadan2           373.250
        21   01 Jun 2027 07:43:32.818   01 Jun 2027 07:45:46.584           133.766                Anadyr2          4180.188
        22   01 Jun 2027 09:14:58.932   01 Jun 2027 09:18:25.550           206.618                Anadyr1          6456.813
        23   01 Jun 2027 09:18:55.109   01 Jun 2027 09:21:21.723           146.614               Magadan2          4581.687
        24   01 Jun 2027 10:49:51.985   01 Jun 2027 10:52:53.540           181.555               Magadan1          5673.594
        25   01 Jun 2027 10:54:20.651   01 Jun 2027 10:56:18.785           118.134               Magadan2          3691.688
        26   01 Jun 2027 13:12:41.606   01 Jun 2027 13:15:33.909           172.303            RioGallegos          5384.469
        27   01 Jun 2027 13:45:33.074   01 Jun 2027 13:49:48.516           255.442                Sumatra          7982.562
        28   01 Jun 2027 14:04:04.311   01 Jun 2027 14:05:26.495            82.184                Irkutsk          2568.250
        29   01 Jun 2027 15:32:04.399   01 Jun 2027 15:35:01.885           177.486                  Delhi          5546.438
        30   01 Jun 2027 15:40:06.935   01 Jun 2027 15:43:30.943           204.008                Novosib          6375.250
        31   01 Jun 2027 15:47:14.050   01 Jun 2027 15:47:20.383             6.333                Norilsk           197.906
        32   01 Jun 2027 18:27:00.336   01 Jun 2027 18:27:32.703            32.367               CapeTown          1011.469
        33   01 Jun 2027 18:54:25.255   01 Jun 2027 18:59:38.033           312.778              Murmansk2          9774.313
        34   01 Jun 2027 18:59:46.946   01 Jun 2027 19:01:38.372           111.426              Murmansk1          3482.062
        35   01 Jun 2027 20:03:00.746   01 Jun 2027 20:06:36.492           215.746               CapeTown          6742.063
        36   01 Jun 2027 20:42:09.972   01 Jun 2027 20:42:20.503            10.531                Anadyr1           329.094
        37   01 Jun 2027 20:42:50.326   01 Jun 2027 20:42:56.443             6.117                Anadyr1           191.156
        38   01 Jun 2027 20:43:42.251   01 Jun 2027 20:45:13.124            90.873               Magadan1          2839.781
        39   01 Jun 2027 20:45:19.966   01 Jun 2027 20:45:58.210            38.244               Magadan2          1195.125
        40   01 Jun 2027 20:46:13.635   01 Jun 2027 20:46:31.674            18.039               Magadan2           563.719
        41   01 Jun 2027 20:46:54.370   01 Jun 2027 20:47:16.191            21.821               Magadan2           681.906
        42   01 Jun 2027 20:48:32.514   01 Jun 2027 20:49:25.864            53.350               Magadan2          1667.188
        43   01 Jun 2027 22:17:11.505   01 Jun 2027 22:20:53.506           222.001                Anadyr1          6937.531
        44   01 Jun 2027 22:20:55.892   01 Jun 2027 22:22:34.884            98.992                Norilsk          3093.500
        45   01 Jun 2027 22:22:38.577   01 Jun 2027 22:23:11.890            33.313               Magadan2          1041.031
        46   01 Jun 2027 22:23:11.890   01 Jun 2027 22:23:17.586             5.696               Magadan1           178.000
        47   01 Jun 2027 22:23:54.705   01 Jun 2027 22:24:03.958             9.253                Norilsk           289.156
        48   01 Jun 2027 22:24:13.891   01 Jun 2027 22:24:57.784            43.893                Norilsk          1371.656
        49   01 Jun 2027 22:25:45.858   01 Jun 2027 22:26:34.797            48.939                Irkutsk          1529.344
        50   01 Jun 2027 22:27:28.783   01 Jun 2027 22:27:57.300            28.517                Irkutsk           891.156
        51   01 Jun 2027 23:11:23.354   01 Jun 2027 23:14:23.790           180.436            RioGallegos          5638.625
        52   01 Jun 2027 23:52:42.006   01 Jun 2027 23:53:21.011            39.005                Anadyr2          1218.906
        53   01 Jun 2027 23:54:01.843   01 Jun 2027 23:55:24.304            82.461                Anadyr1          2576.906
        54   01 Jun 2027 23:55:26.073   01 Jun 2027 23:55:55.250            29.177                Norilsk           911.781
        55   01 Jun 2027 23:56:00.296   01 Jun 2027 23:56:13.512            13.216               Magadan2           413.000
        56   01 Jun 2027 23:56:15.380   01 Jun 2027 23:56:43.363            27.983                Norilsk           874.469
        57   01 Jun 2027 23:57:00.879   01 Jun 2027 23:57:02.199             1.320               Magadan1            41.250
        58   01 Jun 2027 23:57:11.206   01 Jun 2027 23:57:43.758            32.552               Magadan1          1017.250
        59   01 Jun 2027 23:58:31.017   01 Jun 2027 23:58:46.504            15.487               Magadan1           483.969
        60   01 Jun 2027 23:59:04.604   02 Jun 2027 00:00:07.577            62.973                Irkutsk          1967.906
        61   02 Jun 2027 00:00:19.127   02 Jun 2027 00:00:58.583            39.456                Novosib          1233.000
        62   02 Jun 2027 00:01:17.260   02 Jun 2027 00:01:39.044            21.784                Irkutsk           680.750
        63   02 Jun 2027 00:02:52.928   02 Jun 2027 00:03:19.471            26.543                Novosib           829.469
        64   02 Jun 2027 00:05:00.198   02 Jun 2027 00:05:38.980            38.782                Novosib          1211.937
        65   02 Jun 2027 00:12:45.977   02 Jun 2027 00:14:23.134            97.157                Sumatra          3036.156
        66   02 Jun 2027 00:46:56.464   02 Jun 2027 00:47:18.806            22.342            RioGallegos           698.187
        67   02 Jun 2027 00:50:12.861   02 Jun 2027 00:50:48.052            35.191            RioGallegos          1099.719
        68   02 Jun 2027 00:56:22.668   02 Jun 2027 00:56:33.456            10.788            RioGallegos           337.125
        69   02 Jun 2027 00:58:28.292   02 Jun 2027 00:58:43.823            15.531            RioGallegos           485.344
        70   02 Jun 2027 01:27:12.766   02 Jun 2027 01:28:01.297            48.531                Anadyr2          1516.594
        71   02 Jun 2027 01:28:01.297   02 Jun 2027 01:28:19.735            18.438                Anadyr1           576.187
        72   02 Jun 2027 01:28:33.310   02 Jun 2027 01:29:15.193            41.883                Anadyr2          1308.844
        73   02 Jun 2027 01:31:00.504   02 Jun 2027 01:32:43.093           102.589                Norilsk          3205.906
        74   02 Jun 2027 01:32:45.542   02 Jun 2027 01:33:17.237            31.695               Magadan1           990.469
        75   02 Jun 2027 01:34:39.381   02 Jun 2027 01:34:42.623             3.242               Magadan2           101.312
        76   02 Jun 2027 01:34:54.346   02 Jun 2027 01:36:49.962           115.616                Novosib          3613.000
        77   02 Jun 2027 01:37:21.503   02 Jun 2027 01:37:45.703            24.200                Novosib           756.250
        78   02 Jun 2027 01:39:39.532   02 Jun 2027 01:40:04.405            24.873                Irkutsk           777.281
        79   02 Jun 2027 01:42:26.002   02 Jun 2027 01:42:47.572            21.570                  Delhi           674.063
        80   02 Jun 2027 01:44:58.439   02 Jun 2027 01:45:56.289            57.850                  Delhi          1807.812
        81   02 Jun 2027 01:51:53.976   02 Jun 2027 01:52:44.390            50.414                  Delhi          1575.437
        82   02 Jun 2027 01:53:16.030   02 Jun 2027 01:55:53.575           157.545                Sumatra          4923.281
        83   02 Jun 2027 03:13:20.193   02 Jun 2027 03:13:36.726            16.533                Irkutsk           516.656
        84   02 Jun 2027 03:13:42.989   02 Jun 2027 03:16:11.423           148.434                Irkutsk          4638.562
        85   02 Jun 2027 03:16:28.630   02 Jun 2027 03:17:57.006            88.376                Irkutsk          2761.750
        86   02 Jun 2027 03:18:05.229   02 Jun 2027 03:18:27.836            22.607                Norilsk           706.469
        87   02 Jun 2027 03:18:35.230   02 Jun 2027 03:19:39.615            64.385                Irkutsk          2012.031
        88   02 Jun 2027 04:54:20.858   02 Jun 2027 04:54:34.066            13.208                Norilsk           412.750
        89   02 Jun 2027 04:55:25.327   02 Jun 2027 04:59:26.630           241.303                 Moscow          7540.719
        90   02 Jun 2027 05:12:26.852   02 Jun 2027 05:15:55.918           209.066               CapeTown          6533.312
        91   02 Jun 2027 06:08:58.672   02 Jun 2027 06:12:46.303           227.631                Anadyr1          7113.469
        92   02 Jun 2027 06:13:36.972   02 Jun 2027 06:15:01.100            84.128               Magadan1          2629.000
        93   02 Jun 2027 06:15:25.538   02 Jun 2027 06:16:43.862            78.324                Anadyr2          2447.625
        94   02 Jun 2027 06:16:55.299   02 Jun 2027 06:19:15.982           140.683               Magadan1          4396.344
        95   02 Jun 2027 07:52:11.374   02 Jun 2027 07:54:17.391           126.017               Magadan1          3938.031
        96   02 Jun 2027 07:54:20.750   02 Jun 2027 07:55:20.895            60.145               Magadan2          1879.531
        97   02 Jun 2027 09:26:35.375   02 Jun 2027 09:27:25.162            49.787               Magadan2          1555.844
        98   02 Jun 2027 09:27:55.510   02 Jun 2027 09:29:37.786           102.276               Magadan1          3196.125
        99   02 Jun 2027 09:29:58.319   02 Jun 2027 09:32:59.008           180.689                Anadyr2          5646.531
       100   02 Jun 2027 11:02:35.608   02 Jun 2027 11:02:45.112             9.504                Irkutsk           297.000
       101   02 Jun 2027 11:03:24.537   02 Jun 2027 11:03:54.659            30.122                Irkutsk           941.313
       102   02 Jun 2027 11:04:45.784   02 Jun 2027 11:04:48.708             2.924                Irkutsk            91.375
       103   02 Jun 2027 11:04:52.915   02 Jun 2027 11:05:14.495            21.580               Magadan2           674.375
       104   02 Jun 2027 11:05:34.078   02 Jun 2027 11:07:13.085            99.007               Magadan1          3093.969
       105   02 Jun 2027 11:07:25.257   02 Jun 2027 11:08:00.039            34.782                Irkutsk          1086.938
       106   02 Jun 2027 11:08:07.111   02 Jun 2027 11:08:21.736            14.625                Norilsk           457.031
       107   02 Jun 2027 11:08:35.554   02 Jun 2027 11:08:56.109            20.555                Novosib           642.344
       108   02 Jun 2027 11:08:59.356   02 Jun 2027 11:09:12.146            12.790                Irkutsk           399.687
       109   02 Jun 2027 11:44:01.367   02 Jun 2027 11:45:49.957           108.590            RioGallegos          3393.438
       110   02 Jun 2027 12:18:45.041   02 Jun 2027 12:19:14.714            29.673                Sumatra           927.281
       111   02 Jun 2027 12:27:32.703   02 Jun 2027 12:28:20.736            48.033                Sumatra          1501.031
       112   02 Jun 2027 12:32:54.931   02 Jun 2027 12:34:13.181            78.250                Irkutsk          2445.312
       113   02 Jun 2027 12:36:53.120   02 Jun 2027 12:37:34.043            40.923                Irkutsk          1278.844
       114   02 Jun 2027 12:38:17.222   02 Jun 2027 12:39:06.338            49.116                Norilsk          1534.875
       115   02 Jun 2027 13:23:53.557   02 Jun 2027 13:27:54.971           241.414            RioGallegos          7544.187
       116   02 Jun 2027 14:10:46.151   02 Jun 2027 14:11:47.197            61.046                Novosib          1907.688
       117   02 Jun 2027 14:12:48.314   02 Jun 2027 14:14:58.141           129.827                Novosib          4057.094
       118   02 Jun 2027 14:18:08.276   02 Jun 2027 14:18:27.780            19.504                Norilsk           609.500
       119   02 Jun 2027 14:19:27.216   02 Jun 2027 14:20:39.637            72.421                Novosib          2263.156
       120   02 Jun 2027 15:47:21.707   02 Jun 2027 15:48:31.417            69.710                 Moscow          2178.437
       121   02 Jun 2027 15:49:25.349   02 Jun 2027 15:51:09.260           103.911                 Moscow          3247.219
       122   02 Jun 2027 15:51:51.494   02 Jun 2027 15:52:07.189            15.695              Murmansk2           490.469
       123   02 Jun 2027 15:53:47.616   02 Jun 2027 15:54:08.343            20.727              Murmansk2           647.719
       124   02 Jun 2027 15:54:36.580   02 Jun 2027 15:56:00.561            83.981                Norilsk          2624.406
       125   02 Jun 2027 15:57:08.730   02 Jun 2027 15:57:21.664            12.934                Norilsk           404.187
       126   02 Jun 2027 15:58:13.151   02 Jun 2027 15:59:06.395            53.244                Norilsk          1663.875
       127   02 Jun 2027 16:01:39.534   02 Jun 2027 16:01:43.516             3.982                Norilsk           124.437
       128   02 Jun 2027 17:02:02.745   02 Jun 2027 17:03:04.003            61.258               CapeTown          1914.312
       129   02 Jun 2027 17:05:02.548   02 Jun 2027 17:05:16.983            14.435               CapeTown           451.094
       130   02 Jun 2027 17:06:11.248   02 Jun 2027 17:06:21.823            10.575               CapeTown           330.469
       131   02 Jun 2027 17:07:35.130   02 Jun 2027 17:08:26.182            51.052               CapeTown          1595.375
       132   02 Jun 2027 17:24:36.140   02 Jun 2027 17:24:51.903            15.763                 Moscow           492.594
       133   02 Jun 2027 17:25:58.025   02 Jun 2027 17:26:15.176            17.151                 Moscow           535.969
       134   02 Jun 2027 17:27:47.259   02 Jun 2027 17:28:56.062            68.803              Murmansk2          2150.094
       135   02 Jun 2027 17:29:22.063   02 Jun 2027 17:30:07.451            45.388              Murmansk2          1418.375
       136   02 Jun 2027 17:31:42.221   02 Jun 2027 17:32:02.043            19.822              Murmansk1           619.438
       137   02 Jun 2027 17:41:51.892   02 Jun 2027 17:42:34.043            42.151                Anadyr2          1317.219
       138   02 Jun 2027 17:42:51.448   02 Jun 2027 17:43:10.118            18.670                Anadyr1           583.438
       139   02 Jun 2027 17:44:12.556   02 Jun 2027 17:44:42.989            30.433                Anadyr1           951.031
       140   02 Jun 2027 17:46:12.455   02 Jun 2027 17:46:22.781            10.326                Anadyr1           322.688
       141   02 Jun 2027 18:36:49.867   02 Jun 2027 18:38:48.639           118.772               CapeTown          3711.625
       142   02 Jun 2027 19:07:01.334   02 Jun 2027 19:07:52.117            50.783              Murmansk2          1586.969
       143   02 Jun 2027 19:07:59.039   02 Jun 2027 19:11:46.881           227.842              Murmansk1          7120.062
       144   02 Jun 2027 19:12:44.161   02 Jun 2027 19:13:40.089            55.928              Murmansk2          1747.750
       145   02 Jun 2027 19:20:52.494   02 Jun 2027 19:21:26.967            34.473               Magadan1          1077.281
       146   02 Jun 2027 20:16:28.208   02 Jun 2027 20:18:05.449            97.241               CapeTown          3038.781
       147   02 Jun 2027 20:53:19.602   02 Jun 2027 20:56:29.373           189.771                Anadyr1          5930.344
       148   02 Jun 2027 20:56:47.086   02 Jun 2027 20:59:00.634           133.548               Magadan2          4173.375
       149   02 Jun 2027 20:59:43.198   02 Jun 2027 21:00:32.163            48.965               Magadan2          1530.156
       150   02 Jun 2027 22:29:11.825   02 Jun 2027 22:31:11.562           119.737                Anadyr2          3741.781
       151   02 Jun 2027 22:31:19.290   02 Jun 2027 22:32:52.734            93.444                Anadyr1          2920.125
       152   02 Jun 2027 22:32:57.776   02 Jun 2027 22:34:36.859            99.083                Norilsk          3096.344
       153   02 Jun 2027 22:34:42.900   02 Jun 2027 22:35:14.582            31.682               Magadan2           990.062
       154   02 Jun 2027 22:35:26.253   02 Jun 2027 22:36:44.050            77.797               Magadan1          2431.156
       155   02 Jun 2027 22:36:49.439   02 Jun 2027 22:37:53.133            63.694                Irkutsk          1990.437
       156   02 Jun 2027 22:39:23.983   02 Jun 2027 22:39:40.098            16.115                Irkutsk           503.594
       157   02 Jun 2027 22:42:17.136   02 Jun 2027 22:42:56.586            39.450                Irkutsk          1232.812
       158   02 Jun 2027 22:52:57.081   02 Jun 2027 22:54:10.539            73.458                Sumatra          2295.563
       159   02 Jun 2027 23:31:26.931   02 Jun 2027 23:32:26.751            59.820            RioGallegos          1869.375
       160   03 Jun 2027 00:04:37.059   03 Jun 2027 00:05:08.352            31.293                Anadyr1           977.906
       161   03 Jun 2027 00:05:21.434   03 Jun 2027 00:06:08.315            46.881                Anadyr2          1465.031
       162   03 Jun 2027 00:06:33.709   03 Jun 2027 00:07:25.110            51.401                Anadyr1          1606.281
       163   03 Jun 2027 00:07:26.042   03 Jun 2027 00:08:04.639            38.597                Norilsk          1206.156
       164   03 Jun 2027 00:08:15.073   03 Jun 2027 00:08:26.135            11.062                Norilsk           345.687
       165   03 Jun 2027 00:08:29.585   03 Jun 2027 00:08:33.746             4.161               Magadan2           130.031
       166   03 Jun 2027 00:08:42.057   03 Jun 2027 00:08:56.281            14.224               Magadan2           444.500
       167   03 Jun 2027 00:09:13.570   03 Jun 2027 00:09:17.401             3.831               Magadan2           119.719
       168   03 Jun 2027 00:09:59.199   03 Jun 2027 00:10:39.176            39.977               Magadan2          1249.281
       169   03 Jun 2027 00:11:02.078   03 Jun 2027 00:12:09.330            67.252                Irkutsk          2101.625
       170   03 Jun 2027 00:13:50.280   03 Jun 2027 00:14:15.937            25.657                Novosib           801.781
       171   03 Jun 2027 00:14:47.421   03 Jun 2027 00:15:05.054            17.633                Novosib           551.031
       172   03 Jun 2027 00:17:05.824   03 Jun 2027 00:17:36.631            30.807                Novosib           962.719
       173   03 Jun 2027 00:24:45.514   03 Jun 2027 00:25:12.281            26.767                Sumatra           836.469
       174   03 Jun 2027 00:27:07.755   03 Jun 2027 00:27:27.955            20.200                Sumatra           631.250
       175   03 Jun 2027 00:27:54.893   03 Jun 2027 00:28:49.373            54.480                Sumatra          1702.500
       176   03 Jun 2027 00:35:48.817   03 Jun 2027 00:36:46.090            57.273                Sumatra          1789.781
       177   03 Jun 2027 01:04:12.376   03 Jun 2027 01:04:44.874            32.498            RioGallegos          1015.563
       178   03 Jun 2027 01:09:59.260   03 Jun 2027 01:10:28.862            29.602            RioGallegos           925.063
       179   03 Jun 2027 01:38:58.004   03 Jun 2027 01:39:15.387            17.383                Anadyr2           543.219
       180   03 Jun 2027 01:40:05.801   03 Jun 2027 01:40:33.310            27.509                Anadyr1           859.656
       181   03 Jun 2027 01:40:58.082   03 Jun 2027 01:41:04.901             6.819                Anadyr1           213.094
       182   03 Jun 2027 01:41:04.901   03 Jun 2027 01:41:16.466            11.565                Anadyr2           361.406
       183   03 Jun 2027 01:41:35.694   03 Jun 2027 01:42:00.997            25.303                Anadyr2           790.719
       184   03 Jun 2027 01:43:02.845   03 Jun 2027 01:44:44.580           101.735                Norilsk          3179.219
       185   03 Jun 2027 01:44:53.171   03 Jun 2027 01:45:06.978            13.807               Magadan2           431.469
       186   03 Jun 2027 01:46:27.098   03 Jun 2027 01:47:03.709            36.611              Murmansk2          1144.094
       187   03 Jun 2027 01:47:18.060   03 Jun 2027 01:48:48.992            90.932                Novosib          2841.625
       188   03 Jun 2027 01:49:38.426   03 Jun 2027 01:51:00.341            81.915                Irkutsk          2559.844
       189   03 Jun 2027 01:57:23.098   03 Jun 2027 01:57:23.599             0.501                  Delhi            15.656
       190   03 Jun 2027 02:00:22.613   03 Jun 2027 02:00:40.077            17.464                  Delhi           545.750
       191   03 Jun 2027 02:02:35.905   03 Jun 2027 02:03:49.454            73.549                  Delhi          2298.406
       192   03 Jun 2027 02:35:57.054   03 Jun 2027 02:36:48.993            51.939            RioGallegos          1623.094
       193   03 Jun 2027 02:38:08.588   03 Jun 2027 02:38:41.350            32.762            RioGallegos          1023.813
       194   03 Jun 2027 02:38:57.883   03 Jun 2027 02:39:26.813            28.930            RioGallegos           904.062
       195   03 Jun 2027 02:41:46.044   03 Jun 2027 02:41:52.503             6.459            RioGallegos           201.844
       196   03 Jun 2027 02:43:59.648   03 Jun 2027 02:44:10.264            10.616            RioGallegos           331.750
       197   03 Jun 2027 03:27:55.955   03 Jun 2027 03:29:52.649           116.694                 Moscow          3646.688
       198   03 Jun 2027 03:29:55.055   03 Jun 2027 03:30:41.477            46.422                 Moscow          1450.687
       199   03 Jun 2027 03:30:41.923   03 Jun 2027 03:30:56.425            14.502                Irkutsk           453.188
       200   03 Jun 2027 03:31:08.036   03 Jun 2027 03:31:43.775            35.739                Novosib          1116.844
       201   03 Jun 2027 03:33:18.991   03 Jun 2027 03:40:37.745           438.754                  Delhi         13711.063
       202   03 Jun 2027 05:04:34.840   03 Jun 2027 05:05:19.567            44.727                Novosib          1397.719
       203   03 Jun 2027 05:05:54.973   03 Jun 2027 05:05:56.322             1.349              Murmansk2            42.156
       204   03 Jun 2027 05:05:58.618   03 Jun 2027 05:06:14.719            16.101                 Moscow           503.156
       205   03 Jun 2027 05:07:07.491   03 Jun 2027 05:07:27.512            20.021                 Moscow           625.656
       206   03 Jun 2027 05:08:41.849   03 Jun 2027 05:09:08.896            27.047                 Moscow           845.219
       207   03 Jun 2027 05:10:13.216   03 Jun 2027 05:10:38.151            24.935                 Moscow           779.219
       208   03 Jun 2027 05:24:19.782   03 Jun 2027 05:27:05.808           166.026               CapeTown          5188.312
       209   03 Jun 2027 06:27:26.426   03 Jun 2027 06:27:39.754            13.328                Anadyr2           416.500
       210   03 Jun 2027 06:27:39.754   03 Jun 2027 06:27:47.826             8.072                Anadyr1           252.250
       211   03 Jun 2027 06:28:06.542   03 Jun 2027 06:29:39.835            93.293                Anadyr2          2915.406
       212   03 Jun 2027 07:03:43.892   03 Jun 2027 07:05:10.525            86.633               CapeTown          2707.281
       213   03 Jun 2027 08:01:33.855   03 Jun 2027 08:01:49.174            15.319               Magadan2           478.719
       214   03 Jun 2027 08:02:12.557   03 Jun 2027 08:03:27.628            75.071                Anadyr2          2345.969
       215   03 Jun 2027 08:03:43.961   03 Jun 2027 08:04:18.937            34.976               Magadan1          1093.000
       216   03 Jun 2027 08:04:36.928   03 Jun 2027 08:06:02.288            85.360                Anadyr2          2667.500
       217   03 Jun 2027 08:06:15.221   03 Jun 2027 08:06:19.893             4.672               Magadan1           146.000
       218   03 Jun 2027 08:06:49.128   03 Jun 2027 08:07:26.690            37.562                Anadyr2          1173.813
       219   03 Jun 2027 08:07:26.690   03 Jun 2027 08:07:38.049            11.359                Anadyr1           354.969
       220   03 Jun 2027 08:48:41.546   03 Jun 2027 08:48:49.932             8.386            RioGallegos           262.063
       221   03 Jun 2027 08:50:45.107   03 Jun 2027 08:50:59.548            14.441            RioGallegos           451.281
       222   03 Jun 2027 08:55:27.821   03 Jun 2027 08:55:44.186            16.365            RioGallegos           511.406
       223   03 Jun 2027 09:37:49.633   03 Jun 2027 09:38:00.032            10.399               Magadan1           324.969
       224   03 Jun 2027 09:38:11.951   03 Jun 2027 09:38:47.710            35.759               Magadan2          1117.469
       225   03 Jun 2027 09:39:21.658   03 Jun 2027 09:39:27.689             6.031               Magadan1           188.469
       226   03 Jun 2027 09:39:27.689   03 Jun 2027 09:40:10.462            42.773               Magadan2          1336.656
       227   03 Jun 2027 09:41:37.813   03 Jun 2027 09:42:48.140            70.327               Magadan1          2197.719
       228   03 Jun 2027 09:42:57.630   03 Jun 2027 09:43:14.084            16.454               Magadan1           514.188
       229   03 Jun 2027 09:43:30.307   03 Jun 2027 09:44:15.727            45.420               Magadan1          1419.375
       230   03 Jun 2027 09:44:32.825   03 Jun 2027 09:45:18.958            46.133               Magadan2          1441.656
       231   03 Jun 2027 10:20:27.099   03 Jun 2027 10:20:34.261             7.162            RioGallegos           223.813
       232   03 Jun 2027 10:21:19.374   03 Jun 2027 10:21:20.611             1.237            RioGallegos            38.656
       233   03 Jun 2027 10:21:28.490   03 Jun 2027 10:21:40.995            12.505            RioGallegos           390.781
       234   03 Jun 2027 10:24:51.421   03 Jun 2027 10:25:38.837            47.416            RioGallegos          1481.750
       235   03 Jun 2027 10:58:10.442   03 Jun 2027 10:59:37.334            86.892                Sumatra          2715.375
       236   03 Jun 2027 11:15:38.741   03 Jun 2027 11:15:39.769             1.028                Irkutsk            32.125
       237   03 Jun 2027 11:16:42.964   03 Jun 2027 11:17:22.151            39.187                Irkutsk          1224.594
       238   03 Jun 2027 11:17:39.137   03 Jun 2027 11:19:29.765           110.628               Magadan1          3457.125
       239   03 Jun 2027 11:19:45.505   03 Jun 2027 11:20:17.118            31.613                Novosib           987.906
       240   03 Jun 2027 11:20:23.199   03 Jun 2027 11:20:47.087            23.888                Norilsk           746.500
       241   03 Jun 2027 11:20:56.131   03 Jun 2027 11:21:13.381            17.250                Novosib           539.063
       242   03 Jun 2027 11:56:14.004   03 Jun 2027 11:56:52.666            38.662            RioGallegos          1208.187
       243   03 Jun 2027 11:57:06.168   03 Jun 2027 11:57:48.262            42.094            RioGallegos          1315.438
       244   03 Jun 2027 12:30:47.412   03 Jun 2027 12:32:36.467           109.055                Sumatra          3407.969
       245   03 Jun 2027 12:45:15.950   03 Jun 2027 12:46:18.600            62.650                Irkutsk          1957.812
       246   03 Jun 2027 12:46:54.838   03 Jun 2027 12:48:02.859            68.021                Novosib          2125.656
       247   03 Jun 2027 12:49:25.771   03 Jun 2027 12:50:15.264            49.493                Norilsk          1546.656
       248   03 Jun 2027 13:37:15.338   03 Jun 2027 13:39:36.504           141.166            RioGallegos          4411.437
       249   03 Jun 2027 14:18:00.074   03 Jun 2027 14:19:50.608           110.534                  Delhi          3454.187
       250   03 Jun 2027 14:23:11.276   03 Jun 2027 14:23:32.750            21.474                Novosib           671.062
       251   03 Jun 2027 14:26:58.060   03 Jun 2027 14:28:12.822            74.762                Novosib          2336.312
       252   03 Jun 2027 14:28:35.740   03 Jun 2027 14:30:06.881            91.141                Norilsk          2848.156
       253   03 Jun 2027 14:30:44.514   03 Jun 2027 14:31:54.996            70.482                Norilsk          2202.563
       254   03 Jun 2027 15:59:22.061   03 Jun 2027 16:02:04.551           162.490                 Moscow          5077.813
       255   03 Jun 2027 16:02:50.815   03 Jun 2027 16:03:50.052            59.237              Murmansk1          1851.156
       256   03 Jun 2027 16:04:06.857   03 Jun 2027 16:04:41.483            34.626              Murmansk1          1082.063
       257   03 Jun 2027 16:07:21.216   03 Jun 2027 16:11:33.466           252.250                Norilsk          7882.812
       258   03 Jun 2027 16:12:08.278   03 Jun 2027 16:13:13.296            65.018                Norilsk          2031.813
       259   03 Jun 2027 17:37:05.027   03 Jun 2027 17:37:37.566            32.539                 Moscow          1016.844
       260   03 Jun 2027 17:40:05.577   03 Jun 2027 17:41:14.638            69.061              Murmansk1          2158.156
       261   03 Jun 2027 17:44:16.034   03 Jun 2027 17:44:39.349            23.315              Murmansk2           728.594
       262   03 Jun 2027 17:53:47.347   03 Jun 2027 17:53:51.444             4.097                Anadyr2           128.031
       263   03 Jun 2027 17:54:07.255   03 Jun 2027 17:55:10.451            63.196                Anadyr1          1974.875
       264   03 Jun 2027 17:56:20.882   03 Jun 2027 17:56:23.242             2.360                Anadyr1            73.750
       265   03 Jun 2027 18:48:57.084   03 Jun 2027 18:50:48.170           111.086               CapeTown          3471.437
       266   03 Jun 2027 18:57:45.432   03 Jun 2027 18:58:25.261            39.829               CapeTown          1244.656
       267   03 Jun 2027 19:19:40.942   03 Jun 2027 19:23:40.852           239.910              Murmansk2          7497.187
       268   03 Jun 2027 19:24:20.064   03 Jun 2027 19:24:29.046             8.982              Murmansk1           280.688
       269   03 Jun 2027 19:32:36.216   03 Jun 2027 19:33:06.682            30.466               Magadan1           952.063
       270   03 Jun 2027 19:33:06.682   03 Jun 2027 19:33:18.006            11.324               Magadan2           353.875
       271   03 Jun 2027 19:33:40.792   03 Jun 2027 19:34:31.298            50.506               Magadan2          1578.312
       272   03 Jun 2027 21:05:21.347   03 Jun 2027 21:06:57.580            96.233                Anadyr2          3007.281
       273   03 Jun 2027 21:07:11.470   03 Jun 2027 21:09:06.972           115.502                Anadyr1          3609.437
       274   03 Jun 2027 21:09:35.148   03 Jun 2027 21:13:06.415           211.267               Magadan1          6602.094
       275   03 Jun 2027 21:18:27.017   03 Jun 2027 21:18:59.691            32.674               Magadan1          1021.062
       276   03 Jun 2027 22:01:52.825   03 Jun 2027 22:04:09.596           136.771            RioGallegos          4274.094
       277   03 Jun 2027 22:06:31.741   03 Jun 2027 22:06:39.263             7.522            RioGallegos           235.063
       278   03 Jun 2027 22:41:11.738   03 Jun 2027 22:43:21.181           129.443                Anadyr1          4045.094
       279   03 Jun 2027 22:43:34.657   03 Jun 2027 22:45:29.607           114.950               Magadan2          3592.188
       280   03 Jun 2027 22:45:41.657   03 Jun 2027 22:46:20.588            38.931               Magadan1          1216.594
       281   03 Jun 2027 22:46:43.977   03 Jun 2027 22:47:06.018            22.041               Magadan1           688.781
       282   03 Jun 2027 22:48:22.239   03 Jun 2027 22:48:50.546            28.307                Irkutsk           884.594
       283   03 Jun 2027 22:49:57.028   03 Jun 2027 22:50:56.393            59.365                Irkutsk          1855.156
       284   03 Jun 2027 23:03:34.988   03 Jun 2027 23:05:37.475           122.487                Sumatra          3827.719
       285   03 Jun 2027 23:11:20.708   03 Jun 2027 23:11:34.103            13.395                Sumatra           418.594
       286   03 Jun 2027 23:42:12.246   03 Jun 2027 23:42:27.586            15.340            RioGallegos           479.375
       287   04 Jun 2027 00:16:31.046   04 Jun 2027 00:16:54.420            23.374                Anadyr1           730.438
       288   04 Jun 2027 00:17:22.335   04 Jun 2027 00:19:10.805           108.470                Anadyr2          3389.687
       289   04 Jun 2027 00:19:23.383   04 Jun 2027 00:19:53.076            29.693                Norilsk           927.906
       290   04 Jun 2027 00:20:13.468   04 Jun 2027 00:20:47.753            34.285                Norilsk          1071.406
       291   04 Jun 2027 00:20:52.584   04 Jun 2027 00:21:16.081            23.497               Magadan2           734.281
       292   04 Jun 2027 00:21:57.306   04 Jun 2027 00:22:34.087            36.781               Magadan1          1149.406
       293   04 Jun 2027 00:23:00.805   04 Jun 2027 00:24:20.163            79.358                Irkutsk          2479.938
       294   04 Jun 2027 00:24:33.928   04 Jun 2027 00:25:35.364            61.436                Novosib          1919.875
       295   04 Jun 2027 00:28:48.164   04 Jun 2027 00:29:12.055            23.891                Novosib           746.594
       296   04 Jun 2027 00:34:18.662   04 Jun 2027 00:35:36.464            77.802                  Delhi          2431.313
       297   04 Jun 2027 00:39:51.817   04 Jun 2027 00:41:09.878            78.061                Sumatra          2439.406
       298   04 Jun 2027 01:15:32.042   04 Jun 2027 01:16:12.544            40.502            RioGallegos          1265.688
       299   04 Jun 2027 01:22:24.794   04 Jun 2027 01:22:28.800             4.006            RioGallegos           125.188
       300   04 Jun 2027 01:22:30.426   04 Jun 2027 01:22:42.617            12.191            RioGallegos           380.969
       301   04 Jun 2027 01:50:42.122   04 Jun 2027 01:51:47.609            65.487                Anadyr1          2046.469
       302   04 Jun 2027 01:51:47.609   04 Jun 2027 01:52:05.522            17.913                Anadyr2           559.781
       303   04 Jun 2027 01:52:48.497   04 Jun 2027 01:53:11.658            23.161                Anadyr2           723.781
       304   04 Jun 2027 01:55:05.137   04 Jun 2027 01:56:39.755            94.618                Norilsk          2956.813
       305   04 Jun 2027 01:58:04.855   04 Jun 2027 01:59:48.668           103.813              Murmansk2          3244.156
       306   04 Jun 2027 02:00:00.477   04 Jun 2027 02:00:37.020            36.543                Novosib          1141.969
       307   04 Jun 2027 02:00:49.486   04 Jun 2027 02:00:50.916             1.430                Irkutsk            44.687
       308   04 Jun 2027 02:01:28.471   04 Jun 2027 02:01:45.076            16.605                Novosib           518.906
       309   04 Jun 2027 02:04:05.039   04 Jun 2027 02:04:21.109            16.070                Irkutsk           502.187
       310   04 Jun 2027 02:04:57.060   04 Jun 2027 02:06:02.334            65.274                Irkutsk          2039.812
       311   04 Jun 2027 02:16:17.211   04 Jun 2027 02:18:19.076           121.865                  Delhi          3808.281
       312   04 Jun 2027 02:48:03.358   04 Jun 2027 02:49:16.084            72.726            RioGallegos          2272.688
       313   04 Jun 2027 02:49:28.003   04 Jun 2027 02:50:36.555            68.552            RioGallegos          2142.250
       314   04 Jun 2027 03:41:15.121   04 Jun 2027 03:41:53.467            38.346                 Moscow          1198.313
       315   04 Jun 2027 03:41:53.933   04 Jun 2027 03:42:28.863            34.930              Murmansk2          1091.563
       316   04 Jun 2027 03:42:28.863   04 Jun 2027 03:43:05.200            36.337              Murmansk1          1135.531
       317   04 Jun 2027 03:43:05.200   04 Jun 2027 03:43:37.312            32.112              Murmansk2          1003.500
       318   04 Jun 2027 03:43:46.975   04 Jun 2027 03:46:53.786           186.811                  Delhi          5837.844
       319   04 Jun 2027 04:08:11.138   04 Jun 2027 04:08:23.118            11.980               CapeTown           374.375
       320   04 Jun 2027 04:58:36.858   04 Jun 2027 04:58:45.116             8.258                Anadyr2           258.062
       321   04 Jun 2027 05:00:26.354   04 Jun 2027 05:02:33.505           127.151                Anadyr1          3973.469
       322   04 Jun 2027 05:03:51.672   04 Jun 2027 05:04:11.750            20.078                Anadyr2           627.438
       323   04 Jun 2027 05:16:41.912   04 Jun 2027 05:17:14.955            33.043                Novosib          1032.594
       324   04 Jun 2027 05:21:20.381   04 Jun 2027 05:21:39.417            19.036                 Moscow           594.875
       325   04 Jun 2027 05:36:17.740   04 Jun 2027 05:39:01.157           163.417               CapeTown          5106.781
       326   04 Jun 2027 06:39:20.980   04 Jun 2027 06:40:07.991            47.011                Anadyr1          1469.094
       327   04 Jun 2027 06:40:11.064   04 Jun 2027 06:40:17.695             6.631                Anadyr1           207.219
       328   04 Jun 2027 06:40:34.229   04 Jun 2027 06:41:00.765            26.536               Magadan1           829.250
       329   04 Jun 2027 06:41:07.690   04 Jun 2027 06:42:09.622            61.932                Anadyr2          1935.375
       330   04 Jun 2027 07:15:40.007   04 Jun 2027 07:17:01.991            81.984               CapeTown          2562.000
       331   04 Jun 2027 08:15:26.795   04 Jun 2027 08:15:41.352            14.557               Magadan2           454.906
       332   04 Jun 2027 08:15:44.944   04 Jun 2027 08:15:50.495             5.551                Anadyr1           173.469
       333   04 Jun 2027 08:15:50.495   04 Jun 2027 08:16:17.715            27.220                Anadyr2           850.625
       334   04 Jun 2027 08:16:29.258   04 Jun 2027 08:17:09.175            39.917               Magadan2          1247.406
       335   04 Jun 2027 08:17:39.208   04 Jun 2027 08:17:46.104             6.896               Magadan2           215.500
       336   04 Jun 2027 08:18:02.779   04 Jun 2027 08:19:21.540            78.761                Anadyr2          2461.281
       337   04 Jun 2027 09:50:29.774   04 Jun 2027 09:50:37.171             7.397               Magadan1           231.156
       338   04 Jun 2027 09:51:03.072   04 Jun 2027 09:51:07.401             4.329               Magadan1           135.281
       339   04 Jun 2027 09:51:16.758   04 Jun 2027 09:52:13.996            57.238               Magadan1          1788.688
       340   04 Jun 2027 09:53:37.190   04 Jun 2027 09:54:38.129            60.939               Magadan2          1904.344
       341   04 Jun 2027 09:55:31.937   04 Jun 2027 09:55:37.554             5.617               Magadan1           175.531
       342   04 Jun 2027 09:55:39.866   04 Jun 2027 09:56:26.130            46.264               Magadan2          1445.750
       343   04 Jun 2027 09:56:59.408   04 Jun 2027 09:57:06.029             6.621                Norilsk           206.906
       344   04 Jun 2027 09:57:13.824   04 Jun 2027 09:57:30.313            16.489                Norilsk           515.281
       345   04 Jun 2027 10:32:16.116   04 Jun 2027 10:33:01.180            45.064            RioGallegos          1408.250
       346   04 Jun 2027 10:43:35.521   04 Jun 2027 10:43:49.467            13.946            RioGallegos           435.812
       347   04 Jun 2027 11:09:06.373   04 Jun 2027 11:11:03.573           117.200                Sumatra          3662.500
       348   04 Jun 2027 11:27:28.110   04 Jun 2027 11:28:14.499            46.389                Irkutsk          1449.656
       349   04 Jun 2027 11:28:24.201   04 Jun 2027 11:30:32.084           127.883               Magadan1          3996.344
       350   04 Jun 2027 11:30:58.291   04 Jun 2027 11:31:06.756             8.465                Irkutsk           264.531
       351   04 Jun 2027 11:31:16.407   04 Jun 2027 11:31:28.792            12.385                Norilsk           387.031
       352   04 Jun 2027 11:31:47.245   04 Jun 2027 11:32:28.046            40.801                Irkutsk          1275.031
       353   04 Jun 2027 11:32:37.484   04 Jun 2027 11:32:42.922             5.438                Novosib           169.937
       354   04 Jun 2027 11:32:44.971   04 Jun 2027 11:32:51.010             6.039                Norilsk           188.719
       355   04 Jun 2027 11:33:11.552   04 Jun 2027 11:33:46.015            34.463                Novosib          1076.969
       356   04 Jun 2027 12:08:30.693   04 Jun 2027 12:09:10.225            39.532            RioGallegos          1235.375
       357   04 Jun 2027 12:10:59.722   04 Jun 2027 12:13:07.455           127.733            RioGallegos          3991.656
       358   04 Jun 2027 12:57:41.750   04 Jun 2027 12:58:15.291            33.541                Irkutsk          1048.156
       359   04 Jun 2027 12:59:48.076   04 Jun 2027 13:00:38.829            50.753                Novosib          1586.031
       360   04 Jun 2027 13:01:31.123   04 Jun 2027 13:02:29.647            58.524                Irkutsk          1828.875
       361   04 Jun 2027 14:27:31.828   04 Jun 2027 14:28:06.478            34.650                  Delhi          1082.813
       362   04 Jun 2027 14:28:57.572   04 Jun 2027 14:29:50.704            53.132                  Delhi          1660.375
       363   04 Jun 2027 14:32:08.313   04 Jun 2027 14:32:29.396            21.083                  Delhi           658.844
       364   04 Jun 2027 14:34:53.402   04 Jun 2027 14:35:53.958            60.556                  Delhi          1892.375
       365   04 Jun 2027 14:36:10.134   04 Jun 2027 14:40:45.662           275.528                Novosib          8610.250
       366   04 Jun 2027 14:43:25.770   04 Jun 2027 14:44:21.647            55.877                Norilsk          1746.156
       367   04 Jun 2027 16:11:25.352   04 Jun 2027 16:14:29.778           184.426                 Moscow          5763.313
       368   04 Jun 2027 16:14:56.150   04 Jun 2027 16:15:47.607            51.457              Murmansk2          1608.031
       369   04 Jun 2027 16:20:10.903   04 Jun 2027 16:24:43.551           272.648                Norilsk          8520.250
       370   04 Jun 2027 17:49:39.357   04 Jun 2027 17:51:14.221            94.864                 Moscow          2964.500
       371   04 Jun 2027 17:52:26.062   04 Jun 2027 17:54:10.803           104.741              Murmansk1          3273.156
       372   04 Jun 2027 17:55:39.351   04 Jun 2027 17:56:06.465            27.114              Murmansk2           847.312
       373   04 Jun 2027 18:01:35.628   04 Jun 2027 18:01:45.858            10.230              Murmansk2           319.688
       374   04 Jun 2027 18:05:44.187   04 Jun 2027 18:05:51.249             7.062                Anadyr2           220.688
       375   04 Jun 2027 18:06:20.125   04 Jun 2027 18:07:11.133            51.008                Anadyr1          1594.000
       376   04 Jun 2027 18:11:05.106   04 Jun 2027 18:11:08.102             2.996                Anadyr1            93.625
       377   04 Jun 2027 18:11:16.033   04 Jun 2027 18:11:39.760            23.727                Anadyr1           741.469
       378   04 Jun 2027 19:01:07.388   04 Jun 2027 19:02:46.825            99.437               CapeTown          3107.406
       379   04 Jun 2027 19:08:34.465   04 Jun 2027 19:09:40.815            66.350               CapeTown          2073.437
       380   04 Jun 2027 19:32:24.677   04 Jun 2027 19:39:17.726           413.049              Murmansk2         12907.781
       381   04 Jun 2027 21:17:23.011   04 Jun 2027 21:18:57.633            94.622                Anadyr1          2956.937
       382   04 Jun 2027 21:19:18.809   04 Jun 2027 21:20:35.863            77.054                Anadyr2          2407.938
       383   04 Jun 2027 21:20:40.692   04 Jun 2027 21:20:49.038             8.346                Anadyr2           260.812
       384   04 Jun 2027 21:20:52.801   04 Jun 2027 21:22:49.439           116.638               Magadan2          3644.938
       385   04 Jun 2027 21:23:37.964   04 Jun 2027 21:24:01.511            23.547               Magadan1           735.844
       386   04 Jun 2027 21:24:01.511   04 Jun 2027 21:24:27.496            25.985               Magadan2           812.031
       387   04 Jun 2027 21:24:48.713   04 Jun 2027 21:25:04.342            15.629               Magadan2           488.406
       388   04 Jun 2027 21:26:36.440   04 Jun 2027 21:26:42.743             6.303               Magadan1           196.969
       389   04 Jun 2027 21:28:18.514   04 Jun 2027 21:28:32.843            14.329               Magadan1           447.781
       390   04 Jun 2027 22:13:04.798   04 Jun 2027 22:15:51.055           166.257            RioGallegos          5195.531
       391   04 Jun 2027 22:17:30.266   04 Jun 2027 22:17:47.881            17.615            RioGallegos           550.469
       392   04 Jun 2027 22:18:16.209   04 Jun 2027 22:18:35.926            19.717            RioGallegos           616.156
       393   04 Jun 2027 22:53:11.195   04 Jun 2027 22:54:55.177           103.982                Anadyr1          3249.437
       394   04 Jun 2027 22:55:17.133   04 Jun 2027 22:56:49.910            92.777                Norilsk          2899.281
       395   04 Jun 2027 22:58:07.757   04 Jun 2027 22:58:40.926            33.169                Norilsk          1036.531
       396   04 Jun 2027 22:58:50.089   04 Jun 2027 22:59:26.143            36.054               Magadan2          1126.688
       397   04 Jun 2027 23:00:03.115   04 Jun 2027 23:00:48.175            45.060                Irkutsk          1408.125
       398   04 Jun 2027 23:05:32.615   04 Jun 2027 23:05:37.770             5.155                Irkutsk           161.094
       399   04 Jun 2027 23:08:51.141   04 Jun 2027 23:09:14.016            22.875                Irkutsk           714.844
       400   04 Jun 2027 23:14:42.609   04 Jun 2027 23:16:32.759           110.150                Sumatra          3442.188
       401   04 Jun 2027 23:19:33.918   04 Jun 2027 23:20:27.017            53.099                Sumatra          1659.344
       402   04 Jun 2027 23:55:06.249   04 Jun 2027 23:55:26.746            20.497            RioGallegos           640.531
       403   05 Jun 2027 00:28:23.881   05 Jun 2027 00:29:23.399            59.518                Anadyr2          1859.937
       404   05 Jun 2027 00:29:23.399   05 Jun 2027 00:30:27.774            64.375                Anadyr1          2011.719
       405   05 Jun 2027 00:31:41.437   05 Jun 2027 00:32:49.916            68.479                Norilsk          2139.969
       406   05 Jun 2027 00:32:54.811   05 Jun 2027 00:33:18.695            23.884               Magadan1           746.375
       407   05 Jun 2027 00:34:31.290   05 Jun 2027 00:34:36.532             5.242               Magadan1           163.813
       408   05 Jun 2027 00:35:00.613   05 Jun 2027 00:37:11.628           131.015                Irkutsk          4094.219
       409   05 Jun 2027 00:37:51.166   05 Jun 2027 00:38:28.311            37.145                Novosib          1160.781
       410   05 Jun 2027 00:44:54.832   05 Jun 2027 00:46:22.222            87.390                  Delhi          2730.938
       411   05 Jun 2027 00:48:58.176   05 Jun 2027 00:49:29.741            31.565                  Delhi           986.406
       412   05 Jun 2027 00:53:45.955   05 Jun 2027 00:54:37.078            51.123                Sumatra          1597.594
       413   05 Jun 2027 00:58:49.906   05 Jun 2027 00:58:56.939             7.033                Sumatra           219.781
       414   05 Jun 2027 01:27:45.269   05 Jun 2027 01:28:14.004            28.735            RioGallegos           897.969
       415   05 Jun 2027 01:31:50.550   05 Jun 2027 01:32:48.716            58.166            RioGallegos          1817.687
       416   05 Jun 2027 02:02:55.895   05 Jun 2027 02:03:08.048            12.153                Anadyr1           379.781
       417   05 Jun 2027 02:03:36.619   05 Jun 2027 02:04:05.620            29.001                Anadyr2           906.281
       418   05 Jun 2027 02:05:04.398   05 Jun 2027 02:05:13.673             9.275                Anadyr2           289.844
       419   05 Jun 2027 02:06:25.931   05 Jun 2027 02:06:32.079             6.148                Anadyr1           192.125
       420   05 Jun 2027 02:07:07.359   05 Jun 2027 02:09:00.764           113.405                Norilsk          3543.906
       421   05 Jun 2027 02:09:52.136   05 Jun 2027 02:10:51.481            59.345              Murmansk2          1854.531
       422   05 Jun 2027 02:10:54.394   05 Jun 2027 02:11:50.541            56.147                Novosib          1754.594
       423   05 Jun 2027 02:12:14.686   05 Jun 2027 02:12:40.669            25.983                Irkutsk           811.969
       424   05 Jun 2027 02:15:56.253   05 Jun 2027 02:17:16.594            80.341                Irkutsk          2510.656
       425   05 Jun 2027 02:30:12.490   05 Jun 2027 02:31:00.541            48.051                  Delhi          1501.594
       426   05 Jun 2027 03:00:23.588   05 Jun 2027 03:03:50.069           206.481            RioGallegos          6452.531
       427   05 Jun 2027 03:04:40.889   05 Jun 2027 03:05:36.982            56.093            RioGallegos          1752.906
       428   05 Jun 2027 03:51:29.725   05 Jun 2027 03:52:26.979            57.254                Irkutsk          1789.187
       429   05 Jun 2027 03:52:57.071   05 Jun 2027 03:54:36.095            99.024                Norilsk          3094.500
       430   05 Jun 2027 03:55:02.889   05 Jun 2027 03:56:04.281            61.392                 Moscow          1918.500
       431   05 Jun 2027 04:01:10.224   05 Jun 2027 04:02:36.324            86.100                  Delhi          2690.625
       432   05 Jun 2027 05:29:15.284   05 Jun 2027 05:29:41.894            26.610                 Moscow           831.563
       433   05 Jun 2027 05:29:49.058   05 Jun 2027 05:30:35.663            46.605              Murmansk1          1456.406
       434   05 Jun 2027 05:31:01.873   05 Jun 2027 05:31:23.243            21.370                 Moscow           667.813
       435   05 Jun 2027 05:31:30.079   05 Jun 2027 05:31:34.397             4.318                 Moscow           134.938
       436   05 Jun 2027 05:32:59.235   05 Jun 2027 05:34:01.840            62.605                 Moscow          1956.406
       437   05 Jun 2027 05:48:20.754   05 Jun 2027 05:50:43.139           142.385               CapeTown          4449.531
       438   05 Jun 2027 06:51:09.399   05 Jun 2027 06:51:27.356            17.957               Magadan2           561.156
       439   05 Jun 2027 06:51:47.220   05 Jun 2027 06:52:27.792            40.572               Magadan2          1267.875
       440   05 Jun 2027 06:52:27.792   05 Jun 2027 06:53:01.232            33.440               Magadan1          1045.000
       441   05 Jun 2027 06:53:22.108   05 Jun 2027 06:54:10.426            48.318               Magadan2          1509.938
       442   05 Jun 2027 06:54:11.461   05 Jun 2027 06:54:26.633            15.172                Anadyr2           474.125
       443   05 Jun 2027 06:57:12.670   05 Jun 2027 06:57:38.873            26.203                Anadyr2           818.844
       444   05 Jun 2027 07:29:34.796   05 Jun 2027 07:31:38.964           124.168               CapeTown          3880.250
       445   05 Jun 2027 08:27:38.951   05 Jun 2027 08:28:04.927            25.976                Anadyr1           811.750
       446   05 Jun 2027 08:28:31.350   05 Jun 2027 08:28:42.491            11.141               Magadan2           348.156
       447   05 Jun 2027 08:28:53.897   05 Jun 2027 08:31:14.349           140.452                Anadyr2          4389.125
       448   05 Jun 2027 09:59:57.538   05 Jun 2027 10:01:50.832           113.294               Magadan2          3540.438
       449   05 Jun 2027 10:03:04.293   05 Jun 2027 10:03:10.086             5.793               Magadan1           181.031
       450   05 Jun 2027 10:03:21.655   05 Jun 2027 10:04:18.515            56.860               Magadan1          1776.875
       451   05 Jun 2027 10:05:35.794   05 Jun 2027 10:06:24.478            48.684               Magadan2          1521.375
       452   05 Jun 2027 10:06:33.090   05 Jun 2027 10:06:48.311            15.221                Norilsk           475.656
       453   05 Jun 2027 10:07:13.695   05 Jun 2027 10:07:30.746            17.051                Irkutsk           532.844
       454   05 Jun 2027 10:07:33.173   05 Jun 2027 10:08:04.962            31.789               Magadan1           993.406
       455   05 Jun 2027 10:08:29.925   05 Jun 2027 10:08:39.458             9.533               Magadan1           297.906
       456   05 Jun 2027 10:08:55.993   05 Jun 2027 10:09:01.958             5.965                Irkutsk           186.406
       457   05 Jun 2027 10:09:03.016   05 Jun 2027 10:09:12.135             9.119               Magadan1           284.969
       458   05 Jun 2027 10:09:30.585   05 Jun 2027 10:09:35.620             5.035                Norilsk           157.344
       459   05 Jun 2027 10:44:08.366   05 Jun 2027 10:45:10.662            62.296            RioGallegos          1946.750
       460   05 Jun 2027 10:55:36.775   05 Jun 2027 10:55:39.494             2.719            RioGallegos            84.969
       461   05 Jun 2027 11:20:22.574   05 Jun 2027 11:20:35.130            12.556                Sumatra           392.375
       462   05 Jun 2027 11:21:54.034   05 Jun 2027 11:23:04.890            70.856                Sumatra          2214.250
       463   05 Jun 2027 11:40:51.943   05 Jun 2027 11:41:05.195            13.252                Norilsk           414.125
       464   05 Jun 2027 11:41:07.740   05 Jun 2027 11:42:21.898            74.158                Norilsk          2317.438
       465   05 Jun 2027 11:42:29.800   05 Jun 2027 11:42:39.206             9.406                Norilsk           293.937
       466   05 Jun 2027 11:42:47.152   05 Jun 2027 11:43:04.101            16.949                Irkutsk           529.656
       467   05 Jun 2027 11:43:05.451   05 Jun 2027 11:43:25.412            19.961                Irkutsk           623.781
       468   05 Jun 2027 11:44:03.549   05 Jun 2027 11:44:08.753             5.204                Novosib           162.625
       469   05 Jun 2027 11:44:12.709   05 Jun 2027 11:44:14.370             1.661                Norilsk            51.906
       470   05 Jun 2027 11:44:17.093   05 Jun 2027 11:44:54.179            37.086                Irkutsk          1158.938
       471   05 Jun 2027 11:45:03.953   05 Jun 2027 11:45:19.274            15.321                Irkutsk           478.781
       472   05 Jun 2027 12:20:51.816   05 Jun 2027 12:21:13.409            21.593            RioGallegos           674.781
       473   05 Jun 2027 12:22:31.336   05 Jun 2027 12:25:08.182           156.846            RioGallegos          4901.438
       474   05 Jun 2027 13:05:00.964   05 Jun 2027 13:06:22.634            81.670                Sumatra          2552.187
       475   05 Jun 2027 13:10:13.015   05 Jun 2027 13:10:40.092            27.077                Irkutsk           846.156
       476   05 Jun 2027 13:11:04.282   05 Jun 2027 13:11:30.256            25.974                Irkutsk           811.687
       477   05 Jun 2027 13:13:45.859   05 Jun 2027 13:13:55.994            10.135                Norilsk           316.719
       478   05 Jun 2027 13:14:12.247   05 Jun 2027 13:15:15.727            63.480                Irkutsk          1983.750
       479   05 Jun 2027 14:39:57.666   05 Jun 2027 14:41:59.469           121.803                  Delhi          3806.344
       480   05 Jun 2027 14:44:10.251   05 Jun 2027 14:44:18.857             8.606                  Delhi           268.938
       481   05 Jun 2027 14:45:10.116   05 Jun 2027 14:45:22.672            12.556                  Delhi           392.375
       482   05 Jun 2027 14:47:47.102   05 Jun 2027 14:49:47.787           120.685                  Delhi          3771.406
