uniorb/output/strategy_4/Drop/Drop_KinoSat_111702.txt

KinoSat_111702
-------------------------
    Access    *     Start Time (UTCG)     *     Stop Time (UTCG)  *   Duration (s)        *       Station  *  Data (Mbytes)
         1   01 Jun 2027 03:41:57.982   01 Jun 2027 03:43:49.619           111.637                Norilsk          3488.656
         2   01 Jun 2027 03:44:00.331   01 Jun 2027 03:45:07.387            67.056              Murmansk1          2095.500
         3   01 Jun 2027 03:45:08.379   01 Jun 2027 03:46:54.921           106.542                Novosib          3329.438
         4   01 Jun 2027 03:47:38.382   01 Jun 2027 03:47:59.934            21.552                 Moscow           673.500
         5   01 Jun 2027 03:49:08.230   01 Jun 2027 03:51:57.381           169.151                  Delhi          5285.969
         6   01 Jun 2027 05:19:33.625   01 Jun 2027 05:20:42.899            69.274                Novosib          2164.813
         7   01 Jun 2027 05:21:03.729   01 Jun 2027 05:24:11.648           187.919              Murmansk1          5872.469
         8   01 Jun 2027 05:24:17.417   01 Jun 2027 05:25:11.094            53.677                 Moscow          1677.406
         9   01 Jun 2027 05:38:35.022   01 Jun 2027 05:41:14.720           159.698               CapeTown          4990.562
        10   01 Jun 2027 06:42:25.476   01 Jun 2027 06:43:13.593            48.117                Anadyr2          1503.656
        11   01 Jun 2027 06:43:13.593   01 Jun 2027 06:45:00.546           106.953                Anadyr1          3342.281
        12   01 Jun 2027 06:47:27.745   01 Jun 2027 06:48:15.368            47.623                Anadyr2          1488.219
        13   01 Jun 2027 08:19:51.125   01 Jun 2027 08:22:45.857           174.732               Magadan2          5460.375
        14   01 Jun 2027 08:22:45.857   01 Jun 2027 08:22:57.478            11.621               Magadan1           363.156
        15   01 Jun 2027 08:23:23.748   01 Jun 2027 08:24:02.760            39.012                Anadyr2          1219.125
        16   01 Jun 2027 09:52:52.622   01 Jun 2027 09:55:54.044           181.422               Magadan1          5669.437
        17   01 Jun 2027 09:56:49.520   01 Jun 2027 09:57:58.490            68.970                Novosib          2155.313
        18   01 Jun 2027 09:57:59.049   01 Jun 2027 09:59:32.718            93.669               Magadan2          2927.156
        19   01 Jun 2027 10:34:31.705   01 Jun 2027 10:35:24.473            52.768            RioGallegos          1649.000
        20   01 Jun 2027 10:39:05.020   01 Jun 2027 10:39:07.588             2.568            RioGallegos            80.250
        21   01 Jun 2027 10:39:52.365   01 Jun 2027 10:40:32.522            40.157            RioGallegos          1254.906
        22   01 Jun 2027 10:44:30.511   01 Jun 2027 10:45:02.375            31.864            RioGallegos           995.750
        23   01 Jun 2027 11:11:14.942   01 Jun 2027 11:13:10.592           115.650                Sumatra          3614.063
        24   01 Jun 2027 11:30:30.509   01 Jun 2027 11:32:29.568           119.059               Magadan2          3720.594
        25   01 Jun 2027 11:33:14.318   01 Jun 2027 11:34:16.759            62.441                Novosib          1951.281
        26   01 Jun 2027 11:34:18.932   01 Jun 2027 11:34:54.609            35.677              Murmansk1          1114.906
        27   01 Jun 2027 11:34:59.770   01 Jun 2027 11:35:16.014            16.244                Irkutsk           507.625
        28   01 Jun 2027 11:35:39.690   01 Jun 2027 11:36:06.011            26.321              Murmansk1           822.531
        29   01 Jun 2027 11:36:24.573   01 Jun 2027 11:37:12.077            47.504                Norilsk          1484.500
        30   01 Jun 2027 12:10:51.090   01 Jun 2027 12:13:16.176           145.086            RioGallegos          4533.937
        31   01 Jun 2027 12:15:24.571   01 Jun 2027 12:15:32.824             8.253            RioGallegos           257.906
        32   01 Jun 2027 12:19:52.518   01 Jun 2027 12:20:42.352            49.834            RioGallegos          1557.313
        33   01 Jun 2027 12:45:14.714   01 Jun 2027 12:47:16.182           121.468                Sumatra          3795.875
        34   01 Jun 2027 12:53:10.013   01 Jun 2027 12:55:00.821           110.808                Sumatra          3462.750
        35   01 Jun 2027 13:00:03.787   01 Jun 2027 13:01:28.710            84.923                Irkutsk          2653.844
        36   01 Jun 2027 13:03:47.900   01 Jun 2027 13:05:12.816            84.916                Irkutsk          2653.625
        37   01 Jun 2027 13:05:28.106   01 Jun 2027 13:06:33.296            65.190                Norilsk          2037.187
        38   01 Jun 2027 13:10:30.611   01 Jun 2027 13:10:56.082            25.471                Irkutsk           795.969
        39   01 Jun 2027 14:29:52.794   01 Jun 2027 14:30:38.391            45.597                  Delhi          1424.906
        40   01 Jun 2027 14:32:05.805   01 Jun 2027 14:34:25.788           139.983                  Delhi          4374.469
        41   01 Jun 2027 14:38:04.002   01 Jun 2027 14:39:06.634            62.632                Novosib          1957.250
        42   01 Jun 2027 14:41:13.773   01 Jun 2027 14:43:24.106           130.333                Novosib          4072.906
        43   01 Jun 2027 14:44:21.188   01 Jun 2027 14:45:51.252            90.064                Norilsk          2814.500
        44   01 Jun 2027 14:46:58.334   01 Jun 2027 14:48:06.812            68.478                Novosib          2139.938
        45   01 Jun 2027 16:13:43.345   01 Jun 2027 16:16:52.267           188.922                 Moscow          5903.813
        46   01 Jun 2027 16:17:14.355   01 Jun 2027 16:18:04.932            50.577              Murmansk1          1580.531
        47   01 Jun 2027 16:22:37.086   01 Jun 2027 16:27:53.928           316.842                Norilsk          9901.313
        48   01 Jun 2027 17:52:02.933   01 Jun 2027 17:53:50.903           107.970                 Moscow          3374.063
        49   01 Jun 2027 17:54:46.894   01 Jun 2027 17:57:56.400           189.506              Murmansk1          5922.063
        50   01 Jun 2027 18:10:44.655   01 Jun 2027 18:11:05.159            20.504                Anadyr2           640.750
        51   01 Jun 2027 19:03:26.611   01 Jun 2027 19:07:49.792           263.181               CapeTown          8224.406
        52   01 Jun 2027 19:11:56.310   01 Jun 2027 19:12:52.195            55.885               CapeTown          1746.406
        53   01 Jun 2027 19:34:49.698   01 Jun 2027 19:39:30.113           280.415              Murmansk2          8762.969
        54   01 Jun 2027 19:39:59.665   01 Jun 2027 19:40:43.410            43.745              Murmansk1          1367.031
        55   01 Jun 2027 21:19:40.420   01 Jun 2027 21:21:15.098            94.678                Anadyr1          2958.687
        56   01 Jun 2027 21:21:36.046   01 Jun 2027 21:22:55.903            79.857                Anadyr2          2495.531
        57   01 Jun 2027 21:23:03.850   01 Jun 2027 21:23:47.605            43.755                Anadyr2          1367.344
        58   01 Jun 2027 21:23:56.158   01 Jun 2027 21:25:02.424            66.266               Magadan2          2070.812
        59   01 Jun 2027 21:25:02.424   01 Jun 2027 21:25:58.772            56.348               Magadan1          1760.875
        60   01 Jun 2027 21:26:13.764   01 Jun 2027 21:26:44.603            30.839               Magadan2           963.719
        61   01 Jun 2027 21:26:44.603   01 Jun 2027 21:27:03.000            18.397               Magadan1           574.906
        62   01 Jun 2027 21:27:16.258   01 Jun 2027 21:27:24.630             8.372               Magadan1           261.625
        63   01 Jun 2027 21:27:47.538   01 Jun 2027 21:27:59.664            12.126               Magadan2           378.937
        64   01 Jun 2027 21:29:00.682   01 Jun 2027 21:29:30.295            29.613               Magadan1           925.406
        65   01 Jun 2027 21:30:54.704   01 Jun 2027 21:31:24.028            29.324               Magadan1           916.375
        66   01 Jun 2027 22:15:15.971   01 Jun 2027 22:17:55.790           159.819            RioGallegos          4994.344
        67   01 Jun 2027 22:20:54.734   01 Jun 2027 22:21:21.641            26.907            RioGallegos           840.844
        68   01 Jun 2027 22:55:28.194   01 Jun 2027 22:56:37.442            69.248                Anadyr1          2164.000
        69   01 Jun 2027 22:56:42.235   01 Jun 2027 22:57:10.383            28.148                Anadyr2           879.625
        70   01 Jun 2027 22:57:16.628   01 Jun 2027 22:57:23.741             7.113                Anadyr2           222.281
        71   01 Jun 2027 22:57:31.027   01 Jun 2027 22:57:58.294            27.267                Anadyr2           852.094
        72   01 Jun 2027 22:57:58.432   01 Jun 2027 22:59:07.675            69.243                Norilsk          2163.844
        73   01 Jun 2027 22:59:13.711   01 Jun 2027 22:59:44.082            30.371               Magadan1           949.094
        74   01 Jun 2027 22:59:47.852   01 Jun 2027 23:01:05.583            77.731               Magadan2          2429.094
        75   01 Jun 2027 23:01:53.294   01 Jun 2027 23:02:23.811            30.517               Magadan2           953.656
        76   01 Jun 2027 23:04:15.147   01 Jun 2027 23:04:52.961            37.814                Irkutsk          1181.687
        77   01 Jun 2027 23:11:34.612   01 Jun 2027 23:11:40.959             6.347                Irkutsk           198.344
        78   01 Jun 2027 23:16:52.545   01 Jun 2027 23:18:37.220           104.675                Sumatra          3271.094
        79   01 Jun 2027 23:22:12.361   01 Jun 2027 23:22:43.608            31.247                Sumatra           976.469
        80   01 Jun 2027 23:25:55.417   01 Jun 2027 23:25:58.178             2.761                Sumatra            86.281
        81   01 Jun 2027 23:25:59.356   01 Jun 2027 23:26:30.745            31.389                Sumatra           980.906
        82   01 Jun 2027 23:54:59.234   01 Jun 2027 23:55:21.633            22.399            RioGallegos           699.969
        83   01 Jun 2027 23:56:53.406   01 Jun 2027 23:57:17.206            23.800            RioGallegos           743.750
        84   02 Jun 2027 00:00:06.526   02 Jun 2027 00:00:13.176             6.650            RioGallegos           207.812
        85   02 Jun 2027 00:00:46.333   02 Jun 2027 00:01:18.038            31.705            RioGallegos           990.781
        86   02 Jun 2027 00:30:39.692   02 Jun 2027 00:31:41.763            62.071                Anadyr1          1939.719
        87   02 Jun 2027 00:32:46.369   02 Jun 2027 00:33:05.999            19.630                Anadyr1           613.438
        88   02 Jun 2027 00:33:08.295   02 Jun 2027 00:33:55.807            47.512                Anadyr2          1484.750
        89   02 Jun 2027 00:33:57.316   02 Jun 2027 00:34:54.646            57.330                Norilsk          1791.562
        90   02 Jun 2027 00:35:06.570   02 Jun 2027 00:35:19.835            13.265               Magadan1           414.531
        91   02 Jun 2027 00:35:37.363   02 Jun 2027 00:35:45.086             7.723               Magadan2           241.344
        92   02 Jun 2027 00:37:17.810   02 Jun 2027 00:40:32.767           194.957                Irkutsk          6092.406
        93   02 Jun 2027 00:47:02.223   02 Jun 2027 00:47:09.126             6.903                  Delhi           215.719
        94   02 Jun 2027 00:47:41.629   02 Jun 2027 00:47:52.533            10.904                Novosib           340.750
        95   02 Jun 2027 00:48:43.743   02 Jun 2027 00:49:20.444            36.701                  Delhi          1146.906
        96   02 Jun 2027 00:53:57.903   02 Jun 2027 00:56:02.746           124.843                Sumatra          3901.344
        97   02 Jun 2027 01:31:09.598   02 Jun 2027 01:31:54.300            44.702            RioGallegos          1396.937
        98   02 Jun 2027 02:04:39.464   02 Jun 2027 02:05:52.082            72.618                Anadyr2          2269.313
        99   02 Jun 2027 02:06:23.495   02 Jun 2027 02:06:47.629            24.134                Anadyr1           754.188
       100   02 Jun 2027 02:09:00.903   02 Jun 2027 02:09:32.601            31.698                Anadyr1           990.562
       101   02 Jun 2027 02:09:42.459   02 Jun 2027 02:10:41.059            58.600                Norilsk          1831.250
       102   02 Jun 2027 02:10:48.783   02 Jun 2027 02:11:03.470            14.687               Magadan2           458.969
       103   02 Jun 2027 02:12:07.601   02 Jun 2027 02:13:43.157            95.556              Murmansk2          2986.125
       104   02 Jun 2027 02:14:03.809   02 Jun 2027 02:14:59.323            55.514                Novosib          1734.812
       105   02 Jun 2027 02:18:16.446   02 Jun 2027 02:19:37.954            81.508                Irkutsk          2547.125
       106   02 Jun 2027 02:30:07.163   02 Jun 2027 02:32:21.137           133.974                  Delhi          4186.688
       107   02 Jun 2027 03:02:44.799   02 Jun 2027 03:04:24.140            99.341            RioGallegos          3104.406
       108   02 Jun 2027 03:04:56.827   02 Jun 2027 03:06:04.303            67.476            RioGallegos          2108.625
       109   02 Jun 2027 03:07:13.222   02 Jun 2027 03:07:56.474            43.252            RioGallegos          1351.625
       110   02 Jun 2027 03:51:49.483   02 Jun 2027 03:51:52.707             3.224                Irkutsk           100.750
       111   02 Jun 2027 03:53:19.623   02 Jun 2027 03:53:53.627            34.004              Murmansk1          1062.625
       112   02 Jun 2027 03:54:25.274   02 Jun 2027 03:54:47.205            21.931              Murmansk1           685.344
       113   02 Jun 2027 03:54:54.091   02 Jun 2027 03:57:08.724           134.633                Norilsk          4207.281
       114   02 Jun 2027 03:57:40.125   02 Jun 2027 03:58:39.918            59.793              Murmansk1          1868.531
       115   02 Jun 2027 03:59:00.393   02 Jun 2027 04:00:31.489            91.096                Novosib          2846.750
       116   02 Jun 2027 04:01:22.254   02 Jun 2027 04:02:03.069            40.815                 Moscow          1275.469
       117   02 Jun 2027 04:03:20.371   02 Jun 2027 04:04:38.256            77.885                  Delhi          2433.906
       118   02 Jun 2027 05:31:49.276   02 Jun 2027 05:32:51.371            62.095              Murmansk2          1940.469
       119   02 Jun 2027 05:36:46.763   02 Jun 2027 05:38:11.884            85.121                 Moscow          2660.031
       120   02 Jun 2027 06:54:04.954   02 Jun 2027 06:59:33.341           328.387               Magadan1         10262.094
       121   02 Jun 2027 08:33:30.207   02 Jun 2027 08:35:32.531           122.324                Anadyr1          3822.625
       122   02 Jun 2027 08:43:25.351   02 Jun 2027 08:44:28.026            62.675                 Moscow          1958.594
       123   02 Jun 2027 10:05:25.976   02 Jun 2027 10:06:38.226            72.250               Magadan2          2257.812
       124   02 Jun 2027 10:06:51.575   02 Jun 2027 10:08:38.967           107.392               Magadan1          3356.000
       125   02 Jun 2027 10:09:21.621   02 Jun 2027 10:10:30.770            69.149                Norilsk          2160.906
       126   02 Jun 2027 10:10:38.401   02 Jun 2027 10:10:41.438             3.037                Norilsk            94.906
       127   02 Jun 2027 10:10:52.433   02 Jun 2027 10:11:00.932             8.499                Norilsk           265.594
       128   02 Jun 2027 10:11:11.782   02 Jun 2027 10:11:28.451            16.669               Magadan1           520.906
       129   02 Jun 2027 10:46:24.503   02 Jun 2027 10:47:28.004            63.501            RioGallegos          1984.406
       130   02 Jun 2027 11:22:33.615   02 Jun 2027 11:22:53.881            20.266                Sumatra           633.312
       131   02 Jun 2027 11:23:54.325   02 Jun 2027 11:25:19.452            85.127                Sumatra          2660.219
       132   02 Jun 2027 11:42:39.974   02 Jun 2027 11:42:50.600            10.626                Irkutsk           332.062
       133   02 Jun 2027 11:43:08.900   02 Jun 2027 11:43:22.935            14.035                Norilsk           438.594
       134   02 Jun 2027 11:43:41.008   02 Jun 2027 11:44:39.776            58.768                Norilsk          1836.500
       135   02 Jun 2027 11:44:46.467   02 Jun 2027 11:44:46.968             0.501                Norilsk            15.656
       136   02 Jun 2027 11:44:53.695   02 Jun 2027 11:44:56.225             2.530                Norilsk            79.062
       137   02 Jun 2027 11:45:20.865   02 Jun 2027 11:45:23.355             2.490                Irkutsk            77.813
       138   02 Jun 2027 11:45:29.915   02 Jun 2027 11:45:41.159            11.244                Norilsk           351.375
       139   02 Jun 2027 11:45:46.571   02 Jun 2027 11:45:58.432            11.861                Novosib           370.656
       140   02 Jun 2027 11:46:19.735   02 Jun 2027 11:46:27.165             7.430                Novosib           232.188
       141   02 Jun 2027 11:46:30.851   02 Jun 2027 11:46:35.172             4.321                Norilsk           135.031
       142   02 Jun 2027 11:46:36.222   02 Jun 2027 11:47:03.680            27.458                Novosib           858.062
       143   02 Jun 2027 11:47:14.941   02 Jun 2027 11:48:26.711            71.770                Norilsk          2242.813
       144   02 Jun 2027 12:23:13.007   02 Jun 2027 12:23:24.117            11.110            RioGallegos           347.187
       145   02 Jun 2027 12:27:25.132   02 Jun 2027 12:28:07.899            42.767            RioGallegos          1336.469
       146   02 Jun 2027 12:57:30.353   02 Jun 2027 12:58:06.221            35.868                Sumatra          1120.875
       147   02 Jun 2027 13:02:09.499   02 Jun 2027 13:02:23.009            13.510                Sumatra           422.188
       148   02 Jun 2027 13:03:53.668   02 Jun 2027 13:05:10.196            76.528                Sumatra          2391.500
       149   02 Jun 2027 13:12:13.975   02 Jun 2027 13:13:14.082            60.107                Novosib          1878.344
       150   02 Jun 2027 13:15:46.301   02 Jun 2027 13:17:37.053           110.752                Irkutsk          3461.000
       151   02 Jun 2027 14:42:20.042   02 Jun 2027 14:44:57.090           157.048                  Delhi          4907.750
       152   02 Jun 2027 14:46:56.452   02 Jun 2027 14:47:51.231            54.779                  Delhi          1711.844
       153   02 Jun 2027 14:50:40.669   02 Jun 2027 14:52:47.806           127.137                Novosib          3973.031
       154   02 Jun 2027 14:53:46.552   02 Jun 2027 14:55:39.997           113.445                Novosib          3545.156
       155   02 Jun 2027 14:56:01.826   02 Jun 2027 14:56:22.004            20.178                Novosib           630.562
       156   02 Jun 2027 16:25:50.219   02 Jun 2027 16:29:23.303           213.084                 Moscow          6658.875
       157   02 Jun 2027 16:30:28.456   02 Jun 2027 16:31:05.027            36.571              Murmansk2          1142.844
       158   02 Jun 2027 16:35:35.860   02 Jun 2027 16:39:38.938           243.078                Norilsk          7596.188
       159   02 Jun 2027 17:40:20.644   02 Jun 2027 17:41:04.580            43.936               CapeTown          1373.000
       160   02 Jun 2027 17:49:51.568   02 Jun 2027 17:50:07.097            15.529               CapeTown           485.281
       161   02 Jun 2027 18:04:45.102   02 Jun 2027 18:09:30.808           285.706                 Moscow          8928.313
       162   02 Jun 2027 18:26:00.538   02 Jun 2027 18:26:13.786            13.248                Anadyr2           414.000
       163   02 Jun 2027 18:26:51.773   02 Jun 2027 18:27:11.703            19.930                Anadyr2           622.813
       164   02 Jun 2027 18:29:53.605   02 Jun 2027 18:30:07.537            13.932                Anadyr1           435.375
       165   02 Jun 2027 18:31:00.730   02 Jun 2027 18:31:05.608             4.878                Anadyr1           152.438
       166   02 Jun 2027 19:15:41.103   02 Jun 2027 19:17:05.768            84.665               CapeTown          2645.781
       167   02 Jun 2027 19:23:44.150   02 Jun 2027 19:25:29.987           105.837               CapeTown          3307.406
       168   02 Jun 2027 19:47:39.646   02 Jun 2027 19:49:29.058           109.412              Murmansk2          3419.125
       169   02 Jun 2027 19:49:29.058   02 Jun 2027 19:53:24.179           235.121              Murmansk1          7347.531
       170   02 Jun 2027 21:31:41.938   02 Jun 2027 21:35:26.694           224.756                Anadyr1          7023.625
       171   02 Jun 2027 21:35:33.629   02 Jun 2027 21:36:53.236            79.607                Anadyr2          2487.719
       172   02 Jun 2027 21:37:11.131   02 Jun 2027 21:38:20.185            69.054               Magadan1          2157.938
       173   02 Jun 2027 21:38:37.925   02 Jun 2027 21:38:43.044             5.119               Magadan2           159.969
       174   02 Jun 2027 21:38:44.275   02 Jun 2027 21:39:27.363            43.088               Magadan2          1346.500
       175   02 Jun 2027 22:26:48.248   02 Jun 2027 22:29:12.195           143.947            RioGallegos          4498.344
       176   02 Jun 2027 22:31:59.488   02 Jun 2027 22:32:59.962            60.474            RioGallegos          1889.812
       177   02 Jun 2027 23:07:27.009   02 Jun 2027 23:08:55.619            88.610                Anadyr2          2769.063
       178   02 Jun 2027 23:08:57.663   02 Jun 2027 23:09:31.752            34.089                Anadyr1          1065.281
       179   02 Jun 2027 23:09:32.996   02 Jun 2027 23:10:36.937            63.941                Norilsk          1998.156
       180   02 Jun 2027 23:10:40.970   02 Jun 2027 23:10:52.212            11.242               Magadan2           351.313
       181   02 Jun 2027 23:11:12.842   02 Jun 2027 23:11:37.761            24.919               Magadan2           778.719
       182   02 Jun 2027 23:12:34.479   02 Jun 2027 23:12:54.562            20.083               Magadan1           627.594
       183   02 Jun 2027 23:14:04.233   02 Jun 2027 23:15:04.396            60.163                Irkutsk          1880.094
       184   02 Jun 2027 23:16:12.028   02 Jun 2027 23:16:24.353            12.325                Irkutsk           385.156
       185   02 Jun 2027 23:20:49.141   02 Jun 2027 23:22:05.946            76.805                Irkutsk          2400.156
       186   02 Jun 2027 23:28:17.547   02 Jun 2027 23:28:51.875            34.328                Sumatra          1072.750
       187   02 Jun 2027 23:31:52.258   02 Jun 2027 23:33:24.351            92.093                Sumatra          2877.906
       188   03 Jun 2027 00:10:04.516   03 Jun 2027 00:10:12.710             8.194            RioGallegos           256.063
       189   03 Jun 2027 00:10:19.668   03 Jun 2027 00:10:59.956            40.288            RioGallegos          1259.000
       190   03 Jun 2027 00:42:31.083   03 Jun 2027 00:42:37.626             6.543                Anadyr2           204.469
       191   03 Jun 2027 00:42:44.514   03 Jun 2027 00:42:47.798             3.284                Anadyr1           102.625
       192   03 Jun 2027 00:43:42.972   03 Jun 2027 00:45:01.902            78.930                Anadyr1          2466.563
       193   03 Jun 2027 00:45:26.058   03 Jun 2027 00:46:43.292            77.234                Norilsk          2413.562
       194   03 Jun 2027 00:47:05.341   03 Jun 2027 00:47:40.037            34.696               Magadan1          1084.250
       195   03 Jun 2027 00:48:19.797   03 Jun 2027 00:48:26.920             7.123               Magadan2           222.594
       196   03 Jun 2027 00:49:11.250   03 Jun 2027 00:49:20.058             8.808               Magadan2           275.250
       197   03 Jun 2027 00:49:40.333   03 Jun 2027 00:51:24.056           103.723                Irkutsk          3241.344
       198   03 Jun 2027 00:52:04.086   03 Jun 2027 00:53:00.444            56.358                Novosib          1761.187
       199   03 Jun 2027 00:58:17.540   03 Jun 2027 00:58:54.331            36.791                  Delhi          1149.719
       200   03 Jun 2027 01:00:25.615   03 Jun 2027 01:01:00.698            35.083                  Delhi          1096.344
       201   03 Jun 2027 01:05:30.874   03 Jun 2027 01:06:18.860            47.986                  Delhi          1499.563
       202   03 Jun 2027 01:37:34.084   03 Jun 2027 01:38:14.528            40.444            RioGallegos          1263.875
       203   03 Jun 2027 01:39:56.914   03 Jun 2027 01:40:13.749            16.835            RioGallegos           526.094
       204   03 Jun 2027 01:42:28.423   03 Jun 2027 01:42:34.278             5.855            RioGallegos           182.969
       205   03 Jun 2027 01:44:02.034   03 Jun 2027 01:44:55.582            53.548            RioGallegos          1673.375
       206   03 Jun 2027 02:17:35.041   03 Jun 2027 02:17:44.218             9.177                Anadyr1           286.781
       207   03 Jun 2027 02:18:23.974   03 Jun 2027 02:19:14.571            50.597                Anadyr2          1581.156
       208   03 Jun 2027 02:21:26.959   03 Jun 2027 02:22:36.740            69.781                Norilsk          2180.656
       209   03 Jun 2027 02:22:40.229   03 Jun 2027 02:23:20.550            40.321                Norilsk          1260.031
       210   03 Jun 2027 02:24:00.117   03 Jun 2027 02:24:06.183             6.066              Murmansk1           189.563
       211   03 Jun 2027 02:24:06.183   03 Jun 2027 02:25:19.870            73.687              Murmansk2          2302.719
       212   03 Jun 2027 02:25:38.113   03 Jun 2027 02:26:02.128            24.015                Novosib           750.469
       213   03 Jun 2027 02:27:00.103   03 Jun 2027 02:27:28.962            28.859                Irkutsk           901.844
       214   03 Jun 2027 02:31:52.602   03 Jun 2027 02:31:58.444             5.842                Irkutsk           182.563
       215   03 Jun 2027 02:32:35.419   03 Jun 2027 02:34:36.408           120.989                  Delhi          3780.906
       216   03 Jun 2027 03:15:14.455   03 Jun 2027 03:19:32.837           258.382            RioGallegos          8074.437
       217   03 Jun 2027 04:06:09.490   03 Jun 2027 04:06:54.199            44.709                Norilsk          1397.156
       218   03 Jun 2027 04:07:26.522   03 Jun 2027 04:08:21.021            54.499                Norilsk          1703.094
       219   03 Jun 2027 04:08:48.371   03 Jun 2027 04:09:07.634            19.263                Norilsk           601.969
       220   03 Jun 2027 04:09:09.947   03 Jun 2027 04:10:51.616           101.669              Murmansk1          3177.156
       221   03 Jun 2027 04:11:06.731   03 Jun 2027 04:12:09.603            62.872                Novosib          1964.750
       222   03 Jun 2027 05:41:48.316   03 Jun 2027 05:43:08.193            79.877                Novosib          2496.156
       223   03 Jun 2027 05:47:31.577   03 Jun 2027 05:47:51.242            19.665                 Moscow           614.531
       224   03 Jun 2027 06:02:48.098   03 Jun 2027 06:04:45.943           117.845               CapeTown          3682.656
       225   03 Jun 2027 06:08:23.488   03 Jun 2027 06:08:26.050             2.562               CapeTown            80.062
       226   03 Jun 2027 06:09:07.159   03 Jun 2027 06:10:53.537           106.378               CapeTown          3324.312
       227   03 Jun 2027 07:05:43.594   03 Jun 2027 07:06:07.733            24.139               Magadan1           754.344
       228   03 Jun 2027 07:06:10.413   03 Jun 2027 07:06:39.878            29.465               Magadan2           920.781
       229   03 Jun 2027 07:07:00.067   03 Jun 2027 07:07:48.850            48.783               Magadan2          1524.469
       230   03 Jun 2027 07:07:51.733   03 Jun 2027 07:08:02.117            10.384                Anadyr2           324.500
       231   03 Jun 2027 07:08:02.117   03 Jun 2027 07:08:03.691             1.574                Anadyr1            49.188
       232   03 Jun 2027 07:08:03.691   03 Jun 2027 07:08:18.423            14.732                Anadyr2           460.375
       233   03 Jun 2027 07:09:15.220   03 Jun 2027 07:10:09.446            54.226                Anadyr1          1694.563
       234   03 Jun 2027 08:37:42.778   03 Jun 2027 08:37:50.695             7.917                Anadyr1           247.406
       235   03 Jun 2027 08:42:03.935   03 Jun 2027 08:42:47.716            43.781               Magadan2          1368.156
       236   03 Jun 2027 08:42:48.883   03 Jun 2027 08:43:24.762            35.879                Anadyr2          1121.219
       237   03 Jun 2027 08:44:04.235   03 Jun 2027 08:44:07.859             3.624               Magadan2           113.250
       238   03 Jun 2027 08:44:19.203   03 Jun 2027 08:45:19.499            60.296                Anadyr1          1884.250
       239   03 Jun 2027 08:45:19.499   03 Jun 2027 08:46:14.520            55.021                Anadyr2          1719.406
       240   03 Jun 2027 10:17:16.481   03 Jun 2027 10:18:04.775            48.294               Magadan2          1509.187
       241   03 Jun 2027 10:18:09.326   03 Jun 2027 10:18:47.533            38.207               Magadan2          1193.969
       242   03 Jun 2027 10:19:50.010   03 Jun 2027 10:21:50.878           120.868               Magadan1          3777.125
       243   03 Jun 2027 10:21:50.878   03 Jun 2027 10:22:59.820            68.942               Magadan2          2154.437
       244   03 Jun 2027 10:23:15.813   03 Jun 2027 10:23:22.580             6.767               Magadan2           211.469
       245   03 Jun 2027 10:28:00.548   03 Jun 2027 10:28:15.599            15.051                Norilsk           470.344
       246   03 Jun 2027 10:58:20.532   03 Jun 2027 11:00:14.054           113.522            RioGallegos          3547.563
       247   03 Jun 2027 11:34:03.923   03 Jun 2027 11:35:02.933            59.010                Sumatra          1844.063
       248   03 Jun 2027 11:53:43.463   03 Jun 2027 11:54:59.216            75.753                Irkutsk          2367.281
       249   03 Jun 2027 11:55:11.548   03 Jun 2027 11:55:50.196            38.648                Irkutsk          1207.750
       250   03 Jun 2027 11:56:25.171   03 Jun 2027 11:57:16.467            51.296                Irkutsk          1603.000
       251   03 Jun 2027 11:57:26.149   03 Jun 2027 11:57:28.237             2.088                Norilsk            65.250
       252   03 Jun 2027 11:57:29.462   03 Jun 2027 11:59:37.075           127.613                Irkutsk          3987.906
       253   03 Jun 2027 12:35:39.974   03 Jun 2027 12:36:22.350            42.376            RioGallegos          1324.250
       254   03 Jun 2027 12:40:17.516   03 Jun 2027 12:40:49.272            31.756            RioGallegos           992.375
       255   03 Jun 2027 12:42:58.124   03 Jun 2027 12:45:08.024           129.900            RioGallegos          4059.375
       256   03 Jun 2027 13:14:14.513   03 Jun 2027 13:15:10.246            55.733                Sumatra          1741.656
       257   03 Jun 2027 13:25:15.126   03 Jun 2027 13:27:43.380           148.254                Irkutsk          4632.937
       258   03 Jun 2027 14:54:56.906   03 Jun 2027 14:57:40.854           163.948                  Delhi          5123.375
       259   03 Jun 2027 14:58:25.161   03 Jun 2027 14:59:52.710            87.549                  Delhi          2735.906
       260   03 Jun 2027 15:03:24.513   03 Jun 2027 15:05:08.174           103.661                Novosib          3239.406
       261   03 Jun 2027 15:16:16.538   03 Jun 2027 15:16:31.637            15.099                Norilsk           471.844
       262   03 Jun 2027 16:38:00.290   03 Jun 2027 16:39:41.627           101.337                 Moscow          3166.781
       263   03 Jun 2027 16:40:59.875   03 Jun 2027 16:41:58.570            58.695                 Moscow          1834.219
       264   03 Jun 2027 16:42:30.245   03 Jun 2027 16:43:07.370            37.125              Murmansk2          1160.156
       265   03 Jun 2027 16:45:10.063   03 Jun 2027 16:45:14.015             3.952              Murmansk1           123.500
       266   03 Jun 2027 16:46:28.555   03 Jun 2027 16:47:07.137            38.582              Murmansk2          1205.688
       267   03 Jun 2027 16:48:47.488   03 Jun 2027 16:49:37.086            49.598              Murmansk1          1549.938
       268   03 Jun 2027 16:49:53.335   03 Jun 2027 16:51:07.687            74.352                Norilsk          2323.500
       269   03 Jun 2027 16:57:08.342   03 Jun 2027 16:57:40.983            32.641                Anadyr1          1020.031
       270   03 Jun 2027 17:02:20.783   03 Jun 2027 17:02:55.736            34.953                Anadyr2          1092.281
       271   03 Jun 2027 17:51:22.401   03 Jun 2027 17:52:15.828            53.427               CapeTown          1669.594
       272   03 Jun 2027 17:55:25.735   03 Jun 2027 17:57:25.007           119.272               CapeTown          3727.250
       273   03 Jun 2027 18:18:12.207   03 Jun 2027 18:22:00.943           228.736                 Moscow          7148.000
       274   03 Jun 2027 18:22:01.785   03 Jun 2027 18:22:08.707             6.922                 Moscow           216.312
       275   03 Jun 2027 19:28:00.062   03 Jun 2027 19:28:55.670            55.608               CapeTown          1737.750
       276   03 Jun 2027 19:29:09.477   03 Jun 2027 19:29:10.517             1.040               CapeTown            32.500
       277   03 Jun 2027 19:30:32.341   03 Jun 2027 19:31:01.212            28.871               CapeTown           902.219
       278   03 Jun 2027 19:32:55.542   03 Jun 2027 19:33:22.122            26.580               CapeTown           830.625
       279   03 Jun 2027 19:35:53.446   03 Jun 2027 19:37:53.508           120.062               CapeTown          3751.937
       280   03 Jun 2027 20:00:37.526   03 Jun 2027 20:01:30.123            52.597              Murmansk2          1643.656
       281   03 Jun 2027 20:01:30.123   03 Jun 2027 20:05:08.867           218.744              Murmansk1          6835.750
       282   03 Jun 2027 20:18:47.470   03 Jun 2027 20:19:25.509            38.039               Magadan2          1188.719
       283   03 Jun 2027 21:43:43.294   03 Jun 2027 21:48:50.804           307.510                Anadyr1          9609.687
       284   03 Jun 2027 21:49:03.217   03 Jun 2027 21:49:04.022             0.805                Norilsk            25.156
       285   03 Jun 2027 21:49:11.746   03 Jun 2027 21:51:44.661           152.915               Magadan1          4778.594
       286   03 Jun 2027 22:38:28.735   03 Jun 2027 22:40:22.058           113.323            RioGallegos          3541.344
       287   03 Jun 2027 22:40:49.247   03 Jun 2027 22:41:43.015            53.768            RioGallegos          1680.250
       288   03 Jun 2027 22:47:08.565   03 Jun 2027 22:47:43.298            34.733            RioGallegos          1085.406
       289   03 Jun 2027 23:19:25.206   03 Jun 2027 23:21:06.654           101.448                Anadyr1          3170.250
       290   03 Jun 2027 23:21:32.848   03 Jun 2027 23:23:11.318            98.470                Norilsk          3077.187
       291   03 Jun 2027 23:23:15.597   03 Jun 2027 23:24:21.871            66.274               Magadan2          2071.062
       292   03 Jun 2027 23:24:47.009   03 Jun 2027 23:24:49.665             2.656               Magadan2            83.000
       293   03 Jun 2027 23:25:37.161   03 Jun 2027 23:26:28.440            51.279               Magadan2          1602.469
       294   03 Jun 2027 23:27:55.040   03 Jun 2027 23:28:05.813            10.773                Irkutsk           336.656
       295   03 Jun 2027 23:34:25.322   03 Jun 2027 23:35:22.648            57.326                Irkutsk          1791.438
       296   03 Jun 2027 23:39:52.452   03 Jun 2027 23:41:38.809           106.357                Sumatra          3323.656
       297   04 Jun 2027 00:17:40.605   04 Jun 2027 00:17:50.354             9.749            RioGallegos           304.656
       298   04 Jun 2027 00:17:57.186   04 Jun 2027 00:18:20.646            23.460            RioGallegos           733.125
       299   04 Jun 2027 00:21:00.877   04 Jun 2027 00:21:31.426            30.549            RioGallegos           954.656
       300   04 Jun 2027 00:54:21.175   04 Jun 2027 00:54:43.071            21.896                Anadyr1           684.250
       301   04 Jun 2027 00:54:44.743   04 Jun 2027 00:55:04.430            19.687                Anadyr1           615.219
       302   04 Jun 2027 00:55:44.261   04 Jun 2027 00:56:37.898            53.637                Anadyr1          1676.156
       303   04 Jun 2027 00:57:28.333   04 Jun 2027 00:59:11.908           103.575                Norilsk          3236.719
       304   04 Jun 2027 00:59:22.634   04 Jun 2027 00:59:59.336            36.702               Magadan2          1146.938
       305   04 Jun 2027 01:01:20.568   04 Jun 2027 01:03:17.241           116.673                Irkutsk          3646.031
       306   04 Jun 2027 01:03:27.719   04 Jun 2027 01:03:31.673             3.954                Novosib           123.563
       307   04 Jun 2027 01:04:37.745   04 Jun 2027 01:05:02.630            24.885                Irkutsk           777.656
       308   04 Jun 2027 01:09:46.692   04 Jun 2027 01:10:09.483            22.791                  Delhi           712.219
       309   04 Jun 2027 01:13:30.602   04 Jun 2027 01:13:39.390             8.788                  Delhi           274.625
       310   04 Jun 2027 01:13:43.494   04 Jun 2027 01:14:16.031            32.537                  Delhi          1016.781
       311   04 Jun 2027 01:16:08.673   04 Jun 2027 01:17:05.794            57.121                Sumatra          1785.031
       312   04 Jun 2027 01:25:50.349   04 Jun 2027 01:26:13.007            22.658                Sumatra           708.063
       313   04 Jun 2027 01:49:41.464   04 Jun 2027 01:50:39.752            58.288            RioGallegos          1821.500
       314   04 Jun 2027 01:56:29.186   04 Jun 2027 01:56:57.764            28.578            RioGallegos           893.062
       315   04 Jun 2027 01:59:22.404   04 Jun 2027 01:59:51.460            29.056            RioGallegos           908.000
       316   04 Jun 2027 02:30:20.992   04 Jun 2027 02:30:24.726             3.734                Anadyr2           116.687
       317   04 Jun 2027 02:31:00.808   04 Jun 2027 02:31:14.235            13.427                Anadyr2           419.594
       318   04 Jun 2027 02:32:47.000   04 Jun 2027 02:33:42.765            55.765                Anadyr1          1742.656
       319   04 Jun 2027 02:33:54.108   04 Jun 2027 02:34:31.788            37.680                Norilsk          1177.500
       320   04 Jun 2027 02:35:31.972   04 Jun 2027 02:35:46.328            14.356               Magadan1           448.625
       321   04 Jun 2027 02:35:55.246   04 Jun 2027 02:36:08.304            13.058              Murmansk2           408.062
       322   04 Jun 2027 02:36:39.685   04 Jun 2027 02:37:20.617            40.932              Murmansk1          1279.125
       323   04 Jun 2027 02:37:46.780   04 Jun 2027 02:39:36.647           109.867                Irkutsk          3433.344
       324   04 Jun 2027 02:44:42.432   04 Jun 2027 02:44:51.689             9.257                  Delhi           289.281
       325   04 Jun 2027 02:45:34.783   04 Jun 2027 02:46:37.852            63.069                  Delhi          1970.906
       326   04 Jun 2027 02:54:24.851   04 Jun 2027 02:54:47.284            22.433                  Delhi           701.031
       327   04 Jun 2027 03:28:08.987   04 Jun 2027 03:29:08.626            59.639            RioGallegos          1863.719
       328   04 Jun 2027 04:17:55.489   04 Jun 2027 04:18:24.114            28.625              Murmansk1           894.531
       329   04 Jun 2027 04:18:53.028   04 Jun 2027 04:20:49.560           116.532                Norilsk          3641.625
       330   04 Jun 2027 04:20:55.805   04 Jun 2027 04:21:06.946            11.141                Norilsk           348.156
       331   04 Jun 2027 04:21:14.319   04 Jun 2027 04:22:05.568            51.249              Murmansk2          1601.531
       332   04 Jun 2027 05:56:28.000   04 Jun 2027 05:57:10.620            42.620              Murmansk1          1331.875
       333   04 Jun 2027 05:59:31.610   04 Jun 2027 05:59:59.876            28.266              Murmansk1           883.313
       334   04 Jun 2027 06:15:02.975   04 Jun 2027 06:17:39.503           156.528               CapeTown          4891.500
       335   04 Jun 2027 07:18:28.355   04 Jun 2027 07:19:47.796            79.441                Anadyr1          2482.531
       336   04 Jun 2027 07:19:49.404   04 Jun 2027 07:20:06.917            17.513               Magadan1           547.281
       337   04 Jun 2027 07:20:23.409   04 Jun 2027 07:21:20.010            56.601                Anadyr2          1768.781
       338   04 Jun 2027 07:22:57.032   04 Jun 2027 07:23:32.252            35.220               Magadan2          1100.625
       339   04 Jun 2027 08:53:52.334   04 Jun 2027 08:55:15.285            82.951                Anadyr2          2592.219
       340   04 Jun 2027 08:55:24.433   04 Jun 2027 08:55:39.570            15.137               Magadan2           473.031
       341   04 Jun 2027 08:56:09.576   04 Jun 2027 08:56:50.226            40.650               Magadan1          1270.312
       342   04 Jun 2027 08:57:03.940   04 Jun 2027 08:58:45.762           101.822                Anadyr1          3181.937
       343   04 Jun 2027 10:29:03.543   04 Jun 2027 10:30:31.295            87.752               Magadan1          2742.250
       344   04 Jun 2027 10:30:58.082   04 Jun 2027 10:30:59.711             1.629               Magadan1            50.906
       345   04 Jun 2027 10:31:32.996   04 Jun 2027 10:32:32.404            59.408                Irkutsk          1856.500
       346   04 Jun 2027 10:32:40.737   04 Jun 2027 10:32:45.410             4.673                Irkutsk           146.031
       347   04 Jun 2027 10:32:55.191   04 Jun 2027 10:33:16.888            21.697                Norilsk           678.031
       348   04 Jun 2027 10:33:38.507   04 Jun 2027 10:34:06.971            28.464                Irkutsk           889.500
       349   04 Jun 2027 10:34:12.283   04 Jun 2027 10:35:07.720            55.437                Irkutsk          1732.406
       350   04 Jun 2027 10:35:18.440   04 Jun 2027 10:35:33.649            15.209                Irkutsk           475.281
       351   04 Jun 2027 10:37:20.712   04 Jun 2027 10:37:33.430            12.718              Murmansk1           397.438
       352   04 Jun 2027 11:10:19.843   04 Jun 2027 11:11:17.583            57.740            RioGallegos          1804.375
       353   04 Jun 2027 11:11:25.202   04 Jun 2027 11:11:54.811            29.609            RioGallegos           925.281
       354   04 Jun 2027 11:45:42.911   04 Jun 2027 11:46:16.465            33.554                Sumatra          1048.562
       355   04 Jun 2027 11:46:40.950   04 Jun 2027 11:47:21.754            40.804                Sumatra          1275.125
       356   04 Jun 2027 12:04:33.938   04 Jun 2027 12:05:41.067            67.129                Irkutsk          2097.781
       357   04 Jun 2027 12:15:39.574   04 Jun 2027 12:16:01.056            21.482                Norilsk           671.312
       358   04 Jun 2027 12:51:22.832   04 Jun 2027 12:53:13.154           110.322            RioGallegos          3447.563
       359   04 Jun 2027 13:22:26.634   04 Jun 2027 13:23:02.000            35.366                Sumatra          1105.187
       360   04 Jun 2027 13:24:41.751   04 Jun 2027 13:26:13.815            92.064                Sumatra          2877.000
       361   04 Jun 2027 13:27:28.788   04 Jun 2027 13:28:49.777            80.989                Sumatra          2530.906
       362   04 Jun 2027 13:43:59.003   04 Jun 2027 13:45:19.656            80.653                Novosib          2520.406
       363   04 Jun 2027 15:07:47.215   04 Jun 2027 15:10:19.524           152.309                  Delhi          4759.656
       364   04 Jun 2027 15:16:18.029   04 Jun 2027 15:20:28.697           250.668                Novosib          7833.375
       365   04 Jun 2027 16:32:46.188   04 Jun 2027 16:33:29.641            43.453               CapeTown          1357.906
       366   04 Jun 2027 16:50:13.745   04 Jun 2027 16:50:22.222             8.477                 Moscow           264.906
       367   04 Jun 2027 16:51:04.052   04 Jun 2027 16:51:42.312            38.260                 Moscow          1195.625
       368   04 Jun 2027 16:52:58.703   04 Jun 2027 16:53:45.296            46.593                 Moscow          1456.031
       369   04 Jun 2027 16:54:34.547   04 Jun 2027 16:55:11.298            36.751              Murmansk1          1148.469
       370   04 Jun 2027 16:57:56.696   04 Jun 2027 16:58:15.403            18.707              Murmansk2           584.594
       371   04 Jun 2027 17:00:22.819   04 Jun 2027 17:00:48.677            25.858              Murmansk2           808.063
       372   04 Jun 2027 17:01:57.699   04 Jun 2027 17:02:20.378            22.679              Murmansk2           708.719
       373   04 Jun 2027 17:08:50.912   04 Jun 2027 17:09:45.549            54.637                Anadyr1          1707.406
       374   04 Jun 2027 17:10:10.287   04 Jun 2027 17:10:46.298            36.011                Anadyr1          1125.344
       375   04 Jun 2027 17:13:02.716   04 Jun 2027 17:13:25.839            23.123                Anadyr2           722.594
       376   04 Jun 2027 17:15:12.970   04 Jun 2027 17:15:38.058            25.088                Anadyr1           784.000
       377   04 Jun 2027 18:05:58.631   04 Jun 2027 18:06:27.342            28.711               CapeTown           897.219
       378   04 Jun 2027 18:10:10.575   04 Jun 2027 18:10:34.176            23.601               CapeTown           737.531
       379   04 Jun 2027 18:11:31.442   04 Jun 2027 18:11:58.653            27.211               CapeTown           850.344
       380   04 Jun 2027 18:15:20.337   04 Jun 2027 18:16:05.783            45.446               CapeTown          1420.188
       381   04 Jun 2027 18:30:41.068   04 Jun 2027 18:33:46.199           185.131                 Moscow          5785.344
       382   04 Jun 2027 18:36:11.328   04 Jun 2027 18:36:35.645            24.317              Murmansk2           759.906
       383   04 Jun 2027 18:36:35.645   04 Jun 2027 18:37:02.658            27.013              Murmansk1           844.156
       384   04 Jun 2027 18:44:38.745   04 Jun 2027 18:44:48.191             9.446                Anadyr2           295.188
       385   04 Jun 2027 18:45:32.396   04 Jun 2027 18:45:35.854             3.458                Anadyr2           108.062
       386   04 Jun 2027 18:49:41.644   04 Jun 2027 18:50:59.940            78.296               Magadan1          2446.750
       387   04 Jun 2027 19:40:25.003   04 Jun 2027 19:41:18.154            53.151               CapeTown          1660.969
       388   04 Jun 2027 20:13:51.298   04 Jun 2027 20:16:39.163           167.865              Murmansk1          5245.781
       389   04 Jun 2027 20:22:21.288   04 Jun 2027 20:23:24.324            63.036               Magadan2          1969.875
       390   04 Jun 2027 20:23:24.324   04 Jun 2027 20:23:51.979            27.655               Magadan1           864.219
       391   04 Jun 2027 20:24:17.829   04 Jun 2027 20:25:39.935            82.106               Magadan2          2565.813
       392   04 Jun 2027 20:26:59.171   04 Jun 2027 20:27:03.894             4.723               Magadan1           147.594
       393   04 Jun 2027 20:28:06.459   04 Jun 2027 20:28:18.539            12.080               Magadan2           377.500
       394   04 Jun 2027 20:28:19.039   04 Jun 2027 20:28:25.534             6.495               Magadan2           202.969
       395   04 Jun 2027 20:28:28.319   04 Jun 2027 20:28:42.864            14.545               Magadan2           454.531
       396   04 Jun 2027 20:31:34.381   04 Jun 2027 20:31:49.340            14.959               Magadan2           467.469
       397   04 Jun 2027 21:55:44.431   04 Jun 2027 21:59:31.118           226.687                Anadyr2          7083.969
       398   04 Jun 2027 22:00:02.230   04 Jun 2027 22:01:20.551            78.321               Magadan1          2447.531
       399   04 Jun 2027 22:01:20.551   04 Jun 2027 22:02:17.683            57.132               Magadan2          1785.375
       400   04 Jun 2027 22:02:19.493   04 Jun 2027 22:02:23.670             4.177                Norilsk           130.531
       401   04 Jun 2027 22:02:52.981   04 Jun 2027 22:04:04.530            71.549               Magadan2          2235.906
       402   04 Jun 2027 22:04:31.758   04 Jun 2027 22:04:41.054             9.296               Magadan1           290.500
       403   04 Jun 2027 22:08:54.247   04 Jun 2027 22:09:37.753            43.506               Magadan1          1359.562
       404   04 Jun 2027 22:50:14.431   04 Jun 2027 22:51:51.108            96.677            RioGallegos          3021.156
       405   04 Jun 2027 22:52:18.355   04 Jun 2027 22:53:06.111            47.756            RioGallegos          1492.375
       406   04 Jun 2027 23:31:22.687   04 Jun 2027 23:33:12.490           109.803                Anadyr1          3431.344
       407   04 Jun 2027 23:33:33.327   04 Jun 2027 23:35:13.351           100.024                Norilsk          3125.750
       408   04 Jun 2027 23:35:15.859   04 Jun 2027 23:35:18.462             2.603               Magadan1            81.344
       409   04 Jun 2027 23:35:21.656   04 Jun 2027 23:36:07.177            45.521               Magadan2          1422.531
       410   04 Jun 2027 23:37:47.033   04 Jun 2027 23:38:31.218            44.185                Irkutsk          1380.781
       411   04 Jun 2027 23:38:59.562   04 Jun 2027 23:39:05.447             5.885                Irkutsk           183.906
       412   04 Jun 2027 23:39:56.533   04 Jun 2027 23:40:39.491            42.958                Irkutsk          1342.437
       413   04 Jun 2027 23:40:54.126   04 Jun 2027 23:42:11.625            77.499                Novosib          2421.844
       414   04 Jun 2027 23:51:35.134   04 Jun 2027 23:52:13.844            38.710                Sumatra          1209.688
       415   04 Jun 2027 23:54:07.676   04 Jun 2027 23:55:01.294            53.618                Sumatra          1675.562
       416   05 Jun 2027 00:01:40.997   05 Jun 2027 00:03:30.645           109.648                Sumatra          3426.500
       417   05 Jun 2027 01:06:09.939   05 Jun 2027 01:06:40.844            30.905                Anadyr1           965.781
       418   05 Jun 2027 01:07:45.591   05 Jun 2027 01:08:24.500            38.909                Anadyr1          1215.906
       419   05 Jun 2027 01:08:28.677   05 Jun 2027 01:08:47.919            19.242                Anadyr1           601.312
       420   05 Jun 2027 01:09:30.668   05 Jun 2027 01:10:42.069            71.401                Norilsk          2231.281
       421   05 Jun 2027 01:11:18.316   05 Jun 2027 01:11:37.557            19.241               Magadan1           601.281
       422   05 Jun 2027 01:11:45.385   05 Jun 2027 01:12:28.747            43.362               Magadan2          1355.062
       423   05 Jun 2027 01:13:23.203   05 Jun 2027 01:14:13.415            50.212                Irkutsk          1569.125
       424   05 Jun 2027 01:14:27.212   05 Jun 2027 01:16:35.391           128.179                Irkutsk          4005.594
       425   05 Jun 2027 01:28:48.126   05 Jun 2027 01:29:53.612            65.486                Sumatra          2046.438
       426   05 Jun 2027 01:33:41.042   05 Jun 2027 01:34:48.407            67.365                Sumatra          2105.156
       427   05 Jun 2027 02:03:00.261   05 Jun 2027 02:03:25.063            24.802            RioGallegos           775.062
       428   05 Jun 2027 02:08:41.866   05 Jun 2027 02:09:00.840            18.974            RioGallegos           592.938
       429   05 Jun 2027 02:11:31.997   05 Jun 2027 02:12:10.644            38.647            RioGallegos          1207.719
       430   05 Jun 2027 02:42:25.693   05 Jun 2027 02:42:41.910            16.217                Anadyr1           506.781
       431   05 Jun 2027 02:43:01.146   05 Jun 2027 02:43:08.864             7.718                Anadyr1           241.188
       432   05 Jun 2027 02:45:30.756   05 Jun 2027 02:47:05.937            95.181                Norilsk          2974.406
       433   05 Jun 2027 02:47:52.149   05 Jun 2027 02:48:46.388            54.239              Murmansk1          1694.969
       434   05 Jun 2027 02:49:18.178   05 Jun 2027 02:50:54.403            96.225                Novosib          3007.031
       435   05 Jun 2027 02:53:41.187   05 Jun 2027 02:54:09.252            28.065                Irkutsk           877.031
       436   05 Jun 2027 02:56:40.888   05 Jun 2027 02:56:47.532             6.644                Irkutsk           207.625
       437   05 Jun 2027 02:58:57.538   05 Jun 2027 02:59:16.407            18.869                Novosib           589.656
       438   05 Jun 2027 04:30:42.372   05 Jun 2027 04:32:06.634            84.262                Norilsk          2633.188
       439   05 Jun 2027 04:32:20.082   05 Jun 2027 04:32:50.934            30.852                Norilsk           964.125
       440   05 Jun 2027 04:32:53.213   05 Jun 2027 04:33:01.589             8.376              Murmansk2           261.750
       441   05 Jun 2027 04:33:47.037   05 Jun 2027 04:37:39.803           232.766                 Moscow          7273.937
       442   05 Jun 2027 04:51:26.162   05 Jun 2027 04:54:32.785           186.623               CapeTown          5831.969
       443   05 Jun 2027 05:55:22.860   05 Jun 2027 05:56:08.172            45.312                Anadyr2          1416.000
       444   05 Jun 2027 05:56:37.297   05 Jun 2027 05:57:08.035            30.738                Anadyr1           960.562
       445   05 Jun 2027 06:07:30.852   05 Jun 2027 06:08:24.953            54.101                 Moscow          1690.656
       446   05 Jun 2027 06:11:25.771   05 Jun 2027 06:11:47.008            21.237              Murmansk2           663.656
       447   05 Jun 2027 06:27:24.219   05 Jun 2027 06:28:37.907            73.688               CapeTown          2302.750
       448   05 Jun 2027 06:31:51.690   05 Jun 2027 06:32:43.468            51.778               CapeTown          1618.063
       449   05 Jun 2027 07:29:56.920   05 Jun 2027 07:30:12.754            15.834               Magadan1           494.812
       450   05 Jun 2027 07:30:12.754   05 Jun 2027 07:30:38.390            25.636               Magadan2           801.125
       451   05 Jun 2027 07:31:02.066   05 Jun 2027 07:32:33.741            91.675                Anadyr2          2864.844
       452   05 Jun 2027 07:32:43.056   05 Jun 2027 07:32:47.638             4.582                Anadyr2           143.188
       453   05 Jun 2027 07:32:47.638   05 Jun 2027 07:33:40.600            52.962                Anadyr1          1655.062
       454   05 Jun 2027 07:42:54.569   05 Jun 2027 07:43:20.890            26.321                 Moscow           822.531
       455   05 Jun 2027 09:04:32.598   05 Jun 2027 09:07:45.039           192.441                Anadyr1          6013.781
       456   05 Jun 2027 09:08:03.385   05 Jun 2027 09:08:07.354             3.969               Magadan1           124.031
       457   05 Jun 2027 09:08:10.926   05 Jun 2027 09:09:01.480            50.554               Magadan2          1579.812
       458   05 Jun 2027 09:09:16.888   05 Jun 2027 09:10:16.098            59.210                Anadyr2          1850.312
       459   05 Jun 2027 09:10:16.098   05 Jun 2027 09:10:33.580            17.482                Anadyr1           546.313
       460   05 Jun 2027 10:40:04.323   05 Jun 2027 10:40:29.335            25.012               Magadan2           781.625
       461   05 Jun 2027 10:40:45.432   05 Jun 2027 10:41:29.143            43.711               Magadan1          1365.969
       462   05 Jun 2027 10:42:39.225   05 Jun 2027 10:43:02.113            22.888               Magadan1           715.250
       463   05 Jun 2027 10:43:14.913   05 Jun 2027 10:43:41.216            26.303               Magadan1           821.969
       464   05 Jun 2027 10:43:57.546   05 Jun 2027 10:45:50.561           113.015               Magadan1          3531.719
       465   05 Jun 2027 10:46:17.633   05 Jun 2027 10:47:02.593            44.960                Irkutsk          1405.000
       466   05 Jun 2027 10:47:45.054   05 Jun 2027 10:48:08.398            23.344                Norilsk           729.500
       467   05 Jun 2027 11:22:22.510   05 Jun 2027 11:23:21.770            59.260            RioGallegos          1851.875
       468   05 Jun 2027 11:57:28.998   05 Jun 2027 11:59:46.987           137.989                Sumatra          4312.156
       469   05 Jun 2027 12:12:37.279   05 Jun 2027 12:12:43.354             6.075                Novosib           189.844
       470   05 Jun 2027 12:14:02.037   05 Jun 2027 12:14:49.206            47.169                Irkutsk          1474.031
       471   05 Jun 2027 12:27:54.366   05 Jun 2027 12:28:20.588            26.222                Norilsk           819.437
       472   05 Jun 2027 13:00:52.727   05 Jun 2027 13:03:19.652           146.925            RioGallegos          4591.406
       473   05 Jun 2027 13:35:14.251   05 Jun 2027 13:38:07.357           173.106                Sumatra          5409.563
       474   05 Jun 2027 13:51:03.265   05 Jun 2027 13:51:32.544            29.279                Irkutsk           914.969
       475   05 Jun 2027 13:54:52.085   05 Jun 2027 13:55:22.961            30.876                Irkutsk           964.875
       476   05 Jun 2027 14:00:51.073   05 Jun 2027 14:01:53.169            62.096                Norilsk          1940.500
       477   05 Jun 2027 15:21:00.762   05 Jun 2027 15:22:09.823            69.061                  Delhi          2158.156
       478   05 Jun 2027 15:25:05.157   05 Jun 2027 15:27:02.634           117.477                  Delhi          3671.156
       479   05 Jun 2027 15:29:26.958   05 Jun 2027 15:32:04.429           157.471                Novosib          4920.969
       480   05 Jun 2027 15:32:56.949   05 Jun 2027 15:33:34.420            37.471                Novosib          1170.969
       481   05 Jun 2027 15:35:51.080   05 Jun 2027 15:36:02.589            11.509                Norilsk           359.656
       482   05 Jun 2027 15:36:47.667   05 Jun 2027 15:36:59.379            11.712                Norilsk           366.000
