uniorb/output/strategy_4/Drop/Drop_KinoSat_111302.txt

KinoSat_111302
-------------------------
    Access    *     Start Time (UTCG)     *     Stop Time (UTCG)  *   Duration (s)        *       Station  *  Data (Mbytes)
         1   01 Jun 2027 03:59:23.223   01 Jun 2027 03:59:33.022             9.799              Murmansk1           306.219
         2   01 Jun 2027 03:59:33.022   01 Jun 2027 04:00:10.216            37.194              Murmansk2          1162.313
         3   01 Jun 2027 04:00:30.832   01 Jun 2027 04:03:13.436           162.604              Murmansk1          5081.375
         4   01 Jun 2027 04:03:22.862   01 Jun 2027 04:03:28.501             5.639                 Moscow           176.219
         5   01 Jun 2027 04:04:49.821   01 Jun 2027 04:05:30.076            40.255                 Moscow          1257.969
         6   01 Jun 2027 05:21:00.502   01 Jun 2027 05:21:10.792            10.290               Magadan2           321.562
         7   01 Jun 2027 05:21:31.025   01 Jun 2027 05:25:40.504           249.479                Anadyr1          7796.219
         8   01 Jun 2027 05:27:07.007   01 Jun 2027 05:27:19.929            12.922                Anadyr1           403.812
         9   01 Jun 2027 06:58:44.951   01 Jun 2027 06:59:24.085            39.134                Anadyr2          1222.937
        10   01 Jun 2027 06:59:24.085   01 Jun 2027 07:02:14.053           169.968                Anadyr1          5311.500
        11   01 Jun 2027 08:33:19.161   01 Jun 2027 08:34:25.272            66.111                Irkutsk          2065.969
        12   01 Jun 2027 08:34:56.043   01 Jun 2027 08:35:22.525            26.482               Magadan2           827.562
        13   01 Jun 2027 08:35:22.525   01 Jun 2027 08:36:50.229            87.704               Magadan1          2740.750
        14   01 Jun 2027 08:37:38.809   01 Jun 2027 08:40:01.922           143.113                Norilsk          4472.281
        15   01 Jun 2027 09:13:25.083   01 Jun 2027 09:15:44.443           139.360            RioGallegos          4355.000
        16   01 Jun 2027 09:49:23.397   01 Jun 2027 09:50:21.617            58.220                Sumatra          1819.375
        17   01 Jun 2027 09:54:58.608   01 Jun 2027 09:55:18.026            19.418                Sumatra           606.812
        18   01 Jun 2027 10:09:54.090   01 Jun 2027 10:10:11.679            17.589                Irkutsk           549.656
        19   01 Jun 2027 10:10:22.931   01 Jun 2027 10:13:39.214           196.283                Irkutsk          6133.844
        20   01 Jun 2027 10:13:52.328   01 Jun 2027 10:14:28.889            36.561                Irkutsk          1142.531
        21   01 Jun 2027 10:50:26.191   01 Jun 2027 10:51:09.107            42.916            RioGallegos          1341.125
        22   01 Jun 2027 11:24:41.098   01 Jun 2027 11:26:17.048            95.950                Sumatra          2998.438
        23   01 Jun 2027 11:46:24.518   01 Jun 2027 11:47:01.677            37.159                Irkutsk          1161.219
        24   01 Jun 2027 11:48:47.720   01 Jun 2027 11:49:49.496            61.776                Norilsk          1930.500
        25   01 Jun 2027 11:49:52.098   01 Jun 2027 11:52:06.236           134.138                Novosib          4191.813
        26   01 Jun 2027 11:52:10.559   01 Jun 2027 11:53:01.009            50.450                 Moscow          1576.562
        27   01 Jun 2027 13:09:36.259   01 Jun 2027 13:14:44.713           308.454                  Delhi          9639.187
        28   01 Jun 2027 13:18:00.746   01 Jun 2027 13:18:11.300            10.554                Novosib           329.813
        29   01 Jun 2027 13:19:26.562   01 Jun 2027 13:20:20.774            54.212                Novosib          1694.125
        30   01 Jun 2027 13:20:25.215   01 Jun 2027 13:20:45.039            19.824              Murmansk2           619.500
        31   01 Jun 2027 13:21:40.013   01 Jun 2027 13:23:20.957           100.944                Norilsk          3154.500
        32   01 Jun 2027 13:24:04.178   01 Jun 2027 13:24:30.905            26.727                Norilsk           835.219
        33   01 Jun 2027 14:52:56.604   01 Jun 2027 14:54:53.713           117.109                 Moscow          3659.656
        34   01 Jun 2027 14:56:27.885   01 Jun 2027 15:00:29.035           241.150              Murmansk2          7535.938
        35   01 Jun 2027 15:01:32.948   01 Jun 2027 15:01:39.350             6.402              Murmansk2           200.062
        36   01 Jun 2027 15:01:54.139   01 Jun 2027 15:03:19.268            85.129              Murmansk1          2660.281
        37   01 Jun 2027 15:03:21.410   01 Jun 2027 15:04:01.946            40.536                Norilsk          1266.750
        38   01 Jun 2027 15:05:47.486   01 Jun 2027 15:06:27.219            39.733                Norilsk          1241.656
        39   01 Jun 2027 15:07:54.641   01 Jun 2027 15:09:11.100            76.459              Murmansk2          2389.344
        40   01 Jun 2027 15:12:29.390   01 Jun 2027 15:13:35.125            65.735                Anadyr1          2054.219
        41   01 Jun 2027 15:14:40.812   01 Jun 2027 15:14:42.860             2.048                Anadyr1            64.000
        42   01 Jun 2027 15:15:34.532   01 Jun 2027 15:16:38.787            64.255                Anadyr2          2007.969
        43   01 Jun 2027 16:13:17.544   01 Jun 2027 16:13:25.060             7.516               CapeTown           234.875
        44   01 Jun 2027 16:13:31.332   01 Jun 2027 16:13:59.762            28.430               CapeTown           888.438
        45   01 Jun 2027 16:15:02.407   01 Jun 2027 16:15:58.603            56.196               CapeTown          1756.125
        46   01 Jun 2027 16:32:07.981   01 Jun 2027 16:33:04.279            56.298                 Moscow          1759.312
        47   01 Jun 2027 16:34:23.253   01 Jun 2027 16:34:24.864             1.611              Murmansk2            50.344
        48   01 Jun 2027 16:35:13.998   01 Jun 2027 16:35:31.610            17.612              Murmansk1           550.375
        49   01 Jun 2027 16:35:52.533   01 Jun 2027 16:36:35.326            42.793              Murmansk1          1337.281
        50   01 Jun 2027 16:38:06.754   01 Jun 2027 16:38:41.436            34.682                 Moscow          1083.812
        51   01 Jun 2027 16:40:44.181   01 Jun 2027 16:41:22.649            38.468              Murmansk2          1202.125
        52   01 Jun 2027 16:42:58.310   01 Jun 2027 16:43:28.711            30.401              Murmansk2           950.031
        53   01 Jun 2027 16:43:28.711   01 Jun 2027 16:44:18.433            49.722              Murmansk1          1553.812
        54   01 Jun 2027 16:47:01.837   01 Jun 2027 16:47:18.822            16.985                Anadyr1           530.781
        55   01 Jun 2027 16:47:39.859   01 Jun 2027 16:48:01.865            22.006                Anadyr2           687.687
        56   01 Jun 2027 16:48:49.423   01 Jun 2027 16:48:50.408             0.985                Anadyr2            30.781
        57   01 Jun 2027 16:49:47.991   01 Jun 2027 16:50:15.629            27.638                Anadyr1           863.688
        58   01 Jun 2027 16:50:44.294   01 Jun 2027 16:51:29.804            45.510                Anadyr1          1422.188
        59   01 Jun 2027 16:53:14.430   01 Jun 2027 16:53:32.587            18.157                Anadyr1           567.406
        60   01 Jun 2027 16:53:44.755   01 Jun 2027 16:54:07.171            22.416                Anadyr1           700.500
        61   01 Jun 2027 16:54:34.057   01 Jun 2027 16:54:56.474            22.417                Anadyr2           700.531
        62   01 Jun 2027 16:56:07.522   01 Jun 2027 16:56:35.320            27.798                Anadyr1           868.687
        63   01 Jun 2027 16:57:23.755   01 Jun 2027 16:57:37.747            13.992                Anadyr1           437.250
        64   01 Jun 2027 16:58:14.370   01 Jun 2027 16:58:17.244             2.874                Anadyr1            89.812
        65   01 Jun 2027 17:48:19.689   01 Jun 2027 17:49:16.470            56.781               CapeTown          1774.406
        66   01 Jun 2027 18:15:06.966   01 Jun 2027 18:19:39.379           272.413              Murmansk1          8512.906
        67   01 Jun 2027 18:19:44.949   01 Jun 2027 18:20:18.483            33.534              Murmansk2          1047.938
        68   01 Jun 2027 18:25:32.666   01 Jun 2027 18:26:36.903            64.237               Magadan2          2007.406
        69   01 Jun 2027 18:31:37.556   01 Jun 2027 18:32:30.413            52.857               Magadan1          1651.781
        70   01 Jun 2027 18:34:05.279   01 Jun 2027 18:35:02.466            57.187               Magadan2          1787.094
        71   01 Jun 2027 19:58:44.724   01 Jun 2027 20:02:30.685           225.961                Anadyr1          7061.281
        72   01 Jun 2027 20:03:04.099   01 Jun 2027 20:04:59.807           115.708               Magadan2          3615.875
        73   01 Jun 2027 20:05:42.808   01 Jun 2027 20:05:50.007             7.199               Magadan2           224.969
        74   01 Jun 2027 20:06:06.433   01 Jun 2027 20:06:18.857            12.424               Magadan2           388.250
        75   01 Jun 2027 20:07:29.081   01 Jun 2027 20:07:56.035            26.954               Magadan1           842.312
        76   01 Jun 2027 20:09:12.346   01 Jun 2027 20:09:23.248            10.902               Magadan1           340.687
        77   01 Jun 2027 20:09:55.976   01 Jun 2027 20:10:10.677            14.701               Magadan1           459.406
        78   01 Jun 2027 20:11:36.403   01 Jun 2027 20:12:22.687            46.284               Magadan2          1446.375
        79   01 Jun 2027 20:53:43.573   01 Jun 2027 20:56:10.059           146.486            RioGallegos          4577.688
        80   01 Jun 2027 20:57:54.384   01 Jun 2027 20:58:27.270            32.886            RioGallegos          1027.687
        81   01 Jun 2027 20:59:51.385   01 Jun 2027 21:00:17.831            26.446            RioGallegos           826.437
        82   01 Jun 2027 21:02:33.688   01 Jun 2027 21:02:43.193             9.505            RioGallegos           297.031
        83   01 Jun 2027 21:34:30.965   01 Jun 2027 21:35:03.477            32.512                Anadyr1          1016.000
        84   01 Jun 2027 21:36:36.797   01 Jun 2027 21:37:02.242            25.445                Norilsk           795.156
        85   01 Jun 2027 21:37:35.433   01 Jun 2027 21:39:06.914            91.481               Magadan1          2858.781
        86   01 Jun 2027 21:39:08.482   01 Jun 2027 21:39:14.165             5.683               Magadan2           177.594
        87   01 Jun 2027 21:39:24.207   01 Jun 2027 21:39:32.570             8.363               Magadan2           261.344
        88   01 Jun 2027 21:39:54.231   01 Jun 2027 21:40:17.654            23.423               Magadan2           731.969
        89   01 Jun 2027 21:40:35.275   01 Jun 2027 21:40:51.649            16.374               Magadan2           511.687
        90   01 Jun 2027 21:41:03.385   01 Jun 2027 21:42:23.872            80.487                Irkutsk          2515.219
        91   01 Jun 2027 21:45:39.003   01 Jun 2027 21:46:23.037            44.034                Irkutsk          1376.062
        92   01 Jun 2027 21:50:15.820   01 Jun 2027 21:50:30.376            14.556                Irkutsk           454.875
        93   01 Jun 2027 21:51:07.726   01 Jun 2027 21:51:20.605            12.879                Irkutsk           402.469
        94   01 Jun 2027 21:55:09.278   01 Jun 2027 21:56:28.661            79.383                Sumatra          2480.719
        95   01 Jun 2027 21:56:34.163   01 Jun 2027 21:58:12.434            98.271                Sumatra          3070.969
        96   01 Jun 2027 23:09:28.523   01 Jun 2027 23:10:48.140            79.617                Anadyr1          2488.031
        97   01 Jun 2027 23:11:16.967   01 Jun 2027 23:11:51.299            34.332                Anadyr2          1072.875
        98   01 Jun 2027 23:12:30.070   01 Jun 2027 23:14:31.064           120.994                Norilsk          3781.062
        99   01 Jun 2027 23:15:03.403   01 Jun 2027 23:15:11.962             8.559               Magadan1           267.469
       100   01 Jun 2027 23:16:21.948   01 Jun 2027 23:16:55.309            33.361                Irkutsk          1042.531
       101   01 Jun 2027 23:16:58.117   01 Jun 2027 23:17:26.978            28.861                Novosib           901.906
       102   01 Jun 2027 23:17:54.180   01 Jun 2027 23:18:14.264            20.084                Novosib           627.625
       103   01 Jun 2027 23:20:45.269   01 Jun 2027 23:21:36.019            50.750                Novosib          1585.938
       104   01 Jun 2027 23:25:07.315   01 Jun 2027 23:26:08.328            61.013                  Delhi          1906.656
       105   01 Jun 2027 23:28:11.107   01 Jun 2027 23:28:36.239            25.132                  Delhi           785.375
       106   01 Jun 2027 23:29:50.332   01 Jun 2027 23:30:38.451            48.119                  Delhi          1503.719
       107   01 Jun 2027 23:40:51.721   01 Jun 2027 23:41:06.910            15.189                Sumatra           474.656
       108   02 Jun 2027 00:09:37.033   02 Jun 2027 00:10:21.731            44.698            RioGallegos          1396.813
       109   02 Jun 2027 00:12:49.310   02 Jun 2027 00:12:59.653            10.343            RioGallegos           323.219
       110   02 Jun 2027 00:13:32.556   02 Jun 2027 00:13:52.319            19.763            RioGallegos           617.594
       111   02 Jun 2027 00:43:15.783   02 Jun 2027 00:44:07.188            51.405                Anadyr2          1606.406
       112   02 Jun 2027 00:44:55.404   02 Jun 2027 00:45:38.673            43.269                Anadyr1          1352.156
       113   02 Jun 2027 00:45:41.879   02 Jun 2027 00:45:45.465             3.586                Anadyr2           112.063
       114   02 Jun 2027 00:48:30.385   02 Jun 2027 00:49:05.640            35.255                Norilsk          1101.719
       115   02 Jun 2027 00:49:32.188   02 Jun 2027 00:50:33.853            61.665                Norilsk          1927.031
       116   02 Jun 2027 00:50:57.174   02 Jun 2027 00:51:31.899            34.725               Magadan1          1085.156
       117   02 Jun 2027 00:52:16.607   02 Jun 2027 00:54:26.923           130.316                Novosib          4072.375
       118   02 Jun 2027 00:55:34.676   02 Jun 2027 00:56:17.409            42.733                Novosib          1335.406
       119   02 Jun 2027 00:58:12.608   02 Jun 2027 00:58:33.328            20.720                 Moscow           647.500
       120   02 Jun 2027 01:01:06.690   02 Jun 2027 01:01:51.975            45.285                  Delhi          1415.156
       121   02 Jun 2027 01:04:58.247   02 Jun 2027 01:05:51.619            53.372                  Delhi          1667.875
       122   02 Jun 2027 01:42:29.802   02 Jun 2027 01:43:14.114            44.312            RioGallegos          1384.750
       123   02 Jun 2027 01:43:56.675   02 Jun 2027 01:44:46.840            50.165            RioGallegos          1567.656
       124   02 Jun 2027 02:16:34.089   02 Jun 2027 02:16:57.330            23.241                Anadyr1           726.281
       125   02 Jun 2027 02:16:58.016   02 Jun 2027 02:18:01.915            63.899                Anadyr2          1996.844
       126   02 Jun 2027 02:21:45.105   02 Jun 2027 02:22:19.658            34.553                Anadyr1          1079.781
       127   02 Jun 2027 02:22:32.913   02 Jun 2027 02:23:18.998            46.085               Magadan1          1440.156
       128   02 Jun 2027 02:24:22.139   02 Jun 2027 02:24:40.995            18.856                Norilsk           589.250
       129   02 Jun 2027 02:25:46.937   02 Jun 2027 02:25:58.498            11.561                Norilsk           361.281
       130   02 Jun 2027 02:26:38.346   02 Jun 2027 02:27:06.727            28.381              Murmansk2           886.906
       131   02 Jun 2027 02:27:17.878   02 Jun 2027 02:28:21.206            63.328              Murmansk1          1979.000
       132   02 Jun 2027 02:28:31.660   02 Jun 2027 02:28:35.247             3.587                Novosib           112.094
       133   02 Jun 2027 02:29:38.809   02 Jun 2027 02:30:24.073            45.264                Novosib          1414.500
       134   02 Jun 2027 02:33:37.527   02 Jun 2027 02:33:45.334             7.807              Murmansk2           243.969
       135   02 Jun 2027 02:33:53.409   02 Jun 2027 02:34:04.516            11.107              Murmansk2           347.094
       136   02 Jun 2027 02:35:40.509   02 Jun 2027 02:36:15.353            34.844                Novosib          1088.875
       137   02 Jun 2027 02:37:22.798   02 Jun 2027 02:37:56.629            33.831                Novosib          1057.219
       138   02 Jun 2027 02:57:58.854   02 Jun 2027 02:58:37.436            38.582               CapeTown          1205.688
       139   02 Jun 2027 03:01:53.767   02 Jun 2027 03:02:32.250            38.483               CapeTown          1202.594
       140   02 Jun 2027 04:11:32.917   02 Jun 2027 04:12:08.413            35.496              Murmansk1          1109.250
       141   02 Jun 2027 04:12:22.887   02 Jun 2027 04:13:36.611            73.724                 Moscow          2303.875
       142   02 Jun 2027 04:13:38.885   02 Jun 2027 04:15:30.729           111.844              Murmansk2          3495.125
       143   02 Jun 2027 04:16:40.659   02 Jun 2027 04:18:35.224           114.565                 Moscow          3580.156
       144   02 Jun 2027 04:40:40.138   02 Jun 2027 04:42:14.351            94.213               CapeTown          2944.156
       145   02 Jun 2027 05:33:07.688   02 Jun 2027 05:33:13.265             5.577               Magadan1           174.281
       146   02 Jun 2027 05:33:21.221   02 Jun 2027 05:35:06.687           105.466               Magadan1          3295.812
       147   02 Jun 2027 05:35:10.807   02 Jun 2027 05:36:18.050            67.243               Magadan2          2101.344
       148   02 Jun 2027 05:36:22.258   02 Jun 2027 05:36:51.552            29.294                Anadyr1           915.438
       149   02 Jun 2027 05:37:39.659   02 Jun 2027 05:38:59.562            79.903               Magadan1          2496.969
       150   02 Jun 2027 07:12:15.115   02 Jun 2027 07:12:38.483            23.368                Irkutsk           730.250
       151   02 Jun 2027 08:46:34.260   02 Jun 2027 08:47:02.437            28.177                Irkutsk           880.531
       152   02 Jun 2027 08:47:08.890   02 Jun 2027 08:47:25.081            16.191               Magadan2           505.969
       153   02 Jun 2027 08:47:57.630   02 Jun 2027 08:50:05.210           127.580               Magadan2          3986.875
       154   02 Jun 2027 10:22:11.348   02 Jun 2027 10:22:23.526            12.178                Novosib           380.562
       155   02 Jun 2027 10:22:58.686   02 Jun 2027 10:23:18.249            19.563                Novosib           611.344
       156   02 Jun 2027 10:23:31.014   02 Jun 2027 10:23:50.027            19.013                Irkutsk           594.156
       157   02 Jun 2027 10:24:17.374   02 Jun 2027 10:24:28.055            10.681                Novosib           333.781
       158   02 Jun 2027 10:24:56.086   02 Jun 2027 10:25:26.883            30.797                Irkutsk           962.406
       159   02 Jun 2027 10:25:33.709   02 Jun 2027 10:26:38.046            64.337                Irkutsk          2010.531
       160   02 Jun 2027 11:02:55.224   02 Jun 2027 11:03:41.426            46.202            RioGallegos          1443.812
       161   02 Jun 2027 11:37:07.563   02 Jun 2027 11:37:44.972            37.409                Sumatra          1169.031
       162   02 Jun 2027 11:46:23.618   02 Jun 2027 11:47:28.655            65.037                  Delhi          2032.406
       163   02 Jun 2027 11:58:05.812   02 Jun 2027 11:58:15.703             9.891                Irkutsk           309.094
       164   02 Jun 2027 11:58:51.554   02 Jun 2027 11:59:14.509            22.955                Novosib           717.344
       165   02 Jun 2027 11:59:21.456   02 Jun 2027 12:00:19.270            57.814                Novosib          1806.688
       166   02 Jun 2027 12:00:50.847   02 Jun 2027 12:01:22.804            31.957                Irkutsk           998.656
       167   02 Jun 2027 12:02:56.885   02 Jun 2027 12:04:05.372            68.487                Novosib          2140.219
       168   02 Jun 2027 13:22:17.633   02 Jun 2027 13:22:40.723            23.090                  Delhi           721.562
       169   02 Jun 2027 13:22:46.473   02 Jun 2027 13:23:29.799            43.326                  Delhi          1353.938
       170   02 Jun 2027 13:24:12.883   02 Jun 2027 13:24:43.352            30.469                  Delhi           952.156
       171   02 Jun 2027 13:25:33.477   02 Jun 2027 13:27:10.555            97.078                  Delhi          3033.688
       172   02 Jun 2027 13:31:35.972   02 Jun 2027 13:32:16.230            40.258                Novosib          1258.062
       173   02 Jun 2027 13:32:37.767   02 Jun 2027 13:34:37.994           120.227                Novosib          3757.094
       174   02 Jun 2027 13:39:50.266   02 Jun 2027 13:40:03.129            12.863                Norilsk           401.969
       175   02 Jun 2027 13:42:23.341   02 Jun 2027 13:43:32.820            69.479                Norilsk          2171.219
       176   02 Jun 2027 14:47:16.803   02 Jun 2027 14:47:54.014            37.211               CapeTown          1162.844
       177   02 Jun 2027 14:48:18.893   02 Jun 2027 14:49:17.916            59.023               CapeTown          1844.469
       178   02 Jun 2027 15:05:07.860   02 Jun 2027 15:06:07.941            60.081                 Moscow          1877.531
       179   02 Jun 2027 15:06:25.486   02 Jun 2027 15:06:53.157            27.671                 Moscow           864.719
       180   02 Jun 2027 15:08:37.537   02 Jun 2027 15:08:52.112            14.575              Murmansk1           455.469
       181   02 Jun 2027 15:09:47.757   02 Jun 2027 15:09:56.038             8.281              Murmansk2           258.781
       182   02 Jun 2027 15:11:52.697   02 Jun 2027 15:12:18.839            26.142              Murmansk1           816.938
       183   02 Jun 2027 15:13:33.783   02 Jun 2027 15:13:41.184             7.401              Murmansk2           231.281
       184   02 Jun 2027 15:13:53.451   02 Jun 2027 15:15:25.296            91.845              Murmansk2          2870.156
       185   02 Jun 2027 15:24:05.411   02 Jun 2027 15:25:38.164            92.753                Anadyr1          2898.531
       186   02 Jun 2027 15:28:58.987   02 Jun 2027 15:29:55.171            56.184                Anadyr2          1755.750
       187   02 Jun 2027 16:25:13.668   02 Jun 2027 16:25:18.188             4.520               CapeTown           141.250
       188   02 Jun 2027 16:25:47.875   02 Jun 2027 16:26:08.023            20.148               CapeTown           629.625
       189   02 Jun 2027 16:26:53.574   02 Jun 2027 16:27:52.507            58.933               CapeTown          1841.656
       190   02 Jun 2027 16:45:03.813   02 Jun 2027 16:45:42.075            38.262                 Moscow          1195.687
       191   02 Jun 2027 16:46:11.096   02 Jun 2027 16:46:50.130            39.034                 Moscow          1219.812
       192   02 Jun 2027 16:50:17.925   02 Jun 2027 16:51:14.761            56.836              Murmansk2          1776.125
       193   02 Jun 2027 16:55:56.411   02 Jun 2027 16:56:46.865            50.454              Murmansk2          1576.687
       194   02 Jun 2027 16:59:00.752   02 Jun 2027 16:59:20.185            19.433                Anadyr1           607.281
       195   02 Jun 2027 16:59:52.881   02 Jun 2027 17:00:17.058            24.177                Anadyr2           755.531
       196   02 Jun 2027 17:00:47.490   02 Jun 2027 17:00:51.571             4.081                Anadyr1           127.531
       197   02 Jun 2027 17:02:32.216   02 Jun 2027 17:03:30.909            58.693                Anadyr1          1834.156
       198   02 Jun 2027 17:10:01.257   02 Jun 2027 17:10:08.973             7.716                Anadyr1           241.125
       199   02 Jun 2027 17:10:35.506   02 Jun 2027 17:10:38.083             2.577                Anadyr1            80.531
       200   02 Jun 2027 17:56:26.010   02 Jun 2027 17:57:08.266            42.256               CapeTown          1320.500
       201   02 Jun 2027 18:02:10.970   02 Jun 2027 18:02:21.868            10.898               CapeTown           340.563
       202   02 Jun 2027 18:04:27.872   02 Jun 2027 18:04:50.477            22.605               CapeTown           706.406
       203   02 Jun 2027 18:28:10.384   02 Jun 2027 18:31:56.525           226.141              Murmansk2          7066.906
       204   02 Jun 2027 18:35:23.606   02 Jun 2027 18:36:05.236            41.630                Anadyr1          1300.938
       205   02 Jun 2027 18:37:27.050   02 Jun 2027 18:38:16.393            49.343               Magadan1          1541.969
       206   02 Jun 2027 18:38:31.114   02 Jun 2027 18:38:35.022             3.908               Magadan2           122.125
       207   02 Jun 2027 18:38:37.173   02 Jun 2027 18:39:04.104            26.931               Magadan2           841.594
       208   02 Jun 2027 18:44:04.641   02 Jun 2027 18:44:27.464            22.823               Magadan2           713.219
       209   02 Jun 2027 18:46:07.934   02 Jun 2027 18:46:22.013            14.079               Magadan2           439.969
       210   02 Jun 2027 20:10:45.778   02 Jun 2027 20:12:52.242           126.464                Anadyr1          3952.000
       211   02 Jun 2027 20:13:00.066   02 Jun 2027 20:14:31.065            90.999                Anadyr2          2843.719
       212   02 Jun 2027 20:14:40.884   02 Jun 2027 20:16:36.836           115.952                Norilsk          3623.500
       213   02 Jun 2027 20:17:00.096   02 Jun 2027 20:17:31.500            31.404               Magadan2           981.375
       214   02 Jun 2027 20:17:52.504   02 Jun 2027 20:18:13.572            21.068               Magadan2           658.375
       215   02 Jun 2027 20:20:27.071   02 Jun 2027 20:20:56.068            28.997               Magadan1           906.156
       216   02 Jun 2027 20:23:26.473   02 Jun 2027 20:23:29.576             3.103               Magadan2            96.969
       217   02 Jun 2027 20:23:30.278   02 Jun 2027 20:23:40.650            10.372               Magadan2           324.125
       218   02 Jun 2027 21:05:26.054   02 Jun 2027 21:08:04.463           158.409            RioGallegos          4950.281
       219   02 Jun 2027 21:08:08.017   02 Jun 2027 21:08:44.246            36.229            RioGallegos          1132.156
       220   02 Jun 2027 21:09:47.688   02 Jun 2027 21:09:48.684             0.996            RioGallegos            31.125
       221   02 Jun 2027 21:14:37.876   02 Jun 2027 21:14:49.810            11.934            RioGallegos           372.938
       222   02 Jun 2027 21:46:25.765   02 Jun 2027 21:47:10.416            44.651                Anadyr2          1395.344
       223   02 Jun 2027 21:48:36.617   02 Jun 2027 21:48:55.240            18.623                Norilsk           581.969
       224   02 Jun 2027 21:49:04.014   02 Jun 2027 21:51:09.485           125.471               Magadan2          3920.969
       225   02 Jun 2027 21:52:54.336   02 Jun 2027 21:54:10.875            76.539                Irkutsk          2391.844
       226   02 Jun 2027 21:54:56.633   02 Jun 2027 21:55:36.171            39.538                Irkutsk          1235.562
       227   02 Jun 2027 21:56:08.059   02 Jun 2027 21:56:20.088            12.029                Novosib           375.906
       228   02 Jun 2027 21:58:10.546   02 Jun 2027 21:58:19.269             8.723                Novosib           272.594
       229   02 Jun 2027 22:01:45.062   02 Jun 2027 22:02:23.233            38.171                Irkutsk          1192.844
       230   02 Jun 2027 22:06:47.349   02 Jun 2027 22:07:25.661            38.312                Sumatra          1197.250
       231   02 Jun 2027 22:08:05.311   02 Jun 2027 22:08:48.075            42.764                Sumatra          1336.375
       232   02 Jun 2027 22:13:09.864   02 Jun 2027 22:13:17.439             7.575                Sumatra           236.719
       233   02 Jun 2027 22:14:29.386   02 Jun 2027 22:16:09.478           100.092                Sumatra          3127.875
       234   02 Jun 2027 23:24:28.900   02 Jun 2027 23:24:30.911             2.011                Anadyr2            62.844
       235   02 Jun 2027 23:24:32.145   02 Jun 2027 23:24:57.733            25.588                Norilsk           799.625
       236   02 Jun 2027 23:25:10.729   02 Jun 2027 23:25:43.157            32.428               Magadan2          1013.375
       237   02 Jun 2027 23:25:43.157   02 Jun 2027 23:26:06.147            22.990               Magadan1           718.437
       238   02 Jun 2027 23:26:26.418   02 Jun 2027 23:27:05.331            38.913               Magadan2          1216.031
       239   02 Jun 2027 23:27:33.300   02 Jun 2027 23:27:58.668            25.368               Magadan2           792.750
       240   02 Jun 2027 23:28:23.847   02 Jun 2027 23:29:01.716            37.869                Irkutsk          1183.406
       241   02 Jun 2027 23:29:34.022   02 Jun 2027 23:29:38.827             4.805                Irkutsk           150.156
       242   02 Jun 2027 23:30:39.188   02 Jun 2027 23:31:20.619            41.431                Novosib          1294.719
       243   02 Jun 2027 23:32:54.843   02 Jun 2027 23:33:08.714            13.871                Novosib           433.469
       244   02 Jun 2027 23:33:37.679   02 Jun 2027 23:34:48.369            70.690                Novosib          2209.063
       245   02 Jun 2027 23:36:40.128   02 Jun 2027 23:37:41.209            61.081                  Delhi          1908.781
       246   02 Jun 2027 23:38:57.570   02 Jun 2027 23:39:46.386            48.816                  Delhi          1525.500
       247   02 Jun 2027 23:47:20.847   02 Jun 2027 23:47:30.680             9.833                  Delhi           307.281
       248   03 Jun 2027 00:21:29.327   03 Jun 2027 00:22:27.719            58.392            RioGallegos          1824.750
       249   03 Jun 2027 00:55:36.287   03 Jun 2027 00:56:05.672            29.385                Anadyr1           918.281
       250   03 Jun 2027 00:56:05.672   03 Jun 2027 00:56:49.831            44.159                Anadyr2          1379.969
       251   03 Jun 2027 00:57:43.183   03 Jun 2027 00:57:55.971            12.788                Anadyr2           399.625
       252   03 Jun 2027 01:00:32.089   03 Jun 2027 01:00:48.508            16.419                Norilsk           513.094
       253   03 Jun 2027 01:00:50.580   03 Jun 2027 01:01:28.660            38.080               Magadan2          1190.000
       254   03 Jun 2027 01:01:28.660   03 Jun 2027 01:02:24.315            55.655               Magadan1          1739.219
       255   03 Jun 2027 01:02:57.920   03 Jun 2027 01:04:41.399           103.479              Murmansk2          3233.719
       256   03 Jun 2027 01:05:25.778   03 Jun 2027 01:05:46.987            21.209              Murmansk1           662.781
       257   03 Jun 2027 01:05:59.749   03 Jun 2027 01:06:19.187            19.438                Novosib           607.437
       258   03 Jun 2027 01:07:57.450   03 Jun 2027 01:08:09.817            12.367                Novosib           386.469
       259   03 Jun 2027 01:08:23.388   03 Jun 2027 01:08:54.829            31.441                 Moscow           982.531
       260   03 Jun 2027 01:09:36.117   03 Jun 2027 01:09:51.505            15.388                 Moscow           480.875
       261   03 Jun 2027 01:09:59.996   03 Jun 2027 01:10:34.744            34.748                 Moscow          1085.875
       262   03 Jun 2027 01:19:36.621   03 Jun 2027 01:20:37.612            60.991                  Delhi          1905.969
       263   03 Jun 2027 02:28:18.147   03 Jun 2027 02:31:18.870           180.723                Anadyr1          5647.594
       264   03 Jun 2027 02:33:39.879   03 Jun 2027 02:34:08.966            29.087               Magadan2           908.969
       265   03 Jun 2027 02:34:08.966   03 Jun 2027 02:34:38.487            29.521               Magadan1           922.531
       266   03 Jun 2027 02:36:21.830   03 Jun 2027 02:36:49.612            27.782                Norilsk           868.188
       267   03 Jun 2027 02:38:39.684   03 Jun 2027 02:39:07.994            28.310              Murmansk1           884.687
       268   03 Jun 2027 02:40:21.805   03 Jun 2027 02:40:51.975            30.170              Murmansk1           942.813
       269   03 Jun 2027 02:41:19.927   03 Jun 2027 02:41:21.210             1.283              Murmansk2            40.094
       270   03 Jun 2027 02:41:21.801   03 Jun 2027 02:41:22.236             0.435              Murmansk2            13.594
       271   03 Jun 2027 02:41:23.826   03 Jun 2027 02:42:57.144            93.318                Novosib          2916.187
       272   03 Jun 2027 02:49:19.973   03 Jun 2027 02:49:32.666            12.693                Novosib           396.656
       273   03 Jun 2027 02:53:13.449   03 Jun 2027 02:53:45.727            32.278                 Moscow          1008.688
       274   03 Jun 2027 03:08:54.524   03 Jun 2027 03:09:46.719            52.195               CapeTown          1631.094
       275   03 Jun 2027 04:23:40.848   03 Jun 2027 04:23:55.547            14.699              Murmansk2           459.344
       276   03 Jun 2027 04:24:21.790   03 Jun 2027 04:24:36.621            14.831                 Moscow           463.469
       277   03 Jun 2027 04:25:12.779   03 Jun 2027 04:27:34.696           141.917              Murmansk1          4434.906
       278   03 Jun 2027 04:28:50.787   03 Jun 2027 04:30:28.798            98.011                 Moscow          3062.844
       279   03 Jun 2027 04:47:45.345   03 Jun 2027 04:48:41.488            56.143               CapeTown          1754.469
       280   03 Jun 2027 04:49:50.138   03 Jun 2027 04:50:06.345            16.207               CapeTown           506.469
       281   03 Jun 2027 04:50:41.258   03 Jun 2027 04:51:17.178            35.920               CapeTown          1122.500
       282   03 Jun 2027 04:52:48.474   03 Jun 2027 04:53:15.980            27.506               CapeTown           859.562
       283   03 Jun 2027 05:45:24.262   03 Jun 2027 05:45:26.404             2.142               Magadan2            66.937
       284   03 Jun 2027 05:45:31.932   03 Jun 2027 05:47:37.597           125.665                Anadyr1          3927.031
       285   03 Jun 2027 05:47:37.597   03 Jun 2027 05:51:21.819           224.222                Anadyr2          7006.938
       286   03 Jun 2027 07:22:27.800   03 Jun 2027 07:23:03.029            35.229               Magadan2          1100.906
       287   03 Jun 2027 07:23:05.542   03 Jun 2027 07:23:16.965            11.423                Irkutsk           356.969
       288   03 Jun 2027 07:23:20.983   03 Jun 2027 07:24:31.913            70.930                Anadyr2          2216.563
       289   03 Jun 2027 07:24:48.447   03 Jun 2027 07:24:55.011             6.564               Magadan1           205.125
       290   03 Jun 2027 07:25:37.207   03 Jun 2027 07:26:53.583            76.376                Anadyr1          2386.750
       291   03 Jun 2027 08:55:58.517   03 Jun 2027 08:57:30.282            91.765               Magadan2          2867.656
       292   03 Jun 2027 08:57:50.023   03 Jun 2027 08:58:21.734            31.711               Magadan2           990.969
       293   03 Jun 2027 08:58:28.113   03 Jun 2027 08:58:34.262             6.149               Magadan2           192.156
       294   03 Jun 2027 08:58:42.082   03 Jun 2027 08:58:54.796            12.714                Irkutsk           397.313
       295   03 Jun 2027 08:59:00.401   03 Jun 2027 08:59:57.858            57.457                Irkutsk          1795.531
       296   03 Jun 2027 09:00:01.301   03 Jun 2027 09:01:11.931            70.630               Magadan2          2207.187
       297   03 Jun 2027 09:01:31.370   03 Jun 2027 09:02:38.638            67.268                Irkutsk          2102.125
       298   03 Jun 2027 09:37:22.844   03 Jun 2027 09:38:16.191            53.347            RioGallegos          1667.094
       299   03 Jun 2027 09:38:32.499   03 Jun 2027 09:38:46.233            13.734            RioGallegos           429.188
       300   03 Jun 2027 09:40:16.138   03 Jun 2027 09:40:28.713            12.575            RioGallegos           392.969
       301   03 Jun 2027 09:45:32.980   03 Jun 2027 09:45:37.284             4.304            RioGallegos           134.500
       302   03 Jun 2027 10:12:39.143   03 Jun 2027 10:13:22.701            43.558                Sumatra          1361.188
       303   03 Jun 2027 10:14:51.772   03 Jun 2027 10:15:00.854             9.082                Sumatra           283.812
       304   03 Jun 2027 10:18:41.762   03 Jun 2027 10:19:03.078            21.316                Sumatra           666.125
       305   03 Jun 2027 10:26:13.033   03 Jun 2027 10:26:26.542            13.509                  Delhi           422.156
       306   03 Jun 2027 10:29:41.760   03 Jun 2027 10:30:48.114            66.354                  Delhi          2073.562
       307   03 Jun 2027 10:35:00.125   03 Jun 2027 10:35:05.401             5.276                Novosib           164.875
       308   03 Jun 2027 10:35:22.981   03 Jun 2027 10:36:22.040            59.059                Novosib          1845.594
       309   03 Jun 2027 10:37:00.460   03 Jun 2027 10:37:04.821             4.361                Irkutsk           136.281
       310   03 Jun 2027 10:37:07.215   03 Jun 2027 10:37:31.328            24.113                Irkutsk           753.531
       311   03 Jun 2027 10:37:52.988   03 Jun 2027 10:38:04.551            11.563                Norilsk           361.344
       312   03 Jun 2027 10:38:12.942   03 Jun 2027 10:38:17.920             4.978                Novosib           155.563
       313   03 Jun 2027 10:38:18.879   03 Jun 2027 10:38:39.218            20.339                Norilsk           635.594
       314   03 Jun 2027 11:15:30.540   03 Jun 2027 11:16:34.213            63.673            RioGallegos          1989.781
       315   03 Jun 2027 11:19:43.490   03 Jun 2027 11:19:47.889             4.399            RioGallegos           137.469
       316   03 Jun 2027 11:49:45.175   03 Jun 2027 11:50:23.911            38.736                Sumatra          1210.500
       317   03 Jun 2027 11:51:03.945   03 Jun 2027 11:52:42.543            98.598                Sumatra          3081.188
       318   03 Jun 2027 12:16:07.262   03 Jun 2027 12:16:36.778            29.516                Norilsk           922.375
       319   03 Jun 2027 13:35:15.111   03 Jun 2027 13:37:25.240           130.129                  Delhi          4066.531
       320   03 Jun 2027 13:42:39.471   03 Jun 2027 13:42:43.721             4.250                  Delhi           132.813
       321   03 Jun 2027 13:43:46.672   03 Jun 2027 13:46:37.019           170.347                Novosib          5323.344
       322   03 Jun 2027 13:47:26.393   03 Jun 2027 13:48:12.935            46.542                Novosib          1454.438
       323   03 Jun 2027 13:53:58.897   03 Jun 2027 13:54:22.012            23.115                Norilsk           722.344
       324   03 Jun 2027 14:57:19.340   03 Jun 2027 14:59:23.205           123.865               CapeTown          3870.781
       325   03 Jun 2027 15:03:32.536   03 Jun 2027 15:03:34.181             1.645               CapeTown            51.406
       326   03 Jun 2027 15:17:22.566   03 Jun 2027 15:17:54.400            31.834                 Moscow           994.812
       327   03 Jun 2027 15:20:49.016   03 Jun 2027 15:21:41.587            52.571              Murmansk1          1642.844
       328   03 Jun 2027 15:23:59.791   03 Jun 2027 15:24:44.338            44.547              Murmansk1          1392.094
       329   03 Jun 2027 15:29:28.325   03 Jun 2027 15:30:01.611            33.286              Murmansk2          1040.187
       330   03 Jun 2027 15:32:05.179   03 Jun 2027 15:32:37.757            32.578              Murmansk1          1018.062
       331   03 Jun 2027 15:35:50.030   03 Jun 2027 15:37:04.376            74.346                Anadyr2          2323.313
       332   03 Jun 2027 15:37:39.256   03 Jun 2027 15:38:05.381            26.125                Anadyr1           816.406
       333   03 Jun 2027 15:38:42.753   03 Jun 2027 15:40:12.331            89.578                Anadyr2          2799.312
       334   03 Jun 2027 16:38:19.509   03 Jun 2027 16:38:31.713            12.204               CapeTown           381.375
       335   03 Jun 2027 16:39:37.141   03 Jun 2027 16:39:55.173            18.032               CapeTown           563.500
       336   03 Jun 2027 16:42:59.492   03 Jun 2027 16:43:06.001             6.509               CapeTown           203.406
       337   03 Jun 2027 16:58:17.393   03 Jun 2027 17:00:06.115           108.722                 Moscow          3397.563
       338   03 Jun 2027 17:03:46.017   03 Jun 2027 17:04:24.075            38.058              Murmansk2          1189.312
       339   03 Jun 2027 17:07:58.489   03 Jun 2027 17:09:06.172            67.683              Murmansk1          2115.094
       340   03 Jun 2027 17:11:21.506   03 Jun 2027 17:11:31.573            10.067                Anadyr2           314.594
       341   03 Jun 2027 17:12:23.955   03 Jun 2027 17:12:31.936             7.981                Anadyr1           249.406
       342   03 Jun 2027 17:12:53.750   03 Jun 2027 17:13:08.504            14.754                Anadyr1           461.062
       343   03 Jun 2027 17:16:00.929   03 Jun 2027 17:17:49.508           108.579               Magadan1          3393.094
       344   03 Jun 2027 18:41:46.145   03 Jun 2027 18:43:07.225            81.080              Murmansk1          2533.750
       345   03 Jun 2027 18:46:51.954   03 Jun 2027 18:49:33.899           161.945                Anadyr1          5060.781
       346   03 Jun 2027 18:49:45.965   03 Jun 2027 18:50:12.806            26.841                Anadyr1           838.781
       347   03 Jun 2027 18:50:18.106   03 Jun 2027 18:51:57.885            99.779               Magadan1          3118.094
       348   03 Jun 2027 18:56:25.834   03 Jun 2027 18:57:15.448            49.614               Magadan2          1550.437
       349   03 Jun 2027 20:22:46.610   03 Jun 2027 20:26:58.555           251.945                Anadyr1          7873.281
       350   03 Jun 2027 20:27:30.341   03 Jun 2027 20:29:26.674           116.333               Magadan1          3635.406
       351   03 Jun 2027 20:34:11.321   03 Jun 2027 20:34:32.852            21.531               Magadan2           672.844
       352   03 Jun 2027 20:36:47.324   03 Jun 2027 20:37:17.147            29.823               Magadan2           931.969
       353   03 Jun 2027 21:17:13.051   03 Jun 2027 21:19:55.692           162.641            RioGallegos          5082.531
       354   03 Jun 2027 21:20:37.839   03 Jun 2027 21:20:49.019            11.180            RioGallegos           349.375
       355   03 Jun 2027 21:26:09.615   03 Jun 2027 21:26:39.494            29.879            RioGallegos           933.719
       356   03 Jun 2027 22:00:37.022   03 Jun 2027 22:00:44.137             7.115                Norilsk           222.344
       357   03 Jun 2027 22:01:06.913   03 Jun 2027 22:03:11.871           124.958               Magadan2          3904.938
       358   03 Jun 2027 22:03:20.438   03 Jun 2027 22:03:44.268            23.830                Norilsk           744.687
       359   03 Jun 2027 22:04:18.766   03 Jun 2027 22:04:22.936             4.170                Norilsk           130.312
       360   03 Jun 2027 22:04:45.170   03 Jun 2027 22:05:05.400            20.230                Norilsk           632.187
       361   03 Jun 2027 22:05:24.317   03 Jun 2027 22:05:51.637            27.320               Magadan1           853.750
       362   03 Jun 2027 22:06:09.329   03 Jun 2027 22:06:25.963            16.634                Irkutsk           519.812
       363   03 Jun 2027 22:06:35.695   03 Jun 2027 22:07:12.033            36.338               Magadan2          1135.563
       364   03 Jun 2027 22:07:17.101   03 Jun 2027 22:07:59.275            42.174                Novosib          1317.938
       365   03 Jun 2027 22:08:34.343   03 Jun 2027 22:09:20.480            46.137                Novosib          1441.781
       366   03 Jun 2027 22:18:32.588   03 Jun 2027 22:21:16.019           163.431                Sumatra          5107.219
       367   03 Jun 2027 23:33:49.291   03 Jun 2027 23:34:49.440            60.149                Anadyr2          1879.656
       368   03 Jun 2027 23:35:02.260   03 Jun 2027 23:35:06.299             4.039                Anadyr2           126.219
       369   03 Jun 2027 23:35:24.177   03 Jun 2027 23:35:53.125            28.948                Anadyr2           904.625
       370   03 Jun 2027 23:36:34.268   03 Jun 2027 23:36:56.999            22.731                Norilsk           710.344
       371   03 Jun 2027 23:37:12.985   03 Jun 2027 23:37:40.470            27.485               Magadan1           858.906
       372   03 Jun 2027 23:37:40.470   03 Jun 2027 23:38:10.008            29.538               Magadan2           923.062
       373   03 Jun 2027 23:38:26.170   03 Jun 2027 23:38:44.085            17.915               Magadan2           559.844
       374   03 Jun 2027 23:39:59.743   03 Jun 2027 23:40:38.083            38.340               Magadan1          1198.125
       375   03 Jun 2027 23:40:45.452   03 Jun 2027 23:41:26.320            40.868                Irkutsk          1277.125
       376   03 Jun 2027 23:41:42.891   03 Jun 2027 23:42:32.340            49.449                Novosib          1545.281
       377   03 Jun 2027 23:42:59.839   03 Jun 2027 23:43:16.306            16.467                Novosib           514.594
       378   03 Jun 2027 23:45:06.153   03 Jun 2027 23:45:20.086            13.933                Novosib           435.406
       379   03 Jun 2027 23:46:26.581   03 Jun 2027 23:46:37.927            11.346                Novosib           354.562
       380   03 Jun 2027 23:48:20.534   03 Jun 2027 23:48:55.265            34.731                  Delhi          1085.344
       381   03 Jun 2027 23:52:38.321   03 Jun 2027 23:52:46.420             8.099                  Delhi           253.094
       382   03 Jun 2027 23:54:34.305   03 Jun 2027 23:55:21.867            47.562                  Delhi          1486.312
       383   03 Jun 2027 23:55:42.300   03 Jun 2027 23:57:43.467           121.167                  Delhi          3786.469
       384   04 Jun 2027 01:08:04.703   04 Jun 2027 01:08:42.180            37.477                Anadyr2          1171.156
       385   04 Jun 2027 01:09:42.589   04 Jun 2027 01:09:54.020            11.431                Anadyr1           357.219
       386   04 Jun 2027 01:12:15.125   04 Jun 2027 01:12:23.307             8.182                Anadyr1           255.688
       387   04 Jun 2027 01:12:33.641   04 Jun 2027 01:12:50.765            17.124                Norilsk           535.125
       388   04 Jun 2027 01:13:02.646   04 Jun 2027 01:14:26.963            84.317               Magadan2          2634.906
       389   04 Jun 2027 01:14:55.022   04 Jun 2027 01:16:52.314           117.292              Murmansk2          3665.375
       390   04 Jun 2027 01:17:26.643   04 Jun 2027 01:17:38.497            11.854                Novosib           370.437
       391   04 Jun 2027 01:18:30.758   04 Jun 2027 01:18:33.612             2.854              Murmansk2            89.187
       392   04 Jun 2027 01:18:38.109   04 Jun 2027 01:19:27.827            49.718                Novosib          1553.688
       393   04 Jun 2027 01:24:52.584   04 Jun 2027 01:24:55.691             3.107                  Delhi            97.094
       394   04 Jun 2027 01:25:00.691   04 Jun 2027 01:25:41.007            40.316                Irkutsk          1259.875
       395   04 Jun 2027 01:32:30.415   04 Jun 2027 01:32:43.408            12.993                  Delhi           406.031
       396   04 Jun 2027 01:33:47.211   04 Jun 2027 01:34:17.455            30.244                  Delhi           945.125
       397   04 Jun 2027 02:40:03.229   04 Jun 2027 02:42:22.573           139.344                Anadyr2          4354.500
       398   04 Jun 2027 02:43:10.470   04 Jun 2027 02:43:18.133             7.663                Anadyr1           239.469
       399   04 Jun 2027 02:45:07.692   04 Jun 2027 02:46:46.716            99.024               Magadan1          3094.500
       400   04 Jun 2027 02:48:21.133   04 Jun 2027 02:49:10.686            49.553                Norilsk          1548.531
       401   04 Jun 2027 02:50:41.218   04 Jun 2027 02:51:09.088            27.870              Murmansk1           870.938
       402   04 Jun 2027 02:52:11.429   04 Jun 2027 02:52:40.373            28.944              Murmansk1           904.500
       403   04 Jun 2027 02:52:44.892   04 Jun 2027 02:52:57.582            12.690                Novosib           396.562
       404   04 Jun 2027 02:53:26.949   04 Jun 2027 02:54:31.409            64.460                Novosib          2014.375
       405   04 Jun 2027 03:00:02.282   04 Jun 2027 03:00:19.506            17.224                Novosib           538.250
       406   04 Jun 2027 03:00:44.340   04 Jun 2027 03:01:30.914            46.574              Murmansk2          1455.437
       407   04 Jun 2027 03:01:33.350   04 Jun 2027 03:02:07.685            34.335                 Moscow          1072.969
       408   04 Jun 2027 03:02:22.639   04 Jun 2027 03:02:46.071            23.432              Murmansk1           732.250
       409   04 Jun 2027 03:03:33.140   04 Jun 2027 03:05:29.961           116.821                 Moscow          3650.656
       410   04 Jun 2027 03:18:21.263   04 Jun 2027 03:21:39.669           198.406               CapeTown          6200.187
       411   04 Jun 2027 04:14:36.716   04 Jun 2027 04:19:49.102           312.386                Anadyr2          9762.063
       412   04 Jun 2027 04:21:58.100   04 Jun 2027 04:23:43.036           104.936                Anadyr1          3279.250
       413   04 Jun 2027 04:35:47.060   04 Jun 2027 04:37:17.550            90.490              Murmansk1          2827.812
       414   04 Jun 2027 04:37:25.997   04 Jun 2027 04:38:19.887            53.890              Murmansk1          1684.063
       415   04 Jun 2027 05:56:36.558   04 Jun 2027 05:57:59.526            82.968                Anadyr1          2592.750
       416   04 Jun 2027 05:58:24.108   04 Jun 2027 06:00:54.981           150.873               Magadan2          4714.781
       417   04 Jun 2027 06:01:08.479   04 Jun 2027 06:01:17.178             8.699               Magadan2           271.844
       418   04 Jun 2027 06:01:37.276   04 Jun 2027 06:01:41.811             4.535                Norilsk           141.719
       419   04 Jun 2027 07:32:34.497   04 Jun 2027 07:32:39.289             4.792                Anadyr1           149.750
       420   04 Jun 2027 07:32:39.289   04 Jun 2027 07:33:54.528            75.239                Anadyr2          2351.219
       421   04 Jun 2027 07:34:12.417   04 Jun 2027 07:35:15.958            63.541               Magadan1          1985.656
       422   04 Jun 2027 07:35:21.411   04 Jun 2027 07:35:35.098            13.687                Anadyr2           427.719
       423   04 Jun 2027 07:35:35.098   04 Jun 2027 07:35:46.688            11.590                Anadyr1           362.188
       424   04 Jun 2027 07:35:52.153   04 Jun 2027 07:36:41.605            49.452                Anadyr2          1545.375
       425   04 Jun 2027 07:37:22.686   04 Jun 2027 07:37:48.505            25.819               Magadan2           806.844
       426   04 Jun 2027 08:14:42.150   04 Jun 2027 08:15:23.457            41.307            RioGallegos          1290.844
       427   04 Jun 2027 08:18:25.154   04 Jun 2027 08:18:40.273            15.119            RioGallegos           472.469
       428   04 Jun 2027 09:07:13.221   04 Jun 2027 09:07:32.643            19.422               Magadan2           606.937
       429   04 Jun 2027 09:07:36.614   04 Jun 2027 09:08:09.642            33.028               Magadan1          1032.125
       430   04 Jun 2027 09:09:30.576   04 Jun 2027 09:10:22.828            52.252               Magadan2          1632.875
       431   04 Jun 2027 09:10:42.074   04 Jun 2027 09:10:52.034             9.960               Magadan1           311.250
       432   04 Jun 2027 09:10:57.068   04 Jun 2027 09:11:00.510             3.442                Irkutsk           107.563
       433   04 Jun 2027 09:11:29.444   04 Jun 2027 09:11:34.760             5.316               Magadan2           166.125
       434   04 Jun 2027 09:11:53.264   04 Jun 2027 09:12:28.294            35.030                Irkutsk          1094.688
       435   04 Jun 2027 09:12:50.921   04 Jun 2027 09:13:27.077            36.156                Irkutsk          1129.875
       436   04 Jun 2027 09:13:40.674   04 Jun 2027 09:13:41.437             0.763                Irkutsk            23.844
       437   04 Jun 2027 09:13:54.518   04 Jun 2027 09:13:59.223             4.705               Magadan1           147.031
       438   04 Jun 2027 09:14:39.316   04 Jun 2027 09:14:43.390             4.074                Irkutsk           127.313
       439   04 Jun 2027 09:49:26.739   04 Jun 2027 09:50:27.896            61.157            RioGallegos          1911.156
       440   04 Jun 2027 09:53:10.308   04 Jun 2027 09:53:21.653            11.345            RioGallegos           354.531
       441   04 Jun 2027 10:24:27.587   04 Jun 2027 10:27:01.533           153.946                Sumatra          4810.812
       442   04 Jun 2027 10:45:12.228   04 Jun 2027 10:45:51.311            39.083                Irkutsk          1221.344
       443   04 Jun 2027 10:45:54.177   04 Jun 2027 10:46:46.605            52.428                Irkutsk          1638.375
       444   04 Jun 2027 10:47:05.355   04 Jun 2027 10:47:36.717            31.362                Novosib           980.062
       445   04 Jun 2027 10:47:40.110   04 Jun 2027 10:48:21.593            41.483                Novosib          1296.344
       446   04 Jun 2027 10:48:26.216   04 Jun 2027 10:48:59.468            33.252                Novosib          1039.125
       447   04 Jun 2027 10:49:04.062   04 Jun 2027 10:49:32.134            28.072                Irkutsk           877.250
       448   04 Jun 2027 10:49:49.361   04 Jun 2027 10:49:54.995             5.634                Norilsk           176.062
       449   04 Jun 2027 10:50:18.414   04 Jun 2027 10:50:19.334             0.920                Novosib            28.750
       450   04 Jun 2027 10:50:24.471   04 Jun 2027 10:50:44.168            19.697                Norilsk           615.531
       451   04 Jun 2027 11:28:13.667   04 Jun 2027 11:28:16.463             2.796            RioGallegos            87.375
       452   04 Jun 2027 11:29:00.493   04 Jun 2027 11:29:34.235            33.742            RioGallegos          1054.437
       453   04 Jun 2027 11:30:14.527   04 Jun 2027 11:30:27.684            13.157            RioGallegos           411.156
       454   04 Jun 2027 12:02:40.719   04 Jun 2027 12:04:32.345           111.626                Sumatra          3488.313
       455   04 Jun 2027 12:15:55.436   04 Jun 2027 12:16:58.176            62.740                Novosib          1960.625
       456   04 Jun 2027 12:18:28.656   04 Jun 2027 12:18:44.823            16.167                Novosib           505.219
       457   04 Jun 2027 12:22:06.503   04 Jun 2027 12:22:24.451            17.948                Norilsk           560.875
       458   04 Jun 2027 12:29:44.060   04 Jun 2027 12:29:48.823             4.763                Norilsk           148.844
       459   04 Jun 2027 13:48:45.430   04 Jun 2027 13:51:15.646           150.216                  Delhi          4694.250
       460   04 Jun 2027 13:51:59.997   04 Jun 2027 13:52:33.263            33.266                  Delhi          1039.563
       461   04 Jun 2027 13:54:14.671   04 Jun 2027 13:55:20.392            65.721                 Moscow          2053.781
       462   04 Jun 2027 13:56:21.007   04 Jun 2027 13:56:34.275            13.268              Murmansk1           414.625
       463   04 Jun 2027 13:57:06.212   04 Jun 2027 13:57:22.898            16.686                Novosib           521.438
       464   04 Jun 2027 13:57:56.679   04 Jun 2027 13:58:06.785            10.106              Murmansk2           315.812
       465   04 Jun 2027 13:58:35.031   04 Jun 2027 14:00:40.338           125.307                Novosib          3915.844
       466   04 Jun 2027 14:03:51.298   04 Jun 2027 14:04:07.989            16.691                Norilsk           521.594
       467   04 Jun 2027 15:08:25.550   04 Jun 2027 15:11:01.008           155.458               CapeTown          4858.062
       468   04 Jun 2027 15:15:28.198   04 Jun 2027 15:15:58.367            30.169               CapeTown           942.781
       469   04 Jun 2027 15:30:30.478   04 Jun 2027 15:31:00.858            30.380                 Moscow           949.375
       470   04 Jun 2027 15:33:02.391   04 Jun 2027 15:33:42.641            40.250              Murmansk1          1257.812
       471   04 Jun 2027 15:35:40.797   04 Jun 2027 15:35:44.689             3.892              Murmansk2           121.625
       472   04 Jun 2027 15:36:01.089   04 Jun 2027 15:36:27.614            26.525              Murmansk2           828.906
       473   04 Jun 2027 15:39:28.404   04 Jun 2027 15:39:49.043            20.639              Murmansk1           644.969
       474   04 Jun 2027 15:47:39.373   04 Jun 2027 15:48:12.031            32.658                Anadyr2          1020.562
       475   04 Jun 2027 15:48:12.031   04 Jun 2027 15:49:38.484            86.453                Anadyr1          2701.656
       476   04 Jun 2027 15:50:17.746   04 Jun 2027 15:50:34.346            16.600                Anadyr1           518.750
       477   04 Jun 2027 15:51:04.573   04 Jun 2027 15:51:08.629             4.056                Anadyr1           126.750
       478   04 Jun 2027 15:55:55.732   04 Jun 2027 15:55:56.712             0.980                Anadyr1            30.625
       479   04 Jun 2027 16:42:21.063   04 Jun 2027 16:42:49.019            27.956               CapeTown           873.625
       480   04 Jun 2027 16:48:22.855   04 Jun 2027 16:49:04.244            41.389               CapeTown          1293.406
       481   04 Jun 2027 17:11:50.371   04 Jun 2027 17:14:29.333           158.962              Murmansk2          4967.562
       482   04 Jun 2027 17:20:02.139   04 Jun 2027 17:21:04.989            62.850              Murmansk2          1964.062
