uniorb/output/strategy_4/Drop/Drop_KinoSat_111709.txt

KinoSat_111709
-------------------------
    Access    *     Start Time (UTCG)     *     Stop Time (UTCG)  *   Duration (s)        *       Station  *  Data (Mbytes)
         1   01 Jun 2027 04:10:50.835   01 Jun 2027 04:11:36.993            46.158                Norilsk          1442.437
         2   01 Jun 2027 04:11:49.777   01 Jun 2027 04:13:04.118            74.341              Murmansk1          2323.156
         3   01 Jun 2027 04:13:04.118   01 Jun 2027 04:13:53.393            49.275              Murmansk2          1539.844
         4   01 Jun 2027 04:13:58.769   01 Jun 2027 04:14:27.528            28.759                Norilsk           898.719
         5   01 Jun 2027 04:14:36.799   01 Jun 2027 04:16:43.470           126.671                Novosib          3958.469
         6   01 Jun 2027 04:18:17.812   01 Jun 2027 04:18:48.136            30.324                 Moscow           947.625
         7   01 Jun 2027 04:42:46.135   01 Jun 2027 04:43:02.607            16.472               CapeTown           514.750
         8   01 Jun 2027 04:43:31.738   01 Jun 2027 04:43:43.570            11.832               CapeTown           369.750
         9   01 Jun 2027 05:48:24.567   01 Jun 2027 05:48:52.112            27.545                Norilsk           860.781
        10   01 Jun 2027 05:49:10.108   01 Jun 2027 05:52:51.113           221.005              Murmansk2          6906.406
        11   01 Jun 2027 06:07:35.870   01 Jun 2027 06:08:10.795            34.925               CapeTown          1091.406
        12   01 Jun 2027 06:10:26.614   01 Jun 2027 06:12:09.159           102.545               CapeTown          3204.531
        13   01 Jun 2027 07:11:45.918   01 Jun 2027 07:13:13.970            88.052                Anadyr2          2751.625
        14   01 Jun 2027 07:13:13.970   01 Jun 2027 07:14:02.138            48.168                Anadyr1          1505.250
        15   01 Jun 2027 08:48:51.312   01 Jun 2027 08:50:37.152           105.840               Magadan1          3307.500
        16   01 Jun 2027 08:50:57.544   01 Jun 2027 08:51:39.188            41.644                Anadyr2          1301.375
        17   01 Jun 2027 08:51:39.188   01 Jun 2027 08:52:39.954            60.766                Anadyr1          1898.938
        18   01 Jun 2027 10:23:34.345   01 Jun 2027 10:28:02.711           268.366               Magadan2          8386.437
        19   01 Jun 2027 12:00:02.892   01 Jun 2027 12:01:40.020            97.128                Novosib          3035.250
        20   01 Jun 2027 12:01:57.363   01 Jun 2027 12:04:19.858           142.495                Irkutsk          4452.969
        21   01 Jun 2027 12:04:20.750   01 Jun 2027 12:05:49.457            88.707                Novosib          2772.094
        22   01 Jun 2027 12:07:15.977   01 Jun 2027 12:09:18.998           123.021                Norilsk          3844.406
        23   01 Jun 2027 12:09:22.444   01 Jun 2027 12:11:50.337           147.893              Murmansk2          4621.656
        24   01 Jun 2027 12:47:45.442   01 Jun 2027 12:51:09.483           204.041            RioGallegos          6376.281
        25   01 Jun 2027 13:22:27.026   01 Jun 2027 13:25:13.291           166.265                Sumatra          5195.781
        26   01 Jun 2027 13:32:37.816   01 Jun 2027 13:34:54.615           136.799                  Delhi          4274.969
        27   01 Jun 2027 13:35:55.083   01 Jun 2027 13:39:04.987           189.904                Irkutsk          5934.500
        28   01 Jun 2027 13:39:21.476   01 Jun 2027 13:39:48.299            26.823                Novosib           838.219
        29   01 Jun 2027 13:40:27.942   01 Jun 2027 13:41:46.108            78.166                Novosib          2442.688
        30   01 Jun 2027 15:06:27.741   01 Jun 2027 15:09:11.513           163.772                  Delhi          5117.875
        31   01 Jun 2027 15:13:05.361   01 Jun 2027 15:15:38.546           153.185                Novosib          4787.031
        32   01 Jun 2027 16:47:42.792   01 Jun 2027 16:48:21.252            38.460                 Moscow          1201.875
        33   01 Jun 2027 16:49:15.488   01 Jun 2027 16:49:31.484            15.996              Murmansk1           499.875
        34   01 Jun 2027 16:49:33.803   01 Jun 2027 16:51:33.042           119.239                 Moscow          3726.219
        35   01 Jun 2027 16:52:46.385   01 Jun 2027 16:53:59.628            73.243                 Moscow          2288.844
        36   01 Jun 2027 16:54:24.538   01 Jun 2027 16:55:19.363            54.825                Norilsk          1713.281
        37   01 Jun 2027 16:57:29.023   01 Jun 2027 16:58:22.674            53.651              Murmansk1          1676.594
        38   01 Jun 2027 17:06:09.207   01 Jun 2027 17:06:30.017            20.810                Anadyr2           650.313
        39   01 Jun 2027 17:06:46.339   01 Jun 2027 17:07:08.417            22.078                Anadyr1           689.937
        40   01 Jun 2027 17:07:45.961   01 Jun 2027 17:08:00.822            14.861                Anadyr1           464.406
        41   01 Jun 2027 18:02:57.211   01 Jun 2027 18:03:31.732            34.521               CapeTown          1078.781
        42   01 Jun 2027 18:04:29.904   01 Jun 2027 18:05:30.363            60.459               CapeTown          1889.344
        43   01 Jun 2027 18:07:52.051   01 Jun 2027 18:08:10.359            18.308               CapeTown           572.125
        44   01 Jun 2027 18:22:41.542   01 Jun 2027 18:27:07.532           265.990                 Moscow          8312.188
        45   01 Jun 2027 18:32:30.507   01 Jun 2027 18:34:34.013           123.506              Murmansk1          3859.563
        46   01 Jun 2027 19:36:52.716   01 Jun 2027 19:37:57.761            65.045               CapeTown          2032.656
        47   01 Jun 2027 19:40:01.231   01 Jun 2027 19:42:31.267           150.036               CapeTown          4688.625
        48   01 Jun 2027 20:05:45.426   01 Jun 2027 20:09:43.281           237.855              Murmansk1          7432.969
        49   01 Jun 2027 20:24:34.468   01 Jun 2027 20:24:41.090             6.622               Magadan2           206.938
        50   01 Jun 2027 20:25:15.305   01 Jun 2027 20:25:42.397            27.092               Magadan1           846.625
        51   01 Jun 2027 21:48:26.606   01 Jun 2027 21:53:32.883           306.277                Anadyr2          9571.156
        52   01 Jun 2027 21:53:42.742   01 Jun 2027 21:54:55.645            72.903               Magadan1          2278.219
        53   01 Jun 2027 21:55:08.139   01 Jun 2027 21:55:26.762            18.623               Magadan2           581.969
        54   01 Jun 2027 21:56:47.674   01 Jun 2027 21:56:48.327             0.653               Magadan2            20.406
        55   01 Jun 2027 21:58:26.156   01 Jun 2027 21:58:40.565            14.409                Anadyr1           450.281
        56   01 Jun 2027 21:59:22.676   01 Jun 2027 21:59:29.402             6.726                Anadyr1           210.188
        57   01 Jun 2027 21:59:42.327   01 Jun 2027 22:00:05.365            23.038               Magadan1           719.937
        58   01 Jun 2027 22:00:19.164   01 Jun 2027 22:00:38.014            18.850               Magadan1           589.062
        59   01 Jun 2027 22:01:13.506   01 Jun 2027 22:01:19.675             6.169               Magadan2           192.781
        60   01 Jun 2027 22:01:19.675   01 Jun 2027 22:01:37.107            17.432               Magadan1           544.750
        61   01 Jun 2027 22:43:05.662   01 Jun 2027 22:44:19.660            73.998            RioGallegos          2312.437
        62   01 Jun 2027 22:45:46.463   01 Jun 2027 22:46:22.979            36.516            RioGallegos          1141.125
        63   01 Jun 2027 22:48:01.711   01 Jun 2027 22:48:33.202            31.491            RioGallegos           984.094
        64   01 Jun 2027 22:49:03.214   01 Jun 2027 22:49:26.210            22.996            RioGallegos           718.625
        65   01 Jun 2027 22:51:44.578   01 Jun 2027 22:52:29.515            44.937            RioGallegos          1404.281
        66   01 Jun 2027 23:24:07.204   01 Jun 2027 23:25:02.798            55.594                Anadyr1          1737.313
        67   01 Jun 2027 23:25:10.985   01 Jun 2027 23:25:16.668             5.683                Anadyr2           177.594
        68   01 Jun 2027 23:25:56.090   01 Jun 2027 23:26:14.464            18.374                Anadyr2           574.187
        69   01 Jun 2027 23:26:14.464   01 Jun 2027 23:26:14.872             0.408                Anadyr1            12.750
        70   01 Jun 2027 23:26:15.800   01 Jun 2027 23:27:55.197            99.397                Norilsk          3106.156
        71   01 Jun 2027 23:27:58.609   01 Jun 2027 23:28:12.746            14.137               Magadan1           441.781
        72   01 Jun 2027 23:28:12.746   01 Jun 2027 23:28:22.967            10.221               Magadan2           319.406
        73   01 Jun 2027 23:29:28.383   01 Jun 2027 23:30:08.790            40.407               Magadan2          1262.719
        74   01 Jun 2027 23:32:27.558   01 Jun 2027 23:32:57.369            29.811                Irkutsk           931.594
        75   01 Jun 2027 23:33:32.311   01 Jun 2027 23:34:59.681            87.370                Novosib          2730.312
        76   01 Jun 2027 23:46:59.020   01 Jun 2027 23:47:45.323            46.303                Sumatra          1446.969
        77   01 Jun 2027 23:50:55.269   01 Jun 2027 23:50:58.128             2.859                Sumatra            89.344
        78   01 Jun 2027 23:51:33.426   01 Jun 2027 23:53:49.998           136.572                Sumatra          4267.875
        79   02 Jun 2027 00:28:31.979   02 Jun 2027 00:29:40.462            68.483            RioGallegos          2140.094
        80   02 Jun 2027 00:58:59.952   02 Jun 2027 00:59:25.846            25.894                Anadyr2           809.187
        81   02 Jun 2027 00:59:25.846   02 Jun 2027 00:59:27.112             1.266                Anadyr1            39.562
        82   02 Jun 2027 00:59:48.391   02 Jun 2027 01:00:28.388            39.997                Anadyr1          1249.906
        83   02 Jun 2027 01:01:15.583   02 Jun 2027 01:01:34.165            18.582                Anadyr2           580.688
        84   02 Jun 2027 01:02:12.057   02 Jun 2027 01:03:53.421           101.364                Norilsk          3167.625
        85   02 Jun 2027 01:04:05.899   02 Jun 2027 01:05:13.452            67.553               Magadan1          2111.031
        86   02 Jun 2027 01:06:04.319   02 Jun 2027 01:06:28.794            24.475                Irkutsk           764.844
        87   02 Jun 2027 01:08:17.951   02 Jun 2027 01:08:26.491             8.540                Novosib           266.875
        88   02 Jun 2027 01:09:40.377   02 Jun 2027 01:10:19.258            38.881                Novosib          1215.031
        89   02 Jun 2027 01:13:30.670   02 Jun 2027 01:13:51.133            20.463                Irkutsk           639.469
        90   02 Jun 2027 01:14:38.934   02 Jun 2027 01:14:53.273            14.339                Novosib           448.094
        91   02 Jun 2027 01:15:09.172   02 Jun 2027 01:15:40.865            31.693                Irkutsk           990.406
        92   02 Jun 2027 01:19:03.672   02 Jun 2027 01:19:34.768            31.096                  Delhi           971.750
        93   02 Jun 2027 01:20:54.421   02 Jun 2027 01:21:31.721            37.300                  Delhi          1165.625
        94   02 Jun 2027 01:24:56.907   02 Jun 2027 01:27:32.984           156.077                Sumatra          4877.406
        95   02 Jun 2027 02:32:39.097   02 Jun 2027 02:33:26.078            46.981                Anadyr2          1468.156
        96   02 Jun 2027 02:37:31.074   02 Jun 2027 02:38:22.314            51.240                Anadyr1          1601.250
        97   02 Jun 2027 02:38:33.573   02 Jun 2027 02:39:00.007            26.434                Norilsk           826.063
        98   02 Jun 2027 02:39:19.819   02 Jun 2027 02:39:49.002            29.183                Norilsk           911.969
        99   02 Jun 2027 02:40:36.729   02 Jun 2027 02:40:52.141            15.412              Murmansk1           481.625
       100   02 Jun 2027 02:41:25.957   02 Jun 2027 02:42:19.768            53.811              Murmansk2          1681.594
       101   02 Jun 2027 02:42:33.238   02 Jun 2027 02:42:38.749             5.511                Irkutsk           172.219
       102   02 Jun 2027 02:43:08.603   02 Jun 2027 02:43:24.863            16.260                Irkutsk           508.125
       103   02 Jun 2027 02:45:03.431   02 Jun 2027 02:45:13.071             9.640                Novosib           301.250
       104   02 Jun 2027 02:45:36.463   02 Jun 2027 02:46:13.256            36.793                Irkutsk          1149.781
       105   02 Jun 2027 02:48:48.695   02 Jun 2027 02:49:28.987            40.292                Irkutsk          1259.125
       106   02 Jun 2027 02:51:18.884   02 Jun 2027 02:52:12.247            53.363                  Delhi          1667.594
       107   02 Jun 2027 02:57:14.674   02 Jun 2027 02:57:20.275             5.601                  Delhi           175.031
       108   02 Jun 2027 02:57:52.926   02 Jun 2027 02:58:15.752            22.826                  Delhi           713.313
       109   02 Jun 2027 02:58:38.739   02 Jun 2027 02:59:12.453            33.714                  Delhi          1053.563
       110   02 Jun 2027 04:22:44.116   02 Jun 2027 04:23:05.865            21.749              Murmansk1           679.656
       111   02 Jun 2027 04:23:32.029   02 Jun 2027 04:23:36.578             4.549                Norilsk           142.156
       112   02 Jun 2027 04:23:38.236   02 Jun 2027 04:23:42.965             4.729              Murmansk1           147.781
       113   02 Jun 2027 04:23:51.791   02 Jun 2027 04:24:00.495             8.704              Murmansk1           272.000
       114   02 Jun 2027 04:24:07.226   02 Jun 2027 04:24:30.787            23.561              Murmansk1           736.281
       115   02 Jun 2027 04:24:36.043   02 Jun 2027 04:26:46.851           130.808              Murmansk2          4087.750
       116   02 Jun 2027 04:26:53.751   02 Jun 2027 04:27:37.432            43.681              Murmansk2          1365.031
       117   02 Jun 2027 04:27:59.213   02 Jun 2027 04:28:17.783            18.570                Novosib           580.313
       118   02 Jun 2027 04:28:23.937   02 Jun 2027 04:30:23.146           119.209                 Moscow          3725.281
       119   02 Jun 2027 06:01:18.298   02 Jun 2027 06:01:54.212            35.914              Murmansk2          1122.313
       120   02 Jun 2027 07:24:29.104   02 Jun 2027 07:29:02.732           273.628                Anadyr2          8550.875
       121   02 Jun 2027 07:33:07.847   02 Jun 2027 07:33:27.642            19.795                Norilsk           618.594
       122   02 Jun 2027 09:00:23.403   02 Jun 2027 09:01:36.985            73.582               Magadan2          2299.438
       123   02 Jun 2027 09:01:39.086   02 Jun 2027 09:04:35.487           176.401                Anadyr2          5512.531
       124   02 Jun 2027 10:35:25.097   02 Jun 2027 10:35:47.625            22.528               Magadan1           704.000
       125   02 Jun 2027 10:36:02.049   02 Jun 2027 10:36:11.609             9.560               Magadan2           298.750
       126   02 Jun 2027 10:36:18.707   02 Jun 2027 10:37:09.281            50.574                Irkutsk          1580.437
       127   02 Jun 2027 10:37:29.117   02 Jun 2027 10:37:36.650             7.533                Irkutsk           235.406
       128   02 Jun 2027 10:37:46.159   02 Jun 2027 10:38:01.820            15.661                Irkutsk           489.406
       129   02 Jun 2027 10:38:22.454   02 Jun 2027 10:38:40.867            18.413                Irkutsk           575.406
       130   02 Jun 2027 10:38:59.918   02 Jun 2027 10:39:18.889            18.971                Norilsk           592.844
       131   02 Jun 2027 10:39:36.271   02 Jun 2027 10:40:01.384            25.113                Norilsk           784.781
       132   02 Jun 2027 10:40:30.087   02 Jun 2027 10:40:36.756             6.669                Norilsk           208.406
       133   02 Jun 2027 11:15:03.297   02 Jun 2027 11:15:31.513            28.216            RioGallegos           881.750
       134   02 Jun 2027 11:16:03.153   02 Jun 2027 11:16:07.101             3.948            RioGallegos           123.375
       135   02 Jun 2027 11:16:28.762   02 Jun 2027 11:17:24.355            55.593            RioGallegos          1737.281
       136   02 Jun 2027 11:50:19.733   02 Jun 2027 11:52:03.363           103.630                Sumatra          3238.438
       137   02 Jun 2027 12:06:45.474   02 Jun 2027 12:07:30.156            44.682                Irkutsk          1396.312
       138   02 Jun 2027 12:15:17.514   02 Jun 2027 12:15:32.090            14.576                Norilsk           455.500
       139   02 Jun 2027 12:19:22.494   02 Jun 2027 12:19:32.532            10.038                Norilsk           313.688
       140   02 Jun 2027 12:53:09.795   02 Jun 2027 12:55:25.905           136.110            RioGallegos          4253.438
       141   02 Jun 2027 13:27:25.340   02 Jun 2027 13:27:53.331            27.991                Sumatra           874.719
       142   02 Jun 2027 13:28:49.705   02 Jun 2027 13:30:54.783           125.078                Sumatra          3908.687
       143   02 Jun 2027 13:34:08.677   02 Jun 2027 13:36:31.322           142.645                Sumatra          4457.656
       144   02 Jun 2027 15:12:54.140   02 Jun 2027 15:17:20.464           266.324                  Delhi          8322.625
       145   02 Jun 2027 15:21:24.543   02 Jun 2027 15:25:06.576           222.033                Novosib          6938.531
       146   02 Jun 2027 16:37:01.710   02 Jun 2027 16:37:02.990             1.280               CapeTown            40.000
       147   02 Jun 2027 16:40:01.403   02 Jun 2027 16:40:28.699            27.296               CapeTown           853.000
       148   02 Jun 2027 16:55:02.597   02 Jun 2027 16:55:34.529            31.932                 Moscow           997.875
       149   02 Jun 2027 16:56:26.013   02 Jun 2027 16:57:40.850            74.837                 Moscow          2338.656
       150   02 Jun 2027 16:59:55.873   02 Jun 2027 17:00:47.834            51.961              Murmansk2          1623.781
       151   02 Jun 2027 17:07:06.618   02 Jun 2027 17:07:21.954            15.336              Murmansk1           479.250
       152   02 Jun 2027 17:10:20.218   02 Jun 2027 17:10:55.787            35.569              Murmansk2          1111.531
       153   02 Jun 2027 17:13:28.780   02 Jun 2027 17:14:26.433            57.653                Anadyr2          1801.656
       154   02 Jun 2027 17:15:54.781   02 Jun 2027 17:16:26.682            31.901                Anadyr2           996.906
       155   02 Jun 2027 17:19:17.781   02 Jun 2027 17:19:33.275            15.494                Anadyr1           484.188
       156   02 Jun 2027 17:19:45.758   02 Jun 2027 17:20:24.042            38.284                Anadyr1          1196.375
       157   02 Jun 2027 18:10:34.990   02 Jun 2027 18:10:55.562            20.572               CapeTown           642.875
       158   02 Jun 2027 18:14:33.013   02 Jun 2027 18:14:53.159            20.146               CapeTown           629.563
       159   02 Jun 2027 18:16:47.179   02 Jun 2027 18:16:56.232             9.053               CapeTown           282.906
       160   02 Jun 2027 18:19:58.194   02 Jun 2027 18:20:13.046            14.852               CapeTown           464.125
       161   02 Jun 2027 18:35:54.211   02 Jun 2027 18:39:14.010           199.799                 Moscow          6243.719
       162   02 Jun 2027 18:40:53.617   02 Jun 2027 18:41:59.622            66.005              Murmansk2          2062.656
       163   02 Jun 2027 18:49:35.263   02 Jun 2027 18:49:47.841            12.578                Anadyr1           393.063
       164   02 Jun 2027 18:53:37.642   02 Jun 2027 18:54:50.867            73.225               Magadan1          2288.281
       165   02 Jun 2027 19:45:19.374   02 Jun 2027 19:46:04.493            45.119               CapeTown          1409.969
       166   02 Jun 2027 19:49:02.965   02 Jun 2027 19:50:28.421            85.456               CapeTown          2670.500
       167   02 Jun 2027 20:19:13.746   02 Jun 2027 20:21:00.368           106.622              Murmansk1          3331.938
       168   02 Jun 2027 20:27:02.828   02 Jun 2027 20:28:27.317            84.489               Magadan2          2640.281
       169   02 Jun 2027 20:28:44.530   02 Jun 2027 20:29:32.369            47.839               Magadan2          1494.969
       170   02 Jun 2027 20:29:38.348   02 Jun 2027 20:30:16.181            37.833               Magadan1          1182.281
       171   02 Jun 2027 20:32:59.615   02 Jun 2027 20:33:08.057             8.442               Magadan1           263.812
       172   02 Jun 2027 20:34:57.039   02 Jun 2027 20:35:32.494            35.455               Magadan2          1107.969
       173   02 Jun 2027 22:00:27.653   02 Jun 2027 22:02:25.043           117.390                Anadyr1          3668.438
       174   02 Jun 2027 22:02:29.975   02 Jun 2027 22:04:10.851           100.876                Anadyr2          3152.375
       175   02 Jun 2027 22:04:46.289   02 Jun 2027 22:07:40.429           174.140               Magadan1          5441.875
       176   02 Jun 2027 22:09:42.264   02 Jun 2027 22:10:00.516            18.252               Magadan1           570.375
       177   02 Jun 2027 22:11:48.200   02 Jun 2027 22:12:21.342            33.142               Magadan1          1035.687
       178   02 Jun 2027 22:13:38.418   02 Jun 2027 22:14:19.746            41.328               Magadan2          1291.500
       179   02 Jun 2027 22:54:52.887   02 Jun 2027 22:56:38.793           105.906            RioGallegos          3309.563
       180   02 Jun 2027 22:57:51.583   02 Jun 2027 22:58:16.695            25.112            RioGallegos           784.750
       181   02 Jun 2027 23:02:56.161   02 Jun 2027 23:03:23.316            27.155            RioGallegos           848.594
       182   02 Jun 2027 23:36:04.399   02 Jun 2027 23:38:14.675           130.276                Anadyr2          4071.125
       183   02 Jun 2027 23:38:16.475   02 Jun 2027 23:39:30.101            73.626                Norilsk          2300.813
       184   02 Jun 2027 23:39:47.819   02 Jun 2027 23:39:57.269             9.450                Norilsk           295.312
       185   02 Jun 2027 23:39:57.965   02 Jun 2027 23:40:06.316             8.351               Magadan2           260.969
       186   02 Jun 2027 23:40:14.836   02 Jun 2027 23:40:24.669             9.833               Magadan2           307.281
       187   02 Jun 2027 23:41:24.435   02 Jun 2027 23:41:39.284            14.849               Magadan1           464.031
       188   02 Jun 2027 23:42:16.808   02 Jun 2027 23:42:19.734             2.926               Magadan1            91.438
       189   02 Jun 2027 23:42:27.676   02 Jun 2027 23:42:47.550            19.874                Irkutsk           621.063
       190   02 Jun 2027 23:43:16.640   02 Jun 2027 23:43:49.169            32.529                Irkutsk          1016.531
       191   02 Jun 2027 23:44:21.005   02 Jun 2027 23:44:50.243            29.238                Novosib           913.687
       192   02 Jun 2027 23:45:36.400   02 Jun 2027 23:46:51.640            75.240                Novosib          2351.250
       193   02 Jun 2027 23:56:13.206   02 Jun 2027 23:56:53.883            40.677                Sumatra          1271.156
       194   02 Jun 2027 23:58:26.708   02 Jun 2027 23:58:42.430            15.722                Sumatra           491.312
       195   02 Jun 2027 23:58:56.252   02 Jun 2027 23:59:44.626            48.374                Sumatra          1511.688
       196   03 Jun 2027 00:32:14.058   03 Jun 2027 00:33:22.771            68.713            RioGallegos          2147.281
       197   03 Jun 2027 01:10:48.214   03 Jun 2027 01:11:49.129            60.915                Anadyr1          1903.594
       198   03 Jun 2027 01:12:29.730   03 Jun 2027 01:13:02.669            32.939                Anadyr2          1029.344
       199   03 Jun 2027 01:13:02.669   03 Jun 2027 01:13:25.328            22.659                Anadyr1           708.094
       200   03 Jun 2027 01:14:14.403   03 Jun 2027 01:15:57.635           103.232                Norilsk          3226.000
       201   03 Jun 2027 01:16:04.833   03 Jun 2027 01:17:05.778            60.945               Magadan1          1904.531
       202   03 Jun 2027 01:18:07.256   03 Jun 2027 01:20:03.295           116.039                Irkutsk          3626.219
       203   03 Jun 2027 01:24:06.737   03 Jun 2027 01:24:54.607            47.870                Novosib          1495.937
       204   03 Jun 2027 01:28:23.008   03 Jun 2027 01:29:17.879            54.871                  Delhi          1714.719
       205   03 Jun 2027 01:33:50.194   03 Jun 2027 01:33:58.136             7.942                Sumatra           248.188
       206   03 Jun 2027 01:36:51.194   03 Jun 2027 01:38:34.543           103.349                Sumatra          3229.656
       207   03 Jun 2027 02:13:30.577   03 Jun 2027 02:13:44.840            14.263            RioGallegos           445.719
       208   03 Jun 2027 02:16:00.315   03 Jun 2027 02:16:18.876            18.561            RioGallegos           580.031
       209   03 Jun 2027 02:44:20.236   03 Jun 2027 02:44:26.531             6.295                Anadyr2           196.719
       210   03 Jun 2027 02:44:44.625   03 Jun 2027 02:45:27.482            42.857                Anadyr2          1339.281
       211   03 Jun 2027 02:50:14.249   03 Jun 2027 02:51:49.019            94.770                Norilsk          2961.562
       212   03 Jun 2027 02:52:34.161   03 Jun 2027 02:52:52.604            18.443              Murmansk2           576.344
       213   03 Jun 2027 02:53:31.992   03 Jun 2027 02:54:05.312            33.320              Murmansk2          1041.250
       214   03 Jun 2027 02:54:13.272   03 Jun 2027 02:54:21.256             7.984                Novosib           249.500
       215   03 Jun 2027 02:54:43.801   03 Jun 2027 02:56:29.264           105.463                Irkutsk          3295.719
       216   03 Jun 2027 02:58:45.276   03 Jun 2027 02:59:37.917            52.641                Irkutsk          1645.031
       217   03 Jun 2027 03:00:14.780   03 Jun 2027 03:00:35.610            20.830              Murmansk2           650.937
       218   03 Jun 2027 03:00:53.862   03 Jun 2027 03:02:18.028            84.166                Norilsk          2630.188
       219   03 Jun 2027 03:02:48.311   03 Jun 2027 03:03:33.614            45.303                Novosib          1415.719
       220   03 Jun 2027 03:03:56.503   03 Jun 2027 03:06:11.035           134.532                  Delhi          4204.125
       221   03 Jun 2027 04:35:35.748   03 Jun 2027 04:36:36.340            60.592                Norilsk          1893.500
       222   03 Jun 2027 04:36:58.539   03 Jun 2027 04:38:37.100            98.561                Novosib          3080.031
       223   03 Jun 2027 04:39:02.207   03 Jun 2027 04:39:49.274            47.067                Novosib          1470.844
       224   03 Jun 2027 04:40:59.222   03 Jun 2027 04:42:52.889           113.667                 Moscow          3552.094
       225   03 Jun 2027 04:56:02.221   03 Jun 2027 04:59:19.106           196.885               CapeTown          6152.656
       226   03 Jun 2027 05:52:17.460   03 Jun 2027 05:54:51.208           153.748                Anadyr1          4804.625
       227   03 Jun 2027 05:54:51.657   03 Jun 2027 05:55:23.138            31.481               Magadan2           983.781
       228   03 Jun 2027 05:55:33.440   03 Jun 2027 05:55:58.828            25.388                Anadyr1           793.375
       229   03 Jun 2027 05:57:36.279   03 Jun 2027 05:58:35.468            59.189               Magadan2          1849.656
       230   03 Jun 2027 05:59:49.650   03 Jun 2027 06:00:46.354            56.704                Anadyr2          1772.000
       231   03 Jun 2027 06:00:46.354   03 Jun 2027 06:01:20.697            34.343                Anadyr1          1073.219
       232   03 Jun 2027 06:11:12.394   03 Jun 2027 06:11:27.046            14.652                 Moscow           457.875
       233   03 Jun 2027 06:11:33.346   03 Jun 2027 06:12:21.218            47.872                 Moscow          1496.000
       234   03 Jun 2027 06:32:16.956   03 Jun 2027 06:33:21.341            64.385               CapeTown          2012.031
       235   03 Jun 2027 06:36:34.800   03 Jun 2027 06:37:31.215            56.415               CapeTown          1762.969
       236   03 Jun 2027 07:34:03.930   03 Jun 2027 07:34:14.776            10.846               Magadan1           338.938
       237   03 Jun 2027 07:34:19.824   03 Jun 2027 07:34:56.542            36.718               Magadan2          1147.438
       238   03 Jun 2027 07:35:11.589   03 Jun 2027 07:35:45.117            33.528                Anadyr2          1047.750
       239   03 Jun 2027 07:36:22.866   03 Jun 2027 07:37:17.033            54.167                Anadyr1          1692.719
       240   03 Jun 2027 07:37:23.999   03 Jun 2027 07:37:41.365            17.366               Magadan2           542.688
       241   03 Jun 2027 07:38:29.325   03 Jun 2027 07:38:50.485            21.160                Anadyr1           661.250
       242   03 Jun 2027 07:39:46.492   03 Jun 2027 07:41:03.523            77.031                Anadyr1          2407.219
       243   03 Jun 2027 09:09:40.305   03 Jun 2027 09:10:45.262            64.957               Magadan2          2029.906
       244   03 Jun 2027 09:11:29.412   03 Jun 2027 09:11:36.533             7.121               Magadan2           222.531
       245   03 Jun 2027 09:12:39.910   03 Jun 2027 09:12:46.312             6.402                Anadyr2           200.062
       246   03 Jun 2027 09:12:54.099   03 Jun 2027 09:13:09.153            15.054               Magadan2           470.438
       247   03 Jun 2027 09:13:24.260   03 Jun 2027 09:14:53.865            89.605                Anadyr2          2800.156
       248   03 Jun 2027 10:45:19.500   03 Jun 2027 10:47:57.685           158.185               Magadan2          4943.281
       249   03 Jun 2027 10:48:10.708   03 Jun 2027 10:48:25.883            15.175                Irkutsk           474.219
       250   03 Jun 2027 10:49:07.270   03 Jun 2027 10:49:33.669            26.399               Magadan1           824.969
       251   03 Jun 2027 10:49:33.669   03 Jun 2027 10:51:41.628           127.959               Magadan2          3998.719
       252   03 Jun 2027 10:52:27.476   03 Jun 2027 10:52:58.403            30.927                Norilsk           966.469
       253   03 Jun 2027 11:27:57.266   03 Jun 2027 11:29:14.930            77.664            RioGallegos          2427.000
       254   03 Jun 2027 12:02:48.654   03 Jun 2027 12:04:42.405           113.751                Sumatra          3554.719
       255   03 Jun 2027 12:15:50.079   03 Jun 2027 12:15:54.758             4.679                Irkutsk           146.219
       256   03 Jun 2027 12:16:14.287   03 Jun 2027 12:16:45.861            31.574                Irkutsk           986.688
       257   03 Jun 2027 12:22:23.952   03 Jun 2027 12:22:53.692            29.740                Norilsk           929.375
       258   03 Jun 2027 12:31:20.461   03 Jun 2027 12:31:56.000            35.539                Norilsk          1110.594
       259   03 Jun 2027 13:05:52.899   03 Jun 2027 13:07:58.255           125.356            RioGallegos          3917.375
       260   03 Jun 2027 13:40:21.020   03 Jun 2027 13:42:46.102           145.082                Sumatra          4533.812
       261   03 Jun 2027 13:54:56.249   03 Jun 2027 13:56:09.819            73.570                Novosib          2299.062
       262   03 Jun 2027 13:56:13.928   03 Jun 2027 13:59:28.596           194.668                Irkutsk          6083.375
       263   03 Jun 2027 15:26:47.714   03 Jun 2027 15:29:41.126           173.412                  Delhi          5419.125
       264   03 Jun 2027 15:34:42.948   03 Jun 2027 15:36:50.321           127.373                Novosib          3980.406
       265   03 Jun 2027 15:37:41.344   03 Jun 2027 15:37:45.038             3.694                Norilsk           115.437
       266   03 Jun 2027 15:37:48.968   03 Jun 2027 15:38:37.584            48.616                Novosib          1519.250
       267   03 Jun 2027 16:49:04.088   03 Jun 2027 16:49:31.346            27.258               CapeTown           851.813
       268   03 Jun 2027 17:07:21.098   03 Jun 2027 17:08:30.791            69.693                 Moscow          2177.906
       269   03 Jun 2027 17:11:16.828   03 Jun 2027 17:12:45.121            88.293              Murmansk1          2759.156
       270   03 Jun 2027 17:19:08.795   03 Jun 2027 17:19:15.025             6.230              Murmansk2           194.687
       271   03 Jun 2027 17:22:16.353   03 Jun 2027 17:22:57.773            41.420              Murmansk2          1294.375
       272   03 Jun 2027 17:25:18.510   03 Jun 2027 17:26:27.280            68.770                Anadyr1          2149.063
       273   03 Jun 2027 17:28:19.811   03 Jun 2027 17:28:23.259             3.448                Anadyr1           107.750
       274   03 Jun 2027 17:28:45.134   03 Jun 2027 17:28:46.919             1.785                Anadyr1            55.781
       275   03 Jun 2027 17:31:09.156   03 Jun 2027 17:31:19.366            10.210                Anadyr2           319.063
       276   03 Jun 2027 17:33:36.636   03 Jun 2027 17:33:38.102             1.466                Anadyr1            45.813
       277   03 Jun 2027 18:20:01.736   03 Jun 2027 18:22:21.537           139.801               CapeTown          4368.781
       278   03 Jun 2027 18:49:29.620   03 Jun 2027 18:49:54.717            25.097              Murmansk2           784.281
       279   03 Jun 2027 18:49:57.549   03 Jun 2027 18:52:51.056           173.507              Murmansk1          5422.094
       280   03 Jun 2027 18:53:56.357   03 Jun 2027 18:54:45.558            49.201              Murmansk2          1537.531
       281   03 Jun 2027 19:02:13.555   03 Jun 2027 19:02:17.622             4.067                Anadyr2           127.094
       282   03 Jun 2027 19:03:26.667   03 Jun 2027 19:03:37.543            10.876                Anadyr2           339.875
       283   03 Jun 2027 19:04:45.604   03 Jun 2027 19:04:52.596             6.992               Magadan2           218.500
       284   03 Jun 2027 19:05:23.111   03 Jun 2027 19:05:58.257            35.146               Magadan2          1098.312
       285   03 Jun 2027 19:07:14.010   03 Jun 2027 19:07:47.297            33.287               Magadan1          1040.219
       286   03 Jun 2027 19:57:58.317   03 Jun 2027 19:58:16.543            18.226               CapeTown           569.563
       287   03 Jun 2027 20:00:23.999   03 Jun 2027 20:01:41.222            77.223               CapeTown          2413.219
       288   03 Jun 2027 20:36:34.267   03 Jun 2027 20:38:12.977            98.710                Anadyr2          3084.688
       289   03 Jun 2027 20:38:17.551   03 Jun 2027 20:39:49.221            91.670                Anadyr1          2864.687
       290   03 Jun 2027 20:39:54.036   03 Jun 2027 20:41:06.147            72.111               Magadan1          2253.469
       291   03 Jun 2027 20:41:07.587   03 Jun 2027 20:41:22.388            14.801               Magadan2           462.531
       292   03 Jun 2027 20:41:33.025   03 Jun 2027 20:41:56.446            23.421               Magadan1           731.906
       293   03 Jun 2027 20:43:48.788   03 Jun 2027 20:44:52.483            63.695               Magadan2          1990.469
       294   03 Jun 2027 22:12:28.435   03 Jun 2027 22:16:10.725           222.290                Anadyr2          6946.563
       295   03 Jun 2027 22:16:11.633   03 Jun 2027 22:18:19.182           127.549                Norilsk          3985.906
       296   03 Jun 2027 22:18:42.288   03 Jun 2027 22:19:17.325            35.037               Magadan2          1094.906
       297   03 Jun 2027 22:21:14.519   03 Jun 2027 22:21:42.595            28.076                Irkutsk           877.375
       298   03 Jun 2027 22:22:14.201   03 Jun 2027 22:22:50.212            36.011                Irkutsk          1125.344
       299   03 Jun 2027 23:06:43.406   03 Jun 2027 23:08:50.748           127.342            RioGallegos          3979.438
       300   03 Jun 2027 23:12:04.278   03 Jun 2027 23:12:46.447            42.169            RioGallegos          1317.781
       301   03 Jun 2027 23:16:57.609   03 Jun 2027 23:16:58.933             1.324            RioGallegos            41.375
       302   03 Jun 2027 23:48:00.758   03 Jun 2027 23:48:42.400            41.642                Anadyr1          1301.313
       303   03 Jun 2027 23:49:16.267   03 Jun 2027 23:49:53.087            36.820                Anadyr1          1150.625
       304   03 Jun 2027 23:50:17.600   03 Jun 2027 23:51:59.414           101.814                Norilsk          3181.688
       305   03 Jun 2027 23:52:23.439   03 Jun 2027 23:52:38.547            15.108               Magadan2           472.125
       306   03 Jun 2027 23:53:22.316   03 Jun 2027 23:53:59.948            37.632               Magadan1          1176.000
       307   03 Jun 2027 23:54:23.076   03 Jun 2027 23:55:16.593            53.517                Irkutsk          1672.406
       308   03 Jun 2027 23:55:45.965   03 Jun 2027 23:56:59.425            73.460                Novosib          2295.625
       309   03 Jun 2027 23:58:11.516   03 Jun 2027 23:58:40.919            29.403                Novosib           918.844
       310   04 Jun 2027 00:01:57.581   04 Jun 2027 00:02:33.634            36.053                Novosib          1126.656
       311   04 Jun 2027 00:08:04.781   04 Jun 2027 00:08:41.842            37.061                Sumatra          1158.156
       312   04 Jun 2027 00:14:51.143   04 Jun 2027 00:15:19.090            27.947                Sumatra           873.344
       313   04 Jun 2027 00:16:36.720   04 Jun 2027 00:17:36.537            59.817                Sumatra          1869.281
       314   04 Jun 2027 00:48:17.130   04 Jun 2027 00:48:20.856             3.726            RioGallegos           116.438
       315   04 Jun 2027 00:48:54.372   04 Jun 2027 00:49:21.718            27.346            RioGallegos           854.562
       316   04 Jun 2027 00:52:41.368   04 Jun 2027 00:53:45.662            64.294            RioGallegos          2009.187
       317   04 Jun 2027 01:23:19.573   04 Jun 2027 01:23:49.602            30.029                Anadyr1           938.406
       318   04 Jun 2027 01:24:31.071   04 Jun 2027 01:24:51.064            19.993                Anadyr2           624.781
       319   04 Jun 2027 01:26:16.771   04 Jun 2027 01:27:59.357           102.586                Norilsk          3205.812
       320   04 Jun 2027 01:28:03.001   04 Jun 2027 01:28:32.623            29.622               Magadan1           925.688
       321   04 Jun 2027 01:30:01.288   04 Jun 2027 01:30:09.128             7.840               Magadan2           245.000
       322   04 Jun 2027 01:30:10.975   04 Jun 2027 01:32:03.689           112.714                Irkutsk          3522.312
       323   04 Jun 2027 01:33:25.101   04 Jun 2027 01:33:37.389            12.288                Novosib           384.000
       324   04 Jun 2027 01:33:58.397   04 Jun 2027 01:35:13.771            75.374                Irkutsk          2355.437
       325   04 Jun 2027 01:44:46.196   04 Jun 2027 01:44:58.821            12.625                  Delhi           394.531
       326   04 Jun 2027 01:47:01.276   04 Jun 2027 01:48:39.419            98.143                Sumatra          3066.969
       327   04 Jun 2027 02:18:46.904   04 Jun 2027 02:19:06.720            19.816            RioGallegos           619.250
       328   04 Jun 2027 02:20:15.515   04 Jun 2027 02:21:28.558            73.043            RioGallegos          2282.594
       329   04 Jun 2027 02:27:39.558   04 Jun 2027 02:27:39.978             0.420            RioGallegos            13.125
       330   04 Jun 2027 02:56:01.257   04 Jun 2027 02:56:07.974             6.717                Anadyr1           209.906
       331   04 Jun 2027 02:59:44.695   04 Jun 2027 02:59:47.671             2.976                Anadyr1            93.000
       332   04 Jun 2027 03:01:10.239   04 Jun 2027 03:01:33.525            23.286                Anadyr2           727.688
       333   04 Jun 2027 03:02:08.172   04 Jun 2027 03:02:22.002            13.830                Anadyr2           432.188
       334   04 Jun 2027 03:03:22.063   04 Jun 2027 03:03:44.263            22.200                Anadyr1           693.750
       335   04 Jun 2027 03:07:51.113   04 Jun 2027 03:08:52.359            61.246              Murmansk2          1913.938
       336   04 Jun 2027 03:09:04.683   04 Jun 2027 03:09:52.754            48.071              Murmansk2          1502.219
       337   04 Jun 2027 03:09:56.378   04 Jun 2027 03:10:54.605            58.227                Novosib          1819.594
       338   04 Jun 2027 03:11:16.660   04 Jun 2027 03:11:50.536            33.876                Novosib          1058.625
       339   04 Jun 2027 03:11:54.052   04 Jun 2027 03:12:47.451            53.399                Irkutsk          1668.719
       340   04 Jun 2027 03:12:53.863   04 Jun 2027 03:13:18.665            24.802              Murmansk2           775.063
       341   04 Jun 2027 03:13:22.475   04 Jun 2027 03:13:44.310            21.835                Norilsk           682.344
       342   04 Jun 2027 03:13:57.649   04 Jun 2027 03:14:19.235            21.586                  Delhi           674.562
       343   04 Jun 2027 03:15:34.548   04 Jun 2027 03:17:54.786           140.238                  Delhi          4382.437
       344   04 Jun 2027 04:48:43.966   04 Jun 2027 04:49:43.478            59.512                Novosib          1859.750
       345   04 Jun 2027 04:50:40.781   04 Jun 2027 04:50:53.781            13.000                 Moscow           406.250
       346   04 Jun 2027 04:51:03.501   04 Jun 2027 04:51:17.825            14.324                Novosib           447.625
       347   04 Jun 2027 04:51:42.625   04 Jun 2027 04:51:44.876             2.251                 Moscow            70.344
       348   04 Jun 2027 04:51:54.909   04 Jun 2027 04:53:02.026            67.117                 Moscow          2097.406
       349   04 Jun 2027 05:07:48.002   04 Jun 2027 05:09:45.005           117.003               CapeTown          3656.344
       350   04 Jun 2027 06:04:15.924   04 Jun 2027 06:05:18.942            63.018                Anadyr2          1969.313
       351   04 Jun 2027 06:06:36.148   04 Jun 2027 06:07:05.758            29.610                Anadyr2           925.312
       352   04 Jun 2027 06:11:16.041   04 Jun 2027 06:11:21.393             5.352                Anadyr2           167.250
       353   04 Jun 2027 06:11:21.393   04 Jun 2027 06:12:35.342            73.949                Anadyr1          2310.906
       354   04 Jun 2027 06:14:26.959   04 Jun 2027 06:15:05.814            38.855                Anadyr2          1214.219
       355   04 Jun 2027 06:23:31.952   04 Jun 2027 06:24:23.059            51.107                 Moscow          1597.094
       356   04 Jun 2027 06:44:48.917   04 Jun 2027 06:45:26.885            37.968               CapeTown          1186.500
       357   04 Jun 2027 06:48:25.684   04 Jun 2027 06:49:51.798            86.114               CapeTown          2691.062
       358   04 Jun 2027 07:45:02.124   04 Jun 2027 07:45:27.112            24.988               Magadan2           780.875
       359   04 Jun 2027 07:45:55.412   04 Jun 2027 07:46:08.557            13.145               Magadan1           410.781
       360   04 Jun 2027 07:46:25.150   04 Jun 2027 07:47:11.218            46.068                Anadyr1          1439.625
       361   04 Jun 2027 07:47:26.168   04 Jun 2027 07:48:31.732            65.564               Magadan2          2048.875
       362   04 Jun 2027 07:48:56.935   04 Jun 2027 07:49:04.598             7.663               Magadan1           239.469
       363   04 Jun 2027 07:49:18.270   04 Jun 2027 07:50:09.401            51.131                Anadyr1          1597.844
       364   04 Jun 2027 08:32:41.531   04 Jun 2027 08:33:08.587            27.056            RioGallegos           845.500
       365   04 Jun 2027 08:33:59.524   04 Jun 2027 08:34:15.883            16.359            RioGallegos           511.219
       366   04 Jun 2027 09:20:10.044   04 Jun 2027 09:20:27.013            16.969               Magadan2           530.281
       367   04 Jun 2027 09:20:30.694   04 Jun 2027 09:21:13.853            43.159                Anadyr1          1348.719
       368   04 Jun 2027 09:21:48.727   04 Jun 2027 09:22:23.443            34.716               Magadan2          1084.875
       369   04 Jun 2027 09:22:43.246   04 Jun 2027 09:23:20.271            37.025               Magadan2          1157.031
       370   04 Jun 2027 09:23:27.084   04 Jun 2027 09:24:54.859            87.775               Magadan2          2742.969
       371   04 Jun 2027 09:25:07.198   04 Jun 2027 09:26:07.382            60.184                Anadyr1          1880.750
       372   04 Jun 2027 09:26:07.382   04 Jun 2027 09:26:58.835            51.453                Anadyr2          1607.906
       373   04 Jun 2027 09:28:16.134   04 Jun 2027 09:28:44.473            28.339                Norilsk           885.594
       374   04 Jun 2027 10:04:04.683   04 Jun 2027 10:04:22.174            17.491            RioGallegos           546.594
       375   04 Jun 2027 10:06:14.294   04 Jun 2027 10:07:15.530            61.236            RioGallegos          1913.625
       376   04 Jun 2027 10:58:40.679   04 Jun 2027 10:59:09.453            28.774                Irkutsk           899.188
       377   04 Jun 2027 11:00:07.248   04 Jun 2027 11:00:18.253            11.005                Irkutsk           343.906
       378   04 Jun 2027 11:00:23.668   04 Jun 2027 11:02:31.269           127.601               Magadan2          3987.531
       379   04 Jun 2027 11:02:54.097   04 Jun 2027 11:03:24.706            30.609               Magadan1           956.531
       380   04 Jun 2027 11:03:35.472   04 Jun 2027 11:04:11.912            36.440                Irkutsk          1138.750
       381   04 Jun 2027 11:04:23.311   04 Jun 2027 11:05:16.045            52.734                Norilsk          1647.938
       382   04 Jun 2027 11:42:22.090   04 Jun 2027 11:43:06.938            44.848            RioGallegos          1401.500
       383   04 Jun 2027 12:14:02.767   04 Jun 2027 12:14:33.356            30.589                Sumatra           955.906
       384   04 Jun 2027 12:17:07.319   04 Jun 2027 12:17:09.125             1.806                Sumatra            56.437
       385   04 Jun 2027 12:20:47.511   04 Jun 2027 12:22:05.915            78.404                Sumatra          2450.125
       386   04 Jun 2027 12:28:05.285   04 Jun 2027 12:29:28.554            83.269                Irkutsk          2602.156
       387   04 Jun 2027 12:35:12.715   04 Jun 2027 12:35:30.243            17.528                Norilsk           547.750
       388   04 Jun 2027 12:43:07.595   04 Jun 2027 12:43:22.700            15.105                Norilsk           472.031
       389   04 Jun 2027 13:18:46.594   04 Jun 2027 13:19:55.208            68.614            RioGallegos          2144.188
       390   04 Jun 2027 13:23:11.189   04 Jun 2027 13:23:15.880             4.691            RioGallegos           146.594
       391   04 Jun 2027 13:25:47.114   04 Jun 2027 13:26:10.815            23.701            RioGallegos           740.656
       392   04 Jun 2027 13:54:01.397   04 Jun 2027 13:57:34.940           213.543                Sumatra          6673.219
       393   04 Jun 2027 14:07:01.682   04 Jun 2027 14:08:06.905            65.223                Novosib          2038.219
       394   04 Jun 2027 14:09:58.497   04 Jun 2027 14:12:19.354           140.857                Irkutsk          4401.781
       395   04 Jun 2027 15:42:39.468   04 Jun 2027 15:45:14.262           154.794                 Moscow          4837.313
       396   04 Jun 2027 15:46:03.260   04 Jun 2027 15:47:08.392            65.132              Murmansk2          2035.375
       397   04 Jun 2027 15:49:37.961   04 Jun 2027 15:50:48.234            70.273                Norilsk          2196.031
       398   04 Jun 2027 15:52:26.655   04 Jun 2027 15:53:22.237            55.582                Norilsk          1736.938
       399   04 Jun 2027 15:54:14.296   04 Jun 2027 15:55:08.875            54.579                Norilsk          1705.594
       400   04 Jun 2027 16:57:30.306   04 Jun 2027 16:57:47.455            17.149               CapeTown           535.906
       401   04 Jun 2027 17:01:16.229   04 Jun 2027 17:01:36.044            19.815               CapeTown           619.219
       402   04 Jun 2027 17:19:43.643   04 Jun 2027 17:20:38.679            55.036                 Moscow          1719.875
       403   04 Jun 2027 17:22:58.040   04 Jun 2027 17:24:09.963            71.923              Murmansk1          2247.594
       404   04 Jun 2027 17:24:40.913   04 Jun 2027 17:25:23.889            42.976              Murmansk1          1343.000
       405   04 Jun 2027 17:31:10.939   04 Jun 2027 17:31:57.151            46.212              Murmansk2          1444.125
       406   04 Jun 2027 17:37:11.229   04 Jun 2027 17:38:13.930            62.701                Anadyr1          1959.406
       407   04 Jun 2027 17:40:32.202   04 Jun 2027 17:40:40.186             7.984                Anadyr1           249.500
       408   04 Jun 2027 17:41:18.008   04 Jun 2027 17:41:20.797             2.789                Anadyr2            87.156
       409   04 Jun 2027 17:41:41.085   04 Jun 2027 17:42:08.481            27.396                Anadyr2           856.125
       410   04 Jun 2027 18:32:05.046   04 Jun 2027 18:34:12.352           127.306               CapeTown          3978.312
       411   04 Jun 2027 19:02:04.486   04 Jun 2027 19:06:26.670           262.184              Murmansk2          8193.250
       412   04 Jun 2027 19:08:56.842   04 Jun 2027 19:09:25.351            28.509              Murmansk1           890.906
       413   04 Jun 2027 19:16:17.504   04 Jun 2027 19:16:47.973            30.469               Magadan1           952.156
       414   04 Jun 2027 19:18:44.936   04 Jun 2027 19:19:15.417            30.481               Magadan2           952.531
       415   04 Jun 2027 20:11:01.764   04 Jun 2027 20:12:01.082            59.318               CapeTown          1853.687
       416   04 Jun 2027 20:14:08.545   04 Jun 2027 20:14:20.623            12.078               CapeTown           377.438
       417   04 Jun 2027 20:48:36.073   04 Jun 2027 20:52:35.696           239.623                Anadyr2          7488.219
       418   04 Jun 2027 20:52:47.916   04 Jun 2027 20:53:47.076            59.160               Magadan2          1848.750
       419   04 Jun 2027 20:55:11.381   04 Jun 2027 20:55:48.812            37.431               Magadan2          1169.719
       420   04 Jun 2027 21:02:44.874   04 Jun 2027 21:02:50.942             6.068               Magadan2           189.625
       421   04 Jun 2027 21:03:03.501   04 Jun 2027 21:03:14.498            10.997               Magadan2           343.656
       422   04 Jun 2027 22:24:28.888   04 Jun 2027 22:28:10.146           221.258                Anadyr2          6914.313
       423   04 Jun 2027 22:28:13.542   04 Jun 2027 22:29:52.717            99.175                Norilsk          3099.219
       424   04 Jun 2027 22:30:01.582   04 Jun 2027 22:30:51.809            50.227               Magadan2          1569.594
       425   04 Jun 2027 22:31:59.088   04 Jun 2027 22:32:42.145            43.057               Magadan2          1345.531
       426   04 Jun 2027 22:33:07.427   04 Jun 2027 22:34:19.758            72.331                Irkutsk          2260.344
       427   04 Jun 2027 22:37:43.272   04 Jun 2027 22:38:16.577            33.305                Irkutsk          1040.781
       428   04 Jun 2027 22:49:04.816   04 Jun 2027 22:49:43.302            38.486                Sumatra          1202.688
       429   04 Jun 2027 22:51:27.452   04 Jun 2027 22:52:13.031            45.579                Sumatra          1424.344
       430   04 Jun 2027 23:26:46.980   04 Jun 2027 23:27:41.080            54.100            RioGallegos          1690.625
       431   04 Jun 2027 23:59:56.186   05 Jun 2027 00:00:30.236            34.050                Anadyr2          1064.063
       432   05 Jun 2027 00:00:37.526   05 Jun 2027 00:01:51.692            74.166                Anadyr1          2317.688
       433   05 Jun 2027 00:02:19.075   05 Jun 2027 00:04:01.602           102.527                Norilsk          3203.969
       434   05 Jun 2027 00:04:07.037   05 Jun 2027 00:04:18.322            11.285               Magadan1           352.656
       435   05 Jun 2027 00:04:29.000   05 Jun 2027 00:04:40.807            11.807               Magadan1           368.969
       436   05 Jun 2027 00:06:20.028   05 Jun 2027 00:07:26.017            65.989                Irkutsk          2062.156
       437   05 Jun 2027 00:09:05.464   05 Jun 2027 00:09:47.387            41.923                Novosib          1310.094
       438   05 Jun 2027 00:11:42.563   05 Jun 2027 00:12:19.984            37.421                Novosib          1169.406
       439   05 Jun 2027 00:13:36.764   05 Jun 2027 00:13:54.595            17.831                Novosib           557.219
       440   05 Jun 2027 00:17:24.147   05 Jun 2027 00:18:00.260            36.113                Irkutsk          1128.531
       441   05 Jun 2027 00:20:02.178   05 Jun 2027 00:20:52.276            50.098                Sumatra          1565.563
       442   05 Jun 2027 00:29:36.832   05 Jun 2027 00:29:42.043             5.211                Sumatra           162.844
       443   05 Jun 2027 00:31:33.819   05 Jun 2027 00:32:10.406            36.587                Sumatra          1143.344
       444   05 Jun 2027 00:57:23.044   05 Jun 2027 00:58:08.424            45.380            RioGallegos          1418.125
       445   05 Jun 2027 01:04:18.159   05 Jun 2027 01:04:45.491            27.332            RioGallegos           854.125
       446   05 Jun 2027 01:34:20.853   05 Jun 2027 01:34:34.090            13.237                Anadyr2           413.656
       447   05 Jun 2027 01:34:34.090   05 Jun 2027 01:35:14.480            40.390                Anadyr1          1262.187
       448   05 Jun 2027 01:35:58.814   05 Jun 2027 01:36:28.589            29.775                Anadyr1           930.469
       449   05 Jun 2027 01:36:40.785   05 Jun 2027 01:36:57.206            16.421                Anadyr2           513.156
       450   05 Jun 2027 01:38:19.119   05 Jun 2027 01:40:00.915           101.796                Norilsk          3181.125
       451   05 Jun 2027 01:40:13.108   05 Jun 2027 01:40:20.680             7.572               Magadan2           236.625
       452   05 Jun 2027 01:41:58.326   05 Jun 2027 01:43:13.425            75.099              Murmansk2          2346.844
       453   05 Jun 2027 01:43:17.422   05 Jun 2027 01:44:18.276            60.854                Irkutsk          1901.688
       454   05 Jun 2027 01:45:55.556   05 Jun 2027 01:46:52.226            56.670                Novosib          1770.937
       455   05 Jun 2027 01:51:30.779   05 Jun 2027 01:52:20.712            49.933                  Delhi          1560.406
       456   05 Jun 2027 01:57:46.817   05 Jun 2027 01:59:07.884            81.067                  Delhi          2533.344
       457   05 Jun 2027 02:32:02.905   05 Jun 2027 02:32:45.947            43.042            RioGallegos          1345.063
       458   05 Jun 2027 02:33:42.636   05 Jun 2027 02:35:21.396            98.760            RioGallegos          3086.250
       459   05 Jun 2027 03:21:38.600   05 Jun 2027 03:22:18.115            39.515                Irkutsk          1234.844
       460   05 Jun 2027 03:22:45.070   05 Jun 2027 03:23:17.916            32.846                Novosib          1026.438
       461   05 Jun 2027 03:23:32.262   05 Jun 2027 03:25:36.366           124.104                Irkutsk          3878.250
       462   05 Jun 2027 03:25:44.339   05 Jun 2027 03:26:11.888            27.549                Norilsk           860.906
       463   05 Jun 2027 03:26:19.883   05 Jun 2027 03:29:01.182           161.299                  Delhi          5040.594
       464   05 Jun 2027 03:29:28.449   05 Jun 2027 03:29:35.842             7.393                Novosib           231.031
       465   05 Jun 2027 03:30:25.728   05 Jun 2027 03:31:33.812            68.084                  Delhi          2127.625
       466   05 Jun 2027 05:00:03.053   05 Jun 2027 05:00:17.514            14.461                 Moscow           451.906
       467   05 Jun 2027 05:00:20.050   05 Jun 2027 05:00:51.861            31.811                Novosib           994.094
       468   05 Jun 2027 05:01:15.956   05 Jun 2027 05:02:01.104            45.148              Murmansk1          1410.875
       469   05 Jun 2027 05:04:20.931   05 Jun 2027 05:04:39.571            18.640                 Moscow           582.500
       470   05 Jun 2027 05:04:51.223   05 Jun 2027 05:05:09.691            18.468                 Moscow           577.125
       471   05 Jun 2027 05:19:39.005   05 Jun 2027 05:22:10.678           151.673               CapeTown          4739.781
       472   05 Jun 2027 06:22:42.784   05 Jun 2027 06:23:23.016            40.232                Anadyr2          1257.250
       473   05 Jun 2027 06:24:05.004   05 Jun 2027 06:24:05.071             0.067               Magadan2             2.094
       474   05 Jun 2027 06:24:07.215   05 Jun 2027 06:24:23.004            15.789                Anadyr1           493.406
       475   05 Jun 2027 06:24:25.787   05 Jun 2027 06:25:24.297            58.510                Anadyr1          1828.437
       476   05 Jun 2027 06:26:18.936   05 Jun 2027 06:27:07.031            48.095                Anadyr1          1502.969
       477   05 Jun 2027 06:35:37.383   05 Jun 2027 06:35:46.767             9.384                 Moscow           293.250
       478   05 Jun 2027 06:42:15.984   05 Jun 2027 06:42:30.500            14.516                 Moscow           453.625
       479   05 Jun 2027 06:57:31.312   05 Jun 2027 06:59:31.409           120.097               CapeTown          3753.031
       480   05 Jun 2027 07:56:50.855   05 Jun 2027 07:57:05.318            14.463               Magadan1           451.969
       481   05 Jun 2027 07:57:29.317   05 Jun 2027 07:57:45.683            16.366                Anadyr2           511.438
       482   05 Jun 2027 07:58:39.022   05 Jun 2027 07:59:10.225            31.203                Anadyr1           975.094
