uniorb/output/strategy_4/Drop/Drop_KinoSat_111501.txt

KinoSat_111501
-------------------------
    Access    *     Start Time (UTCG)     *     Stop Time (UTCG)  *   Duration (s)        *       Station  *  Data (Mbytes)
         1   01 Jun 2027 04:00:30.832   01 Jun 2027 04:01:18.655            47.823              Murmansk2          1494.469
         2   01 Jun 2027 04:01:27.209   01 Jun 2027 04:02:15.920            48.711                Norilsk          1522.219
         3   01 Jun 2027 04:02:21.125   01 Jun 2027 04:03:11.332            50.207                Novosib          1568.969
         4   01 Jun 2027 04:03:13.436   01 Jun 2027 04:04:58.196           104.760              Murmansk1          3273.750
         5   01 Jun 2027 04:05:30.076   01 Jun 2027 04:06:38.900            68.824                 Moscow          2150.750
         6   01 Jun 2027 04:07:49.107   01 Jun 2027 04:08:37.026            47.919                 Moscow          1497.469
         7   01 Jun 2027 04:20:01.511   01 Jun 2027 04:22:05.670           124.159               CapeTown          3879.969
         8   01 Jun 2027 04:22:51.699   01 Jun 2027 04:23:27.462            35.763               CapeTown          1117.594
         9   01 Jun 2027 04:24:17.718   01 Jun 2027 04:26:18.114           120.396               CapeTown          3762.375
        10   01 Jun 2027 05:24:12.269   01 Jun 2027 05:25:40.504            88.235                Anadyr2          2757.344
        11   01 Jun 2027 05:35:34.365   01 Jun 2027 05:35:57.083            22.718                Norilsk           709.938
        12   01 Jun 2027 05:36:00.175   01 Jun 2027 05:38:12.457           132.282              Murmansk1          4133.812
        13   01 Jun 2027 05:39:53.221   01 Jun 2027 05:40:56.792            63.571              Murmansk1          1986.594
        14   01 Jun 2027 06:59:24.085   01 Jun 2027 07:04:19.687           295.602                Anadyr2          9237.563
        15   01 Jun 2027 07:04:52.317   01 Jun 2027 07:05:02.222             9.905               Magadan2           309.531
        16   01 Jun 2027 08:33:10.456   01 Jun 2027 08:33:35.773            25.317                Anadyr2           791.156
        17   01 Jun 2027 08:34:08.038   01 Jun 2027 08:36:50.229           162.191               Magadan1          5068.469
        18   01 Jun 2027 08:36:50.229   01 Jun 2027 08:37:12.476            22.247               Magadan2           695.219
        19   01 Jun 2027 08:37:38.887   01 Jun 2027 08:40:33.069           174.182                Anadyr2          5443.188
        20   01 Jun 2027 10:11:16.092   01 Jun 2027 10:15:36.553           260.461               Magadan1          8139.406
        21   01 Jun 2027 10:15:59.590   01 Jun 2027 10:16:42.773            43.183                Irkutsk          1349.469
        22   01 Jun 2027 11:48:41.445   01 Jun 2027 11:51:37.572           176.127              Murmansk1          5503.969
        23   01 Jun 2027 11:51:37.572   01 Jun 2027 11:52:05.402            27.830              Murmansk2           869.688
        24   01 Jun 2027 11:52:08.116   01 Jun 2027 11:52:37.294            29.178                Norilsk           911.813
        25   01 Jun 2027 11:52:51.863   01 Jun 2027 11:53:43.722            51.859              Murmansk1          1620.594
        26   01 Jun 2027 11:53:52.707   01 Jun 2027 11:54:38.452            45.745              Murmansk1          1429.531
        27   01 Jun 2027 11:55:08.602   01 Jun 2027 11:55:23.657            15.055              Murmansk1           470.469
        28   01 Jun 2027 11:56:19.879   01 Jun 2027 11:56:38.168            18.289              Murmansk1           571.531
        29   01 Jun 2027 12:31:06.577   01 Jun 2027 12:32:15.778            69.201            RioGallegos          2162.531
        30   01 Jun 2027 12:34:33.420   01 Jun 2027 12:35:40.540            67.120            RioGallegos          2097.500
        31   01 Jun 2027 12:36:58.358   01 Jun 2027 12:38:14.979            76.621            RioGallegos          2394.406
        32   01 Jun 2027 13:06:29.419   01 Jun 2027 13:09:16.122           166.703                Sumatra          5209.469
        33   01 Jun 2027 13:18:11.300   01 Jun 2027 13:18:51.161            39.861                Novosib          1245.656
        34   01 Jun 2027 13:20:20.774   01 Jun 2027 13:21:22.553            61.779                Novosib          1930.594
        35   01 Jun 2027 13:22:15.007   01 Jun 2027 13:23:20.957            65.950                Norilsk          2060.937
        36   01 Jun 2027 13:34:45.017   01 Jun 2027 13:35:06.961            21.944              Murmansk1           685.750
        37   01 Jun 2027 14:54:53.713   01 Jun 2027 14:58:37.860           224.147                 Moscow          7004.594
        38   01 Jun 2027 14:59:35.172   01 Jun 2027 15:01:32.948           117.776              Murmansk1          3680.500
        39   01 Jun 2027 15:01:48.375   01 Jun 2027 15:01:54.652             6.277                 Moscow           196.156
        40   01 Jun 2027 15:01:56.528   01 Jun 2027 15:03:21.410            84.882                Norilsk          2652.562
        41   01 Jun 2027 15:04:01.946   01 Jun 2027 15:05:47.486           105.540                Norilsk          3298.125
        42   01 Jun 2027 15:06:27.219   01 Jun 2027 15:07:26.377            59.158                Norilsk          1848.687
        43   01 Jun 2027 16:09:42.844   01 Jun 2027 16:10:04.496            21.652               CapeTown           676.625
        44   01 Jun 2027 16:10:48.480   01 Jun 2027 16:12:37.198           108.718               CapeTown          3397.438
        45   01 Jun 2027 16:16:34.515   01 Jun 2027 16:18:18.451           103.936               CapeTown          3248.000
        46   01 Jun 2027 16:36:08.658   01 Jun 2027 16:36:53.014            44.356                 Moscow          1386.125
        47   01 Jun 2027 16:39:15.691   01 Jun 2027 16:39:39.280            23.589              Murmansk2           737.156
        48   01 Jun 2027 16:39:41.782   01 Jun 2027 16:40:29.276            47.494              Murmansk2          1484.187
        49   01 Jun 2027 16:42:31.196   01 Jun 2027 16:42:47.809            16.613                 Moscow           519.156
        50   01 Jun 2027 16:43:28.711   01 Jun 2027 16:45:02.155            93.444              Murmansk1          2920.125
        51   01 Jun 2027 16:49:47.991   01 Jun 2027 16:50:15.629            27.638                Anadyr2           863.688
        52   01 Jun 2027 16:51:29.804   01 Jun 2027 16:51:59.506            29.702                Anadyr2           928.187
        53   01 Jun 2027 16:53:32.587   01 Jun 2027 16:53:44.755            12.168                Anadyr1           380.250
        54   01 Jun 2027 16:54:34.057   01 Jun 2027 16:54:56.474            22.417                Anadyr2           700.531
        55   01 Jun 2027 16:56:07.522   01 Jun 2027 16:56:54.428            46.906                Anadyr1          1465.812
        56   01 Jun 2027 16:58:17.244   01 Jun 2027 16:58:25.802             8.558                Anadyr1           267.437
        57   01 Jun 2027 17:49:39.538   01 Jun 2027 17:50:08.962            29.424               CapeTown           919.500
        58   01 Jun 2027 17:52:38.398   01 Jun 2027 17:53:22.542            44.144               CapeTown          1379.500
        59   01 Jun 2027 17:55:26.940   01 Jun 2027 17:56:03.561            36.621               CapeTown          1144.406
        60   01 Jun 2027 18:14:22.462   01 Jun 2027 18:18:32.694           250.232              Murmansk2          7819.750
        61   01 Jun 2027 18:19:21.267   01 Jun 2027 18:19:44.949            23.682              Murmansk2           740.062
        62   01 Jun 2027 18:21:26.947   01 Jun 2027 18:22:58.725            91.778              Murmansk2          2868.062
        63   01 Jun 2027 18:34:05.279   01 Jun 2027 18:34:20.719            15.440               Magadan1           482.500
        64   01 Jun 2027 18:34:20.719   01 Jun 2027 18:35:02.466            41.747               Magadan2          1304.594
        65   01 Jun 2027 19:26:31.067   01 Jun 2027 19:27:23.873            52.806               CapeTown          1650.187
        66   01 Jun 2027 20:00:50.587   01 Jun 2027 20:04:22.356           211.769                Anadyr2          6617.781
        67   01 Jun 2027 20:04:59.807   01 Jun 2027 20:06:34.094            94.287               Magadan1          2946.469
        68   01 Jun 2027 20:09:12.346   01 Jun 2027 20:09:23.248            10.902               Magadan2           340.687
        69   01 Jun 2027 20:09:55.976   01 Jun 2027 20:10:10.677            14.701               Magadan2           459.406
        70   01 Jun 2027 20:11:36.403   01 Jun 2027 20:11:38.454             2.051               Magadan1            64.094
        71   01 Jun 2027 20:11:47.521   01 Jun 2027 20:12:22.687            35.166               Magadan1          1098.938
        72   01 Jun 2027 20:15:26.542   01 Jun 2027 20:15:30.027             3.485               Magadan2           108.906
        73   01 Jun 2027 21:36:43.021   01 Jun 2027 21:38:51.326           128.305                Anadyr1          4009.531
        74   01 Jun 2027 21:38:57.731   01 Jun 2027 21:44:11.506           313.775                Norilsk          9805.469
        75   01 Jun 2027 21:44:32.547   01 Jun 2027 21:45:11.273            38.726                Irkutsk          1210.188
        76   01 Jun 2027 21:45:39.003   01 Jun 2027 21:46:23.037            44.034                Irkutsk          1376.062
        77   01 Jun 2027 21:49:37.110   01 Jun 2027 21:50:15.820            38.710                Irkutsk          1209.687
        78   01 Jun 2027 22:01:06.611   01 Jun 2027 22:01:54.259            47.648                Sumatra          1489.000
        79   01 Jun 2027 22:02:44.662   01 Jun 2027 22:04:25.611           100.949                Sumatra          3154.656
        80   01 Jun 2027 23:12:09.624   01 Jun 2027 23:12:47.504            37.880                Anadyr1          1183.750
        81   01 Jun 2027 23:13:10.678   01 Jun 2027 23:14:17.796            67.118                Anadyr1          2097.437
        82   01 Jun 2027 23:14:34.044   01 Jun 2027 23:16:02.410            88.366                Norilsk          2761.438
        83   01 Jun 2027 23:16:03.798   01 Jun 2027 23:16:19.144            15.346                Norilsk           479.563
        84   01 Jun 2027 23:17:36.454   01 Jun 2027 23:18:26.938            50.484               Magadan2          1577.625
        85   01 Jun 2027 23:18:34.441   01 Jun 2027 23:19:40.199            65.758                Irkutsk          2054.937
        86   01 Jun 2027 23:19:41.587   01 Jun 2027 23:20:45.269            63.682                Novosib          1990.063
        87   01 Jun 2027 23:24:28.339   01 Jun 2027 23:25:27.006            58.667                Irkutsk          1833.344
        88   01 Jun 2027 23:34:53.843   01 Jun 2027 23:35:10.395            16.552                Sumatra           517.250
        89   01 Jun 2027 23:36:14.506   01 Jun 2027 23:36:45.220            30.714                Sumatra           959.812
        90   01 Jun 2027 23:41:06.910   01 Jun 2027 23:41:10.763             3.853                Sumatra           120.406
        91   01 Jun 2027 23:41:34.731   01 Jun 2027 23:41:51.900            17.169                Sumatra           536.531
        92   02 Jun 2027 00:06:30.299   02 Jun 2027 00:07:18.386            48.087            RioGallegos          1502.719
        93   02 Jun 2027 00:10:47.131   02 Jun 2027 00:11:47.030            59.899            RioGallegos          1871.844
        94   02 Jun 2027 00:18:39.024   02 Jun 2027 00:19:05.519            26.495            RioGallegos           827.969
        95   02 Jun 2027 00:47:03.214   02 Jun 2027 00:47:38.589            35.375                Anadyr2          1105.469
        96   02 Jun 2027 00:48:25.964   02 Jun 2027 00:48:47.132            21.168                Anadyr1           661.500
        97   02 Jun 2027 00:48:54.119   02 Jun 2027 00:49:00.919             6.800                Anadyr1           212.500
        98   02 Jun 2027 00:49:33.606   02 Jun 2027 00:49:34.022             0.416                Anadyr1            13.000
        99   02 Jun 2027 00:50:33.853   02 Jun 2027 00:52:35.947           122.094                Norilsk          3815.437
       100   02 Jun 2027 00:53:39.347   02 Jun 2027 00:53:45.456             6.109                Norilsk           190.906
       101   02 Jun 2027 00:54:12.145   02 Jun 2027 00:57:03.489           171.344              Murmansk1          5354.500
       102   02 Jun 2027 00:58:44.450   02 Jun 2027 00:59:46.354            61.904                Irkutsk          1934.500
       103   02 Jun 2027 01:01:51.975   02 Jun 2027 01:02:41.844            49.869                  Delhi          1558.406
       104   02 Jun 2027 01:12:08.552   02 Jun 2027 01:13:38.522            89.970                  Delhi          2811.563
       105   02 Jun 2027 01:43:14.114   02 Jun 2027 01:43:56.675            42.561            RioGallegos          1330.031
       106   02 Jun 2027 01:44:46.840   02 Jun 2027 01:45:47.402            60.562            RioGallegos          1892.562
       107   02 Jun 2027 02:21:45.105   02 Jun 2027 02:22:19.658            34.553                Anadyr1          1079.781
       108   02 Jun 2027 02:22:51.920   02 Jun 2027 02:23:15.306            23.386                Anadyr1           730.813
       109   02 Jun 2027 02:25:33.300   02 Jun 2027 02:25:34.579             1.279                Anadyr1            39.969
       110   02 Jun 2027 02:25:55.572   02 Jun 2027 02:25:55.731             0.159                Anadyr1             4.969
       111   02 Jun 2027 02:26:08.047   02 Jun 2027 02:27:06.488            58.441               Magadan2          1826.281
       112   02 Jun 2027 02:27:15.294   02 Jun 2027 02:27:43.206            27.912                Norilsk           872.250
       113   02 Jun 2027 02:28:02.540   02 Jun 2027 02:28:04.565             2.025                Norilsk            63.281
       114   02 Jun 2027 02:28:47.100   02 Jun 2027 02:30:16.247            89.147              Murmansk1          2785.844
       115   02 Jun 2027 02:30:24.073   02 Jun 2027 02:31:18.261            54.188                Novosib          1693.375
       116   02 Jun 2027 02:31:26.026   02 Jun 2027 02:33:21.471           115.445                Irkutsk          3607.656
       117   02 Jun 2027 02:44:38.138   02 Jun 2027 02:45:30.398            52.260                  Delhi          1633.125
       118   02 Jun 2027 04:12:03.304   02 Jun 2027 04:12:24.315            21.011                Novosib           656.594
       119   02 Jun 2027 04:12:30.059   02 Jun 2027 04:14:14.428           104.369                Novosib          3261.531
       120   02 Jun 2027 04:14:27.131   02 Jun 2027 04:17:10.767           163.636              Murmansk1          5113.625
       121   02 Jun 2027 04:18:35.224   02 Jun 2027 04:20:44.819           129.595                 Moscow          4049.844
       122   02 Jun 2027 05:36:18.050   02 Jun 2027 05:40:54.326           276.276               Magadan2          8633.625
       123   02 Jun 2027 05:41:05.000   02 Jun 2027 05:41:27.249            22.249                Anadyr2           695.281
       124   02 Jun 2027 07:12:18.637   02 Jun 2027 07:13:36.747            78.110                Anadyr1          2440.937
       125   02 Jun 2027 07:13:47.129   02 Jun 2027 07:16:32.222           165.093               Magadan2          5159.156
       126   02 Jun 2027 07:16:32.222   02 Jun 2027 07:16:55.659            23.437               Magadan1           732.406
       127   02 Jun 2027 08:45:29.486   02 Jun 2027 08:45:35.137             5.651               Magadan1           176.594
       128   02 Jun 2027 08:46:19.654   02 Jun 2027 08:46:52.802            33.148               Magadan1          1035.875
       129   02 Jun 2027 08:46:52.802   02 Jun 2027 08:47:57.630            64.828               Magadan2          2025.875
       130   02 Jun 2027 08:48:47.197   02 Jun 2027 08:49:25.544            38.347                Irkutsk          1198.344
       131   02 Jun 2027 08:50:05.210   02 Jun 2027 08:52:50.834           165.624               Magadan1          5175.750
       132   02 Jun 2027 09:28:02.407   02 Jun 2027 09:28:21.390            18.983            RioGallegos           593.219
       133   02 Jun 2027 09:33:16.485   02 Jun 2027 09:34:20.352            63.867            RioGallegos          1995.844
       134   02 Jun 2027 09:36:19.082   02 Jun 2027 09:36:37.357            18.275            RioGallegos           571.094
       135   02 Jun 2027 09:37:26.985   02 Jun 2027 09:38:09.803            42.818            RioGallegos          1338.062
       136   02 Jun 2027 10:06:08.086   02 Jun 2027 10:07:34.347            86.261                Sumatra          2695.656
       137   02 Jun 2027 10:10:16.695   02 Jun 2027 10:10:58.533            41.838                Sumatra          1307.437
       138   02 Jun 2027 10:23:15.319   02 Jun 2027 10:25:28.269           132.950               Magadan1          4154.687
       139   02 Jun 2027 10:25:45.480   02 Jun 2027 10:26:02.670            17.190               Magadan2           537.187
       140   02 Jun 2027 10:26:38.046   02 Jun 2027 10:26:39.273             1.227                Irkutsk            38.344
       141   02 Jun 2027 10:26:56.550   02 Jun 2027 10:27:10.420            13.870               Magadan2           433.437
       142   02 Jun 2027 10:27:34.301   02 Jun 2027 10:28:09.542            35.241                Novosib          1101.281
       143   02 Jun 2027 10:28:18.343   02 Jun 2027 10:28:33.505            15.162                Novosib           473.812
       144   02 Jun 2027 10:28:48.019   02 Jun 2027 10:29:23.914            35.895                Novosib          1121.719
       145   02 Jun 2027 11:03:41.426   02 Jun 2027 11:04:22.552            41.126            RioGallegos          1285.187
       146   02 Jun 2027 11:38:17.623   02 Jun 2027 11:40:25.321           127.698                Sumatra          3990.563
       147   02 Jun 2027 11:58:55.199   02 Jun 2027 11:59:05.842            10.643                Irkutsk           332.594
       148   02 Jun 2027 12:00:06.001   02 Jun 2027 12:00:13.131             7.130                Norilsk           222.813
       149   02 Jun 2027 12:00:24.159   02 Jun 2027 12:01:11.656            47.497                Novosib          1484.281
       150   02 Jun 2027 12:01:22.804   02 Jun 2027 12:02:34.051            71.247                Irkutsk          2226.469
       151   02 Jun 2027 12:02:59.864   02 Jun 2027 12:03:38.712            38.848                Irkutsk          1214.000
       152   02 Jun 2027 12:05:25.752   02 Jun 2027 12:05:37.243            11.491                Novosib           359.094
       153   02 Jun 2027 12:05:49.452   02 Jun 2027 12:06:00.299            10.847                Novosib           338.969
       154   02 Jun 2027 12:44:19.632   02 Jun 2027 12:46:32.188           132.556            RioGallegos          4142.375
       155   02 Jun 2027 13:28:10.370   02 Jun 2027 13:28:39.836            29.466                  Delhi           920.813
       156   02 Jun 2027 13:30:35.022   02 Jun 2027 13:30:47.999            12.977                Novosib           405.531
       157   02 Jun 2027 13:31:35.972   02 Jun 2027 13:32:16.230            40.258                Novosib          1258.062
       158   02 Jun 2027 13:32:37.767   02 Jun 2027 13:34:37.994           120.227                Novosib          3757.094
       159   02 Jun 2027 13:38:43.531   02 Jun 2027 13:39:09.819            26.288                Novosib           821.500
       160   02 Jun 2027 13:40:27.903   02 Jun 2027 13:40:31.481             3.578                Novosib           111.812
       161   02 Jun 2027 13:41:03.371   02 Jun 2027 13:41:17.665            14.294                Norilsk           446.687
       162   02 Jun 2027 13:43:14.250   02 Jun 2027 13:43:17.889             3.639              Murmansk1           113.719
       163   02 Jun 2027 13:43:17.889   02 Jun 2027 13:43:41.076            23.187              Murmansk2           724.594
       164   02 Jun 2027 13:43:56.186   02 Jun 2027 13:44:35.468            39.282                Norilsk          1227.563
       165   02 Jun 2027 15:06:53.157   02 Jun 2027 15:09:33.396           160.239                 Moscow          5007.469
       166   02 Jun 2027 15:09:45.719   02 Jun 2027 15:09:56.312            10.593                 Moscow           331.031
       167   02 Jun 2027 15:10:12.042   02 Jun 2027 15:10:44.165            32.123                 Moscow          1003.844
       168   02 Jun 2027 15:11:37.087   02 Jun 2027 15:11:58.738            21.651              Murmansk2           676.594
       169   02 Jun 2027 15:13:33.783   02 Jun 2027 15:13:53.451            19.668              Murmansk1           614.625
       170   02 Jun 2027 15:14:39.914   02 Jun 2027 15:16:03.999            84.085                Norilsk          2627.656
       171   02 Jun 2027 15:17:46.347   02 Jun 2027 15:18:30.454            44.107                Norilsk          1378.344
       172   02 Jun 2027 15:19:15.249   02 Jun 2027 15:19:54.950            39.701                Norilsk          1240.656
       173   02 Jun 2027 16:21:18.397   02 Jun 2027 16:22:05.849            47.452               CapeTown          1482.875
       174   02 Jun 2027 16:24:25.896   02 Jun 2027 16:24:50.098            24.202               CapeTown           756.313
       175   02 Jun 2027 16:26:08.023   02 Jun 2027 16:26:42.628            34.605               CapeTown          1081.406
       176   02 Jun 2027 16:30:38.224   02 Jun 2027 16:31:05.358            27.134               CapeTown           847.938
       177   02 Jun 2027 16:44:27.622   02 Jun 2027 16:45:03.813            36.191                 Moscow          1130.969
       178   02 Jun 2027 16:46:11.096   02 Jun 2027 16:46:50.130            39.034                 Moscow          1219.812
       179   02 Jun 2027 16:47:32.131   02 Jun 2027 16:47:54.658            22.527              Murmansk1           703.969
       180   02 Jun 2027 16:52:01.958   02 Jun 2027 16:52:54.024            52.066              Murmansk2          1627.063
       181   02 Jun 2027 16:58:24.005   02 Jun 2027 16:58:29.073             5.068              Murmansk1           158.375
       182   02 Jun 2027 17:01:20.648   02 Jun 2027 17:02:44.421            83.773                Anadyr2          2617.906
       183   02 Jun 2027 17:03:30.909   02 Jun 2027 17:03:47.462            16.553                Anadyr1           517.281
       184   02 Jun 2027 17:04:20.454   02 Jun 2027 17:04:54.961            34.507                Anadyr1          1078.344
       185   02 Jun 2027 17:09:08.930   02 Jun 2027 17:09:36.044            27.114                Anadyr1           847.312
       186   02 Jun 2027 17:57:08.266   02 Jun 2027 17:57:40.439            32.173               CapeTown          1005.406
       187   02 Jun 2027 18:01:32.408   02 Jun 2027 18:02:02.454            30.046               CapeTown           938.937
       188   02 Jun 2027 18:04:50.477   02 Jun 2027 18:05:06.304            15.827               CapeTown           494.594
       189   02 Jun 2027 18:06:59.768   02 Jun 2027 18:07:47.933            48.165               CapeTown          1505.156
       190   02 Jun 2027 18:27:00.928   02 Jun 2027 18:31:15.177           254.249              Murmansk1          7945.281
       191   02 Jun 2027 18:40:12.816   02 Jun 2027 18:40:40.237            27.421               Magadan1           856.906
       192   02 Jun 2027 18:41:11.995   02 Jun 2027 18:41:52.761            40.766               Magadan1          1273.937
       193   02 Jun 2027 18:45:35.985   02 Jun 2027 18:46:07.934            31.949               Magadan1           998.406
       194   02 Jun 2027 20:12:52.242   02 Jun 2027 20:16:40.454           228.212                Anadyr1          7131.625
       195   02 Jun 2027 20:17:00.096   02 Jun 2027 20:18:13.572            73.476               Magadan1          2296.125
       196   02 Jun 2027 20:18:13.572   02 Jun 2027 20:19:34.420            80.848               Magadan2          2526.500
       197   02 Jun 2027 20:20:06.520   02 Jun 2027 20:20:27.071            20.551               Magadan2           642.219
       198   02 Jun 2027 20:23:14.411   02 Jun 2027 20:23:26.473            12.062               Magadan1           376.937
       199   02 Jun 2027 20:23:40.650   02 Jun 2027 20:23:48.467             7.817               Magadan1           244.281
       200   02 Jun 2027 20:24:01.097   02 Jun 2027 20:25:08.877            67.780               Magadan1          2118.125
       201   02 Jun 2027 21:09:48.684   02 Jun 2027 21:11:36.370           107.686            RioGallegos          3365.187
       202   02 Jun 2027 21:48:42.957   02 Jun 2027 21:50:00.748            77.791                Anadyr2          2430.969
       203   02 Jun 2027 21:50:27.436   02 Jun 2027 21:50:30.505             3.069                Anadyr2            95.906
       204   02 Jun 2027 21:50:52.922   02 Jun 2027 21:52:22.437            89.515                Norilsk          2797.344
       205   02 Jun 2027 21:52:28.678   02 Jun 2027 21:53:28.187            59.509               Magadan2          1859.656
       206   02 Jun 2027 21:54:10.766   02 Jun 2027 21:54:22.548            11.782               Magadan2           368.187
       207   02 Jun 2027 21:54:32.956   02 Jun 2027 21:55:10.600            37.644               Magadan2          1176.375
       208   02 Jun 2027 21:56:01.609   02 Jun 2027 21:56:25.326            23.717                Irkutsk           741.156
       209   02 Jun 2027 21:57:29.171   02 Jun 2027 21:57:42.645            13.474                Irkutsk           421.063
       210   02 Jun 2027 21:58:55.851   02 Jun 2027 21:58:59.574             3.723                Irkutsk           116.344
       211   02 Jun 2027 22:01:32.209   02 Jun 2027 22:02:23.233            51.024                Irkutsk          1594.500
       212   02 Jun 2027 22:11:26.829   02 Jun 2027 22:13:17.439           110.610                Sumatra          3456.563
       213   02 Jun 2027 22:16:54.711   02 Jun 2027 22:18:44.069           109.358                Sumatra          3417.438
       214   02 Jun 2027 23:26:06.799   02 Jun 2027 23:26:47.328            40.529                Anadyr1          1266.531
       215   02 Jun 2027 23:27:01.029   02 Jun 2027 23:28:21.229            80.200                Norilsk          2506.250
       216   02 Jun 2027 23:29:50.171   02 Jun 2027 23:30:24.466            34.295               Magadan2          1071.719
       217   02 Jun 2027 23:30:29.626   02 Jun 2027 23:30:32.796             3.170               Magadan2            99.062
       218   02 Jun 2027 23:31:20.619   02 Jun 2027 23:32:15.007            54.388                Novosib          1699.625
       219   02 Jun 2027 23:32:54.843   02 Jun 2027 23:33:08.714            13.871                Novosib           433.469
       220   02 Jun 2027 23:33:37.679   02 Jun 2027 23:34:48.369            70.690                Novosib          2209.063
       221   02 Jun 2027 23:42:41.080   02 Jun 2027 23:43:19.053            37.973                  Delhi          1186.656
       222   02 Jun 2027 23:44:06.770   02 Jun 2027 23:45:06.306            59.536                  Delhi          1860.500
       223   03 Jun 2027 00:20:14.686   03 Jun 2027 00:20:18.003             3.317            RioGallegos           103.656
       224   03 Jun 2027 00:20:34.777   03 Jun 2027 00:20:53.391            18.614            RioGallegos           581.688
       225   03 Jun 2027 00:24:40.001   03 Jun 2027 00:24:52.221            12.220            RioGallegos           381.875
       226   03 Jun 2027 00:27:33.096   03 Jun 2027 00:28:12.414            39.318            RioGallegos          1228.687
       227   03 Jun 2027 00:58:36.626   03 Jun 2027 00:59:35.928            59.302                Anadyr2          1853.187
       228   03 Jun 2027 00:59:59.772   03 Jun 2027 01:00:30.614            30.842                Anadyr2           963.813
       229   03 Jun 2027 01:02:36.054   03 Jun 2027 01:03:01.919            25.865                Norilsk           808.281
       230   03 Jun 2027 01:03:13.558   03 Jun 2027 01:04:55.459           101.901               Magadan2          3184.406
       231   03 Jun 2027 01:05:43.391   03 Jun 2027 01:07:22.456            99.065              Murmansk2          3095.781
       232   03 Jun 2027 01:07:56.220   03 Jun 2027 01:08:30.580            34.360                Irkutsk          1073.750
       233   03 Jun 2027 01:08:40.755   03 Jun 2027 01:09:48.524            67.769              Murmansk1          2117.781
       234   03 Jun 2027 01:17:26.896   03 Jun 2027 01:17:29.650             2.754                  Delhi            86.063
       235   03 Jun 2027 01:17:41.977   03 Jun 2027 01:19:36.621           114.644                  Delhi          3582.625
       236   03 Jun 2027 01:55:28.923   03 Jun 2027 01:56:07.605            38.682            RioGallegos          1208.813
       237   03 Jun 2027 01:57:31.572   03 Jun 2027 01:57:48.257            16.685            RioGallegos           521.406
       238   03 Jun 2027 01:58:18.969   03 Jun 2027 01:58:31.512            12.543            RioGallegos           391.969
       239   03 Jun 2027 02:32:00.814   03 Jun 2027 02:32:34.124            33.310                Anadyr1          1040.937
       240   03 Jun 2027 02:33:32.708   03 Jun 2027 02:34:04.527            31.819                Anadyr1           994.344
       241   03 Jun 2027 02:34:30.303   03 Jun 2027 02:34:35.910             5.607                Anadyr2           175.219
       242   03 Jun 2027 02:37:46.064   03 Jun 2027 02:38:24.165            38.101               Magadan2          1190.656
       243   03 Jun 2027 02:38:24.165   03 Jun 2027 02:38:58.321            34.156               Magadan1          1067.375
       244   03 Jun 2027 02:39:54.211   03 Jun 2027 02:40:21.765            27.554               Magadan1           861.063
       245   03 Jun 2027 02:40:47.099   03 Jun 2027 02:42:28.025           100.926              Murmansk2          3153.937
       246   03 Jun 2027 02:42:28.394   03 Jun 2027 02:42:57.144            28.750                Novosib           898.437
       247   03 Jun 2027 02:45:54.730   03 Jun 2027 02:46:49.782            55.052                Irkutsk          1720.375
       248   03 Jun 2027 02:51:54.731   03 Jun 2027 02:52:16.334            21.603                  Delhi           675.094
       249   03 Jun 2027 02:57:27.253   03 Jun 2027 02:57:35.530             8.277                  Delhi           258.656
       250   03 Jun 2027 03:12:42.988   03 Jun 2027 03:12:45.723             2.735               CapeTown            85.469
       251   03 Jun 2027 03:13:25.239   03 Jun 2027 03:13:55.955            30.716               CapeTown           959.875
       252   03 Jun 2027 04:21:25.141   03 Jun 2027 04:22:16.228            51.087                Novosib          1596.469
       253   03 Jun 2027 04:23:51.980   03 Jun 2027 04:24:46.722            54.742                Norilsk          1710.688
       254   03 Jun 2027 04:25:10.146   03 Jun 2027 04:25:55.494            45.348                Norilsk          1417.125
       255   03 Jun 2027 04:26:06.547   03 Jun 2027 04:28:15.764           129.217              Murmansk1          4038.031
       256   03 Jun 2027 04:28:15.764   03 Jun 2027 04:29:11.189            55.425              Murmansk2          1732.031
       257   03 Jun 2027 05:47:47.319   03 Jun 2027 05:50:40.328           173.009                Anadyr1          5406.531
       258   03 Jun 2027 05:50:40.328   03 Jun 2027 05:51:21.819            41.491                Anadyr2          1296.594
       259   03 Jun 2027 05:51:21.865   03 Jun 2027 05:51:45.117            23.252                Anadyr1           726.625
       260   03 Jun 2027 07:24:55.011   03 Jun 2027 07:25:20.401            25.390               Magadan1           793.438
       261   03 Jun 2027 07:25:24.658   03 Jun 2027 07:26:58.304            93.646               Magadan2          2926.437
       262   03 Jun 2027 08:57:30.282   03 Jun 2027 08:57:50.023            19.741               Magadan1           616.906
       263   03 Jun 2027 08:58:37.657   03 Jun 2027 08:59:41.245            63.588                Anadyr2          1987.125
       264   03 Jun 2027 09:00:01.301   03 Jun 2027 09:01:11.931            70.630               Magadan1          2207.187
       265   03 Jun 2027 09:01:58.711   03 Jun 2027 09:02:11.797            13.086               Magadan1           408.938
       266   03 Jun 2027 09:02:40.733   03 Jun 2027 09:02:57.518            16.785                Anadyr2           524.531
       267   03 Jun 2027 09:03:01.794   03 Jun 2027 09:04:05.025            63.231               Magadan2          1975.969
       268   03 Jun 2027 09:04:21.630   03 Jun 2027 09:04:22.847             1.217                Irkutsk            38.031
       269   03 Jun 2027 09:04:42.901   03 Jun 2027 09:04:43.821             0.920              Murmansk2            28.750
       270   03 Jun 2027 09:05:29.185   03 Jun 2027 09:05:46.601            17.416                Norilsk           544.250
       271   03 Jun 2027 09:39:50.440   03 Jun 2027 09:40:48.563            58.123            RioGallegos          1816.344
       272   03 Jun 2027 10:16:54.475   03 Jun 2027 10:18:41.762           107.287                Sumatra          3352.719
       273   03 Jun 2027 10:35:13.731   03 Jun 2027 10:36:02.356            48.625               Magadan1          1519.531
       274   03 Jun 2027 10:37:30.428   03 Jun 2027 10:37:52.988            22.560                Norilsk           705.000
       275   03 Jun 2027 10:37:57.231   03 Jun 2027 10:38:16.582            19.351               Magadan2           604.719
       276   03 Jun 2027 10:38:38.087   03 Jun 2027 10:38:46.033             7.946                Irkutsk           248.312
       277   03 Jun 2027 10:38:47.004   03 Jun 2027 10:38:51.937             4.933                Norilsk           154.156
       278   03 Jun 2027 10:39:10.710   03 Jun 2027 10:39:46.514            35.804                Novosib          1118.875
       279   03 Jun 2027 10:39:54.461   03 Jun 2027 10:40:05.234            10.773                Norilsk           336.656
       280   03 Jun 2027 10:40:06.666   03 Jun 2027 10:40:09.145             2.479                Irkutsk            77.469
       281   03 Jun 2027 10:40:13.004   03 Jun 2027 10:40:14.049             1.045                Novosib            32.656
       282   03 Jun 2027 10:40:20.630   03 Jun 2027 10:40:24.370             3.740                Norilsk           116.875
       283   03 Jun 2027 10:40:37.562   03 Jun 2027 10:40:48.563            11.001                Irkutsk           343.781
       284   03 Jun 2027 11:15:56.797   03 Jun 2027 11:17:29.552            92.755            RioGallegos          2898.594
       285   03 Jun 2027 11:50:23.911   03 Jun 2027 11:51:03.945            40.034                Sumatra          1251.063
       286   03 Jun 2027 11:59:41.590   03 Jun 2027 12:00:06.096            24.506                  Delhi           765.813
       287   03 Jun 2027 12:05:22.789   03 Jun 2027 12:06:30.676            67.887                Novosib          2121.469
       288   03 Jun 2027 12:15:54.758   03 Jun 2027 12:16:14.287            19.529                Irkutsk           610.281
       289   03 Jun 2027 12:17:57.031   03 Jun 2027 12:18:01.383             4.352                Novosib           136.000
       290   03 Jun 2027 12:19:42.604   03 Jun 2027 12:19:58.327            15.723                Norilsk           491.344
       291   03 Jun 2027 12:58:38.564   03 Jun 2027 12:59:54.071            75.507            RioGallegos          2359.594
       292   03 Jun 2027 13:34:57.040   03 Jun 2027 13:35:15.111            18.071                  Delhi           564.719
       293   03 Jun 2027 13:37:25.240   03 Jun 2027 13:39:45.605           140.365                  Delhi          4386.406
       294   03 Jun 2027 13:43:03.401   03 Jun 2027 13:43:46.672            43.271                Novosib          1352.219
       295   03 Jun 2027 13:46:37.019   03 Jun 2027 13:48:12.935            95.916                Novosib          2997.375
       296   03 Jun 2027 13:53:09.705   03 Jun 2027 13:53:58.897            49.192                Norilsk          1537.250
       297   03 Jun 2027 15:18:55.505   03 Jun 2027 15:22:13.426           197.921                 Moscow          6185.031
       298   03 Jun 2027 15:22:25.861   03 Jun 2027 15:23:38.973            73.112              Murmansk1          2284.750
       299   03 Jun 2027 15:27:28.000   03 Jun 2027 15:29:44.072           136.072                Norilsk          4252.250
       300   03 Jun 2027 15:30:37.223   03 Jun 2027 15:31:00.251            23.028                Norilsk           719.625
       301   03 Jun 2027 15:31:03.519   03 Jun 2027 15:31:55.922            52.403                Norilsk          1637.594
       302   03 Jun 2027 15:31:58.748   03 Jun 2027 15:32:09.375            10.627                Norilsk           332.094
       303   03 Jun 2027 16:39:10.206   03 Jun 2027 16:39:23.443            13.237               CapeTown           413.656
       304   03 Jun 2027 16:42:59.492   03 Jun 2027 16:43:06.001             6.509               CapeTown           203.406
       305   03 Jun 2027 16:43:49.648   03 Jun 2027 16:43:56.989             7.341               CapeTown           229.406
       306   03 Jun 2027 16:57:00.157   03 Jun 2027 16:57:34.137            33.980                 Moscow          1061.875
       307   03 Jun 2027 16:58:14.219   03 Jun 2027 16:58:17.393             3.174                 Moscow            99.187
       308   03 Jun 2027 16:59:51.363   03 Jun 2027 17:00:46.624            55.261              Murmansk2          1726.906
       309   03 Jun 2027 17:01:41.438   03 Jun 2027 17:02:22.792            41.354              Murmansk2          1292.313
       310   03 Jun 2027 17:03:46.017   03 Jun 2027 17:04:27.009            40.992              Murmansk1          1281.000
       311   03 Jun 2027 17:13:16.967   03 Jun 2027 17:14:44.915            87.948                Anadyr1          2748.375
       312   03 Jun 2027 17:18:18.399   03 Jun 2027 17:18:27.213             8.814                Anadyr1           275.437
       313   03 Jun 2027 17:18:51.521   03 Jun 2027 17:19:31.495            39.974                Anadyr1          1249.187
       314   03 Jun 2027 18:08:35.194   03 Jun 2027 18:08:52.643            17.449               CapeTown           545.281
       315   03 Jun 2027 18:10:26.800   03 Jun 2027 18:11:06.413            39.613               CapeTown          1237.906
       316   03 Jun 2027 18:16:21.115   03 Jun 2027 18:16:26.948             5.833               CapeTown           182.281
       317   03 Jun 2027 18:17:17.383   03 Jun 2027 18:17:41.928            24.545               CapeTown           767.031
       318   03 Jun 2027 18:39:43.335   03 Jun 2027 18:41:46.145           122.810              Murmansk1          3837.813
       319   03 Jun 2027 18:43:07.225   03 Jun 2027 18:44:33.175            85.950              Murmansk1          2685.938
       320   03 Jun 2027 18:49:33.899   03 Jun 2027 18:49:45.965            12.066                Anadyr1           377.062
       321   03 Jun 2027 18:50:12.806   03 Jun 2027 18:51:05.937            53.131                Anadyr1          1660.344
       322   03 Jun 2027 18:51:59.728   03 Jun 2027 18:52:38.125            38.397               Magadan1          1199.906
       323   03 Jun 2027 18:53:02.958   03 Jun 2027 18:53:29.813            26.855               Magadan1           839.219
       324   03 Jun 2027 18:56:13.158   03 Jun 2027 18:56:15.238             2.080               Magadan2            65.000
       325   03 Jun 2027 18:56:25.834   03 Jun 2027 18:57:15.448            49.614               Magadan2          1550.437
       326   03 Jun 2027 20:24:53.826   03 Jun 2027 20:26:31.107            97.281                Anadyr2          3040.031
       327   03 Jun 2027 20:27:08.006   03 Jun 2027 20:27:36.215            28.209                Anadyr1           881.531
       328   03 Jun 2027 20:27:59.314   03 Jun 2027 20:28:14.542            15.228                Anadyr1           475.875
       329   03 Jun 2027 20:28:23.494   03 Jun 2027 20:31:02.633           159.139               Magadan1          4973.094
       330   03 Jun 2027 20:31:17.037   03 Jun 2027 20:31:55.798            38.761               Magadan2          1211.281
       331   03 Jun 2027 20:32:37.845   03 Jun 2027 20:33:11.291            33.446               Magadan1          1045.187
       332   03 Jun 2027 20:35:12.249   03 Jun 2027 20:35:31.583            19.334               Magadan2           604.187
       333   03 Jun 2027 20:35:37.776   03 Jun 2027 20:35:44.104             6.328               Magadan2           197.750
       334   03 Jun 2027 21:20:49.019   03 Jun 2027 21:23:27.249           158.230            RioGallegos          4944.688
       335   03 Jun 2027 21:25:43.554   03 Jun 2027 21:26:09.615            26.061            RioGallegos           814.406
       336   03 Jun 2027 21:26:12.804   03 Jun 2027 21:26:39.494            26.690            RioGallegos           834.062
       337   03 Jun 2027 22:00:42.454   03 Jun 2027 22:02:11.650            89.196                Anadyr2          2787.375
       338   03 Jun 2027 22:02:29.787   03 Jun 2027 22:02:44.937            15.150                Anadyr2           473.438
       339   03 Jun 2027 22:02:49.969   03 Jun 2027 22:03:08.517            18.548                Norilsk           579.625
       340   03 Jun 2027 22:03:20.438   03 Jun 2027 22:03:44.268            23.830                Norilsk           744.687
       341   03 Jun 2027 22:03:44.622   03 Jun 2027 22:04:36.900            52.278               Magadan2          1633.687
       342   03 Jun 2027 22:05:36.767   03 Jun 2027 22:05:56.818            20.051                Norilsk           626.594
       343   03 Jun 2027 22:06:35.695   03 Jun 2027 22:07:12.033            36.338               Magadan2          1135.563
       344   03 Jun 2027 22:07:40.286   03 Jun 2027 22:08:22.533            42.247                Irkutsk          1320.219
       345   03 Jun 2027 22:13:10.428   03 Jun 2027 22:13:24.251            13.823                Irkutsk           431.969
       346   03 Jun 2027 22:22:27.977   03 Jun 2027 22:24:07.184            99.207                Sumatra          3100.219
       347   03 Jun 2027 22:24:28.139   03 Jun 2027 22:24:50.927            22.788                Sumatra           712.125
       348   03 Jun 2027 22:26:16.052   03 Jun 2027 22:27:58.341           102.289                Sumatra          3196.531
       349   03 Jun 2027 23:35:56.953   03 Jun 2027 23:36:16.026            19.073                Anadyr2           596.031
       350   03 Jun 2027 23:36:43.004   03 Jun 2027 23:38:07.824            84.820                Anadyr2          2650.625
       351   03 Jun 2027 23:39:14.958   03 Jun 2027 23:40:38.083            83.125               Magadan1          2597.656
       352   03 Jun 2027 23:41:18.315   03 Jun 2027 23:42:16.393            58.078               Magadan1          1814.937
       353   03 Jun 2027 23:42:32.067   03 Jun 2027 23:43:35.964            63.897                Irkutsk          1996.781
       354   03 Jun 2027 23:45:36.474   03 Jun 2027 23:46:26.581            50.107                Novosib          1565.844
       355   03 Jun 2027 23:52:46.420   03 Jun 2027 23:54:21.328            94.908                  Delhi          2965.875
       356   04 Jun 2027 00:37:38.817   04 Jun 2027 00:38:24.282            45.465            RioGallegos          1420.781
       357   04 Jun 2027 01:10:01.219   04 Jun 2027 01:10:30.990            29.771                Anadyr2           930.344
       358   04 Jun 2027 01:10:30.990   04 Jun 2027 01:11:23.498            52.508                Anadyr1          1640.875
       359   04 Jun 2027 01:11:35.063   04 Jun 2027 01:11:59.882            24.819                Anadyr1           775.594
       360   04 Jun 2027 01:14:54.264   04 Jun 2027 01:15:00.334             6.070                Norilsk           189.688
       361   04 Jun 2027 01:15:10.783   04 Jun 2027 01:16:40.616            89.833                Norilsk          2807.281
       362   04 Jun 2027 01:16:45.266   04 Jun 2027 01:16:54.794             9.528               Magadan2           297.750
       363   04 Jun 2027 01:17:03.385   04 Jun 2027 01:18:08.258            64.873               Magadan2          2027.281
       364   04 Jun 2027 01:18:10.702   04 Jun 2027 01:20:31.491           140.789              Murmansk2          4399.656
       365   04 Jun 2027 01:28:54.718   04 Jun 2027 01:29:35.916            41.198                  Delhi          1287.437
       366   04 Jun 2027 01:33:47.211   04 Jun 2027 01:34:17.455            30.244                  Delhi           945.125
       367   04 Jun 2027 02:07:47.363   04 Jun 2027 02:09:45.785           118.422            RioGallegos          3700.687
       368   04 Jun 2027 02:10:36.608   04 Jun 2027 02:12:24.204           107.596            RioGallegos          3362.375
       369   04 Jun 2027 02:49:20.183   04 Jun 2027 02:49:51.505            31.322               Magadan1           978.812
       370   04 Jun 2027 02:50:33.345   04 Jun 2027 02:50:38.007             4.662                Norilsk           145.688
       371   04 Jun 2027 02:51:33.247   04 Jun 2027 02:51:38.135             4.888               Magadan1           152.750
       372   04 Jun 2027 02:51:42.250   04 Jun 2027 02:51:46.202             3.952                Norilsk           123.500
       373   04 Jun 2027 02:52:12.673   04 Jun 2027 02:52:40.308            27.635                Norilsk           863.594
       374   04 Jun 2027 02:52:47.603   04 Jun 2027 02:53:48.502            60.899              Murmansk2          1903.094
       375   04 Jun 2027 02:54:13.330   04 Jun 2027 02:54:26.549            13.219              Murmansk1           413.094
       376   04 Jun 2027 02:54:41.872   04 Jun 2027 02:55:18.131            36.259              Murmansk1          1133.094
       377   04 Jun 2027 02:56:10.172   04 Jun 2027 02:56:42.082            31.910                Irkutsk           997.187
       378   04 Jun 2027 02:59:14.728   04 Jun 2027 03:00:03.429            48.701                Irkutsk          1521.906
       379   04 Jun 2027 03:00:16.947   04 Jun 2027 03:00:44.340            27.393              Murmansk2           856.031
       380   04 Jun 2027 03:00:46.890   04 Jun 2027 03:00:58.353            11.463                Irkutsk           358.219
       381   04 Jun 2027 03:01:05.816   04 Jun 2027 03:01:39.334            33.518                Novosib          1047.438
       382   04 Jun 2027 03:02:07.685   04 Jun 2027 03:03:33.140            85.455                 Moscow          2670.469
       383   04 Jun 2027 03:03:38.637   04 Jun 2027 03:03:42.742             4.105              Murmansk2           128.281
       384   04 Jun 2027 03:03:50.244   04 Jun 2027 03:08:53.790           303.546                  Delhi          9485.812
       385   04 Jun 2027 04:37:17.550   04 Jun 2027 04:40:02.809           165.259              Murmansk2          5164.344
       386   04 Jun 2027 04:55:50.711   04 Jun 2027 04:58:24.541           153.830               CapeTown          4807.188
       387   04 Jun 2027 05:59:55.654   04 Jun 2027 06:00:49.235            53.581                Anadyr2          1674.406
       388   04 Jun 2027 06:00:54.981   04 Jun 2027 06:01:56.458            61.477               Magadan2          1921.156
       389   04 Jun 2027 07:35:46.688   04 Jun 2027 07:35:52.153             5.465                Anadyr1           170.781
       390   04 Jun 2027 07:36:09.113   04 Jun 2027 07:36:21.041            11.928               Magadan1           372.750
       391   04 Jun 2027 07:36:40.934   04 Jun 2027 07:36:44.445             3.511               Magadan2           109.719
       392   04 Jun 2027 07:36:44.445   04 Jun 2027 07:37:22.686            38.241               Magadan1          1195.031
       393   04 Jun 2027 07:37:37.242   04 Jun 2027 07:38:11.265            34.023                Anadyr2          1063.219
       394   04 Jun 2027 07:38:11.265   04 Jun 2027 07:38:46.913            35.648                Anadyr1          1114.000
       395   04 Jun 2027 09:09:30.576   04 Jun 2027 09:10:22.828            52.252               Magadan2          1632.875
       396   04 Jun 2027 09:10:42.074   04 Jun 2027 09:10:52.034             9.960               Magadan1           311.250
       397   04 Jun 2027 09:11:29.444   04 Jun 2027 09:11:34.760             5.316               Magadan2           166.125
       398   04 Jun 2027 09:12:07.580   04 Jun 2027 09:13:10.606            63.026               Magadan1          1969.563
       399   04 Jun 2027 09:13:54.518   04 Jun 2027 09:13:59.223             4.705               Magadan2           147.031
       400   04 Jun 2027 09:15:20.040   04 Jun 2027 09:15:27.901             7.861               Magadan1           245.656
       401   04 Jun 2027 09:15:45.142   04 Jun 2027 09:16:17.993            32.851               Magadan1          1026.594
       402   04 Jun 2027 09:16:46.550   04 Jun 2027 09:17:30.008            43.458                Novosib          1358.062
       403   04 Jun 2027 09:51:41.688   04 Jun 2027 09:51:58.379            16.691            RioGallegos           521.594
       404   04 Jun 2027 09:52:28.060   04 Jun 2027 09:52:41.426            13.366            RioGallegos           417.688
       405   04 Jun 2027 10:03:20.892   04 Jun 2027 10:03:21.847             0.955            RioGallegos            29.844
       406   04 Jun 2027 10:28:05.795   04 Jun 2027 10:29:22.235            76.440                Sumatra          2388.750
       407   04 Jun 2027 10:37:02.713   04 Jun 2027 10:37:11.674             8.961                Sumatra           280.031
       408   04 Jun 2027 10:46:57.566   04 Jun 2027 10:47:37.646            40.080                Irkutsk          1252.500
       409   04 Jun 2027 10:48:46.018   04 Jun 2027 10:49:04.062            18.044                Irkutsk           563.875
       410   04 Jun 2027 10:49:32.134   04 Jun 2027 10:50:35.713            63.579                Irkutsk          1986.844
       411   04 Jun 2027 10:50:48.510   04 Jun 2027 10:50:58.544            10.034                Norilsk           313.562
       412   04 Jun 2027 10:51:08.651   04 Jun 2027 10:51:57.862            49.211                Irkutsk          1537.844
       413   04 Jun 2027 10:52:02.434   04 Jun 2027 10:52:15.964            13.530                Novosib           422.812
       414   04 Jun 2027 10:52:23.078   04 Jun 2027 10:52:25.544             2.466                Norilsk            77.063
       415   04 Jun 2027 10:52:31.362   04 Jun 2027 10:52:50.255            18.893                Irkutsk           590.406
       416   04 Jun 2027 11:28:16.463   04 Jun 2027 11:29:00.493            44.030            RioGallegos          1375.938
       417   04 Jun 2027 11:30:37.522   04 Jun 2027 11:31:39.143            61.621            RioGallegos          1925.656
       418   04 Jun 2027 12:02:36.276   04 Jun 2027 12:02:40.719             4.443                Sumatra           138.844
       419   04 Jun 2027 12:05:11.702   04 Jun 2027 12:07:15.313           123.611                Sumatra          3862.844
       420   04 Jun 2027 12:21:48.024   04 Jun 2027 12:22:44.999            56.975                Irkutsk          1780.469
       421   04 Jun 2027 13:47:20.396   04 Jun 2027 13:48:45.430            85.034                  Delhi          2657.312
       422   04 Jun 2027 13:51:15.646   04 Jun 2027 13:51:59.997            44.351                  Delhi          1385.969
       423   04 Jun 2027 13:55:23.526   04 Jun 2027 13:57:19.245           115.719                  Delhi          3616.219
       424   04 Jun 2027 13:57:22.898   04 Jun 2027 13:59:09.401           106.503                Novosib          3328.219
       425   04 Jun 2027 13:59:26.407   04 Jun 2027 14:00:26.103            59.696                Norilsk          1865.500
       426   04 Jun 2027 14:00:40.338   04 Jun 2027 14:01:04.695            24.357                Novosib           761.156
       427   04 Jun 2027 14:07:30.447   04 Jun 2027 14:08:00.969            30.522                Norilsk           953.812
       428   04 Jun 2027 15:31:00.858   04 Jun 2027 15:34:26.346           205.488                 Moscow          6421.500
       429   04 Jun 2027 15:34:32.304   04 Jun 2027 15:35:01.990            29.686              Murmansk2           927.687
       430   04 Jun 2027 15:36:27.614   04 Jun 2027 15:37:12.374            44.760              Murmansk2          1398.750
       431   04 Jun 2027 15:40:22.668   04 Jun 2027 15:42:37.975           135.307                Norilsk          4228.344
       432   04 Jun 2027 15:43:27.596   04 Jun 2027 15:43:56.394            28.798                Norilsk           899.937
       433   04 Jun 2027 16:44:48.054   04 Jun 2027 16:45:23.717            35.663               CapeTown          1114.469
       434   04 Jun 2027 16:51:20.992   04 Jun 2027 16:51:53.249            32.257               CapeTown          1008.031
       435   04 Jun 2027 17:09:38.858   04 Jun 2027 17:09:51.148            12.290                 Moscow           384.063
       436   04 Jun 2027 17:10:16.807   04 Jun 2027 17:10:57.948            41.141                 Moscow          1285.656
       437   04 Jun 2027 17:12:13.341   04 Jun 2027 17:13:11.336            57.995              Murmansk1          1812.344
       438   04 Jun 2027 17:15:09.965   04 Jun 2027 17:15:48.053            38.088              Murmansk1          1190.250
       439   04 Jun 2027 17:21:34.989   04 Jun 2027 17:21:52.183            17.194              Murmansk1           537.312
       440   04 Jun 2027 17:25:14.449   04 Jun 2027 17:26:45.707            91.258                Anadyr2          2851.812
       441   04 Jun 2027 17:30:32.050   04 Jun 2027 17:30:47.939            15.889                Anadyr2           496.531
       442   04 Jun 2027 17:36:03.219   04 Jun 2027 17:36:07.670             4.451                Anadyr1           139.094
       443   04 Jun 2027 18:20:47.728   04 Jun 2027 18:21:44.074            56.346               CapeTown          1760.812
       444   04 Jun 2027 18:21:47.404   04 Jun 2027 18:22:27.913            40.509               CapeTown          1265.906
       445   04 Jun 2027 18:31:54.572   04 Jun 2027 18:32:03.631             9.059               CapeTown           283.094
       446   04 Jun 2027 18:52:30.575   04 Jun 2027 18:56:28.679           238.104              Murmansk1          7440.750
       447   04 Jun 2027 18:56:52.927   04 Jun 2027 18:57:15.343            22.416              Murmansk1           700.500
       448   04 Jun 2027 19:03:50.107   04 Jun 2027 19:05:05.205            75.098               Magadan2          2346.812
       449   04 Jun 2027 19:05:51.408   04 Jun 2027 19:06:25.783            34.375               Magadan2          1074.219
       450   04 Jun 2027 19:12:02.327   04 Jun 2027 19:12:57.579            55.252               Magadan1          1726.625
       451   04 Jun 2027 20:36:55.300   04 Jun 2027 20:39:50.966           175.666                Anadyr1          5489.562
       452   04 Jun 2027 20:40:23.333   04 Jun 2027 20:42:55.377           152.044               Magadan2          4751.375
       453   04 Jun 2027 20:43:57.229   04 Jun 2027 20:44:17.740            20.511               Magadan1           640.969
       454   04 Jun 2027 20:46:14.325   04 Jun 2027 20:47:12.803            58.478               Magadan1          1827.438
       455   04 Jun 2027 21:32:15.087   04 Jun 2027 21:34:33.741           138.654            RioGallegos          4332.937
       456   04 Jun 2027 21:34:56.547   04 Jun 2027 21:35:07.957            11.410            RioGallegos           356.563
       457   04 Jun 2027 21:38:31.829   04 Jun 2027 21:38:47.858            16.029            RioGallegos           500.906
       458   04 Jun 2027 22:12:41.433   04 Jun 2027 22:14:13.779            92.346                Anadyr1          2885.813
       459   04 Jun 2027 22:14:48.331   04 Jun 2027 22:15:02.033            13.702                Norilsk           428.188
       460   04 Jun 2027 22:15:10.511   04 Jun 2027 22:16:42.441            91.930               Magadan1          2872.813
       461   04 Jun 2027 22:17:04.591   04 Jun 2027 22:17:19.667            15.076               Magadan1           471.125
       462   04 Jun 2027 22:17:30.886   04 Jun 2027 22:17:40.364             9.478               Magadan1           296.188
       463   04 Jun 2027 22:17:54.043   04 Jun 2027 22:17:56.060             2.017               Magadan1            63.031
       464   04 Jun 2027 22:17:59.944   04 Jun 2027 22:18:02.975             3.031                Norilsk            94.719
       465   04 Jun 2027 22:18:21.897   04 Jun 2027 22:18:28.956             7.059                Norilsk           220.594
       466   04 Jun 2027 22:19:12.878   04 Jun 2027 22:20:01.539            48.661               Magadan1          1520.656
       467   04 Jun 2027 22:22:05.624   04 Jun 2027 22:22:43.414            37.790                Irkutsk          1180.938
       468   04 Jun 2027 22:33:47.022   04 Jun 2027 22:36:32.390           165.368                Sumatra          5167.750
       469   04 Jun 2027 23:47:48.862   04 Jun 2027 23:50:08.649           139.787                Anadyr1          4368.344
       470   04 Jun 2027 23:51:17.935   04 Jun 2027 23:52:46.953            89.018               Magadan1          2781.812
       471   04 Jun 2027 23:54:32.446   04 Jun 2027 23:55:29.176            56.730                Irkutsk          1772.812
       472   04 Jun 2027 23:56:00.263   04 Jun 2027 23:57:20.083            79.820                Novosib          2494.375
       473   05 Jun 2027 00:03:51.170   05 Jun 2027 00:04:24.223            33.053                  Delhi          1032.906
       474   05 Jun 2027 00:06:43.357   05 Jun 2027 00:06:45.268             1.911                  Delhi            59.719
       475   05 Jun 2027 00:07:10.473   05 Jun 2027 00:07:37.445            26.972                  Delhi           842.875
       476   05 Jun 2027 00:08:39.224   05 Jun 2027 00:09:33.291            54.067                  Delhi          1689.594
       477   05 Jun 2027 00:19:06.084   05 Jun 2027 00:20:02.178            56.094                Sumatra          1752.938
       478   05 Jun 2027 00:52:49.168   05 Jun 2027 00:53:43.463            54.295            RioGallegos          1696.719
       479   05 Jun 2027 01:21:43.758   05 Jun 2027 01:21:43.888             0.130                Anadyr1             4.063
       480   05 Jun 2027 01:22:06.227   05 Jun 2027 01:22:39.057            32.830                Anadyr2          1025.938
       481   05 Jun 2027 01:23:20.689   05 Jun 2027 01:24:00.310            39.621                Anadyr2          1238.156
       482   05 Jun 2027 01:26:40.240   05 Jun 2027 01:28:42.975           122.735                Norilsk          3835.469
