uniorb/output/strategy_4/Drop/Drop_KinoSat_111604.txt

KinoSat_111604
-------------------------
    Access    *     Start Time (UTCG)     *     Stop Time (UTCG)  *   Duration (s)        *       Station  *  Data (Mbytes)
         1   01 Jun 2027 03:26:23.589   01 Jun 2027 03:29:04.518           160.929              Murmansk1          5029.031
         2   01 Jun 2027 03:29:21.104   01 Jun 2027 03:30:34.774            73.670                Novosib          2302.187
         3   01 Jun 2027 03:30:47.189   01 Jun 2027 03:31:00.066            12.877              Murmansk1           402.406
         4   01 Jun 2027 03:31:00.066   01 Jun 2027 03:31:07.748             7.682              Murmansk2           240.063
         5   01 Jun 2027 03:31:23.312   01 Jun 2027 03:32:51.201            87.889                  Delhi          2746.531
         6   01 Jun 2027 03:36:03.576   01 Jun 2027 03:36:07.368             3.792                  Delhi           118.500
         7   01 Jun 2027 03:49:36.084   01 Jun 2027 03:52:00.543           144.459               CapeTown          4514.344
         8   01 Jun 2027 05:03:09.118   01 Jun 2027 05:03:15.516             6.398                Novosib           199.938
         9   01 Jun 2027 05:03:32.302   01 Jun 2027 05:05:01.159            88.857                Norilsk          2776.781
        10   01 Jun 2027 05:05:19.188   01 Jun 2027 05:08:14.968           175.780              Murmansk2          5493.125
        11   01 Jun 2027 05:08:14.968   01 Jun 2027 05:08:51.497            36.529              Murmansk1          1141.531
        12   01 Jun 2027 05:08:52.352   01 Jun 2027 05:09:04.734            12.382                 Moscow           386.938
        13   01 Jun 2027 05:23:11.054   01 Jun 2027 05:25:37.985           146.931               CapeTown          4591.594
        14   01 Jun 2027 06:26:58.713   01 Jun 2027 06:30:59.431           240.718                Anadyr1          7522.438
        15   01 Jun 2027 08:03:43.773   01 Jun 2027 08:06:16.758           152.985               Magadan2          4780.781
        16   01 Jun 2027 09:37:50.736   01 Jun 2027 09:40:28.386           157.650               Magadan1          4926.562
        17   01 Jun 2027 09:41:09.120   01 Jun 2027 09:42:32.443            83.323                Anadyr1          2603.844
        18   01 Jun 2027 09:42:32.701   01 Jun 2027 09:43:15.036            42.335               Magadan2          1322.969
        19   01 Jun 2027 09:43:35.876   01 Jun 2027 09:43:55.723            19.847               Magadan2           620.219
        20   01 Jun 2027 11:15:17.261   01 Jun 2027 11:17:53.921           156.660                Irkutsk          4895.625
        21   01 Jun 2027 11:18:19.147   01 Jun 2027 11:19:12.213            53.066                Irkutsk          1658.312
        22   01 Jun 2027 11:19:35.286   01 Jun 2027 11:21:33.208           117.922                Novosib          3685.062
        23   01 Jun 2027 12:00:03.784   01 Jun 2027 12:00:30.467            26.683            RioGallegos           833.844
        24   01 Jun 2027 12:29:59.468   01 Jun 2027 12:30:15.646            16.178                Sumatra           505.563
        25   01 Jun 2027 12:31:47.052   01 Jun 2027 12:34:44.122           177.070                Sumatra          5533.437
        26   01 Jun 2027 12:45:01.450   01 Jun 2027 12:46:12.427            70.977                Irkutsk          2218.031
        27   01 Jun 2027 12:48:25.166   01 Jun 2027 12:49:03.389            38.223                Irkutsk          1194.469
        28   01 Jun 2027 12:54:14.120   01 Jun 2027 12:55:04.724            50.604                Irkutsk          1581.375
        29   01 Jun 2027 14:14:46.295   01 Jun 2027 14:16:34.245           107.950                  Delhi          3373.438
        30   01 Jun 2027 14:19:05.870   01 Jun 2027 14:20:02.419            56.549                  Delhi          1767.156
        31   01 Jun 2027 14:23:05.019   01 Jun 2027 14:26:24.463           199.444                Novosib          6232.625
        32   01 Jun 2027 14:26:51.919   01 Jun 2027 14:27:45.611            53.692                Norilsk          1677.875
        33   01 Jun 2027 14:27:48.875   01 Jun 2027 14:28:04.831            15.956                Novosib           498.625
        34   01 Jun 2027 14:29:30.512   01 Jun 2027 14:31:11.193           100.681                Norilsk          3146.281
        35   01 Jun 2027 15:58:21.834   01 Jun 2027 16:01:33.570           191.736                 Moscow          5991.750
        36   01 Jun 2027 16:02:46.705   01 Jun 2027 16:03:00.103            13.398              Murmansk2           418.687
        37   01 Jun 2027 16:03:13.723   01 Jun 2027 16:03:43.545            29.822              Murmansk2           931.938
        38   01 Jun 2027 16:07:55.178   01 Jun 2027 16:12:15.948           260.770                Norilsk          8149.063
        39   01 Jun 2027 17:12:04.908   01 Jun 2027 17:12:33.684            28.776               CapeTown           899.250
        40   01 Jun 2027 17:37:08.038   01 Jun 2027 17:42:00.143           292.105                 Moscow          9128.281
        41   01 Jun 2027 17:53:51.044   01 Jun 2027 17:54:02.774            11.730                Anadyr1           366.563
        42   01 Jun 2027 17:54:41.094   01 Jun 2027 17:54:56.704            15.610                Anadyr2           487.813
        43   01 Jun 2027 17:55:25.400   01 Jun 2027 17:55:33.466             8.066                Anadyr2           252.062
        44   01 Jun 2027 18:48:10.662   01 Jun 2027 18:51:53.788           223.126               CapeTown          6972.688
        45   01 Jun 2027 19:20:01.185   01 Jun 2027 19:25:59.715           358.530              Murmansk1         11204.062
        46   01 Jun 2027 21:04:15.022   01 Jun 2027 21:07:58.704           223.682                Anadyr2          6990.062
        47   01 Jun 2027 21:08:04.675   01 Jun 2027 21:09:28.548            83.873                Anadyr1          2621.031
        48   01 Jun 2027 21:09:42.788   01 Jun 2027 21:13:02.312           199.524               Magadan1          6235.125
        49   01 Jun 2027 21:13:35.134   01 Jun 2027 21:13:40.826             5.692               Magadan2           177.875
        50   01 Jun 2027 21:13:47.683   01 Jun 2027 21:14:19.085            31.402               Magadan2           981.313
        51   01 Jun 2027 21:59:27.843   01 Jun 2027 22:01:00.404            92.561            RioGallegos          2892.531
        52   01 Jun 2027 22:01:00.411   01 Jun 2027 22:01:39.244            38.833            RioGallegos          1213.531
        53   01 Jun 2027 22:02:27.913   01 Jun 2027 22:02:28.336             0.423            RioGallegos            13.219
        54   01 Jun 2027 22:04:44.541   01 Jun 2027 22:05:03.443            18.902            RioGallegos           590.687
        55   01 Jun 2027 22:05:47.057   01 Jun 2027 22:06:14.083            27.026            RioGallegos           844.563
        56   01 Jun 2027 22:40:00.648   01 Jun 2027 22:42:54.476           173.828                Anadyr2          5432.125
        57   01 Jun 2027 22:43:04.374   01 Jun 2027 22:44:08.735            64.361                Norilsk          2011.281
        58   01 Jun 2027 22:44:21.537   01 Jun 2027 22:45:10.753            49.216               Magadan2          1538.000
        59   01 Jun 2027 22:45:54.952   01 Jun 2027 22:46:19.004            24.052               Magadan1           751.625
        60   01 Jun 2027 22:46:40.818   01 Jun 2027 22:48:42.506           121.688                Irkutsk          3802.750
        61   01 Jun 2027 23:00:58.471   01 Jun 2027 23:03:48.534           170.063                Sumatra          5314.469
        62   01 Jun 2027 23:41:38.374   01 Jun 2027 23:42:24.605            46.231            RioGallegos          1444.719
        63   02 Jun 2027 00:15:06.447   02 Jun 2027 00:15:30.017            23.570                Anadyr1           736.563
        64   02 Jun 2027 00:16:19.668   02 Jun 2027 00:17:29.304            69.636                Anadyr2          2176.125
        65   02 Jun 2027 00:17:29.304   02 Jun 2027 00:17:47.482            18.178                Anadyr1           568.062
        66   02 Jun 2027 00:17:59.177   02 Jun 2027 00:19:42.609           103.432                Norilsk          3232.250
        67   02 Jun 2027 00:19:51.690   02 Jun 2027 00:20:34.107            42.417               Magadan2          1325.531
        68   02 Jun 2027 00:20:55.607   02 Jun 2027 00:21:32.575            36.968               Magadan1          1155.250
        69   02 Jun 2027 00:21:51.969   02 Jun 2027 00:22:22.110            30.141                Irkutsk           941.906
        70   02 Jun 2027 00:22:38.426   02 Jun 2027 00:23:27.011            48.585                Novosib          1518.281
        71   02 Jun 2027 00:25:37.713   02 Jun 2027 00:25:46.934             9.221                Novosib           288.156
        72   02 Jun 2027 00:26:37.374   02 Jun 2027 00:27:43.456            66.082                Irkutsk          2065.062
        73   02 Jun 2027 00:33:37.809   02 Jun 2027 00:33:48.433            10.624                  Delhi           332.000
        74   02 Jun 2027 00:34:01.341   02 Jun 2027 00:34:19.897            18.556                  Delhi           579.875
        75   02 Jun 2027 00:35:57.961   02 Jun 2027 00:36:50.366            52.405                  Delhi          1637.656
        76   02 Jun 2027 00:39:38.594   02 Jun 2027 00:39:51.290            12.696                  Delhi           396.750
        77   02 Jun 2027 00:44:32.005   02 Jun 2027 00:46:02.800            90.795                Sumatra          2837.344
        78   02 Jun 2027 01:21:24.980   02 Jun 2027 01:21:32.055             7.075            RioGallegos           221.094
        79   02 Jun 2027 01:49:22.562   02 Jun 2027 01:50:00.040            37.478                Anadyr2          1171.188
        80   02 Jun 2027 01:50:33.104   02 Jun 2027 01:51:05.993            32.889                Anadyr1          1027.781
        81   02 Jun 2027 01:53:44.235   02 Jun 2027 01:54:16.980            32.745                Anadyr1          1023.281
        82   02 Jun 2027 01:54:24.926   02 Jun 2027 01:55:27.685            62.759                Norilsk          1961.219
        83   02 Jun 2027 01:56:35.653   02 Jun 2027 01:57:12.470            36.817              Murmansk2          1150.531
        84   02 Jun 2027 01:57:18.724   02 Jun 2027 01:57:47.905            29.181              Murmansk1           911.906
        85   02 Jun 2027 01:58:09.543   02 Jun 2027 01:59:14.429            64.886                Irkutsk          2027.687
        86   02 Jun 2027 01:59:56.389   02 Jun 2027 02:01:00.306            63.917                Irkutsk          1997.406
        87   02 Jun 2027 02:08:30.645   02 Jun 2027 02:09:01.478            30.833                  Delhi           963.531
        88   02 Jun 2027 02:11:33.395   02 Jun 2027 02:13:32.164           118.769                  Delhi          3711.531
        89   02 Jun 2027 02:47:39.016   02 Jun 2027 02:49:03.028            84.012            RioGallegos          2625.375
        90   02 Jun 2027 02:50:55.145   02 Jun 2027 02:52:09.769            74.624            RioGallegos          2332.000
        91   02 Jun 2027 03:38:02.304   02 Jun 2027 03:38:53.421            51.117                Norilsk          1597.406
        92   02 Jun 2027 03:39:37.826   02 Jun 2027 03:40:02.626            24.800              Murmansk2           775.000
        93   02 Jun 2027 03:40:41.754   02 Jun 2027 03:44:48.721           246.967                Novosib          7717.719
        94   02 Jun 2027 03:44:58.770   02 Jun 2027 03:47:34.510           155.740                  Delhi          4866.875
        95   02 Jun 2027 04:00:57.970   02 Jun 2027 04:03:38.994           161.024               CapeTown          5032.000
        96   02 Jun 2027 04:10:07.784   02 Jun 2027 04:10:31.784            24.000               CapeTown           750.000
        97   02 Jun 2027 04:11:06.291   02 Jun 2027 04:11:23.333            17.042               CapeTown           532.562
        98   02 Jun 2027 06:38:25.471   02 Jun 2027 06:39:35.269            69.798               Magadan2          2181.188
        99   02 Jun 2027 06:39:35.269   02 Jun 2027 06:40:23.772            48.503               Magadan1          1515.719
       100   02 Jun 2027 06:40:23.772   02 Jun 2027 06:40:59.572            35.800               Magadan2          1118.750
       101   02 Jun 2027 06:41:05.826   02 Jun 2027 06:41:46.344            40.518                Anadyr1          1266.188
       102   02 Jun 2027 06:41:46.344   02 Jun 2027 06:42:41.554            55.210                Anadyr2          1725.312
       103   02 Jun 2027 08:18:15.725   02 Jun 2027 08:18:35.997            20.272               Magadan1           633.500
       104   02 Jun 2027 08:18:35.997   02 Jun 2027 08:20:28.624           112.627               Magadan2          3519.594
       105   02 Jun 2027 09:50:30.323   02 Jun 2027 09:51:29.899            59.576               Magadan1          1861.750
       106   02 Jun 2027 09:52:26.027   02 Jun 2027 09:52:56.420            30.393               Magadan2           949.781
       107   02 Jun 2027 09:52:56.420   02 Jun 2027 09:54:33.374            96.954               Magadan1          3029.812
       108   02 Jun 2027 09:55:25.209   02 Jun 2027 09:55:57.404            32.195               Magadan1          1006.094
       109   02 Jun 2027 10:01:13.627   02 Jun 2027 10:01:18.254             4.627                Norilsk           144.594
       110   02 Jun 2027 10:30:54.657   02 Jun 2027 10:31:51.320            56.663            RioGallegos          1770.719
       111   02 Jun 2027 10:32:53.782   02 Jun 2027 10:33:11.382            17.600            RioGallegos           550.000
       112   02 Jun 2027 11:06:43.718   02 Jun 2027 11:07:33.620            49.902                Sumatra          1559.437
       113   02 Jun 2027 11:27:03.178   02 Jun 2027 11:27:37.701            34.523                Irkutsk          1078.844
       114   02 Jun 2027 11:27:42.006   02 Jun 2027 11:28:25.390            43.384                Irkutsk          1355.750
       115   02 Jun 2027 11:28:49.565   02 Jun 2027 11:29:14.501            24.936                Norilsk           779.250
       116   02 Jun 2027 11:29:38.479   02 Jun 2027 11:29:49.859            11.380                Norilsk           355.625
       117   02 Jun 2027 11:30:11.982   02 Jun 2027 11:31:04.516            52.534                Irkutsk          1641.688
       118   02 Jun 2027 11:31:14.136   02 Jun 2027 11:31:18.015             3.879                Norilsk           121.219
       119   02 Jun 2027 11:31:18.845   02 Jun 2027 11:31:37.679            18.834                Novosib           588.563
       120   02 Jun 2027 11:31:52.419   02 Jun 2027 11:33:03.416            70.997                Norilsk          2218.656
       121   02 Jun 2027 12:08:14.398   02 Jun 2027 12:08:39.671            25.273            RioGallegos           789.781
       122   02 Jun 2027 12:42:20.663   02 Jun 2027 12:43:43.684            83.021                Sumatra          2594.406
       123   02 Jun 2027 12:51:00.963   02 Jun 2027 12:52:12.942            71.979                  Delhi          2249.344
       124   02 Jun 2027 12:56:52.927   02 Jun 2027 12:57:43.594            50.667                Novosib          1583.344
       125   02 Jun 2027 12:57:44.048   02 Jun 2027 12:57:53.160             9.112                Irkutsk           284.750
       126   02 Jun 2027 13:00:48.283   02 Jun 2027 13:02:16.725            88.442                Norilsk          2763.812
       127   02 Jun 2027 14:27:20.555   02 Jun 2027 14:30:07.332           166.777                  Delhi          5211.781
       128   02 Jun 2027 14:30:27.975   02 Jun 2027 14:32:23.489           115.514                  Delhi          3609.812
       129   02 Jun 2027 14:36:37.348   02 Jun 2027 14:37:47.176            69.828                Novosib          2182.125
       130   02 Jun 2027 14:39:20.923   02 Jun 2027 14:39:30.025             9.102                Norilsk           284.438
       131   02 Jun 2027 14:39:49.753   02 Jun 2027 14:43:39.180           229.427                Novosib          7169.594
       132   02 Jun 2027 16:10:31.090   02 Jun 2027 16:10:56.191            25.101                 Moscow           784.406
       133   02 Jun 2027 16:11:10.558   02 Jun 2027 16:11:43.149            32.591                 Moscow          1018.469
       134   02 Jun 2027 16:14:01.932   02 Jun 2027 16:14:40.246            38.314              Murmansk1          1197.312
       135   02 Jun 2027 16:15:01.871   02 Jun 2027 16:15:15.289            13.418              Murmansk1           419.313
       136   02 Jun 2027 16:16:44.426   02 Jun 2027 16:16:53.702             9.276              Murmansk1           289.875
       137   02 Jun 2027 16:20:29.750   02 Jun 2027 16:20:52.608            22.858              Murmansk1           714.313
       138   02 Jun 2027 16:21:06.007   02 Jun 2027 16:23:09.088           123.081                Norilsk          3846.281
       139   02 Jun 2027 16:30:25.565   02 Jun 2027 16:30:33.356             7.791                Anadyr2           243.469
       140   02 Jun 2027 16:32:20.640   02 Jun 2027 16:33:08.961            48.321                Anadyr2          1510.031
       141   02 Jun 2027 17:23:57.258   02 Jun 2027 17:25:46.026           108.768               CapeTown          3399.000
       142   02 Jun 2027 17:49:56.747   02 Jun 2027 17:50:14.814            18.067                 Moscow           564.594
       143   02 Jun 2027 17:50:57.965   02 Jun 2027 17:54:36.783           218.818                 Moscow          6838.063
       144   02 Jun 2027 18:00:49.963   02 Jun 2027 18:02:34.071           104.108              Murmansk1          3253.375
       145   02 Jun 2027 19:00:28.348   02 Jun 2027 19:01:36.397            68.049               CapeTown          2126.531
       146   02 Jun 2027 19:04:52.505   02 Jun 2027 19:05:15.891            23.386               CapeTown           730.812
       147   02 Jun 2027 19:32:56.889   02 Jun 2027 19:37:25.284           268.395              Murmansk1          8387.344
       148   02 Jun 2027 19:43:00.676   02 Jun 2027 19:45:08.224           127.548               Magadan1          3985.875
       149   02 Jun 2027 19:51:21.931   02 Jun 2027 19:51:48.619            26.688               Magadan2           834.000
       150   02 Jun 2027 21:16:16.368   02 Jun 2027 21:21:26.200           309.832                Anadyr1          9682.250
       151   02 Jun 2027 21:21:32.261   02 Jun 2027 21:22:48.077            75.816               Magadan1          2369.250
       152   02 Jun 2027 21:23:03.859   02 Jun 2027 21:23:14.852            10.993               Magadan2           343.531
       153   02 Jun 2027 21:23:27.779   02 Jun 2027 21:23:33.262             5.483               Magadan1           171.344
       154   02 Jun 2027 21:23:33.262   02 Jun 2027 21:24:33.109            59.847               Magadan2          1870.219
       155   02 Jun 2027 22:11:06.631   02 Jun 2027 22:13:00.332           113.701            RioGallegos          3553.156
       156   02 Jun 2027 22:13:35.806   02 Jun 2027 22:13:43.087             7.281            RioGallegos           227.531
       157   02 Jun 2027 22:16:10.710   02 Jun 2027 22:16:36.176            25.466            RioGallegos           795.812
       158   02 Jun 2027 22:51:58.951   02 Jun 2027 22:53:30.094            91.143                Anadyr1          2848.219
       159   02 Jun 2027 22:53:59.615   02 Jun 2027 22:54:10.623            11.008                Anadyr1           344.000
       160   02 Jun 2027 22:54:33.525   02 Jun 2027 22:55:49.556            76.031               Magadan1          2375.969
       161   02 Jun 2027 22:55:49.556   02 Jun 2027 22:57:33.932           104.376               Magadan2          3261.750
       162   02 Jun 2027 22:58:30.128   02 Jun 2027 22:59:32.888            62.760                Irkutsk          1961.250
       163   02 Jun 2027 23:01:25.585   02 Jun 2027 23:01:48.268            22.683                Irkutsk           708.844
       164   02 Jun 2027 23:12:31.231   02 Jun 2027 23:14:07.230            95.999                Sumatra          2999.969
       165   02 Jun 2027 23:19:07.796   02 Jun 2027 23:19:10.022             2.226                Sumatra            69.563
       166   02 Jun 2027 23:20:46.784   02 Jun 2027 23:21:49.812            63.028                Sumatra          1969.625
       167   03 Jun 2027 00:26:56.818   03 Jun 2027 00:27:40.628            43.810                Anadyr2          1369.062
       168   03 Jun 2027 00:28:17.193   03 Jun 2027 00:29:42.324            85.131                Anadyr2          2660.344
       169   03 Jun 2027 00:30:01.377   03 Jun 2027 00:30:35.797            34.420                Norilsk          1075.625
       170   03 Jun 2027 00:30:41.144   03 Jun 2027 00:32:30.397           109.253               Magadan1          3414.156
       171   03 Jun 2027 00:32:30.397   03 Jun 2027 00:32:57.471            27.074               Magadan2           846.063
       172   03 Jun 2027 00:33:53.518   03 Jun 2027 00:35:59.130           125.612                Irkutsk          3925.375
       173   03 Jun 2027 00:42:26.828   03 Jun 2027 00:43:14.388            47.560                  Delhi          1486.250
       174   03 Jun 2027 00:46:43.319   03 Jun 2027 00:47:32.698            49.379                  Delhi          1543.094
       175   03 Jun 2027 00:56:20.768   03 Jun 2027 00:58:32.702           131.934                Sumatra          4122.938
       176   03 Jun 2027 02:00:40.937   03 Jun 2027 02:01:19.821            38.884                Anadyr2          1215.125
       177   03 Jun 2027 02:03:01.320   03 Jun 2027 02:03:37.935            36.615                Anadyr2          1144.219
       178   03 Jun 2027 02:06:01.948   03 Jun 2027 02:07:34.083            92.135                Norilsk          2879.219
       179   03 Jun 2027 02:08:30.146   03 Jun 2027 02:09:53.745            83.599              Murmansk1          2612.469
       180   03 Jun 2027 02:10:02.680   03 Jun 2027 02:10:26.208            23.528                Novosib           735.250
       181   03 Jun 2027 02:10:32.647   03 Jun 2027 02:11:40.738            68.091                Novosib          2127.844
       182   03 Jun 2027 02:17:33.575   03 Jun 2027 02:18:24.910            51.335                  Delhi          1604.219
       183   03 Jun 2027 03:00:22.915   03 Jun 2027 03:01:58.146            95.231            RioGallegos          2975.969
       184   03 Jun 2027 03:02:49.482   03 Jun 2027 03:03:21.472            31.990            RioGallegos           999.688
       185   03 Jun 2027 03:50:48.585   03 Jun 2027 03:54:15.372           206.787                Norilsk          6462.094
       186   03 Jun 2027 03:54:19.396   03 Jun 2027 03:55:05.471            46.075                Novosib          1439.844
       187   03 Jun 2027 05:29:25.421   03 Jun 2027 05:31:00.183            94.762                 Moscow          2961.312
       188   03 Jun 2027 05:47:32.328   03 Jun 2027 05:48:50.759            78.431               CapeTown          2450.969
       189   03 Jun 2027 06:50:31.740   03 Jun 2027 06:50:33.032             1.292               Magadan1            40.375
       190   03 Jun 2027 06:50:42.047   03 Jun 2027 06:51:07.370            25.323               Magadan1           791.344
       191   03 Jun 2027 06:51:07.370   03 Jun 2027 06:51:10.404             3.034               Magadan2            94.813
       192   03 Jun 2027 06:51:22.109   03 Jun 2027 06:52:24.360            62.251               Magadan1          1945.344
       193   03 Jun 2027 06:52:24.360   03 Jun 2027 06:52:42.031            17.671               Magadan2           552.219
       194   03 Jun 2027 06:52:49.765   03 Jun 2027 06:53:07.461            17.696                Anadyr1           553.000
       195   03 Jun 2027 06:53:07.461   03 Jun 2027 06:53:57.260            49.799                Anadyr2          1556.219
       196   03 Jun 2027 06:55:53.189   03 Jun 2027 06:56:52.614            59.425                Anadyr1          1857.031
       197   03 Jun 2027 08:26:26.296   03 Jun 2027 08:27:04.009            37.713                Anadyr2          1178.531
       198   03 Jun 2027 08:27:36.434   03 Jun 2027 08:27:45.307             8.873               Magadan2           277.281
       199   03 Jun 2027 08:27:45.752   03 Jun 2027 08:28:21.674            35.922                Anadyr1          1122.563
       200   03 Jun 2027 08:28:44.850   03 Jun 2027 08:29:21.439            36.589               Magadan1          1143.406
       201   03 Jun 2027 08:29:40.340   03 Jun 2027 08:30:57.915            77.575                Anadyr2          2424.219
       202   03 Jun 2027 09:11:52.212   03 Jun 2027 09:11:55.171             2.959            RioGallegos            92.469
       203   03 Jun 2027 10:01:39.335   03 Jun 2027 10:02:41.124            61.789               Magadan2          1930.906
       204   03 Jun 2027 10:03:01.643   03 Jun 2027 10:03:16.857            15.214               Magadan2           475.437
       205   03 Jun 2027 10:03:41.989   03 Jun 2027 10:04:22.546            40.557               Magadan2          1267.406
       206   03 Jun 2027 10:04:28.306   03 Jun 2027 10:06:33.507           125.201               Magadan1          3912.531
       207   03 Jun 2027 10:06:55.428   03 Jun 2027 10:07:46.138            50.710                Irkutsk          1584.688
       208   03 Jun 2027 10:07:51.745   03 Jun 2027 10:08:04.841            13.096                Norilsk           409.250
       209   03 Jun 2027 10:42:53.155   03 Jun 2027 10:43:57.972            64.817            RioGallegos          2025.531
       210   03 Jun 2027 10:50:51.262   03 Jun 2027 10:50:53.644             2.382            RioGallegos            74.437
       211   03 Jun 2027 10:51:38.992   03 Jun 2027 10:51:58.902            19.910            RioGallegos           622.188
       212   03 Jun 2027 11:18:20.771   03 Jun 2027 11:18:49.460            28.689                Sumatra           896.531
       213   03 Jun 2027 11:20:26.985   03 Jun 2027 11:20:52.692            25.707                Sumatra           803.344
       214   03 Jun 2027 11:39:29.755   03 Jun 2027 11:40:01.429            31.674                Irkutsk           989.812
       215   03 Jun 2027 11:40:29.908   03 Jun 2027 11:40:49.778            19.870                Irkutsk           620.938
       216   03 Jun 2027 11:41:05.346   03 Jun 2027 11:41:44.138            38.792                Irkutsk          1212.250
       217   03 Jun 2027 11:42:03.402   03 Jun 2027 11:42:13.839            10.437                Norilsk           326.156
       218   03 Jun 2027 11:42:17.231   03 Jun 2027 11:42:59.937            42.706                Irkutsk          1334.562
       219   03 Jun 2027 11:43:06.085   03 Jun 2027 11:43:12.985             6.900                Novosib           215.625
       220   03 Jun 2027 11:43:15.404   03 Jun 2027 11:43:20.037             4.633                Norilsk           144.781
       221   03 Jun 2027 11:43:26.867   03 Jun 2027 11:43:39.518            12.651                Novosib           395.344
       222   03 Jun 2027 11:44:00.903   03 Jun 2027 11:44:16.771            15.868                Norilsk           495.875
       223   03 Jun 2027 12:20:37.883   03 Jun 2027 12:21:12.375            34.492            RioGallegos          1077.875
       224   03 Jun 2027 12:24:01.663   03 Jun 2027 12:24:35.586            33.923            RioGallegos          1060.094
       225   03 Jun 2027 12:54:50.966   03 Jun 2027 12:55:46.002            55.036                Sumatra          1719.875
       226   03 Jun 2027 12:57:34.383   03 Jun 2027 12:58:12.681            38.298                Sumatra          1196.812
       227   03 Jun 2027 13:00:00.212   03 Jun 2027 13:00:07.375             7.163                Sumatra           223.844
       228   03 Jun 2027 13:08:47.093   03 Jun 2027 13:09:53.710            66.617                  Delhi          2081.781
       229   03 Jun 2027 13:10:13.384   03 Jun 2027 13:12:02.697           109.313                Novosib          3416.031
       230   03 Jun 2027 13:20:58.672   03 Jun 2027 13:21:23.707            25.035                Norilsk           782.344
       231   03 Jun 2027 13:24:40.823   03 Jun 2027 13:25:11.038            30.215                Norilsk           944.219
       232   03 Jun 2027 14:40:07.042   03 Jun 2027 14:41:55.803           108.761                  Delhi          3398.781
       233   03 Jun 2027 14:42:58.951   03 Jun 2027 14:44:52.529           113.578                  Delhi          3549.312
       234   03 Jun 2027 14:49:42.382   03 Jun 2027 14:51:49.870           127.488                Novosib          3984.000
       235   03 Jun 2027 14:51:52.477   03 Jun 2027 14:52:10.582            18.105                Norilsk           565.781
       236   03 Jun 2027 14:55:36.763   03 Jun 2027 14:56:07.165            30.402                Novosib           950.063
       237   03 Jun 2027 14:56:56.576   03 Jun 2027 14:56:57.981             1.405                Norilsk            43.906
       238   03 Jun 2027 16:03:45.109   03 Jun 2027 16:05:11.522            86.413               CapeTown          2700.406
       239   03 Jun 2027 16:05:21.434   03 Jun 2027 16:06:11.961            50.527               CapeTown          1578.969
       240   03 Jun 2027 16:22:43.684   03 Jun 2027 16:24:20.709            97.025                 Moscow          3032.031
       241   03 Jun 2027 16:26:12.347   03 Jun 2027 16:27:03.493            51.146              Murmansk1          1598.312
       242   03 Jun 2027 16:28:43.198   03 Jun 2027 16:29:09.077            25.879              Murmansk2           808.719
       243   03 Jun 2027 16:33:31.157   03 Jun 2027 16:34:32.566            61.409              Murmansk1          1919.031
       244   03 Jun 2027 16:41:28.455   03 Jun 2027 16:42:34.729            66.274                Anadyr1          2071.062
       245   03 Jun 2027 16:43:24.816   03 Jun 2027 16:44:06.558            41.742                Anadyr2          1304.437
       246   03 Jun 2027 16:47:57.033   03 Jun 2027 16:48:09.295            12.262                Anadyr2           383.187
       247   03 Jun 2027 17:35:52.951   03 Jun 2027 17:38:00.231           127.280               CapeTown          3977.500
       248   03 Jun 2027 18:02:57.599   03 Jun 2027 18:06:26.447           208.848                 Moscow          6526.500
       249   03 Jun 2027 18:09:16.540   03 Jun 2027 18:09:40.853            24.313              Murmansk1           759.781
       250   03 Jun 2027 18:17:34.630   03 Jun 2027 18:17:51.954            17.324                Anadyr2           541.375
       251   03 Jun 2027 18:18:06.553   03 Jun 2027 18:18:26.842            20.289                Anadyr2           634.031
       252   03 Jun 2027 18:27:11.453   03 Jun 2027 18:27:26.569            15.116                Anadyr1           472.375
       253   03 Jun 2027 19:12:51.543   03 Jun 2027 19:13:55.676            64.133               CapeTown          2004.156
       254   03 Jun 2027 19:15:40.399   03 Jun 2027 19:16:43.374            62.975               CapeTown          1967.969
       255   03 Jun 2027 19:46:05.584   03 Jun 2027 19:49:21.123           195.539              Murmansk1          6110.594
       256   03 Jun 2027 19:54:55.850   03 Jun 2027 19:56:18.810            82.960               Magadan1          2592.500
       257   03 Jun 2027 19:56:37.133   03 Jun 2027 19:57:30.837            53.704               Magadan1          1678.250
       258   03 Jun 2027 19:57:34.795   03 Jun 2027 19:57:56.099            21.304               Magadan1           665.750
       259   03 Jun 2027 19:59:23.221   03 Jun 2027 19:59:30.581             7.360               Magadan1           230.000
       260   03 Jun 2027 20:00:33.845   03 Jun 2027 20:00:52.859            19.014               Magadan2           594.187
       261   03 Jun 2027 20:03:22.059   03 Jun 2027 20:03:52.678            30.619               Magadan1           956.844
       262   03 Jun 2027 21:28:17.506   03 Jun 2027 21:30:20.050           122.544                Anadyr2          3829.500
       263   03 Jun 2027 21:30:33.790   03 Jun 2027 21:35:17.901           284.111               Magadan1          8878.469
       264   03 Jun 2027 21:35:58.654   03 Jun 2027 21:36:07.451             8.797               Magadan1           274.906
       265   03 Jun 2027 21:38:04.134   03 Jun 2027 21:38:05.399             1.265               Magadan2            39.531
       266   03 Jun 2027 21:38:22.058   03 Jun 2027 21:38:24.412             2.354               Magadan1            73.562
       267   03 Jun 2027 21:39:03.728   03 Jun 2027 21:39:38.313            34.585               Magadan1          1080.781
       268   03 Jun 2027 22:22:51.175   03 Jun 2027 22:25:22.329           151.154            RioGallegos          4723.562
       269   03 Jun 2027 22:31:23.695   03 Jun 2027 22:31:33.334             9.639            RioGallegos           301.219
       270   03 Jun 2027 23:03:56.560   03 Jun 2027 23:06:02.786           126.226                Anadyr1          3944.563
       271   03 Jun 2027 23:06:06.883   03 Jun 2027 23:07:46.095            99.212                Norilsk          3100.375
       272   03 Jun 2027 23:07:58.402   03 Jun 2027 23:08:06.787             8.385               Magadan2           262.031
       273   03 Jun 2027 23:09:45.166   03 Jun 2027 23:10:00.835            15.669               Magadan1           489.656
       274   03 Jun 2027 23:10:22.193   03 Jun 2027 23:11:16.271            54.078                Irkutsk          1689.938
       275   03 Jun 2027 23:12:35.855   03 Jun 2027 23:13:20.985            45.130                Irkutsk          1410.313
       276   03 Jun 2027 23:15:01.779   03 Jun 2027 23:15:14.292            12.513                Novosib           391.031
       277   03 Jun 2027 23:17:06.276   03 Jun 2027 23:17:29.956            23.680                Irkutsk           740.000
       278   03 Jun 2027 23:24:12.146   03 Jun 2027 23:26:00.307           108.161                Sumatra          3380.031
       279   03 Jun 2027 23:28:10.614   03 Jun 2027 23:28:34.733            24.119                Sumatra           753.719
       280   03 Jun 2027 23:34:15.987   03 Jun 2027 23:35:55.951            99.964                Sumatra          3123.875
       281   04 Jun 2027 00:39:04.070   04 Jun 2027 00:39:24.512            20.442                Anadyr1           638.813
       282   04 Jun 2027 00:40:12.722   04 Jun 2027 00:41:00.582            47.860                Anadyr2          1495.625
       283   04 Jun 2027 00:41:09.701   04 Jun 2027 00:41:33.035            23.334                Anadyr2           729.187
       284   04 Jun 2027 00:42:03.644   04 Jun 2027 00:43:46.484           102.840                Norilsk          3213.750
       285   04 Jun 2027 00:43:59.448   04 Jun 2027 00:44:14.413            14.965               Magadan2           467.656
       286   04 Jun 2027 00:45:55.905   04 Jun 2027 00:47:10.836            74.931                Irkutsk          2341.594
       287   04 Jun 2027 00:48:26.661   04 Jun 2027 00:48:32.572             5.911                Novosib           184.719
       288   04 Jun 2027 00:49:19.651   04 Jun 2027 00:50:56.003            96.352                Irkutsk          3011.000
       289   04 Jun 2027 00:54:47.644   04 Jun 2027 00:55:13.157            25.513                  Delhi           797.281
       290   04 Jun 2027 00:59:06.357   04 Jun 2027 00:59:19.113            12.756                  Delhi           398.625
       291   04 Jun 2027 01:01:10.609   04 Jun 2027 01:01:26.323            15.714                Sumatra           491.063
       292   04 Jun 2027 01:02:53.509   04 Jun 2027 01:04:03.157            69.648                Sumatra          2176.500
       293   04 Jun 2027 01:36:48.561   04 Jun 2027 01:37:31.315            42.754            RioGallegos          1336.063
       294   04 Jun 2027 01:41:31.011   04 Jun 2027 01:41:43.245            12.234            RioGallegos           382.312
       295   04 Jun 2027 01:42:09.117   04 Jun 2027 01:42:43.434            34.317            RioGallegos          1072.406
       296   04 Jun 2027 02:12:31.569   04 Jun 2027 02:13:19.114            47.545                Anadyr2          1485.781
       297   04 Jun 2027 02:18:03.762   04 Jun 2027 02:19:16.809            73.047                Norilsk          2282.719
       298   04 Jun 2027 02:19:22.694   04 Jun 2027 02:19:38.953            16.259                Norilsk           508.094
       299   04 Jun 2027 02:20:26.577   04 Jun 2027 02:22:38.730           132.153              Murmansk2          4129.781
       300   04 Jun 2027 02:22:48.680   04 Jun 2027 02:22:59.211            10.531                Irkutsk           329.094
       301   04 Jun 2027 02:23:04.979   04 Jun 2027 02:24:04.505            59.526                Irkutsk          1860.188
       302   04 Jun 2027 02:33:54.730   04 Jun 2027 02:34:21.933            27.203                  Delhi           850.094
       303   04 Jun 2027 02:38:06.306   04 Jun 2027 02:38:44.443            38.137                  Delhi          1191.781
       304   04 Jun 2027 03:52:54.731   04 Jun 2027 03:53:24.404            29.673               Magadan1           927.281
       305   04 Jun 2027 03:55:01.401   04 Jun 2027 03:55:06.799             5.398                Anadyr2           168.687
       306   04 Jun 2027 03:55:39.285   04 Jun 2027 03:55:55.361            16.076               Magadan1           502.375
       307   04 Jun 2027 04:04:50.037   04 Jun 2027 04:06:36.164           106.127                Novosib          3316.469
       308   04 Jun 2027 04:06:45.779   04 Jun 2027 04:07:28.159            42.380              Murmansk2          1324.375
       309   04 Jun 2027 04:07:28.159   04 Jun 2027 04:08:08.354            40.195              Murmansk1          1256.094
       310   04 Jun 2027 04:08:13.266   04 Jun 2027 04:11:52.198           218.932                 Moscow          6841.625
       311   04 Jun 2027 04:33:24.194   04 Jun 2027 04:35:53.216           149.022               CapeTown          4656.938
       312   04 Jun 2027 05:27:07.910   04 Jun 2027 05:27:17.965            10.055                Anadyr2           314.219
       313   04 Jun 2027 05:27:34.963   04 Jun 2027 05:28:11.429            36.466                Anadyr2          1139.562
       314   04 Jun 2027 05:28:50.872   04 Jun 2027 05:29:12.595            21.723                Anadyr1           678.844
       315   04 Jun 2027 05:40:12.624   04 Jun 2027 05:40:40.436            27.812                 Moscow           869.125
       316   04 Jun 2027 05:41:06.049   04 Jun 2027 05:41:46.785            40.736                 Moscow          1273.000
       317   04 Jun 2027 05:43:30.151   04 Jun 2027 05:44:27.558            57.407                 Moscow          1793.969
       318   04 Jun 2027 05:46:15.109   04 Jun 2027 05:46:58.681            43.572                 Moscow          1361.625
       319   04 Jun 2027 05:59:51.916   04 Jun 2027 06:00:23.279            31.363               CapeTown           980.094
       320   04 Jun 2027 06:02:05.697   04 Jun 2027 06:03:56.911           111.214               CapeTown          3475.438
       321   04 Jun 2027 07:02:40.986   04 Jun 2027 07:02:44.455             3.469               Magadan1           108.406
       322   04 Jun 2027 07:03:00.755   04 Jun 2027 07:03:09.206             8.451                Anadyr1           264.094
       323   04 Jun 2027 07:03:10.185   04 Jun 2027 07:04:24.456            74.271               Magadan2          2320.969
       324   04 Jun 2027 07:04:45.124   04 Jun 2027 07:05:31.914            46.790               Magadan2          1462.187
       325   04 Jun 2027 07:06:10.522   04 Jun 2027 07:06:40.333            29.811                Anadyr2           931.594
       326   04 Jun 2027 08:38:17.545   04 Jun 2027 08:40:09.767           112.222                Anadyr2          3506.937
       327   04 Jun 2027 08:40:28.904   04 Jun 2027 08:40:33.772             4.868               Magadan2           152.125
       328   04 Jun 2027 08:40:38.787   04 Jun 2027 08:40:51.516            12.729                Anadyr1           397.781
       329   04 Jun 2027 08:41:18.740   04 Jun 2027 08:42:58.491            99.751                Anadyr1          3117.219
       330   04 Jun 2027 10:13:10.578   04 Jun 2027 10:13:43.605            33.027                Irkutsk          1032.094
       331   04 Jun 2027 10:14:27.245   04 Jun 2027 10:14:54.713            27.468                Irkutsk           858.375
       332   04 Jun 2027 10:15:31.568   04 Jun 2027 10:15:36.685             5.117               Magadan1           159.906
       333   04 Jun 2027 10:15:57.097   04 Jun 2027 10:16:12.994            15.897               Magadan1           496.781
       334   04 Jun 2027 10:16:12.994   04 Jun 2027 10:16:17.660             4.666               Magadan2           145.813
       335   04 Jun 2027 10:17:31.759   04 Jun 2027 10:17:37.793             6.034                Irkutsk           188.562
       336   04 Jun 2027 10:17:42.460   04 Jun 2027 10:18:12.340            29.880                Irkutsk           933.750
       337   04 Jun 2027 10:18:18.995   04 Jun 2027 10:18:42.442            23.447                Irkutsk           732.719
       338   04 Jun 2027 10:18:44.640   04 Jun 2027 10:18:44.697             0.057                Irkutsk             1.781
       339   04 Jun 2027 10:19:41.163   04 Jun 2027 10:20:11.288            30.125                Irkutsk           941.406
       340   04 Jun 2027 10:20:56.629   04 Jun 2027 10:21:07.048            10.419                Norilsk           325.594
       341   04 Jun 2027 10:54:54.973   04 Jun 2027 10:55:54.881            59.908            RioGallegos          1872.125
       342   04 Jun 2027 11:30:05.213   04 Jun 2027 11:30:44.261            39.048                Sumatra          1220.250
       343   04 Jun 2027 11:32:45.152   04 Jun 2027 11:33:33.712            48.560                Sumatra          1517.500
       344   04 Jun 2027 11:47:02.328   04 Jun 2027 11:47:38.602            36.274                  Delhi          1133.563
       345   04 Jun 2027 11:50:17.604   04 Jun 2027 11:51:20.611            63.007                Irkutsk          1968.969
       346   04 Jun 2027 11:51:53.199   04 Jun 2027 11:52:09.075            15.876                Norilsk           496.125
       347   04 Jun 2027 11:52:23.312   04 Jun 2027 11:53:29.153            65.841                Novosib          2057.531
       348   04 Jun 2027 11:53:36.278   04 Jun 2027 11:53:37.963             1.685                Irkutsk            52.656
       349   04 Jun 2027 11:53:53.999   04 Jun 2027 11:54:18.444            24.445                Novosib           763.906
       350   04 Jun 2027 11:54:21.686   04 Jun 2027 11:54:58.520            36.834                Irkutsk          1151.062
       351   04 Jun 2027 11:55:16.371   04 Jun 2027 11:55:22.146             5.775                Norilsk           180.469
       352   04 Jun 2027 11:55:30.407   04 Jun 2027 11:55:41.152            10.745                Norilsk           335.781
       353   04 Jun 2027 11:56:11.064   04 Jun 2027 11:57:07.378            56.314                Norilsk          1759.813
       354   04 Jun 2027 12:33:15.917   04 Jun 2027 12:33:29.025            13.108            RioGallegos           409.625
       355   04 Jun 2027 12:34:41.036   04 Jun 2027 12:35:58.607            77.571            RioGallegos          2424.094
       356   04 Jun 2027 13:07:34.271   04 Jun 2027 13:09:55.408           141.137                Sumatra          4410.531
       357   04 Jun 2027 13:23:20.885   04 Jun 2027 13:26:23.010           182.125                Irkutsk          5691.406
       358   04 Jun 2027 13:36:36.539   04 Jun 2027 13:37:13.191            36.652                Norilsk          1145.375
       359   04 Jun 2027 14:53:13.282   04 Jun 2027 14:54:49.706            96.424                  Delhi          3013.250
       360   04 Jun 2027 14:56:59.273   04 Jun 2027 14:57:31.769            32.496                  Delhi          1015.500
       361   04 Jun 2027 14:59:30.339   04 Jun 2027 15:00:19.910            49.571                 Moscow          1549.094
       362   04 Jun 2027 15:01:42.146   04 Jun 2027 15:03:49.123           126.977                Novosib          3968.031
       363   04 Jun 2027 15:04:26.765   04 Jun 2027 15:04:59.516            32.751                Norilsk          1023.469
       364   04 Jun 2027 15:05:36.286   04 Jun 2027 15:06:19.155            42.869                Norilsk          1339.656
       365   04 Jun 2027 15:07:06.769   04 Jun 2027 15:07:23.971            17.202                Norilsk           537.563
       366   04 Jun 2027 15:09:15.052   04 Jun 2027 15:09:26.734            11.682                Norilsk           365.062
       367   04 Jun 2027 16:14:26.577   04 Jun 2027 16:16:36.716           130.139               CapeTown          4066.844
       368   04 Jun 2027 16:20:35.298   04 Jun 2027 16:20:51.254            15.956               CapeTown           498.625
       369   04 Jun 2027 16:34:59.814   04 Jun 2027 16:35:49.407            49.593                 Moscow          1549.781
       370   04 Jun 2027 16:38:24.618   04 Jun 2027 16:39:04.922            40.304              Murmansk1          1259.500
       371   04 Jun 2027 16:40:41.008   04 Jun 2027 16:41:11.115            30.107              Murmansk1           940.844
       372   04 Jun 2027 16:44:56.256   04 Jun 2027 16:44:58.913             2.657              Murmansk2            83.031
       373   04 Jun 2027 16:45:33.830   04 Jun 2027 16:46:31.915            58.085              Murmansk2          1815.156
       374   04 Jun 2027 16:53:15.459   04 Jun 2027 16:54:17.895            62.436                Anadyr1          1951.125
       375   04 Jun 2027 16:54:36.101   04 Jun 2027 16:55:04.711            28.610                Anadyr2           894.062
       376   04 Jun 2027 16:57:01.942   04 Jun 2027 16:57:20.635            18.693                Anadyr1           584.156
       377   04 Jun 2027 16:57:48.796   04 Jun 2027 16:57:53.413             4.617                Anadyr1           144.281
       378   04 Jun 2027 16:58:46.900   04 Jun 2027 16:59:20.706            33.806                Anadyr2          1056.437
       379   04 Jun 2027 17:48:27.607   04 Jun 2027 17:50:04.147            96.540               CapeTown          3016.875
       380   04 Jun 2027 18:16:21.920   04 Jun 2027 18:19:30.044           188.124                 Moscow          5878.875
       381   04 Jun 2027 18:20:41.786   04 Jun 2027 18:22:02.792            81.006              Murmansk1          2531.437
       382   04 Jun 2027 18:31:37.313   04 Jun 2027 18:32:13.290            35.977                Anadyr1          1124.281
       383   04 Jun 2027 18:33:42.497   04 Jun 2027 18:33:57.571            15.074               Magadan1           471.063
       384   04 Jun 2027 18:35:31.869   04 Jun 2027 18:35:36.044             4.175               Magadan1           130.469
       385   04 Jun 2027 18:36:15.664   04 Jun 2027 18:36:41.016            25.352               Magadan1           792.250
       386   04 Jun 2027 19:25:22.768   04 Jun 2027 19:26:05.997            43.229               CapeTown          1350.906
       387   04 Jun 2027 19:28:28.995   04 Jun 2027 19:29:48.586            79.591               CapeTown          2487.219
       388   04 Jun 2027 20:04:23.702   04 Jun 2027 20:07:48.266           204.564                Anadyr2          6392.625
       389   04 Jun 2027 20:07:52.155   04 Jun 2027 20:09:19.986            87.831               Magadan1          2744.719
       390   04 Jun 2027 20:10:08.585   04 Jun 2027 20:11:10.954            62.369               Magadan2          1949.031
       391   04 Jun 2027 20:18:33.869   04 Jun 2027 20:18:35.964             2.095               Magadan1            65.469
       392   04 Jun 2027 21:40:18.408   04 Jun 2027 21:42:21.767           123.359                Anadyr1          3854.969
       393   04 Jun 2027 21:42:33.764   04 Jun 2027 21:43:59.998            86.234                Anadyr2          2694.813
       394   04 Jun 2027 21:44:15.971   04 Jun 2027 21:46:11.491           115.520                Norilsk          3610.000
       395   04 Jun 2027 21:46:15.272   04 Jun 2027 21:46:58.236            42.964               Magadan1          1342.625
       396   04 Jun 2027 21:47:35.057   04 Jun 2027 21:48:25.229            50.172               Magadan2          1567.875
       397   04 Jun 2027 21:48:56.392   04 Jun 2027 21:49:11.325            14.933               Magadan1           466.656
       398   04 Jun 2027 21:49:29.914   04 Jun 2027 21:49:46.593            16.679               Magadan1           521.219
       399   04 Jun 2027 21:49:51.953   04 Jun 2027 21:50:26.409            34.456               Magadan2          1076.750
       400   04 Jun 2027 22:34:39.700   04 Jun 2027 22:36:37.433           117.733            RioGallegos          3679.156
       401   04 Jun 2027 22:40:33.443   04 Jun 2027 22:40:51.124            17.681            RioGallegos           552.531
       402   04 Jun 2027 22:43:09.685   04 Jun 2027 22:44:07.043            57.358            RioGallegos          1792.437
       403   04 Jun 2027 23:15:53.400   04 Jun 2027 23:16:38.974            45.574                Anadyr2          1424.187
       404   04 Jun 2027 23:18:07.674   04 Jun 2027 23:19:48.136           100.462                Norilsk          3139.437
       405   04 Jun 2027 23:20:28.191   04 Jun 2027 23:20:58.557            30.366               Magadan2           948.938
       406   04 Jun 2027 23:22:10.112   04 Jun 2027 23:22:21.952            11.840               Magadan2           370.000
       407   04 Jun 2027 23:22:42.793   04 Jun 2027 23:22:52.491             9.698               Magadan2           303.062
       408   04 Jun 2027 23:23:05.355   04 Jun 2027 23:23:16.131            10.776                Norilsk           336.750
       409   04 Jun 2027 23:23:24.052   04 Jun 2027 23:24:39.373            75.321               Magadan2          2353.781
       410   04 Jun 2027 23:24:49.807   04 Jun 2027 23:25:43.269            53.462                Novosib          1670.688
       411   04 Jun 2027 23:26:40.817   04 Jun 2027 23:26:43.150             2.333                Novosib            72.906
       412   04 Jun 2027 23:35:59.867   04 Jun 2027 23:38:27.986           148.119                Sumatra          4628.719
       413   05 Jun 2027 00:16:49.626   05 Jun 2027 00:17:42.184            52.558            RioGallegos          1642.437
       414   05 Jun 2027 00:50:33.607   05 Jun 2027 00:50:55.619            22.012                Anadyr2           687.875
       415   05 Jun 2027 00:50:55.619   05 Jun 2027 00:51:22.764            27.145                Anadyr1           848.281
       416   05 Jun 2027 00:52:08.745   05 Jun 2027 00:52:48.099            39.354                Anadyr1          1229.812
       417   05 Jun 2027 00:52:51.219   05 Jun 2027 00:52:59.056             7.837                Anadyr2           244.906
       418   05 Jun 2027 00:53:18.058   05 Jun 2027 00:53:19.544             1.486                Anadyr1            46.438
       419   05 Jun 2027 00:54:05.947   05 Jun 2027 00:55:59.072           113.125                Norilsk          3535.156
       420   05 Jun 2027 00:57:08.152   05 Jun 2027 00:57:13.137             4.985               Magadan1           155.781
       421   05 Jun 2027 00:57:39.678   05 Jun 2027 00:58:39.060            59.382               Magadan2          1855.687
       422   05 Jun 2027 00:58:51.624   05 Jun 2027 01:00:14.549            82.925                Novosib          2591.406
       423   05 Jun 2027 01:01:03.871   05 Jun 2027 01:01:53.321            49.450                Novosib          1545.312
       424   05 Jun 2027 01:06:10.161   05 Jun 2027 01:06:13.064             2.903                  Delhi            90.719
       425   05 Jun 2027 01:06:21.743   05 Jun 2027 01:07:01.551            39.808                  Delhi          1244.000
       426   05 Jun 2027 01:14:03.391   05 Jun 2027 01:15:49.310           105.919                Sumatra          3309.969
       427   05 Jun 2027 01:49:47.963   05 Jun 2027 01:50:22.728            34.765            RioGallegos          1086.406
       428   05 Jun 2027 01:53:44.452   05 Jun 2027 01:53:47.139             2.687            RioGallegos            83.969
       429   05 Jun 2027 02:24:03.306   05 Jun 2027 02:24:09.248             5.942                Anadyr1           185.688
       430   05 Jun 2027 02:24:29.005   05 Jun 2027 02:25:18.247            49.242                Anadyr2          1538.812
       431   05 Jun 2027 02:26:39.602   05 Jun 2027 02:26:49.493             9.891                Anadyr1           309.094
       432   05 Jun 2027 02:28:49.404   05 Jun 2027 02:29:01.935            12.531                Anadyr2           391.594
       433   05 Jun 2027 02:29:27.408   05 Jun 2027 02:29:47.969            20.561                Anadyr2           642.531
       434   05 Jun 2027 02:30:04.755   05 Jun 2027 02:30:08.057             3.302                Anadyr2           103.188
       435   05 Jun 2027 02:30:11.939   05 Jun 2027 02:30:14.174             2.235               Magadan2            69.844
       436   05 Jun 2027 02:30:33.767   05 Jun 2027 02:31:38.785            65.018                Norilsk          2031.813
       437   05 Jun 2027 02:32:24.398   05 Jun 2027 02:33:13.677            49.279              Murmansk1          1539.969
       438   05 Jun 2027 02:33:38.349   05 Jun 2027 02:33:55.939            17.590              Murmansk2           549.687
       439   05 Jun 2027 02:33:56.523   05 Jun 2027 02:34:54.450            57.927                Novosib          1810.219
       440   05 Jun 2027 02:34:55.567   05 Jun 2027 02:35:28.297            32.730                Irkutsk          1022.813
       441   05 Jun 2027 02:37:19.259   05 Jun 2027 02:37:23.583             4.324                 Moscow           135.125
       442   05 Jun 2027 02:37:26.880   05 Jun 2027 02:37:45.289            18.409                Irkutsk           575.281
       443   05 Jun 2027 02:41:37.206   05 Jun 2027 02:42:18.746            41.540                  Delhi          1298.125
       444   05 Jun 2027 02:46:25.833   05 Jun 2027 02:47:10.048            44.215                  Delhi          1381.719
       445   05 Jun 2027 04:16:00.337   05 Jun 2027 04:18:54.887           174.550              Murmansk2          5454.687
       446   05 Jun 2027 04:18:54.887   05 Jun 2027 04:20:24.308            89.421              Murmansk1          2794.406
       447   05 Jun 2027 04:20:52.837   05 Jun 2027 04:24:05.669           192.832                 Moscow          6026.000
       448   05 Jun 2027 04:38:21.138   05 Jun 2027 04:42:08.828           227.690               CapeTown          7115.313
       449   05 Jun 2027 04:42:18.078   05 Jun 2027 04:43:43.647            85.569               CapeTown          2674.031
       450   05 Jun 2027 04:43:52.780   05 Jun 2027 04:45:10.885            78.105               CapeTown          2440.781
       451   05 Jun 2027 05:39:09.590   05 Jun 2027 05:40:39.303            89.713                Anadyr1          2803.531
       452   05 Jun 2027 07:14:07.051   05 Jun 2027 07:14:15.325             8.274               Magadan2           258.562
       453   05 Jun 2027 07:14:15.325   05 Jun 2027 07:14:16.225             0.900               Magadan1            28.125
       454   05 Jun 2027 07:14:38.287   05 Jun 2027 07:14:46.640             8.353               Magadan2           261.031
       455   05 Jun 2027 07:15:00.655   05 Jun 2027 07:15:46.233            45.578                Anadyr2          1424.312
       456   05 Jun 2027 07:15:46.233   05 Jun 2027 07:16:10.999            24.766                Anadyr1           773.938
       457   05 Jun 2027 07:16:23.979   05 Jun 2027 07:16:48.117            24.138               Magadan2           754.313
       458   05 Jun 2027 07:17:10.271   05 Jun 2027 07:18:38.709            88.438                Anadyr2          2763.687
       459   05 Jun 2027 08:48:18.596   05 Jun 2027 08:49:00.099            41.503               Magadan1          1296.969
       460   05 Jun 2027 08:49:10.232   05 Jun 2027 08:49:32.305            22.073                Anadyr2           689.781
       461   05 Jun 2027 08:50:05.127   05 Jun 2027 08:52:39.298           154.171                Anadyr1          4817.844
       462   05 Jun 2027 08:52:48.379   05 Jun 2027 08:52:58.552            10.173                Anadyr1           317.906
       463   05 Jun 2027 08:53:23.015   05 Jun 2027 08:53:45.416            22.401               Magadan2           700.031
       464   05 Jun 2027 08:54:00.945   05 Jun 2027 08:54:07.050             6.105               Magadan2           190.781
       465   05 Jun 2027 08:54:43.868   05 Jun 2027 08:55:16.856            32.988               Magadan2          1030.875
       466   05 Jun 2027 09:32:09.093   05 Jun 2027 09:32:39.046            29.953            RioGallegos           936.031
       467   05 Jun 2027 09:38:32.640   05 Jun 2027 09:38:34.152             1.512            RioGallegos            47.250
       468   05 Jun 2027 09:39:39.838   05 Jun 2027 09:40:47.478            67.640            RioGallegos          2113.750
       469   05 Jun 2027 10:24:58.517   05 Jun 2027 10:26:42.597           104.080               Magadan1          3252.500
       470   05 Jun 2027 10:28:06.296   05 Jun 2027 10:28:15.407             9.111               Magadan1           284.719
       471   05 Jun 2027 10:28:31.503   05 Jun 2027 10:29:21.000            49.497                Irkutsk          1546.781
       472   05 Jun 2027 10:29:25.382   05 Jun 2027 10:30:31.732            66.350               Magadan1          2073.438
       473   05 Jun 2027 10:30:53.842   05 Jun 2027 10:31:34.309            40.467                Irkutsk          1264.594
       474   05 Jun 2027 10:31:49.759   05 Jun 2027 10:32:15.953            26.194                Irkutsk           818.563
       475   05 Jun 2027 11:07:00.226   05 Jun 2027 11:07:29.802            29.576            RioGallegos           924.250
       476   05 Jun 2027 11:08:14.149   05 Jun 2027 11:09:07.235            53.086            RioGallegos          1658.937
       477   05 Jun 2027 11:41:56.029   05 Jun 2027 11:42:33.120            37.091                Sumatra          1159.094
       478   05 Jun 2027 11:49:30.484   05 Jun 2027 11:49:51.846            21.362                Sumatra           667.563
       479   05 Jun 2027 11:54:55.922   05 Jun 2027 11:55:06.623            10.701                  Delhi           334.406
       480   05 Jun 2027 12:05:05.650   05 Jun 2027 12:05:25.717            20.067                Irkutsk           627.094
       481   05 Jun 2027 12:08:37.065   05 Jun 2027 12:08:57.880            20.815                Novosib           650.469
       482   05 Jun 2027 12:11:24.086   05 Jun 2027 12:11:53.697            29.611                Norilsk           925.344
