uniorb/output/strategy_4/Drop/Drop_KinoSat_111301.txt

KinoSat_111301
-------------------------
    Access    *     Start Time (UTCG)     *     Stop Time (UTCG)  *   Duration (s)        *       Station  *  Data (Mbytes)
         1   01 Jun 2027 04:09:05.450   01 Jun 2027 04:10:05.757            60.307              Murmansk1          1884.594
         2   01 Jun 2027 04:10:09.469   01 Jun 2027 04:11:10.145            60.676                 Moscow          1896.125
         3   01 Jun 2027 04:11:13.908   01 Jun 2027 04:11:49.777            35.869              Murmansk1          1120.906
         4   01 Jun 2027 04:11:49.777   01 Jun 2027 04:12:01.657            11.880              Murmansk2           371.250
         5   01 Jun 2027 04:14:12.029   01 Jun 2027 04:14:37.540            25.511                 Moscow           797.219
         6   01 Jun 2027 05:31:29.999   01 Jun 2027 05:36:33.096           303.097                Anadyr1          9471.781
         7   01 Jun 2027 07:08:30.301   01 Jun 2027 07:11:10.920           160.619                Anadyr2          5019.344
         8   01 Jun 2027 07:11:10.920   01 Jun 2027 07:11:45.918            34.998                Anadyr1          1093.687
         9   01 Jun 2027 07:11:55.072   01 Jun 2027 07:11:56.894             1.822              Murmansk2            56.937
        10   01 Jun 2027 07:12:26.336   01 Jun 2027 07:12:33.588             7.252                Anadyr1           226.625
        11   01 Jun 2027 08:43:03.548   01 Jun 2027 08:44:27.937            84.389               Magadan2          2637.156
        12   01 Jun 2027 08:45:31.442   01 Jun 2027 08:47:57.087           145.645               Magadan2          4551.406
        13   01 Jun 2027 09:25:32.850   01 Jun 2027 09:25:39.617             6.767            RioGallegos           211.469
        14   01 Jun 2027 09:58:36.372   01 Jun 2027 10:00:08.132            91.760                Sumatra          2867.500
        15   01 Jun 2027 10:20:04.779   01 Jun 2027 10:21:03.701            58.922                Irkutsk          1841.312
        16   01 Jun 2027 10:21:20.604   01 Jun 2027 10:21:25.940             5.336              Murmansk2           166.750
        17   01 Jun 2027 10:21:25.940   01 Jun 2027 10:22:16.923            50.983              Murmansk1          1593.219
        18   01 Jun 2027 10:22:29.395   01 Jun 2027 10:24:10.499           101.104                Irkutsk          3159.500
        19   01 Jun 2027 11:02:33.663   01 Jun 2027 11:03:02.734            29.071            RioGallegos           908.469
        20   01 Jun 2027 11:04:09.631   01 Jun 2027 11:04:50.587            40.956            RioGallegos          1279.875
        21   01 Jun 2027 11:34:35.772   01 Jun 2027 11:35:51.385            75.613                Sumatra          2362.906
        22   01 Jun 2027 11:43:09.915   01 Jun 2027 11:44:12.218            62.303                  Delhi          1946.969
        23   01 Jun 2027 11:57:03.246   01 Jun 2027 11:57:34.446            31.200                Norilsk           975.000
        24   01 Jun 2027 11:57:43.359   01 Jun 2027 12:03:13.979           330.620              Murmansk2         10331.875
        25   01 Jun 2027 12:03:25.065   01 Jun 2027 12:03:58.998            33.933              Murmansk2          1060.406
        26   01 Jun 2027 12:04:08.507   01 Jun 2027 12:04:41.341            32.834                Norilsk          1026.063
        27   01 Jun 2027 12:05:50.268   01 Jun 2027 12:06:13.997            23.729              Murmansk2           741.531
        28   01 Jun 2027 12:06:48.902   01 Jun 2027 12:07:03.129            14.227              Murmansk2           444.594
        29   01 Jun 2027 13:19:42.506   01 Jun 2027 13:19:59.710            17.204                  Delhi           537.625
        30   01 Jun 2027 13:21:00.391   01 Jun 2027 13:22:02.415            62.024                  Delhi          1938.250
        31   01 Jun 2027 13:23:09.022   01 Jun 2027 13:29:11.237           362.215                  Delhi         11319.219
        32   01 Jun 2027 13:30:11.171   01 Jun 2027 13:30:54.357            43.186                Novosib          1349.562
        33   01 Jun 2027 13:32:12.368   01 Jun 2027 13:34:45.571           153.203                Novosib          4787.594
        34   01 Jun 2027 13:35:50.922   01 Jun 2027 13:36:22.399            31.477                Novosib           983.656
        35   01 Jun 2027 13:38:35.148   01 Jun 2027 13:41:07.284           152.136                Norilsk          4754.250
        36   01 Jun 2027 13:41:42.390   01 Jun 2027 13:42:03.252            20.862              Murmansk2           651.938
        37   01 Jun 2027 13:42:05.768   01 Jun 2027 13:42:49.118            43.350              Murmansk2          1354.687
        38   01 Jun 2027 15:02:39.685   01 Jun 2027 15:03:18.120            38.435                 Moscow          1201.094
        39   01 Jun 2027 15:03:59.160   01 Jun 2027 15:04:27.379            28.219                 Moscow           881.844
        40   01 Jun 2027 15:05:36.291   01 Jun 2027 15:07:18.232           101.941                 Moscow          3185.656
        41   01 Jun 2027 15:07:46.019   01 Jun 2027 15:08:16.988            30.969                 Moscow           967.781
        42   01 Jun 2027 15:09:32.806   01 Jun 2027 15:09:48.445            15.639              Murmansk1           488.719
        43   01 Jun 2027 15:10:02.954   01 Jun 2027 15:10:23.644            20.690              Murmansk1           646.563
        44   01 Jun 2027 15:11:08.122   01 Jun 2027 15:11:27.768            19.646              Murmansk1           613.938
        45   01 Jun 2027 15:11:29.432   01 Jun 2027 15:11:56.519            27.087                 Moscow           846.469
        46   01 Jun 2027 15:12:24.634   01 Jun 2027 15:12:59.380            34.746              Murmansk2          1085.813
        47   01 Jun 2027 15:13:19.796   01 Jun 2027 15:13:55.608            35.812              Murmansk1          1119.125
        48   01 Jun 2027 15:14:01.821   01 Jun 2027 15:15:21.179            79.358                Norilsk          2479.938
        49   01 Jun 2027 15:15:52.892   01 Jun 2027 15:17:32.379            99.487              Murmansk1          3108.969
        50   01 Jun 2027 15:17:32.379   01 Jun 2027 15:18:47.012            74.633              Murmansk2          2332.281
        51   01 Jun 2027 15:24:56.385   01 Jun 2027 15:26:03.344            66.959                Anadyr1          2092.469
        52   01 Jun 2027 15:27:30.468   01 Jun 2027 15:27:42.124            11.656                Anadyr2           364.250
        53   01 Jun 2027 16:24:23.746   01 Jun 2027 16:24:57.719            33.973               CapeTown          1061.656
        54   01 Jun 2027 16:25:30.245   01 Jun 2027 16:26:22.192            51.947               CapeTown          1623.344
        55   01 Jun 2027 16:28:06.673   01 Jun 2027 16:28:38.386            31.713               CapeTown           991.031
        56   01 Jun 2027 16:46:37.062   01 Jun 2027 16:46:59.320            22.258                 Moscow           695.563
        57   01 Jun 2027 16:48:21.252   01 Jun 2027 16:49:18.929            57.677                 Moscow          1802.406
        58   01 Jun 2027 16:50:17.616   01 Jun 2027 16:50:29.866            12.250              Murmansk1           382.813
        59   01 Jun 2027 16:50:57.949   01 Jun 2027 16:51:52.717            54.768              Murmansk2          1711.500
        60   01 Jun 2027 16:52:29.916   01 Jun 2027 16:53:04.584            34.668              Murmansk2          1083.375
        61   01 Jun 2027 16:54:15.231   01 Jun 2027 16:54:41.028            25.797              Murmansk1           806.156
        62   01 Jun 2027 16:59:35.071   01 Jun 2027 17:00:00.780            25.709                Anadyr2           803.406
        63   01 Jun 2027 17:00:00.780   01 Jun 2027 17:00:06.861             6.081                Anadyr1           190.031
        64   01 Jun 2027 17:00:18.791   01 Jun 2027 17:00:35.299            16.508                Anadyr1           515.875
        65   01 Jun 2027 17:01:39.911   01 Jun 2027 17:02:25.027            45.116                Anadyr2          1409.875
        66   01 Jun 2027 17:03:26.217   01 Jun 2027 17:04:03.080            36.863                Anadyr1          1151.969
        67   01 Jun 2027 17:04:29.359   01 Jun 2027 17:04:58.157            28.798                Anadyr1           899.937
        68   01 Jun 2027 17:05:45.852   01 Jun 2027 17:06:09.207            23.355                Anadyr1           729.844
        69   01 Jun 2027 17:06:46.339   01 Jun 2027 17:07:08.417            22.078                Anadyr2           689.937
        70   01 Jun 2027 17:08:00.822   01 Jun 2027 17:08:09.052             8.230                Anadyr2           257.188
        71   01 Jun 2027 18:25:30.540   01 Jun 2027 18:29:37.704           247.164              Murmansk2          7723.875
        72   01 Jun 2027 18:35:39.486   01 Jun 2027 18:36:05.590            26.104               Magadan2           815.750
        73   01 Jun 2027 18:37:23.960   01 Jun 2027 18:37:33.098             9.138                Anadyr2           285.563
        74   01 Jun 2027 18:38:14.515   01 Jun 2027 18:38:34.338            19.823               Magadan1           619.469
        75   01 Jun 2027 18:38:52.935   01 Jun 2027 18:39:20.358            27.423               Magadan1           856.969
        76   01 Jun 2027 18:41:04.717   01 Jun 2027 18:41:44.091            39.374               Magadan1          1230.437
        77   01 Jun 2027 18:42:54.126   01 Jun 2027 18:43:10.068            15.942               Magadan2           498.187
        78   01 Jun 2027 18:43:41.928   01 Jun 2027 18:44:17.009            35.081               Magadan2          1096.281
        79   01 Jun 2027 18:45:16.247   01 Jun 2027 18:45:54.869            38.622               Magadan1          1206.937
        80   01 Jun 2027 20:08:19.986   01 Jun 2027 20:12:01.215           221.229                Anadyr2          6913.406
        81   01 Jun 2027 20:12:14.569   01 Jun 2027 20:12:15.577             1.008                Norilsk            31.500
        82   01 Jun 2027 20:12:17.737   01 Jun 2027 20:13:52.830            95.093                Norilsk          2971.656
        83   01 Jun 2027 20:15:50.629   01 Jun 2027 20:16:38.871            48.242                Anadyr2          1507.562
        84   01 Jun 2027 20:18:07.628   01 Jun 2027 20:18:34.016            26.388               Magadan1           824.625
        85   01 Jun 2027 20:19:36.013   01 Jun 2027 20:19:38.753             2.740                Anadyr1            85.625
        86   01 Jun 2027 20:19:46.618   01 Jun 2027 20:20:45.778            59.160               Magadan2          1848.750
        87   01 Jun 2027 20:21:40.109   01 Jun 2027 20:22:47.243            67.134               Magadan2          2097.937
        88   01 Jun 2027 21:03:03.614   01 Jun 2027 21:03:07.357             3.743            RioGallegos           116.969
        89   01 Jun 2027 21:04:06.346   01 Jun 2027 21:05:40.364            94.018            RioGallegos          2938.062
        90   01 Jun 2027 21:07:35.224   01 Jun 2027 21:07:44.222             8.998            RioGallegos           281.187
        91   01 Jun 2027 21:11:20.443   01 Jun 2027 21:11:31.672            11.229            RioGallegos           350.906
        92   01 Jun 2027 21:12:11.580   01 Jun 2027 21:12:26.713            15.133            RioGallegos           472.906
        93   01 Jun 2027 21:44:32.783   01 Jun 2027 21:44:39.071             6.288                Anadyr1           196.500
        94   01 Jun 2027 21:46:10.999   01 Jun 2027 21:48:06.850           115.851                Norilsk          3620.344
        95   01 Jun 2027 21:48:12.122   01 Jun 2027 21:48:28.249            16.127               Magadan1           503.969
        96   01 Jun 2027 21:49:12.068   01 Jun 2027 21:49:48.035            35.967               Magadan1          1123.969
        97   01 Jun 2027 21:50:30.376   01 Jun 2027 21:51:05.946            35.570                Irkutsk          1111.563
        98   01 Jun 2027 21:51:49.490   01 Jun 2027 21:52:39.917            50.427                Irkutsk          1575.844
        99   01 Jun 2027 21:54:14.034   01 Jun 2027 21:55:01.904            47.870                Novosib          1495.937
       100   01 Jun 2027 21:57:42.161   01 Jun 2027 21:59:07.946            85.785                Irkutsk          2680.781
       101   01 Jun 2027 22:07:41.437   01 Jun 2027 22:08:23.484            42.047                Sumatra          1313.969
       102   01 Jun 2027 22:11:51.513   01 Jun 2027 22:13:46.634           115.121                Sumatra          3597.531
       103   01 Jun 2027 23:19:22.952   01 Jun 2027 23:20:25.495            62.543                Anadyr1          1954.469
       104   01 Jun 2027 23:22:48.086   01 Jun 2027 23:23:20.682            32.596               Magadan2          1018.625
       105   01 Jun 2027 23:23:46.031   01 Jun 2027 23:24:22.132            36.101               Magadan2          1128.156
       106   01 Jun 2027 23:24:39.110   01 Jun 2027 23:24:55.222            16.112               Magadan2           503.500
       107   01 Jun 2027 23:25:09.137   01 Jun 2027 23:25:37.573            28.436               Magadan1           888.625
       108   01 Jun 2027 23:25:43.695   01 Jun 2027 23:25:49.697             6.002               Magadan1           187.563
       109   01 Jun 2027 23:26:13.061   01 Jun 2027 23:27:09.293            56.232                Novosib          1757.250
       110   01 Jun 2027 23:28:52.072   01 Jun 2027 23:28:57.867             5.795                Novosib           181.094
       111   01 Jun 2027 23:30:27.334   01 Jun 2027 23:31:12.056            44.722                Novosib          1397.562
       112   01 Jun 2027 23:32:37.475   01 Jun 2027 23:33:19.071            41.596                Novosib          1299.875
       113   01 Jun 2027 23:34:19.388   01 Jun 2027 23:34:26.236             6.848                  Delhi           214.000
       114   01 Jun 2027 23:34:54.526   01 Jun 2027 23:36:49.422           114.896                  Delhi          3590.500
       115   01 Jun 2027 23:44:22.127   01 Jun 2027 23:44:39.581            17.454                  Delhi           545.438
       116   02 Jun 2027 00:20:00.785   02 Jun 2027 00:20:17.467            16.682            RioGallegos           521.313
       117   02 Jun 2027 00:21:25.698   02 Jun 2027 00:21:55.559            29.861            RioGallegos           933.156
       118   02 Jun 2027 00:52:35.443   02 Jun 2027 00:53:40.410            64.967                Anadyr2          2030.219
       119   02 Jun 2027 00:53:40.410   02 Jun 2027 00:54:25.606            45.196                Anadyr1          1412.375
       120   02 Jun 2027 00:55:05.181   02 Jun 2027 00:55:14.351             9.170                Anadyr1           286.562
       121   02 Jun 2027 00:57:10.852   02 Jun 2027 00:57:34.286            23.434                Anadyr1           732.313
       122   02 Jun 2027 00:58:06.154   02 Jun 2027 00:58:22.307            16.153                Norilsk           504.781
       123   02 Jun 2027 00:58:26.363   02 Jun 2027 00:59:08.131            41.768               Magadan2          1305.250
       124   02 Jun 2027 00:59:08.131   02 Jun 2027 00:59:26.672            18.541               Magadan1           579.406
       125   02 Jun 2027 00:59:49.494   02 Jun 2027 01:00:22.948            33.454                Norilsk          1045.438
       126   02 Jun 2027 01:00:33.089   02 Jun 2027 01:02:07.736            94.647              Murmansk1          2957.719
       127   02 Jun 2027 01:02:07.736   02 Jun 2027 01:02:15.686             7.950              Murmansk2           248.438
       128   02 Jun 2027 01:03:09.110   02 Jun 2027 01:03:22.061            12.951              Murmansk1           404.719
       129   02 Jun 2027 01:04:04.131   02 Jun 2027 01:04:11.669             7.538              Murmansk2           235.562
       130   02 Jun 2027 01:05:31.290   02 Jun 2027 01:06:04.319            33.029                Irkutsk          1032.156
       131   02 Jun 2027 01:07:25.161   02 Jun 2027 01:08:08.944            43.783                 Moscow          1368.219
       132   02 Jun 2027 01:13:27.027   02 Jun 2027 01:13:44.617            17.590                Novosib           549.687
       133   02 Jun 2027 01:15:24.543   02 Jun 2027 01:17:17.762           113.219                  Delhi          3538.094
       134   02 Jun 2027 01:52:58.791   02 Jun 2027 01:52:59.971             1.180            RioGallegos            36.875
       135   02 Jun 2027 01:53:52.872   02 Jun 2027 01:54:27.393            34.521            RioGallegos          1078.781
       136   02 Jun 2027 02:25:55.731   02 Jun 2027 02:26:25.840            30.109                Anadyr1           940.906
       137   02 Jun 2027 02:26:31.919   02 Jun 2027 02:27:35.741            63.822                Anadyr2          1994.437
       138   02 Jun 2027 02:28:55.031   02 Jun 2027 02:29:05.143            10.112                Anadyr1           316.000
       139   02 Jun 2027 02:29:52.815   02 Jun 2027 02:30:00.861             8.046                Anadyr2           251.438
       140   02 Jun 2027 02:31:20.824   02 Jun 2027 02:32:27.127            66.303               Magadan1          2071.969
       141   02 Jun 2027 02:32:58.752   02 Jun 2027 02:33:04.413             5.661               Magadan2           176.906
       142   02 Jun 2027 02:33:36.737   02 Jun 2027 02:33:47.116            10.379               Magadan1           324.344
       143   02 Jun 2027 02:34:07.411   02 Jun 2027 02:34:23.410            15.999                Norilsk           499.969
       144   02 Jun 2027 02:36:13.788   02 Jun 2027 02:37:11.593            57.805              Murmansk1          1806.406
       145   02 Jun 2027 02:37:58.321   02 Jun 2027 02:38:12.779            14.458              Murmansk2           451.813
       146   02 Jun 2027 02:38:15.896   02 Jun 2027 02:39:03.254            47.358                Novosib          1479.937
       147   02 Jun 2027 02:41:02.663   02 Jun 2027 02:41:05.991             3.328                Novosib           104.000
       148   02 Jun 2027 02:41:28.521   02 Jun 2027 02:41:41.088            12.567                Novosib           392.719
       149   02 Jun 2027 02:42:40.113   02 Jun 2027 02:43:54.284            74.171                Novosib          2317.844
       150   02 Jun 2027 03:06:17.371   02 Jun 2027 03:06:51.130            33.759               CapeTown          1054.969
       151   02 Jun 2027 03:11:56.333   02 Jun 2027 03:13:37.438           101.105               CapeTown          3159.531
       152   02 Jun 2027 04:19:16.666   02 Jun 2027 04:19:52.779            36.113                Norilsk          1128.531
       153   02 Jun 2027 04:20:06.013   02 Jun 2027 04:20:12.677             6.664              Murmansk1           208.250
       154   02 Jun 2027 04:20:14.123   02 Jun 2027 04:20:37.372            23.249                Norilsk           726.531
       155   02 Jun 2027 04:22:02.935   02 Jun 2027 04:24:36.043           153.108              Murmansk2          4784.625
       156   02 Jun 2027 04:26:24.901   02 Jun 2027 04:27:05.208            40.307                 Moscow          1259.594
       157   02 Jun 2027 05:43:31.677   02 Jun 2027 05:43:57.876            26.199                Anadyr1           818.719
       158   02 Jun 2027 05:44:37.656   02 Jun 2027 05:48:36.052           238.396               Magadan2          7449.875
       159   02 Jun 2027 07:21:24.187   02 Jun 2027 07:23:44.580           140.393                Anadyr1          4387.281
       160   02 Jun 2027 08:56:08.953   02 Jun 2027 08:59:34.092           205.139               Magadan1          6410.594
       161   02 Jun 2027 08:59:34.092   02 Jun 2027 08:59:48.334            14.242               Magadan2           445.062
       162   02 Jun 2027 10:31:33.292   02 Jun 2027 10:31:45.016            11.724                Novosib           366.375
       163   02 Jun 2027 10:31:57.909   02 Jun 2027 10:32:00.951             3.042                Novosib            95.062
       164   02 Jun 2027 10:32:26.420   02 Jun 2027 10:32:30.860             4.440                Novosib           138.750
       165   02 Jun 2027 10:32:31.513   02 Jun 2027 10:32:31.853             0.340                Irkutsk            10.625
       166   02 Jun 2027 10:32:33.883   02 Jun 2027 10:32:52.922            19.039                Novosib           594.969
       167   02 Jun 2027 10:33:50.613   02 Jun 2027 10:34:23.501            32.888                Irkutsk          1027.750
       168   02 Jun 2027 10:34:33.931   02 Jun 2027 10:34:43.399             9.468                Irkutsk           295.875
       169   02 Jun 2027 10:34:54.867   02 Jun 2027 10:35:01.915             7.048                Novosib           220.250
       170   02 Jun 2027 10:35:05.902   02 Jun 2027 10:36:12.824            66.922                Irkutsk          2091.312
       171   02 Jun 2027 11:12:57.142   02 Jun 2027 11:13:27.633            30.491            RioGallegos           952.844
       172   02 Jun 2027 11:47:10.744   02 Jun 2027 11:47:56.479            45.735                Sumatra          1429.219
       173   02 Jun 2027 11:52:03.363   02 Jun 2027 11:52:13.517            10.154                Sumatra           317.312
       174   02 Jun 2027 11:57:21.652   02 Jun 2027 11:57:27.917             6.265                  Delhi           195.781
       175   02 Jun 2027 12:05:09.677   02 Jun 2027 12:05:25.752            16.075                Novosib           502.344
       176   02 Jun 2027 12:05:30.824   02 Jun 2027 12:06:45.474            74.650                Irkutsk          2332.812
       177   02 Jun 2027 13:32:35.975   02 Jun 2027 13:35:01.619           145.644                  Delhi          4551.375
       178   02 Jun 2027 13:35:12.966   02 Jun 2027 13:37:11.902           118.936                  Delhi          3716.750
       179   02 Jun 2027 13:41:07.847   02 Jun 2027 13:42:14.811            66.964                Novosib          2092.625
       180   02 Jun 2027 13:45:21.739   02 Jun 2027 13:45:41.966            20.227                Norilsk           632.094
       181   02 Jun 2027 13:46:32.594   02 Jun 2027 13:46:56.542            23.948                Norilsk           748.375
       182   02 Jun 2027 13:47:45.898   02 Jun 2027 13:49:13.725            87.827                Norilsk          2744.594
       183   02 Jun 2027 14:55:08.867   02 Jun 2027 14:56:49.667           100.800               CapeTown          3150.000
       184   02 Jun 2027 14:56:55.530   02 Jun 2027 14:57:03.098             7.568               CapeTown           236.500
       185   02 Jun 2027 15:15:10.391   02 Jun 2027 15:15:31.555            21.164                 Moscow           661.375
       186   02 Jun 2027 15:18:20.912   02 Jun 2027 15:18:49.194            28.282              Murmansk1           883.813
       187   02 Jun 2027 15:19:15.800   02 Jun 2027 15:19:22.737             6.937              Murmansk1           216.781
       188   02 Jun 2027 15:19:31.712   02 Jun 2027 15:21:12.993           101.281              Murmansk2          3165.031
       189   02 Jun 2027 15:29:07.468   02 Jun 2027 15:29:38.127            30.659              Murmansk2           958.094
       190   02 Jun 2027 15:33:27.109   02 Jun 2027 15:35:13.723           106.614                Anadyr2          3331.688
       191   02 Jun 2027 15:35:48.115   02 Jun 2027 15:35:56.630             8.515                Anadyr2           266.094
       192   02 Jun 2027 15:36:12.457   02 Jun 2027 15:36:17.650             5.193                Anadyr1           162.281
       193   02 Jun 2027 15:40:24.501   02 Jun 2027 15:40:25.935             1.434                Anadyr2            44.813
       194   02 Jun 2027 15:40:28.216   02 Jun 2027 15:40:36.140             7.924                Anadyr1           247.625
       195   02 Jun 2027 16:31:43.313   02 Jun 2027 16:32:08.340            25.027               CapeTown           782.094
       196   02 Jun 2027 16:34:59.318   02 Jun 2027 16:35:51.350            52.032               CapeTown          1626.000
       197   02 Jun 2027 16:55:34.529   02 Jun 2027 16:56:26.013            51.484                 Moscow          1608.875
       198   02 Jun 2027 16:56:46.865   02 Jun 2027 16:57:11.135            24.270              Murmansk2           758.438
       199   02 Jun 2027 16:57:40.850   02 Jun 2027 16:58:22.143            41.293                 Moscow          1290.406
       200   02 Jun 2027 17:01:19.870   02 Jun 2027 17:01:50.880            31.010              Murmansk2           969.063
       201   02 Jun 2027 17:05:06.454   02 Jun 2027 17:05:32.136            25.682              Murmansk1           802.562
       202   02 Jun 2027 17:08:34.727   02 Jun 2027 17:09:36.044            61.317                Anadyr1          1916.156
       203   02 Jun 2027 17:10:01.257   02 Jun 2027 17:10:08.973             7.716                Anadyr2           241.125
       204   02 Jun 2027 17:10:38.083   02 Jun 2027 17:11:09.407            31.324                Anadyr1           978.875
       205   02 Jun 2027 17:13:56.260   02 Jun 2027 17:15:23.237            86.977               Magadan2          2718.031
       206   02 Jun 2027 18:11:35.843   02 Jun 2027 18:11:48.840            12.997               CapeTown           406.156
       207   02 Jun 2027 18:38:53.522   02 Jun 2027 18:40:59.288           125.766              Murmansk1          3930.187
       208   02 Jun 2027 18:44:26.036   02 Jun 2027 18:46:09.301           103.265                Anadyr2          3227.031
       209   02 Jun 2027 18:46:09.301   02 Jun 2027 18:46:30.333            21.032                Anadyr1           657.250
       210   02 Jun 2027 18:46:58.077   02 Jun 2027 18:47:56.202            58.125               Magadan1          1816.406
       211   02 Jun 2027 18:47:56.202   02 Jun 2027 18:48:30.242            34.040               Magadan2          1063.750
       212   02 Jun 2027 18:51:56.322   02 Jun 2027 18:53:01.954            65.632               Magadan1          2051.000
       213   02 Jun 2027 20:20:20.861   02 Jun 2027 20:22:27.850           126.989                Anadyr2          3968.406
       214   02 Jun 2027 20:22:33.569   02 Jun 2027 20:24:32.467           118.898                Anadyr1          3715.563
       215   02 Jun 2027 20:25:08.877   02 Jun 2027 20:27:02.828           113.951               Magadan2          3560.969
       216   02 Jun 2027 20:30:47.548   02 Jun 2027 20:30:54.231             6.683               Magadan2           208.844
       217   02 Jun 2027 20:31:44.610   02 Jun 2027 20:31:47.992             3.382               Magadan2           105.687
       218   02 Jun 2027 20:31:47.992   02 Jun 2027 20:32:13.802            25.810               Magadan1           806.563
       219   02 Jun 2027 20:33:15.037   02 Jun 2027 20:33:49.450            34.413               Magadan1          1075.406
       220   02 Jun 2027 21:14:49.810   02 Jun 2027 21:17:11.095           141.285            RioGallegos          4415.156
       221   02 Jun 2027 21:18:13.412   02 Jun 2027 21:18:20.539             7.127            RioGallegos           222.719
       222   02 Jun 2027 21:23:18.782   02 Jun 2027 21:23:41.888            23.106            RioGallegos           722.063
       223   02 Jun 2027 21:55:57.827   02 Jun 2027 21:56:40.643            42.816                Anadyr2          1338.000
       224   02 Jun 2027 21:58:11.295   02 Jun 2027 21:58:20.921             9.626                Norilsk           300.813
       225   02 Jun 2027 21:58:40.717   02 Jun 2027 22:00:53.661           132.944               Magadan1          4154.500
       226   02 Jun 2027 22:01:19.212   02 Jun 2027 22:01:51.858            32.646                Norilsk          1020.188
       227   02 Jun 2027 22:01:57.408   02 Jun 2027 22:01:57.855             0.447                Norilsk            13.969
       228   02 Jun 2027 22:02:23.233   02 Jun 2027 22:03:17.477            54.244                Irkutsk          1695.125
       229   02 Jun 2027 22:03:53.955   02 Jun 2027 22:04:00.077             6.122                Irkutsk           191.312
       230   02 Jun 2027 22:04:26.868   02 Jun 2027 22:05:22.927            56.059                Novosib          1751.844
       231   02 Jun 2027 22:06:01.422   02 Jun 2027 22:06:03.870             2.448                Novosib            76.500
       232   02 Jun 2027 22:07:08.320   02 Jun 2027 22:08:06.105            57.785                Novosib          1805.781
       233   02 Jun 2027 22:16:09.478   02 Jun 2027 22:16:54.711            45.233                Sumatra          1413.531
       234   02 Jun 2027 22:24:07.767   02 Jun 2027 22:25:08.987            61.220                Sumatra          1913.125
       235   02 Jun 2027 23:31:23.665   02 Jun 2027 23:33:08.092           104.427                Anadyr1          3263.344
       236   02 Jun 2027 23:33:31.026   02 Jun 2027 23:33:32.818             1.792                Anadyr1            56.000
       237   02 Jun 2027 23:34:08.231   02 Jun 2027 23:34:31.330            23.099                Norilsk           721.844
       238   02 Jun 2027 23:34:46.957   02 Jun 2027 23:35:50.889            63.932               Magadan1          1997.875
       239   02 Jun 2027 23:35:50.889   02 Jun 2027 23:36:24.885            33.996               Magadan2          1062.375
       240   02 Jun 2027 23:38:00.331   02 Jun 2027 23:39:02.880            62.549                Irkutsk          1954.656
       241   02 Jun 2027 23:39:16.297   02 Jun 2027 23:40:14.797            58.500                Novosib          1828.125
       242   02 Jun 2027 23:44:05.709   02 Jun 2027 23:44:21.005            15.296                Novosib           478.000
       243   02 Jun 2027 23:45:58.428   02 Jun 2027 23:47:12.116            73.688                  Delhi          2302.750
       244   02 Jun 2027 23:50:14.975   02 Jun 2027 23:50:36.274            21.299                  Delhi           665.594
       245   02 Jun 2027 23:52:21.684   02 Jun 2027 23:52:55.864            34.180                  Delhi          1068.125
       246   02 Jun 2027 23:57:02.732   02 Jun 2027 23:57:20.437            17.705                  Delhi           553.281
       247   03 Jun 2027 00:35:08.211   03 Jun 2027 00:35:54.952            46.741            RioGallegos          1460.656
       248   03 Jun 2027 01:05:39.337   03 Jun 2027 01:06:18.429            39.092                Anadyr2          1221.625
       249   03 Jun 2027 01:06:47.350   03 Jun 2027 01:07:14.914            27.564                Anadyr1           861.375
       250   03 Jun 2027 01:09:09.624   03 Jun 2027 01:09:52.525            42.901                Anadyr2          1340.656
       251   03 Jun 2027 01:10:07.740   03 Jun 2027 01:10:24.542            16.802                Norilsk           525.062
       252   03 Jun 2027 01:10:42.444   03 Jun 2027 01:12:00.959            78.515               Magadan2          2453.594
       253   03 Jun 2027 01:12:00.959   03 Jun 2027 01:12:01.489             0.530               Magadan1            16.563
       254   03 Jun 2027 01:12:29.908   03 Jun 2027 01:13:59.332            89.424              Murmansk2          2794.500
       255   03 Jun 2027 01:13:59.332   03 Jun 2027 01:14:16.735            17.403              Murmansk1           543.844
       256   03 Jun 2027 01:14:47.093   03 Jun 2027 01:15:10.800            23.707                Novosib           740.844
       257   03 Jun 2027 01:15:59.018   03 Jun 2027 01:16:11.352            12.334                Novosib           385.438
       258   03 Jun 2027 01:17:24.607   03 Jun 2027 01:18:01.761            37.154                 Moscow          1161.063
       259   03 Jun 2027 01:19:39.761   03 Jun 2027 01:19:52.953            13.192                 Moscow           412.250
       260   03 Jun 2027 01:22:14.204   03 Jun 2027 01:22:26.513            12.309                  Delhi           384.656
       261   03 Jun 2027 01:23:19.917   03 Jun 2027 01:23:53.840            33.923                  Delhi          1060.094
       262   03 Jun 2027 01:30:06.702   03 Jun 2027 01:30:33.443            26.741                  Delhi           835.656
       263   03 Jun 2027 02:37:40.595   03 Jun 2027 02:40:46.366           185.771                Anadyr1          5805.344
       264   03 Jun 2027 02:42:48.700   03 Jun 2027 02:43:45.528            56.828               Magadan2          1775.875
       265   03 Jun 2027 02:44:58.311   03 Jun 2027 02:45:15.404            17.093               Magadan2           534.156
       266   03 Jun 2027 02:45:55.711   03 Jun 2027 02:46:25.562            29.851                Norilsk           932.844
       267   03 Jun 2027 02:48:15.287   03 Jun 2027 02:48:43.397            28.110              Murmansk2           878.438
       268   03 Jun 2027 02:49:48.078   03 Jun 2027 02:50:30.685            42.607              Murmansk2          1331.469
       269   03 Jun 2027 02:50:37.579   03 Jun 2027 02:52:08.705            91.126                Novosib          2847.688
       270   03 Jun 2027 03:00:14.111   03 Jun 2027 03:01:05.833            51.722                 Moscow          1616.312
       271   03 Jun 2027 03:15:59.236   03 Jun 2027 03:19:00.431           181.195               CapeTown          5662.344
       272   03 Jun 2027 03:19:11.888   03 Jun 2027 03:19:15.129             3.241               CapeTown           101.281
       273   03 Jun 2027 04:19:40.978   03 Jun 2027 04:19:50.630             9.652                Anadyr1           301.625
       274   03 Jun 2027 04:20:24.376   03 Jun 2027 04:21:03.877            39.501               Magadan2          1234.406
       275   03 Jun 2027 04:21:16.605   03 Jun 2027 04:21:21.642             5.037               Magadan2           157.406
       276   03 Jun 2027 04:32:08.006   03 Jun 2027 04:32:29.279            21.273              Murmansk2           664.781
       277   03 Jun 2027 04:32:46.981   03 Jun 2027 04:34:54.442           127.461              Murmansk2          3983.156
       278   03 Jun 2027 04:34:57.738   03 Jun 2027 04:35:53.812            56.074              Murmansk2          1752.312
       279   03 Jun 2027 05:54:12.697   03 Jun 2027 05:54:43.221            30.524               Magadan2           953.875
       280   03 Jun 2027 05:54:51.208   03 Jun 2027 05:55:33.440            42.232                Anadyr1          1319.750
       281   03 Jun 2027 05:56:05.082   03 Jun 2027 05:59:29.006           203.924               Magadan1          6372.625
       282   03 Jun 2027 07:30:16.407   03 Jun 2027 07:31:28.638            72.231                Anadyr1          2257.219
       283   03 Jun 2027 07:31:41.715   03 Jun 2027 07:31:50.450             8.735               Magadan2           272.969
       284   03 Jun 2027 07:32:32.675   03 Jun 2027 07:33:09.772            37.097                Anadyr2          1159.281
       285   03 Jun 2027 07:33:26.011   03 Jun 2027 07:34:13.655            47.644                Anadyr2          1488.875
       286   03 Jun 2027 07:34:19.266   03 Jun 2027 07:34:19.824             0.558               Magadan1            17.437
       287   03 Jun 2027 07:34:56.542   03 Jun 2027 07:35:22.245            25.703               Magadan1           803.219
       288   03 Jun 2027 07:35:45.117   03 Jun 2027 07:36:22.866            37.749                Anadyr2          1179.656
       289   03 Jun 2027 08:15:44.681   03 Jun 2027 08:16:17.332            32.651            RioGallegos          1020.344
       290   03 Jun 2027 09:05:06.300   03 Jun 2027 09:05:16.251             9.951               Magadan1           310.969
       291   03 Jun 2027 09:05:43.667   03 Jun 2027 09:07:04.842            81.175               Magadan1          2536.719
       292   03 Jun 2027 09:07:53.870   03 Jun 2027 09:08:21.941            28.071                Irkutsk           877.219
       293   03 Jun 2027 09:08:22.397   03 Jun 2027 09:08:54.009            31.612               Magadan1           987.875
       294   03 Jun 2027 09:09:03.270   03 Jun 2027 09:09:40.305            37.035               Magadan2          1157.344
       295   03 Jun 2027 09:10:00.253   03 Jun 2027 09:10:10.106             9.853                Irkutsk           307.906
       296   03 Jun 2027 09:10:25.146   03 Jun 2027 09:10:54.991            29.845                Irkutsk           932.656
       297   03 Jun 2027 09:11:09.485   03 Jun 2027 09:11:12.976             3.491                Irkutsk           109.094
       298   03 Jun 2027 09:11:29.412   03 Jun 2027 09:11:36.533             7.121               Magadan1           222.531
       299   03 Jun 2027 09:12:15.761   03 Jun 2027 09:12:16.886             1.125                Irkutsk            35.156
       300   03 Jun 2027 09:13:06.695   03 Jun 2027 09:13:27.337            20.642                Novosib           645.062
       301   03 Jun 2027 09:47:00.065   03 Jun 2027 09:47:44.971            44.906            RioGallegos          1403.313
       302   03 Jun 2027 09:49:59.987   03 Jun 2027 09:50:15.773            15.786            RioGallegos           493.312
       303   03 Jun 2027 09:54:06.987   03 Jun 2027 09:54:21.723            14.736            RioGallegos           460.500
       304   03 Jun 2027 10:22:03.852   03 Jun 2027 10:24:54.132           170.280                Sumatra          5321.250
       305   03 Jun 2027 10:43:29.577   03 Jun 2027 10:43:30.909             1.332                Irkutsk            41.625
       306   03 Jun 2027 10:44:31.963   03 Jun 2027 10:45:04.643            32.680                Irkutsk          1021.250
       307   03 Jun 2027 10:45:11.129   03 Jun 2027 10:45:19.697             8.568                Novosib           267.750
       308   03 Jun 2027 10:45:40.889   03 Jun 2027 10:46:23.925            43.036                Irkutsk          1344.875
       309   03 Jun 2027 10:46:37.693   03 Jun 2027 10:47:06.045            28.352                Irkutsk           886.000
       310   03 Jun 2027 10:47:25.489   03 Jun 2027 10:47:29.011             3.522                Norilsk           110.062
       311   03 Jun 2027 10:47:52.373   03 Jun 2027 10:47:52.823             0.450                Novosib            14.063
       312   03 Jun 2027 10:47:53.359   03 Jun 2027 10:47:54.778             1.419                Norilsk            44.344
       313   03 Jun 2027 10:48:18.757   03 Jun 2027 10:48:23.434             4.677                Norilsk           146.156
       314   03 Jun 2027 11:25:38.498   03 Jun 2027 11:25:46.377             7.879            RioGallegos           246.219
       315   03 Jun 2027 11:27:07.258   03 Jun 2027 11:27:57.266            50.008            RioGallegos          1562.750
       316   03 Jun 2027 12:00:01.654   03 Jun 2027 12:02:08.243           126.589                Sumatra          3955.906
       317   03 Jun 2027 12:13:26.379   03 Jun 2027 12:13:58.052            31.673                Novosib           989.781
       318   03 Jun 2027 12:15:54.758   03 Jun 2027 12:16:14.287            19.529                Irkutsk           610.281
       319   03 Jun 2027 12:17:43.264   03 Jun 2027 12:17:58.230            14.966                Norilsk           467.688
       320   03 Jun 2027 12:20:27.634   03 Jun 2027 12:20:34.947             7.313                Norilsk           228.531
       321   03 Jun 2027 12:22:53.692   03 Jun 2027 12:23:28.856            35.164                Norilsk          1098.875
       322   03 Jun 2027 13:45:56.504   03 Jun 2027 13:48:54.262           177.758                  Delhi          5554.937
       323   03 Jun 2027 13:53:55.293   03 Jun 2027 13:54:56.504            61.211              Murmansk2          1912.844
       324   03 Jun 2027 13:56:09.819   03 Jun 2027 13:58:09.644           119.825                Novosib          3744.531
       325   03 Jun 2027 14:01:25.666   03 Jun 2027 14:01:41.708            16.042                Norilsk           501.313
       326   03 Jun 2027 14:03:34.647   03 Jun 2027 14:04:47.169            72.522                Norilsk          2266.312
       327   03 Jun 2027 15:06:09.010   03 Jun 2027 15:08:39.409           150.399               CapeTown          4699.969
       328   03 Jun 2027 15:30:33.898   03 Jun 2027 15:31:16.908            43.010              Murmansk1          1344.062
       329   03 Jun 2027 15:33:35.060   03 Jun 2027 15:34:01.695            26.635              Murmansk2           832.344
       330   03 Jun 2027 15:35:19.022   03 Jun 2027 15:35:27.478             8.456              Murmansk1           264.250
       331   03 Jun 2027 15:37:22.961   03 Jun 2027 15:37:49.846            26.885              Murmansk1           840.156
       332   03 Jun 2027 15:39:20.142   03 Jun 2027 15:40:20.015            59.873              Murmansk1          1871.031
       333   03 Jun 2027 15:45:15.662   03 Jun 2027 15:46:38.153            82.491                Anadyr2          2577.844
       334   03 Jun 2027 15:48:34.284   03 Jun 2027 15:48:43.926             9.642                Anadyr1           301.313
       335   03 Jun 2027 15:51:25.136   03 Jun 2027 15:52:22.155            57.019                Anadyr2          1781.844
       336   03 Jun 2027 16:48:40.618   03 Jun 2027 16:48:53.603            12.985               CapeTown           405.781
       337   03 Jun 2027 17:09:18.034   03 Jun 2027 17:11:16.828           118.794              Murmansk1          3712.313
       338   03 Jun 2027 17:11:16.828   03 Jun 2027 17:11:19.864             3.036              Murmansk2            94.875
       339   03 Jun 2027 17:12:45.121   03 Jun 2027 17:13:21.922            36.801              Murmansk2          1150.031
       340   03 Jun 2027 17:14:59.299   03 Jun 2027 17:15:04.209             4.910              Murmansk2           153.438
       341   03 Jun 2027 17:17:35.452   03 Jun 2027 17:18:39.707            64.255              Murmansk1          2007.969
       342   03 Jun 2027 17:20:34.647   03 Jun 2027 17:20:57.017            22.370                Anadyr2           699.063
       343   03 Jun 2027 17:21:44.955   03 Jun 2027 17:21:56.036            11.081                Anadyr2           346.281
       344   03 Jun 2027 17:21:56.036   03 Jun 2027 17:22:06.787            10.751                Anadyr1           335.969
       345   03 Jun 2027 17:24:02.442   03 Jun 2027 17:25:06.992            64.550                Anadyr2          2017.187
       346   03 Jun 2027 17:25:44.575   03 Jun 2027 17:26:15.756            31.181               Magadan2           974.406
       347   03 Jun 2027 17:27:06.875   03 Jun 2027 17:27:35.103            28.228               Magadan1           882.125
       348   03 Jun 2027 18:56:27.614   03 Jun 2027 19:01:29.681           302.067                Anadyr2          9439.594
       349   03 Jun 2027 19:01:50.833   03 Jun 2027 19:02:35.198            44.365               Magadan1          1386.406
       350   03 Jun 2027 19:06:11.013   03 Jun 2027 19:06:45.378            34.365               Magadan1          1073.906
       351   03 Jun 2027 19:07:52.825   03 Jun 2027 19:08:18.208            25.383               Magadan1           793.219
       352   03 Jun 2027 20:32:21.477   03 Jun 2027 20:34:29.350           127.873                Anadyr2          3996.031
       353   03 Jun 2027 20:34:35.613   03 Jun 2027 20:36:05.284            89.671                Anadyr1          2802.219
       354   03 Jun 2027 20:36:13.810   03 Jun 2027 20:36:14.748             0.938                Norilsk            29.312
       355   03 Jun 2027 20:36:21.710   03 Jun 2027 20:37:57.964            96.254               Magadan1          3007.937
       356   03 Jun 2027 20:37:57.964   03 Jun 2027 20:38:26.638            28.674               Magadan2           896.063
       357   03 Jun 2027 20:38:54.470   03 Jun 2027 20:39:54.419            59.949                Norilsk          1873.406
       358   03 Jun 2027 20:41:29.487   03 Jun 2027 20:42:45.630            76.143                Irkutsk          2379.469
       359   03 Jun 2027 21:26:39.494   03 Jun 2027 21:27:57.449            77.955            RioGallegos          2436.094
       360   03 Jun 2027 21:29:37.702   03 Jun 2027 21:29:55.302            17.600            RioGallegos           550.000
       361   03 Jun 2027 21:32:35.693   03 Jun 2027 21:32:49.160            13.467            RioGallegos           420.844
       362   03 Jun 2027 21:35:13.903   03 Jun 2027 21:35:21.254             7.351            RioGallegos           229.719
       363   03 Jun 2027 21:35:53.981   03 Jun 2027 21:36:07.608            13.627            RioGallegos           425.844
       364   03 Jun 2027 22:09:14.445   03 Jun 2027 22:10:16.034            61.589                Anadyr1          1924.656
       365   03 Jun 2027 22:10:43.663   03 Jun 2027 22:11:12.929            29.266               Magadan1           914.562
       366   03 Jun 2027 22:11:12.929   03 Jun 2027 22:12:48.083            95.154               Magadan2          2973.563
       367   03 Jun 2027 22:14:18.052   03 Jun 2027 22:15:23.730            65.678                Irkutsk          2052.438
       368   03 Jun 2027 22:15:47.243   03 Jun 2027 22:16:23.507            36.264                Novosib          1133.250
       369   03 Jun 2027 22:17:59.992   03 Jun 2027 22:18:11.123            11.131                Novosib           347.844
       370   03 Jun 2027 22:18:26.594   03 Jun 2027 22:18:42.803            16.209                Novosib           506.531
       371   03 Jun 2027 22:21:53.599   03 Jun 2027 22:22:38.708            45.109                Novosib          1409.656
       372   03 Jun 2027 22:27:59.734   03 Jun 2027 22:28:42.533            42.799                Sumatra          1337.469
       373   03 Jun 2027 22:34:09.989   03 Jun 2027 22:34:47.064            37.075                Sumatra          1158.594
       374   03 Jun 2027 22:36:30.643   03 Jun 2027 22:37:30.565            59.922                Sumatra          1872.563
       375   03 Jun 2027 23:42:30.118   03 Jun 2027 23:43:24.577            54.459                Anadyr1          1701.844
       376   03 Jun 2027 23:43:24.577   03 Jun 2027 23:44:23.349            58.772                Anadyr2          1836.625
       377   03 Jun 2027 23:46:10.376   03 Jun 2027 23:46:31.239            20.863                Norilsk           651.969
       378   03 Jun 2027 23:46:48.921   03 Jun 2027 23:47:53.431            64.510               Magadan1          2015.937
       379   03 Jun 2027 23:48:01.127   03 Jun 2027 23:48:50.152            49.025               Magadan2          1532.031
       380   03 Jun 2027 23:50:06.495   03 Jun 2027 23:50:57.305            50.810                Novosib          1587.812
       381   03 Jun 2027 23:51:33.895   03 Jun 2027 23:52:31.463            57.568                Novosib          1799.000
       382   03 Jun 2027 23:55:07.994   03 Jun 2027 23:55:41.793            33.799                Novosib          1056.219
       383   03 Jun 2027 23:57:43.467   03 Jun 2027 23:58:33.467            50.000                  Delhi          1562.500
       384   04 Jun 2027 00:06:29.838   04 Jun 2027 00:07:09.426            39.588                  Delhi          1237.125
       385   04 Jun 2027 00:44:15.421   04 Jun 2027 00:45:27.233            71.812            RioGallegos          2244.125
       386   04 Jun 2027 01:15:57.633   04 Jun 2027 01:16:58.193            60.560                Anadyr1          1892.500
       387   04 Jun 2027 01:18:42.827   04 Jun 2027 01:18:48.219             5.392                Anadyr2           168.500
       388   04 Jun 2027 01:19:07.311   04 Jun 2027 01:19:19.879            12.568                Anadyr1           392.750
       389   04 Jun 2027 01:21:34.700   04 Jun 2027 01:21:37.947             3.247                Anadyr2           101.469
       390   04 Jun 2027 01:21:42.525   04 Jun 2027 01:21:59.639            17.114                Anadyr2           534.812
       391   04 Jun 2027 01:22:06.509   04 Jun 2027 01:24:03.645           117.136               Magadan1          3660.500
       392   04 Jun 2027 01:24:27.956   04 Jun 2027 01:25:55.888            87.932              Murmansk2          2747.875
       393   04 Jun 2027 01:25:58.316   04 Jun 2027 01:26:20.231            21.915                Novosib           684.844
       394   04 Jun 2027 01:27:24.373   04 Jun 2027 01:27:46.799            22.426                Novosib           700.812
       395   04 Jun 2027 01:28:46.828   04 Jun 2027 01:29:58.031            71.203              Murmansk2          2225.094
       396   04 Jun 2027 01:39:17.792   04 Jun 2027 01:40:07.995            50.203                  Delhi          1568.844
       397   04 Jun 2027 02:49:26.576   04 Jun 2027 02:51:58.084           151.508                Anadyr2          4734.625
       398   04 Jun 2027 02:51:58.084   04 Jun 2027 02:52:38.955            40.871                Anadyr1          1277.219
       399   04 Jun 2027 02:54:16.441   04 Jun 2027 02:54:44.476            28.035               Magadan1           876.094
       400   04 Jun 2027 02:54:57.517   04 Jun 2027 02:55:13.174            15.657               Magadan2           489.281
       401   04 Jun 2027 02:56:50.946   04 Jun 2027 02:56:53.272             2.326               Magadan2            72.688
       402   04 Jun 2027 02:57:54.680   04 Jun 2027 02:58:27.588            32.908                Norilsk          1028.375
       403   04 Jun 2027 02:59:39.796   04 Jun 2027 03:00:08.051            28.255                Norilsk           882.969
       404   04 Jun 2027 03:06:49.701   04 Jun 2027 03:07:51.113            61.412              Murmansk1          1919.125
       405   04 Jun 2027 03:07:57.860   04 Jun 2027 03:08:44.435            46.575                Novosib          1455.469
       406   04 Jun 2027 03:08:52.359   04 Jun 2027 03:09:04.683            12.324              Murmansk2           385.125
       407   04 Jun 2027 03:09:11.426   04 Jun 2027 03:09:50.311            38.885                Norilsk          1215.156
       408   04 Jun 2027 03:09:52.754   04 Jun 2027 03:10:25.322            32.568              Murmansk2          1017.750
       409   04 Jun 2027 03:10:40.915   04 Jun 2027 03:13:09.493           148.578                 Moscow          4643.062
       410   04 Jun 2027 03:27:43.929   04 Jun 2027 03:30:00.773           136.844               CapeTown          4276.375
       411   04 Jun 2027 04:24:09.684   04 Jun 2027 04:25:30.922            81.238                Anadyr1          2538.687
       412   04 Jun 2027 04:25:30.922   04 Jun 2027 04:25:38.542             7.620                Anadyr2           238.125
       413   04 Jun 2027 04:31:16.225   04 Jun 2027 04:31:41.358            25.133                Anadyr2           785.406
       414   04 Jun 2027 04:31:42.558   04 Jun 2027 04:31:59.976            17.418                Anadyr2           544.312
       415   04 Jun 2027 04:32:45.968   04 Jun 2027 04:33:05.878            19.910               Magadan2           622.188
       416   04 Jun 2027 06:06:53.544   04 Jun 2027 06:07:19.603            26.059               Magadan2           814.344
       417   04 Jun 2027 06:07:19.603   04 Jun 2027 06:08:53.138            93.535               Magadan1          2922.969
       418   04 Jun 2027 06:09:12.494   04 Jun 2027 06:10:28.648            76.154               Magadan1          2379.813
       419   04 Jun 2027 07:40:16.979   04 Jun 2027 07:40:58.424            41.445                Anadyr2          1295.156
       420   04 Jun 2027 07:41:02.480   04 Jun 2027 07:41:07.815             5.335               Magadan1           166.719
       421   04 Jun 2027 07:41:15.777   04 Jun 2027 07:41:32.145            16.368                Anadyr2           511.500
       422   04 Jun 2027 07:42:00.966   04 Jun 2027 07:43:29.355            88.389                Anadyr2          2762.156
       423   04 Jun 2027 07:43:39.932   04 Jun 2027 07:44:50.765            70.833               Magadan1          2213.531
       424   04 Jun 2027 07:45:02.124   04 Jun 2027 07:45:27.112            24.988               Magadan1           780.875
       425   04 Jun 2027 07:45:27.733   04 Jun 2027 07:46:25.150            57.417                Anadyr1          1794.281
       426   04 Jun 2027 07:46:58.624   04 Jun 2027 07:47:06.629             8.005               Magadan1           250.156
       427   04 Jun 2027 07:47:11.218   04 Jun 2027 07:47:47.600            36.382                Anadyr2          1136.938
       428   04 Jun 2027 07:47:47.600   04 Jun 2027 07:48:14.208            26.608                Anadyr1           831.500
       429   04 Jun 2027 08:26:07.177   04 Jun 2027 08:26:29.652            22.475            RioGallegos           702.344
       430   04 Jun 2027 09:17:08.848   04 Jun 2027 09:17:45.646            36.798               Magadan1          1149.937
       431   04 Jun 2027 09:19:04.673   04 Jun 2027 09:20:10.044            65.371               Magadan1          2042.844
       432   04 Jun 2027 09:20:28.037   04 Jun 2027 09:21:20.368            52.331                Irkutsk          1635.344
       433   04 Jun 2027 09:21:40.474   04 Jun 2027 09:22:10.962            30.488                Irkutsk           952.750
       434   04 Jun 2027 09:22:25.917   04 Jun 2027 09:23:21.277            55.360                Irkutsk          1730.000
       435   04 Jun 2027 09:23:25.186   04 Jun 2027 09:23:44.124            18.938                Irkutsk           591.813
       436   04 Jun 2027 09:23:52.031   04 Jun 2027 09:24:41.085            49.054                Novosib          1532.937
       437   04 Jun 2027 09:59:57.381   04 Jun 2027 10:00:31.445            34.064            RioGallegos          1064.500
       438   04 Jun 2027 10:33:57.070   04 Jun 2027 10:35:22.097            85.027                Sumatra          2657.094
       439   04 Jun 2027 10:48:00.620   04 Jun 2027 10:48:18.940            18.320                  Delhi           572.500
       440   04 Jun 2027 10:54:07.540   04 Jun 2027 10:54:50.302            42.762                Irkutsk          1336.313
       441   04 Jun 2027 10:55:28.811   04 Jun 2027 10:56:01.126            32.315                Novosib          1009.844
       442   04 Jun 2027 10:56:31.432   04 Jun 2027 10:57:27.936            56.504                Irkutsk          1765.750
       443   04 Jun 2027 10:57:44.501   04 Jun 2027 10:58:07.645            23.144                Irkutsk           723.250
       444   04 Jun 2027 10:58:17.439   04 Jun 2027 10:58:21.022             3.583                Novosib           111.969
       445   04 Jun 2027 10:58:37.199   04 Jun 2027 10:59:42.513            65.314                Novosib          2041.062
       446   04 Jun 2027 10:59:52.743   04 Jun 2027 10:59:58.277             5.534                Novosib           172.937
       447   04 Jun 2027 11:00:16.355   04 Jun 2027 11:00:18.190             1.835                Norilsk            57.344
       448   04 Jun 2027 11:38:29.787   04 Jun 2027 11:39:14.741            44.954            RioGallegos          1404.813
       449   04 Jun 2027 11:39:57.251   04 Jun 2027 11:40:16.543            19.292            RioGallegos           602.875
       450   04 Jun 2027 11:43:14.876   04 Jun 2027 11:43:29.246            14.370            RioGallegos           449.063
       451   04 Jun 2027 11:45:58.870   04 Jun 2027 11:46:08.646             9.776            RioGallegos           305.500
       452   04 Jun 2027 12:13:27.008   04 Jun 2027 12:14:02.767            35.759                Sumatra          1117.469
       453   04 Jun 2027 12:14:33.356   04 Jun 2027 12:15:29.337            55.981                Sumatra          1749.406
       454   04 Jun 2027 12:25:44.802   04 Jun 2027 12:26:34.206            49.404                Novosib          1543.875
       455   04 Jun 2027 12:27:04.613   04 Jun 2027 12:28:00.635            56.022                Novosib          1750.687
       456   04 Jun 2027 12:33:34.262   04 Jun 2027 12:33:46.578            12.316                Norilsk           384.875
       457   04 Jun 2027 14:02:33.478   04 Jun 2027 14:06:18.803           225.325                 Moscow          7041.406
       458   04 Jun 2027 14:06:20.628   04 Jun 2027 14:08:19.470           118.842              Murmansk1          3713.813
       459   04 Jun 2027 14:09:25.193   04 Jun 2027 14:10:52.854            87.661                Norilsk          2739.406
       460   04 Jun 2027 14:12:56.171   04 Jun 2027 14:14:18.785            82.614                Norilsk          2581.688
       461   04 Jun 2027 15:17:30.789   04 Jun 2027 15:17:57.760            26.971               CapeTown           842.844
       462   04 Jun 2027 15:18:49.592   04 Jun 2027 15:20:22.193            92.601               CapeTown          2893.781
       463   04 Jun 2027 15:39:32.871   04 Jun 2027 15:39:50.655            17.784                 Moscow           555.750
       464   04 Jun 2027 15:42:48.827   04 Jun 2027 15:45:13.741           144.914              Murmansk2          4528.562
       465   04 Jun 2027 15:57:07.513   04 Jun 2027 15:58:37.763            90.250                Anadyr1          2820.313
       466   04 Jun 2027 16:00:15.223   04 Jun 2027 16:00:16.166             0.943                Anadyr2            29.469
       467   04 Jun 2027 16:00:19.832   04 Jun 2027 16:00:36.887            17.055                Anadyr2           532.969
       468   04 Jun 2027 16:01:07.619   04 Jun 2027 16:01:13.579             5.960                Anadyr1           186.250
       469   04 Jun 2027 16:06:01.534   04 Jun 2027 16:06:02.928             1.394                Anadyr1            43.563
       470   04 Jun 2027 16:51:57.679   04 Jun 2027 16:52:04.679             7.000               CapeTown           218.750
       471   04 Jun 2027 16:52:16.866   04 Jun 2027 16:54:15.291           118.425               CapeTown          3700.781
       472   04 Jun 2027 17:21:52.183   04 Jun 2027 17:22:58.040            65.857              Murmansk1          2058.031
       473   04 Jun 2027 17:24:09.963   04 Jun 2027 17:24:40.913            30.950              Murmansk1           967.187
       474   04 Jun 2027 17:25:23.889   04 Jun 2027 17:26:52.736            88.847              Murmansk1          2776.469
       475   04 Jun 2027 17:32:34.984   04 Jun 2027 17:33:31.443            56.459                Anadyr1          1764.344
       476   04 Jun 2027 17:36:17.795   04 Jun 2027 17:37:18.909            61.114               Magadan2          1909.813
       477   04 Jun 2027 17:38:18.717   04 Jun 2027 17:38:25.266             6.549               Magadan2           204.656
       478   04 Jun 2027 17:38:25.266   04 Jun 2027 17:38:32.456             7.190               Magadan1           224.688
       479   04 Jun 2027 17:38:35.848   04 Jun 2027 17:38:43.820             7.972               Magadan2           249.125
       480   04 Jun 2027 17:38:52.132   04 Jun 2027 17:39:22.223            30.091               Magadan2           940.344
       481   04 Jun 2027 19:08:29.198   04 Jun 2027 19:10:23.730           114.532                Anadyr2          3579.125
       482   04 Jun 2027 19:10:26.325   04 Jun 2027 19:12:16.597           110.272                Anadyr1          3446.000
