uniorb/output/strategy_4/Drop/Drop_KinoSat_111006.txt

KinoSat_111006
-------------------------
    Access    *     Start Time (UTCG)     *     Stop Time (UTCG)  *   Duration (s)        *       Station  *  Data (Mbytes)
         1   01 Jun 2027 03:18:32.992   01 Jun 2027 03:19:49.921            76.929               Magadan2          2404.031
         2   01 Jun 2027 03:21:47.344   01 Jun 2027 03:22:38.003            50.659                Anadyr2          1583.094
         3   01 Jun 2027 04:53:08.487   01 Jun 2027 04:56:21.434           192.947                Anadyr2          6029.594
         4   01 Jun 2027 04:56:34.675   01 Jun 2027 04:56:44.653             9.978                Anadyr2           311.812
         5   01 Jun 2027 04:56:44.653   01 Jun 2027 04:58:15.451            90.798                Anadyr1          2837.438
         6   01 Jun 2027 04:58:38.923   01 Jun 2027 04:58:41.223             2.300                Anadyr2            71.875
         7   01 Jun 2027 04:58:57.034   01 Jun 2027 04:59:13.177            16.143                Anadyr2           504.469
         8   01 Jun 2027 06:28:58.284   01 Jun 2027 06:30:43.963           105.679                Irkutsk          3302.469
         9   01 Jun 2027 06:30:51.988   01 Jun 2027 06:33:30.428           158.440               Magadan1          4951.250
        10   01 Jun 2027 06:33:30.428   01 Jun 2027 06:34:20.227            49.799               Magadan2          1556.219
        11   01 Jun 2027 06:34:22.763   01 Jun 2027 06:34:51.227            28.464                Anadyr1           889.500
        12   01 Jun 2027 06:35:14.215   01 Jun 2027 06:37:23.940           129.725              Murmansk2          4053.906
        13   01 Jun 2027 06:37:23.940   01 Jun 2027 06:38:38.341            74.401              Murmansk1          2325.031
        14   01 Jun 2027 07:11:22.868   01 Jun 2027 07:13:22.067           119.199            RioGallegos          3724.969
        15   01 Jun 2027 08:06:53.604   01 Jun 2027 08:07:28.922            35.318                Novosib          1103.688
        16   01 Jun 2027 08:07:40.538   01 Jun 2027 08:11:38.722           238.184                Irkutsk          7443.250
        17   01 Jun 2027 08:12:14.243   01 Jun 2027 08:13:37.398            83.155              Murmansk2          2598.594
        18   01 Jun 2027 08:15:01.402   01 Jun 2027 08:15:22.278            20.876              Murmansk2           652.375
        19   01 Jun 2027 08:46:40.581   01 Jun 2027 08:47:43.009            62.428            RioGallegos          1950.875
        20   01 Jun 2027 09:21:25.390   01 Jun 2027 09:22:32.888            67.498                Sumatra          2109.313
        21   01 Jun 2027 09:25:19.333   01 Jun 2027 09:25:37.718            18.385                Sumatra           574.531
        22   01 Jun 2027 09:31:52.424   01 Jun 2027 09:32:22.771            30.347                  Delhi           948.344
        23   01 Jun 2027 09:33:51.033   01 Jun 2027 09:34:24.628            33.595                  Delhi          1049.844
        24   01 Jun 2027 09:36:27.689   01 Jun 2027 09:37:25.799            58.110                  Delhi          1815.937
        25   01 Jun 2027 09:43:46.533   01 Jun 2027 09:44:51.587            65.054                Novosib          2032.937
        26   01 Jun 2027 09:45:03.162   01 Jun 2027 09:47:34.275           151.113                Irkutsk          4722.281
        27   01 Jun 2027 09:47:45.778   01 Jun 2027 09:48:15.834            30.056                 Moscow           939.250
        28   01 Jun 2027 09:48:33.629   01 Jun 2027 09:49:22.891            49.262                Novosib          1539.438
        29   01 Jun 2027 09:51:55.303   01 Jun 2027 09:52:48.355            53.052              Murmansk1          1657.875
        30   01 Jun 2027 10:27:10.970   01 Jun 2027 10:27:50.403            39.433            RioGallegos          1232.281
        31   01 Jun 2027 10:28:22.194   01 Jun 2027 10:28:29.694             7.500            RioGallegos           234.375
        32   01 Jun 2027 10:29:23.556   01 Jun 2027 10:29:34.286            10.730            RioGallegos           335.312
        33   01 Jun 2027 10:30:31.381   01 Jun 2027 10:30:41.882            10.501            RioGallegos           328.156
        34   01 Jun 2027 11:02:22.190   01 Jun 2027 11:04:05.910           103.720                Sumatra          3241.250
        35   01 Jun 2027 11:08:45.765   01 Jun 2027 11:10:20.446            94.681                  Delhi          2958.781
        36   01 Jun 2027 11:21:42.168   01 Jun 2027 11:22:27.343            45.175                Norilsk          1411.719
        37   01 Jun 2027 11:22:37.847   01 Jun 2027 11:23:11.574            33.727                Norilsk          1053.969
        38   01 Jun 2027 11:23:17.691   01 Jun 2027 11:24:58.497           100.806                Novosib          3150.187
        39   01 Jun 2027 11:25:04.811   01 Jun 2027 11:26:41.253            96.442              Murmansk2          3013.813
        40   01 Jun 2027 11:26:41.253   01 Jun 2027 11:27:11.755            30.502              Murmansk1           953.187
        41   01 Jun 2027 12:50:01.938   01 Jun 2027 12:53:50.798           228.860                 Moscow          7151.875
        42   01 Jun 2027 12:54:12.062   01 Jun 2027 12:57:06.040           173.978              Murmansk2          5436.812
        43   01 Jun 2027 12:58:33.736   01 Jun 2027 12:58:39.278             5.542              Murmansk2           173.187
        44   01 Jun 2027 12:59:02.138   01 Jun 2027 12:59:49.616            47.478                Norilsk          1483.688
        45   01 Jun 2027 13:01:06.516   01 Jun 2027 13:01:32.029            25.513                Norilsk           797.281
        46   01 Jun 2027 14:04:47.337   01 Jun 2027 14:06:27.047            99.710               CapeTown          3115.938
        47   01 Jun 2027 14:07:09.970   01 Jun 2027 14:07:53.919            43.949               CapeTown          1373.406
        48   01 Jun 2027 14:09:20.734   01 Jun 2027 14:10:06.365            45.631               CapeTown          1425.969
        49   01 Jun 2027 14:10:52.454   01 Jun 2027 14:11:37.126            44.672               CapeTown          1396.000
        50   01 Jun 2027 14:30:26.102   01 Jun 2027 14:31:28.781            62.679              Murmansk1          1958.719
        51   01 Jun 2027 14:32:25.987   01 Jun 2027 14:33:27.475            61.488              Murmansk2          1921.500
        52   01 Jun 2027 14:39:16.895   01 Jun 2027 14:40:06.111            49.216              Murmansk1          1538.000
        53   01 Jun 2027 14:44:34.906   01 Jun 2027 14:47:30.513           175.607                Anadyr2          5487.719
        54   01 Jun 2027 15:39:29.133   01 Jun 2027 15:41:08.961            99.828               CapeTown          3119.625
        55   01 Jun 2027 16:09:39.247   01 Jun 2027 16:10:11.033            31.786              Murmansk2           993.312
        56   01 Jun 2027 16:10:32.151   01 Jun 2027 16:10:53.932            21.781              Murmansk1           680.656
        57   01 Jun 2027 16:11:34.318   01 Jun 2027 16:12:16.275            41.957              Murmansk1          1311.156
        58   01 Jun 2027 16:20:04.994   01 Jun 2027 16:22:02.746           117.752                Anadyr2          3679.750
        59   01 Jun 2027 16:22:43.173   01 Jun 2027 16:22:49.822             6.649                Anadyr1           207.781
        60   01 Jun 2027 16:23:24.498   01 Jun 2027 16:24:02.944            38.446                Anadyr1          1201.438
        61   01 Jun 2027 16:24:05.765   01 Jun 2027 16:27:25.465           199.700               Magadan2          6240.625
        62   01 Jun 2027 16:29:58.900   01 Jun 2027 16:30:56.451            57.551               Magadan2          1798.469
        63   01 Jun 2027 17:55:59.304   01 Jun 2027 17:58:14.509           135.205                Anadyr1          4225.156
        64   01 Jun 2027 17:58:18.767   01 Jun 2027 17:58:28.848            10.081                Anadyr2           315.031
        65   01 Jun 2027 17:58:33.736   01 Jun 2027 18:00:33.547           119.811               Magadan2          3744.094
        66   01 Jun 2027 18:00:54.178   01 Jun 2027 18:02:13.554            79.376               Magadan1          2480.500
        67   01 Jun 2027 19:31:50.856   01 Jun 2027 19:33:45.388           114.532                Anadyr1          3579.125
        68   01 Jun 2027 19:33:48.700   01 Jun 2027 19:35:44.245           115.545                Anadyr2          3610.781
        69   01 Jun 2027 19:36:02.417   01 Jun 2027 19:37:00.060            57.643               Magadan2          1801.344
        70   01 Jun 2027 19:37:00.060   01 Jun 2027 19:37:14.181            14.121               Magadan1           441.281
        71   01 Jun 2027 19:37:33.148   01 Jun 2027 19:37:54.230            21.082                Norilsk           658.813
        72   01 Jun 2027 19:39:17.149   01 Jun 2027 19:39:39.379            22.230               Magadan2           694.688
        73   01 Jun 2027 19:40:28.284   01 Jun 2027 19:42:31.840           123.556                Irkutsk          3861.125
        74   01 Jun 2027 19:44:07.885   01 Jun 2027 19:44:44.285            36.400                Irkutsk          1137.500
        75   01 Jun 2027 19:45:00.912   01 Jun 2027 19:46:05.392            64.480                Irkutsk          2015.000
        76   01 Jun 2027 19:55:50.999   01 Jun 2027 19:56:56.163            65.164                Sumatra          2036.375
        77   01 Jun 2027 19:59:51.216   01 Jun 2027 20:00:46.263            55.047                Sumatra          1720.219
        78   01 Jun 2027 21:09:43.844   01 Jun 2027 21:11:37.844           114.000                Norilsk          3562.500
        79   01 Jun 2027 21:11:38.560   01 Jun 2027 21:13:02.312            83.752               Magadan2          2617.250
        80   01 Jun 2027 21:14:43.559   01 Jun 2027 21:18:32.975           229.416                Novosib          7169.250
        81   01 Jun 2027 21:27:25.367   01 Jun 2027 21:28:00.461            35.094                Sumatra          1096.687
        82   01 Jun 2027 22:41:37.674   01 Jun 2027 22:42:10.250            32.576                Anadyr1          1018.000
        83   01 Jun 2027 22:45:43.098   01 Jun 2027 22:46:34.962            51.864                Norilsk          1620.750
        84   01 Jun 2027 22:46:59.910   01 Jun 2027 22:47:37.018            37.108               Magadan2          1159.625
        85   01 Jun 2027 22:48:20.527   01 Jun 2027 22:48:41.731            21.204               Magadan2           662.625
        86   01 Jun 2027 22:49:19.769   01 Jun 2027 22:52:21.520           181.751              Murmansk1          5679.719
        87   01 Jun 2027 22:56:59.597   01 Jun 2027 22:58:35.564            95.967                  Delhi          2998.969
        88   01 Jun 2027 22:59:43.644   01 Jun 2027 23:00:07.819            24.175                  Delhi           755.469
        89   01 Jun 2027 23:02:50.991   01 Jun 2027 23:03:00.934             9.943                  Delhi           310.719
        90   01 Jun 2027 23:05:03.090   01 Jun 2027 23:06:30.122            87.032                  Delhi          2719.750
        91   02 Jun 2027 00:14:58.973   02 Jun 2027 00:15:06.447             7.474                Anadyr1           233.563
        92   02 Jun 2027 00:16:55.078   02 Jun 2027 00:17:29.304            34.226                Anadyr2          1069.562
        93   02 Jun 2027 00:17:47.482   02 Jun 2027 00:18:16.001            28.519                Anadyr2           891.219
        94   02 Jun 2027 00:21:08.193   02 Jun 2027 00:22:25.223            77.030               Magadan1          2407.187
        95   02 Jun 2027 00:22:29.944   02 Jun 2027 00:22:42.321            12.377               Magadan2           386.781
        96   02 Jun 2027 00:23:03.403   02 Jun 2027 00:23:30.650            27.247               Magadan2           851.469
        97   02 Jun 2027 00:23:56.869   02 Jun 2027 00:27:13.447           196.578              Murmansk2          6143.062
        98   02 Jun 2027 00:27:50.075   02 Jun 2027 00:29:12.714            82.639              Murmansk2          2582.469
        99   02 Jun 2027 00:29:17.352   02 Jun 2027 00:29:54.215            36.863              Murmansk2          1151.969
       100   02 Jun 2027 00:55:20.240   02 Jun 2027 00:56:55.182            94.942               CapeTown          2966.938
       101   02 Jun 2027 00:58:02.823   02 Jun 2027 00:58:43.367            40.544               CapeTown          1267.000
       102   02 Jun 2027 01:51:05.993   02 Jun 2027 01:51:34.452            28.459                Anadyr2           889.344
       103   02 Jun 2027 01:52:58.364   02 Jun 2027 01:54:37.232            98.868               Magadan1          3089.625
       104   02 Jun 2027 01:55:21.202   02 Jun 2027 01:55:33.205            12.003               Magadan2           375.094
       105   02 Jun 2027 01:57:04.092   02 Jun 2027 01:57:38.283            34.191               Magadan2          1068.469
       106   02 Jun 2027 01:59:49.258   02 Jun 2027 02:00:07.107            17.849              Murmansk2           557.781
       107   02 Jun 2027 02:00:08.280   02 Jun 2027 02:02:31.036           142.756              Murmansk1          4461.125
       108   02 Jun 2027 02:11:27.167   02 Jun 2027 02:11:38.239            11.072                 Moscow           346.000
       109   02 Jun 2027 02:12:34.352   02 Jun 2027 02:12:38.998             4.646                 Moscow           145.187
       110   02 Jun 2027 02:14:32.408   02 Jun 2027 02:14:41.326             8.918                 Moscow           278.688
       111   02 Jun 2027 02:27:00.330   02 Jun 2027 02:27:56.447            56.117               CapeTown          1753.656
       112   02 Jun 2027 02:34:05.461   02 Jun 2027 02:35:30.083            84.622               CapeTown          2644.438
       113   02 Jun 2027 03:29:57.860   02 Jun 2027 03:30:42.111            44.251               Magadan1          1382.844
       114   02 Jun 2027 03:30:42.111   02 Jun 2027 03:31:33.310            51.199               Magadan2          1599.969
       115   02 Jun 2027 03:31:37.288   02 Jun 2027 03:31:55.235            17.947                Anadyr1           560.844
       116   02 Jun 2027 03:32:10.949   02 Jun 2027 03:32:29.836            18.887               Magadan1           590.219
       117   02 Jun 2027 03:32:41.332   02 Jun 2027 03:34:55.519           134.187                Anadyr1          4193.344
       118   02 Jun 2027 03:35:02.947   02 Jun 2027 03:35:16.060            13.113                Anadyr1           409.781
       119   02 Jun 2027 05:06:17.787   02 Jun 2027 05:07:38.395            80.608               Magadan1          2519.000
       120   02 Jun 2027 05:07:38.395   02 Jun 2027 05:08:02.206            23.811               Magadan2           744.094
       121   02 Jun 2027 05:08:05.258   02 Jun 2027 05:08:06.952             1.694               Magadan2            52.938
       122   02 Jun 2027 05:08:17.158   02 Jun 2027 05:08:52.417            35.259               Magadan2          1101.844
       123   02 Jun 2027 05:08:52.417   02 Jun 2027 05:12:13.283           200.866               Magadan1          6277.062
       124   02 Jun 2027 06:42:12.384   02 Jun 2027 06:47:58.210           345.826               Magadan1         10807.063
       125   02 Jun 2027 08:20:19.741   02 Jun 2027 08:22:09.506           109.765               Magadan1          3430.156
       126   02 Jun 2027 08:22:19.246   02 Jun 2027 08:23:55.164            95.918                Irkutsk          2997.438
       127   02 Jun 2027 08:24:49.570   02 Jun 2027 08:25:07.926            18.356                Novosib           573.625
       128   02 Jun 2027 08:58:52.526   02 Jun 2027 08:59:12.236            19.710            RioGallegos           615.937
       129   02 Jun 2027 09:00:23.013   02 Jun 2027 09:01:36.483            73.470            RioGallegos          2295.937
       130   02 Jun 2027 09:33:45.970   02 Jun 2027 09:35:21.803            95.833                Sumatra          2994.781
       131   02 Jun 2027 09:42:13.846   02 Jun 2027 09:42:34.537            20.691                Sumatra           646.594
       132   02 Jun 2027 09:54:08.633   02 Jun 2027 09:54:15.652             7.019                Novosib           219.344
       133   02 Jun 2027 09:54:20.674   02 Jun 2027 09:55:20.999            60.325                Novosib          1885.156
       134   02 Jun 2027 09:55:59.502   02 Jun 2027 09:56:38.022            38.520                Irkutsk          1203.750
       135   02 Jun 2027 09:57:08.893   02 Jun 2027 09:57:31.115            22.222                Irkutsk           694.438
       136   02 Jun 2027 09:57:47.613   02 Jun 2027 09:57:50.417             2.804                Irkutsk            87.625
       137   02 Jun 2027 09:57:54.859   02 Jun 2027 09:57:57.125             2.266                Irkutsk            70.812
       138   02 Jun 2027 09:58:05.533   02 Jun 2027 09:58:06.749             1.216                Novosib            38.000
       139   02 Jun 2027 09:58:18.277   02 Jun 2027 09:58:23.081             4.804                Novosib           150.125
       140   02 Jun 2027 09:58:31.857   02 Jun 2027 09:59:28.231            56.374                Irkutsk          1761.688
       141   02 Jun 2027 09:59:44.592   02 Jun 2027 10:00:21.881            37.289                Novosib          1165.281
       142   02 Jun 2027 10:39:47.104   02 Jun 2027 10:40:27.508            40.404            RioGallegos          1262.625
       143   02 Jun 2027 11:17:51.637   02 Jun 2027 11:18:17.288            25.651                  Delhi           801.594
       144   02 Jun 2027 11:18:22.791   02 Jun 2027 11:18:56.310            33.519                  Delhi          1047.469
       145   02 Jun 2027 11:22:35.978   02 Jun 2027 11:22:50.673            14.695                  Delhi           459.219
       146   02 Jun 2027 11:29:08.153   02 Jun 2027 11:29:37.754            29.601                  Delhi           925.031
       147   02 Jun 2027 11:31:15.577   02 Jun 2027 11:31:18.845             3.268                Novosib           102.125
       148   02 Jun 2027 11:31:37.679   02 Jun 2027 11:32:06.889            29.210                Novosib           912.812
       149   02 Jun 2027 11:33:03.416   02 Jun 2027 11:33:10.296             6.880                Norilsk           215.000
       150   02 Jun 2027 11:33:38.602   02 Jun 2027 11:33:46.709             8.107                Norilsk           253.344
       151   02 Jun 2027 11:33:55.558   02 Jun 2027 11:34:16.687            21.129                Novosib           660.281
       152   02 Jun 2027 11:34:19.795   02 Jun 2027 11:35:22.885            63.090                Novosib          1971.562
       153   02 Jun 2027 13:02:01.780   02 Jun 2027 13:03:40.853            99.073                 Moscow          3096.031
       154   02 Jun 2027 13:04:18.194   02 Jun 2027 13:05:20.738            62.544                 Moscow          1954.500
       155   02 Jun 2027 13:05:30.316   02 Jun 2027 13:06:27.679            57.363              Murmansk1          1792.594
       156   02 Jun 2027 13:06:27.679   02 Jun 2027 13:06:54.158            26.479              Murmansk2           827.469
       157   02 Jun 2027 13:07:20.003   02 Jun 2027 13:07:23.093             3.090              Murmansk2            96.562
       158   02 Jun 2027 13:07:45.002   02 Jun 2027 13:08:49.821            64.819              Murmansk1          2025.594
       159   02 Jun 2027 13:11:03.910   02 Jun 2027 13:11:15.019            11.109                Norilsk           347.156
       160   02 Jun 2027 13:12:43.471   02 Jun 2027 13:13:08.799            25.328                Norilsk           791.500
       161   02 Jun 2027 14:16:24.006   02 Jun 2027 14:18:59.314           155.308               CapeTown          4853.375
       162   02 Jun 2027 14:19:44.487   02 Jun 2027 14:21:13.453            88.966               CapeTown          2780.187
       163   02 Jun 2027 14:42:43.920   02 Jun 2027 14:43:53.332            69.412              Murmansk2          2169.125
       164   02 Jun 2027 14:44:45.046   02 Jun 2027 14:44:47.889             2.843              Murmansk2            88.844
       165   02 Jun 2027 14:44:53.980   02 Jun 2027 14:45:13.229            19.249              Murmansk2           601.531
       166   02 Jun 2027 14:45:14.435   02 Jun 2027 14:46:37.734            83.299              Murmansk2          2603.094
       167   02 Jun 2027 14:56:29.654   02 Jun 2027 14:59:06.464           156.810                Anadyr1          4900.312
       168   02 Jun 2027 16:22:18.304   02 Jun 2027 16:24:37.544           139.240              Murmansk1          4351.250
       169   02 Jun 2027 16:24:37.544   02 Jun 2027 16:24:50.887            13.343              Murmansk2           416.969
       170   02 Jun 2027 16:26:35.856   02 Jun 2027 16:26:42.964             7.108              Murmansk1           222.125
       171   02 Jun 2027 16:32:05.652   02 Jun 2027 16:32:53.581            47.929                Anadyr1          1497.781
       172   02 Jun 2027 16:33:08.961   02 Jun 2027 16:34:01.609            52.648                Anadyr2          1645.250
       173   02 Jun 2027 16:34:44.496   02 Jun 2027 16:35:02.389            17.893                Anadyr1           559.156
       174   02 Jun 2027 16:35:13.589   02 Jun 2027 16:35:48.350            34.761                Anadyr2          1086.281
       175   02 Jun 2027 16:35:56.874   02 Jun 2027 16:39:19.850           202.976               Magadan2          6343.000
       176   02 Jun 2027 18:08:00.699   02 Jun 2027 18:11:02.324           181.625                Anadyr1          5675.781
       177   02 Jun 2027 18:11:11.967   02 Jun 2027 18:11:51.732            39.765                Anadyr1          1242.656
       178   02 Jun 2027 18:11:52.581   02 Jun 2027 18:12:30.302            37.721               Magadan1          1178.781
       179   02 Jun 2027 18:13:38.091   02 Jun 2027 18:13:56.864            18.773               Magadan2           586.656
       180   02 Jun 2027 18:17:12.149   02 Jun 2027 18:17:31.227            19.078               Magadan2           596.188
       181   02 Jun 2027 18:18:23.892   02 Jun 2027 18:18:28.068             4.176               Magadan2           130.500
       182   02 Jun 2027 18:18:36.616   02 Jun 2027 18:19:48.839            72.223               Magadan1          2256.969
       183   02 Jun 2027 19:04:46.490   02 Jun 2027 19:07:00.207           133.717            RioGallegos          4178.656
       184   02 Jun 2027 19:43:50.467   02 Jun 2027 19:44:05.217            14.750                Anadyr2           460.937
       185   02 Jun 2027 19:45:33.714   02 Jun 2027 19:45:46.384            12.670                Anadyr1           395.938
       186   02 Jun 2027 19:46:02.900   02 Jun 2027 19:49:53.005           230.105                Norilsk          7190.781
       187   02 Jun 2027 19:51:07.411   02 Jun 2027 19:54:19.430           192.019                Irkutsk          6000.594
       188   02 Jun 2027 19:56:13.405   02 Jun 2027 19:57:00.110            46.705                Irkutsk          1459.531
       189   02 Jun 2027 20:06:23.255   02 Jun 2027 20:08:25.143           121.888                Sumatra          3809.000
       190   02 Jun 2027 20:09:48.783   02 Jun 2027 20:11:41.258           112.475                Sumatra          3514.844
       191   02 Jun 2027 21:26:27.990   02 Jun 2027 21:28:12.213           104.223                Novosib          3256.969
       192   02 Jun 2027 21:37:19.402   02 Jun 2027 21:38:44.162            84.760                  Delhi          2648.750
       193   02 Jun 2027 21:39:28.280   02 Jun 2027 21:40:48.659            80.379                  Delhi          2511.844
       194   02 Jun 2027 22:57:45.039   02 Jun 2027 22:57:49.221             4.182                Norilsk           130.687
       195   02 Jun 2027 22:58:19.223   02 Jun 2027 22:58:29.815            10.592               Magadan1           331.000
       196   02 Jun 2027 22:58:29.815   02 Jun 2027 22:59:09.299            39.484               Magadan2          1233.875
       197   02 Jun 2027 23:00:03.635   02 Jun 2027 23:00:11.099             7.464               Magadan1           233.250
       198   02 Jun 2027 23:00:52.410   02 Jun 2027 23:04:19.203           206.793              Murmansk1          6462.281
       199   02 Jun 2027 23:08:54.998   02 Jun 2027 23:09:21.973            26.975                  Delhi           842.969
       200   02 Jun 2027 23:12:02.315   02 Jun 2027 23:12:29.563            27.248                  Delhi           851.500
       201   02 Jun 2027 23:12:54.971   02 Jun 2027 23:13:02.419             7.448                  Delhi           232.750
       202   02 Jun 2027 23:15:57.084   02 Jun 2027 23:16:57.868            60.784                  Delhi          1899.500
       203   03 Jun 2027 00:26:40.438   03 Jun 2027 00:27:26.900            46.462                Anadyr2          1451.938
       204   03 Jun 2027 00:27:26.900   03 Jun 2027 00:27:40.628            13.728                Anadyr1           429.000
       205   03 Jun 2027 00:28:17.193   03 Jun 2027 00:28:56.393            39.200                Anadyr1          1225.000
       206   03 Jun 2027 00:29:14.339   03 Jun 2027 00:29:28.520            14.181                Anadyr1           443.156
       207   03 Jun 2027 00:29:28.520   03 Jun 2027 00:29:42.324            13.804                Anadyr2           431.375
       208   03 Jun 2027 00:32:45.623   03 Jun 2027 00:34:03.955            78.332               Magadan1          2447.875
       209   03 Jun 2027 00:34:03.955   03 Jun 2027 00:34:27.410            23.455               Magadan2           732.969
       210   03 Jun 2027 00:34:41.385   03 Jun 2027 00:34:53.109            11.724               Magadan1           366.375
       211   03 Jun 2027 00:35:56.647   03 Jun 2027 00:39:53.958           237.311              Murmansk1          7415.969
       212   03 Jun 2027 00:40:25.060   03 Jun 2027 00:40:55.485            30.425                 Moscow           950.781
       213   03 Jun 2027 00:42:12.847   03 Jun 2027 00:43:24.152            71.305                 Moscow          2228.281
       214   03 Jun 2027 01:06:15.770   03 Jun 2027 01:07:19.398            63.628               CapeTown          1988.375
       215   03 Jun 2027 01:09:56.542   03 Jun 2027 01:10:14.412            17.870               CapeTown           558.437
       216   03 Jun 2027 01:14:10.194   03 Jun 2027 01:14:15.378             5.184               CapeTown           162.000
       217   03 Jun 2027 02:00:26.643   03 Jun 2027 02:00:40.937            14.294                Anadyr2           446.687
       218   03 Jun 2027 02:01:19.821   03 Jun 2027 02:01:34.412            14.591                Anadyr2           455.969
       219   03 Jun 2027 02:02:14.004   03 Jun 2027 02:02:25.349            11.345                Anadyr2           354.531
       220   03 Jun 2027 02:03:01.320   03 Jun 2027 02:03:37.935            36.615                Anadyr2          1144.219
       221   03 Jun 2027 02:04:27.499   03 Jun 2027 02:05:19.021            51.522               Magadan1          1610.062
       222   03 Jun 2027 02:05:45.777   03 Jun 2027 02:06:09.935            24.158               Magadan1           754.937
       223   03 Jun 2027 02:08:14.302   03 Jun 2027 02:08:44.137            29.835               Magadan1           932.344
       224   03 Jun 2027 02:11:50.997   03 Jun 2027 02:12:05.208            14.211              Murmansk1           444.094
       225   03 Jun 2027 02:12:22.729   03 Jun 2027 02:13:33.660            70.931              Murmansk2          2216.594
       226   03 Jun 2027 02:14:17.006   03 Jun 2027 02:14:27.660            10.654                Novosib           332.938
       227   03 Jun 2027 02:14:56.277   03 Jun 2027 02:15:24.081            27.804                Novosib           868.875
       228   03 Jun 2027 02:15:35.075   03 Jun 2027 02:15:38.473             3.398                Novosib           106.188
       229   03 Jun 2027 02:16:34.335   03 Jun 2027 02:16:36.597             2.262                 Moscow            70.687
       230   03 Jun 2027 02:16:51.615   03 Jun 2027 02:17:27.297            35.682                 Moscow          1115.063
       231   03 Jun 2027 02:20:04.959   03 Jun 2027 02:22:19.129           134.170                 Moscow          4192.812
       232   03 Jun 2027 03:41:58.715   03 Jun 2027 03:45:40.054           221.339               Magadan1          6916.844
       233   03 Jun 2027 03:45:40.054   03 Jun 2027 03:47:30.445           110.391               Magadan2          3449.719
       234   03 Jun 2027 05:21:07.729   03 Jun 2027 05:21:58.377            50.648               Magadan1          1582.750
       235   03 Jun 2027 05:22:12.521   03 Jun 2027 05:24:14.844           122.323               Magadan2          3822.594
       236   03 Jun 2027 06:53:30.005   03 Jun 2027 06:53:32.463             2.458               Magadan1            76.813
       237   03 Jun 2027 06:53:45.401   03 Jun 2027 06:53:53.927             8.526               Magadan2           266.437
       238   03 Jun 2027 06:54:00.739   03 Jun 2027 06:54:41.230            40.491                Anadyr1          1265.344
       239   03 Jun 2027 06:54:55.687   03 Jun 2027 06:56:10.323            74.636               Magadan2          2332.375
       240   03 Jun 2027 06:56:28.802   03 Jun 2027 06:56:31.229             2.427               Magadan1            75.844
       241   03 Jun 2027 06:56:31.229   03 Jun 2027 06:56:50.022            18.793               Magadan2           587.281
       242   03 Jun 2027 06:56:52.614   03 Jun 2027 06:57:31.627            39.013                Anadyr2          1219.156
       243   03 Jun 2027 06:57:31.627   03 Jun 2027 06:58:02.601            30.974                Anadyr1           967.937
       244   03 Jun 2027 06:58:12.826   03 Jun 2027 06:58:54.907            42.081                Anadyr1          1315.031
       245   03 Jun 2027 06:58:54.907   03 Jun 2027 06:58:59.853             4.946                Anadyr2           154.563
       246   03 Jun 2027 06:59:07.777   03 Jun 2027 06:59:36.583            28.806                Novosib           900.188
       247   03 Jun 2027 06:59:40.545   03 Jun 2027 06:59:53.778            13.233              Murmansk2           413.531
       248   03 Jun 2027 07:00:05.247   03 Jun 2027 07:00:05.406             0.159              Murmansk2             4.969
       249   03 Jun 2027 07:08:34.684   03 Jun 2027 07:09:01.031            26.347              Murmansk1           823.344
       250   03 Jun 2027 08:11:53.249   03 Jun 2027 08:12:15.183            21.934                Sumatra           685.438
       251   03 Jun 2027 08:30:18.024   03 Jun 2027 08:30:38.826            20.802               Magadan1           650.063
       252   03 Jun 2027 08:31:00.179   03 Jun 2027 08:31:13.922            13.743               Magadan2           429.469
       253   03 Jun 2027 08:32:17.132   03 Jun 2027 08:32:39.488            22.356                Irkutsk           698.625
       254   03 Jun 2027 08:33:40.738   03 Jun 2027 08:33:55.127            14.389                Irkutsk           449.656
       255   03 Jun 2027 08:34:16.654   03 Jun 2027 08:34:46.343            29.689                Irkutsk           927.781
       256   03 Jun 2027 08:34:48.389   03 Jun 2027 08:35:18.747            30.358                Novosib           948.687
       257   03 Jun 2027 08:35:37.451   03 Jun 2027 08:35:57.397            19.946                Novosib           623.312
       258   03 Jun 2027 09:11:08.456   03 Jun 2027 09:12:23.546            75.090            RioGallegos          2346.563
       259   03 Jun 2027 09:45:33.783   03 Jun 2027 09:46:20.714            46.931                Sumatra          1466.594
       260   03 Jun 2027 09:49:44.928   03 Jun 2027 09:50:09.327            24.399                Sumatra           762.469
       261   03 Jun 2027 10:00:05.687   03 Jun 2027 10:00:50.099            44.412                  Delhi          1387.875
       262   03 Jun 2027 10:07:26.949   03 Jun 2027 10:07:46.511            19.562                Novosib           611.312
       263   03 Jun 2027 10:08:59.110   03 Jun 2027 10:09:20.011            20.901                Irkutsk           653.156
       264   03 Jun 2027 10:09:26.141   03 Jun 2027 10:09:30.822             4.681                Novosib           146.281
       265   03 Jun 2027 10:09:36.836   03 Jun 2027 10:09:40.431             3.595                Norilsk           112.344
       266   03 Jun 2027 10:09:45.584   03 Jun 2027 10:10:08.285            22.701                Novosib           709.406
       267   03 Jun 2027 10:10:16.724   03 Jun 2027 10:10:30.131            13.407                Irkutsk           418.969
       268   03 Jun 2027 10:10:45.606   03 Jun 2027 10:11:08.138            22.532                Norilsk           704.125
       269   03 Jun 2027 10:11:11.180   03 Jun 2027 10:11:20.744             9.564                Novosib           298.875
       270   03 Jun 2027 10:11:31.692   03 Jun 2027 10:11:46.789            15.097                Norilsk           471.781
       271   03 Jun 2027 11:30:08.895   03 Jun 2027 11:32:26.139           137.244                  Delhi          4288.875
       272   03 Jun 2027 11:44:02.564   03 Jun 2027 11:44:13.702            11.138                Novosib           348.063
       273   03 Jun 2027 11:45:05.436   03 Jun 2027 11:45:24.069            18.633                Norilsk           582.281
       274   03 Jun 2027 11:45:33.054   03 Jun 2027 11:45:49.273            16.219                Norilsk           506.844
       275   03 Jun 2027 11:45:55.276   03 Jun 2027 11:46:15.359            20.083                Novosib           627.594
       276   03 Jun 2027 11:46:23.738   03 Jun 2027 11:47:05.847            42.109                Norilsk          1315.906
       277   03 Jun 2027 11:47:12.467   03 Jun 2027 11:47:16.290             3.823                Norilsk           119.469
       278   03 Jun 2027 11:47:22.128   03 Jun 2027 11:47:25.541             3.413                Norilsk           106.656
       279   03 Jun 2027 13:14:04.517   03 Jun 2027 13:15:07.140            62.623                 Moscow          1956.969
       280   03 Jun 2027 13:16:09.114   03 Jun 2027 13:16:18.185             9.071                 Moscow           283.469
       281   03 Jun 2027 13:16:56.866   03 Jun 2027 13:17:07.027            10.161                 Moscow           317.531
       282   03 Jun 2027 13:17:21.732   03 Jun 2027 13:18:20.388            58.656                 Moscow          1833.000
       283   03 Jun 2027 13:22:48.215   03 Jun 2027 13:26:49.470           241.255                Norilsk          7539.219
       284   03 Jun 2027 14:28:07.024   03 Jun 2027 14:28:49.257            42.233               CapeTown          1319.781
       285   03 Jun 2027 14:35:29.015   03 Jun 2027 14:35:38.809             9.794               CapeTown           306.062
       286   03 Jun 2027 14:37:25.061   03 Jun 2027 14:37:31.469             6.408               CapeTown           200.250
       287   03 Jun 2027 14:38:35.661   03 Jun 2027 14:38:48.851            13.190               CapeTown           412.188
       288   03 Jun 2027 14:52:15.410   03 Jun 2027 14:52:39.596            24.186                 Moscow           755.812
       289   03 Jun 2027 14:52:51.220   03 Jun 2027 14:53:26.126            34.906                 Moscow          1090.812
       290   03 Jun 2027 14:55:03.876   03 Jun 2027 14:55:49.116            45.240              Murmansk2          1413.750
       291   03 Jun 2027 14:56:49.097   03 Jun 2027 14:57:11.890            22.793              Murmansk2           712.281
       292   03 Jun 2027 14:57:11.890   03 Jun 2027 14:58:39.567            87.677              Murmansk1          2739.906
       293   03 Jun 2027 15:08:25.865   03 Jun 2027 15:10:51.017           145.152                Anadyr1          4536.000
       294   03 Jun 2027 15:14:01.485   03 Jun 2027 15:14:09.483             7.998                Anadyr1           249.937
       295   03 Jun 2027 15:14:28.023   03 Jun 2027 15:15:07.620            39.597                Anadyr1          1237.406
       296   03 Jun 2027 16:08:32.829   03 Jun 2027 16:09:01.638            28.809               CapeTown           900.281
       297   03 Jun 2027 16:14:08.419   03 Jun 2027 16:14:15.341             6.922               CapeTown           216.313
       298   03 Jun 2027 16:14:32.302   03 Jun 2027 16:14:55.854            23.552               CapeTown           736.000
       299   03 Jun 2027 16:35:01.484   03 Jun 2027 16:38:16.004           194.520              Murmansk2          6078.750
       300   03 Jun 2027 16:44:06.558   03 Jun 2027 16:46:45.748           159.190                Anadyr2          4974.687
       301   03 Jun 2027 16:47:07.562   03 Jun 2027 16:49:50.312           162.750               Magadan2          5085.937
       302   03 Jun 2027 18:20:02.013   03 Jun 2027 18:22:33.870           151.857                Anadyr1          4745.531
       303   03 Jun 2027 18:23:06.722   03 Jun 2027 18:23:28.242            21.520                Anadyr1           672.500
       304   03 Jun 2027 18:23:35.538   03 Jun 2027 18:23:42.238             6.700                Anadyr1           209.375
       305   03 Jun 2027 18:23:54.550   03 Jun 2027 18:25:38.245           103.695               Magadan2          3240.469
       306   03 Jun 2027 18:27:57.401   03 Jun 2027 18:28:37.830            40.429               Magadan2          1263.406
       307   03 Jun 2027 19:15:52.566   03 Jun 2027 19:18:42.283           169.717            RioGallegos          5303.656
       308   03 Jun 2027 19:21:02.876   03 Jun 2027 19:22:13.743            70.867            RioGallegos          2214.594
       309   03 Jun 2027 19:57:59.758   03 Jun 2027 20:01:35.468           215.710                Norilsk          6740.937
       310   03 Jun 2027 20:02:46.870   03 Jun 2027 20:03:34.241            47.371                Irkutsk          1480.344
       311   03 Jun 2027 20:04:24.849   03 Jun 2027 20:06:26.489           121.640                Irkutsk          3801.250
       312   03 Jun 2027 20:17:28.399   03 Jun 2027 20:17:57.793            29.394                Sumatra           918.562
       313   03 Jun 2027 20:19:01.754   03 Jun 2027 20:20:02.924            61.170                Sumatra          1911.562
       314   03 Jun 2027 20:21:11.186   03 Jun 2027 20:21:33.326            22.140                Sumatra           691.875
       315   03 Jun 2027 20:22:13.618   03 Jun 2027 20:23:37.098            83.480                Sumatra          2608.750
       316   03 Jun 2027 21:33:46.838   03 Jun 2027 21:34:17.245            30.407                Norilsk           950.219
       317   03 Jun 2027 21:37:40.448   03 Jun 2027 21:39:09.447            88.999                Irkutsk          2781.219
       318   03 Jun 2027 21:39:26.114   03 Jun 2027 21:40:48.502            82.388                Novosib          2574.625
       319   03 Jun 2027 21:47:44.515   03 Jun 2027 21:49:56.209           131.694                  Delhi          4115.438
       320   03 Jun 2027 23:06:09.731   03 Jun 2027 23:06:36.247            26.516                Anadyr1           828.625
       321   03 Jun 2027 23:07:13.849   03 Jun 2027 23:07:28.520            14.671                Anadyr1           458.469
       322   03 Jun 2027 23:09:21.587   03 Jun 2027 23:09:33.764            12.177                Anadyr1           380.531
       323   03 Jun 2027 23:09:33.764   03 Jun 2027 23:09:52.402            18.638                Anadyr2           582.437
       324   03 Jun 2027 23:09:59.354   03 Jun 2027 23:11:20.938            81.584                Norilsk          2549.500
       325   03 Jun 2027 23:11:44.789   03 Jun 2027 23:11:53.090             8.301               Magadan1           259.406
       326   03 Jun 2027 23:12:37.413   03 Jun 2027 23:14:41.359           123.946              Murmansk1          3873.313
       327   03 Jun 2027 23:15:36.227   03 Jun 2027 23:16:22.777            46.550              Murmansk2          1454.688
       328   03 Jun 2027 23:18:08.041   03 Jun 2027 23:18:28.577            20.536              Murmansk2           641.750
       329   03 Jun 2027 23:21:35.311   03 Jun 2027 23:22:59.400            84.089                  Delhi          2627.781
       330   04 Jun 2027 00:38:22.401   04 Jun 2027 00:39:24.512            62.111                Anadyr1          1940.969
       331   04 Jun 2027 00:40:12.722   04 Jun 2027 00:41:00.582            47.860                Anadyr2          1495.625
       332   04 Jun 2027 00:41:09.701   04 Jun 2027 00:41:33.035            23.334                Anadyr2           729.187
       333   04 Jun 2027 00:44:10.767   04 Jun 2027 00:44:25.153            14.386                Anadyr2           449.562
       334   04 Jun 2027 00:44:59.091   04 Jun 2027 00:46:44.284           105.193               Magadan1          3287.281
       335   04 Jun 2027 00:47:56.928   04 Jun 2027 00:50:36.530           159.602              Murmansk1          4987.562
       336   04 Jun 2027 00:50:49.613   04 Jun 2027 00:51:41.022            51.409              Murmansk1          1606.531
       337   04 Jun 2027 00:51:45.618   04 Jun 2027 00:52:37.221            51.603                 Moscow          1612.594
       338   04 Jun 2027 01:03:55.635   04 Jun 2027 01:04:34.291            38.656                  Delhi          1208.000
       339   04 Jun 2027 01:17:26.959   04 Jun 2027 01:17:42.625            15.666               CapeTown           489.563
       340   04 Jun 2027 01:18:33.516   04 Jun 2027 01:18:59.350            25.834               CapeTown           807.313
       341   04 Jun 2027 01:21:11.413   04 Jun 2027 01:21:47.936            36.523               CapeTown          1141.344
       342   04 Jun 2027 02:12:17.188   04 Jun 2027 02:13:19.114            61.926                Anadyr1          1935.187
       343   04 Jun 2027 02:13:35.785   04 Jun 2027 02:14:15.627            39.842                Anadyr1          1245.062
       344   04 Jun 2027 02:15:57.608   04 Jun 2027 02:17:15.040            77.432               Magadan2          2419.750
       345   04 Jun 2027 02:21:16.321   04 Jun 2027 02:21:49.454            33.133                Norilsk          1035.406
       346   04 Jun 2027 02:23:52.765   04 Jun 2027 02:24:44.627            51.862              Murmansk1          1620.687
       347   04 Jun 2027 02:24:54.377   04 Jun 2027 02:25:33.007            38.630              Murmansk1          1207.188
       348   04 Jun 2027 02:26:52.680   04 Jun 2027 02:27:45.362            52.682                Novosib          1646.312
       349   04 Jun 2027 02:31:30.769   04 Jun 2027 02:31:44.847            14.078                 Moscow           439.938
       350   04 Jun 2027 02:34:49.225   04 Jun 2027 02:35:16.430            27.205                 Moscow           850.156
       351   04 Jun 2027 02:37:49.469   04 Jun 2027 02:39:18.609            89.140                 Moscow          2785.625
       352   04 Jun 2027 03:53:33.977   04 Jun 2027 03:55:06.799            92.822                Anadyr2          2900.688
       353   04 Jun 2027 03:55:09.074   04 Jun 2027 03:56:44.296            95.222                Anadyr1          2975.688
       354   04 Jun 2027 03:59:10.306   04 Jun 2027 03:59:16.433             6.127                Anadyr2           191.469
       355   04 Jun 2027 05:32:08.937   04 Jun 2027 05:32:49.132            40.195                Irkutsk          1256.094
       356   04 Jun 2027 05:33:17.847   04 Jun 2027 05:33:25.469             7.622                Irkutsk           238.188
       357   04 Jun 2027 07:05:49.842   04 Jun 2027 07:05:59.194             9.352               Magadan2           292.250
       358   04 Jun 2027 07:06:05.366   04 Jun 2027 07:06:29.968            24.602               Magadan2           768.813
       359   04 Jun 2027 07:06:34.664   04 Jun 2027 07:07:01.350            26.686               Magadan1           833.937
       360   04 Jun 2027 07:07:24.467   04 Jun 2027 07:08:53.534            89.067                Anadyr2          2783.344
       361   04 Jun 2027 07:09:04.940   04 Jun 2027 07:09:21.443            16.503               Magadan1           515.719
       362   04 Jun 2027 07:09:29.471   04 Jun 2027 07:10:16.631            47.160                Anadyr1          1473.750
       363   04 Jun 2027 07:10:30.118   04 Jun 2027 07:10:41.548            11.430               Magadan2           357.187
       364   04 Jun 2027 07:10:58.986   04 Jun 2027 07:11:25.647            26.661              Murmansk1           833.156
       365   04 Jun 2027 07:11:28.986   04 Jun 2027 07:11:43.628            14.642              Murmansk1           457.562
       366   04 Jun 2027 07:11:43.637   04 Jun 2027 07:11:50.847             7.210               Magadan1           225.312
       367   04 Jun 2027 07:11:52.738   04 Jun 2027 07:11:53.276             0.538              Murmansk1            16.812
       368   04 Jun 2027 07:11:55.962   04 Jun 2027 07:12:10.031            14.069              Murmansk1           439.656
       369   04 Jun 2027 07:50:01.065   04 Jun 2027 07:50:06.199             5.134            RioGallegos           160.438
       370   04 Jun 2027 07:50:24.749   04 Jun 2027 07:50:37.673            12.924            RioGallegos           403.875
       371   04 Jun 2027 07:51:28.008   04 Jun 2027 07:51:35.750             7.742            RioGallegos           241.937
       372   04 Jun 2027 08:23:07.458   04 Jun 2027 08:24:26.275            78.817                Sumatra          2463.031
       373   04 Jun 2027 08:42:35.070   04 Jun 2027 08:42:42.737             7.667                Novosib           239.594
       374   04 Jun 2027 08:43:43.621   04 Jun 2027 08:43:55.305            11.684                Irkutsk           365.125
       375   04 Jun 2027 08:43:57.232   04 Jun 2027 08:44:02.738             5.506                Irkutsk           172.063
       376   04 Jun 2027 08:45:40.617   04 Jun 2027 08:46:46.992            66.375                Novosib          2074.219
       377   04 Jun 2027 08:46:51.937   04 Jun 2027 08:47:02.421            10.484                Novosib           327.625
       378   04 Jun 2027 08:47:25.879   04 Jun 2027 08:47:28.998             3.119                Irkutsk            97.469
       379   04 Jun 2027 08:51:23.395   04 Jun 2027 08:51:32.535             9.140              Murmansk2           285.625
       380   04 Jun 2027 09:23:28.723   04 Jun 2027 09:24:27.452            58.729            RioGallegos          1835.281
       381   04 Jun 2027 09:31:35.197   04 Jun 2027 09:32:07.842            32.645            RioGallegos          1020.156
       382   04 Jun 2027 09:57:46.963   04 Jun 2027 09:59:28.159           101.196                Sumatra          3162.375
       383   04 Jun 2027 10:21:16.127   04 Jun 2027 10:21:29.808            13.681                Norilsk           427.531
       384   04 Jun 2027 10:21:32.789   04 Jun 2027 10:21:48.396            15.607                Novosib           487.719
       385   04 Jun 2027 10:21:52.000   04 Jun 2027 10:21:56.238             4.238                Irkutsk           132.438
       386   04 Jun 2027 10:22:14.033   04 Jun 2027 10:22:46.312            32.279                Novosib          1008.719
       387   04 Jun 2027 10:22:52.582   04 Jun 2027 10:23:09.151            16.569                Irkutsk           517.781
       388   04 Jun 2027 11:42:33.347   04 Jun 2027 11:46:17.090           223.743                  Delhi          6991.969
       389   04 Jun 2027 11:57:45.097   04 Jun 2027 11:58:13.729            28.632                Novosib           894.750
       390   04 Jun 2027 11:59:08.035   04 Jun 2027 11:59:12.098             4.063                Norilsk           126.969
       391   04 Jun 2027 11:59:22.599   04 Jun 2027 11:59:36.246            13.647                Novosib           426.469
       392   04 Jun 2027 11:59:38.621   04 Jun 2027 11:59:53.797            15.176                Norilsk           474.250
       393   04 Jun 2027 12:00:58.226   04 Jun 2027 12:01:12.344            14.118                Norilsk           441.188
       394   04 Jun 2027 12:01:49.623   04 Jun 2027 12:02:54.847            65.224                Norilsk          2038.250
       395   04 Jun 2027 13:26:10.249   04 Jun 2027 13:26:42.543            32.294                 Moscow          1009.187
       396   04 Jun 2027 13:27:49.028   04 Jun 2027 13:27:54.989             5.961                 Moscow           186.281
       397   04 Jun 2027 13:28:02.746   04 Jun 2027 13:28:07.204             4.458                 Moscow           139.313
       398   04 Jun 2027 13:29:13.381   04 Jun 2027 13:29:36.755            23.374                 Moscow           730.438
       399   04 Jun 2027 13:29:41.815   04 Jun 2027 13:30:11.265            29.450              Murmansk1           920.312
       400   04 Jun 2027 13:30:37.142   04 Jun 2027 13:30:54.923            17.781                 Moscow           555.656
       401   04 Jun 2027 13:31:12.920   04 Jun 2027 13:31:15.764             2.844                 Moscow            88.875
       402   04 Jun 2027 13:31:23.131   04 Jun 2027 13:31:38.538            15.407              Murmansk1           481.469
       403   04 Jun 2027 13:32:53.251   04 Jun 2027 13:33:04.815            11.564              Murmansk1           361.375
       404   04 Jun 2027 13:33:38.326   04 Jun 2027 13:33:51.204            12.878              Murmansk1           402.438
       405   04 Jun 2027 13:34:29.541   04 Jun 2027 13:34:42.978            13.437              Murmansk2           419.906
       406   04 Jun 2027 13:35:04.652   04 Jun 2027 13:35:39.946            35.294                 Moscow          1102.937
       407   04 Jun 2027 13:35:45.014   04 Jun 2027 13:38:49.686           184.672                Norilsk          5771.000
       408   04 Jun 2027 13:46:20.783   04 Jun 2027 13:47:08.464            47.681                Anadyr1          1490.031
       409   04 Jun 2027 13:48:52.117   04 Jun 2027 13:49:35.012            42.895                Anadyr2          1340.469
       410   04 Jun 2027 14:46:46.796   04 Jun 2027 14:47:12.938            26.142               CapeTown           816.938
       411   04 Jun 2027 14:47:43.776   04 Jun 2027 14:47:56.681            12.905               CapeTown           403.281
       412   04 Jun 2027 14:49:22.501   04 Jun 2027 14:50:42.399            79.898               CapeTown          2496.813
       413   04 Jun 2027 15:07:26.070   04 Jun 2027 15:07:46.185            20.115              Murmansk1           628.594
       414   04 Jun 2027 15:09:11.890   04 Jun 2027 15:09:32.647            20.757                 Moscow           648.656
       415   04 Jun 2027 15:10:41.337   04 Jun 2027 15:11:02.431            21.094              Murmansk2           659.188
       416   04 Jun 2027 15:11:26.700   04 Jun 2027 15:12:31.801            65.101              Murmansk1          2034.406
       417   04 Jun 2027 15:20:23.205   04 Jun 2027 15:21:48.121            84.916                Anadyr1          2653.625
       418   04 Jun 2027 15:21:57.991   04 Jun 2027 15:22:51.546            53.555                Anadyr2          1673.594
       419   04 Jun 2027 15:30:44.657   04 Jun 2027 15:30:57.499            12.842                Anadyr2           401.312
       420   04 Jun 2027 16:22:02.363   04 Jun 2027 16:23:13.106            70.743               CapeTown          2210.719
       421   04 Jun 2027 16:47:49.834   04 Jun 2027 16:49:34.411           104.577              Murmansk1          3268.031
       422   04 Jun 2027 16:50:12.833   04 Jun 2027 16:50:46.995            34.162              Murmansk1          1067.563
       423   04 Jun 2027 16:56:07.661   04 Jun 2027 16:57:48.796           101.135                Anadyr2          3160.469
       424   04 Jun 2027 16:57:48.796   04 Jun 2027 16:58:01.039            12.243                Anadyr1           382.594
       425   04 Jun 2027 16:58:58.060   04 Jun 2027 17:01:33.110           155.050               Magadan2          4845.313
       426   04 Jun 2027 18:32:03.217   04 Jun 2027 18:36:01.021           237.804                Anadyr2          7431.375
       427   04 Jun 2027 18:36:02.042   04 Jun 2027 18:37:16.498            74.456               Magadan1          2326.750
       428   04 Jun 2027 18:38:27.523   04 Jun 2027 18:38:41.853            14.330               Magadan1           447.812
       429   04 Jun 2027 18:39:48.138   04 Jun 2027 18:40:21.226            33.088               Magadan1          1034.000
       430   04 Jun 2027 18:43:28.905   04 Jun 2027 18:43:39.798            10.893               Magadan1           340.406
       431   04 Jun 2027 18:45:50.183   04 Jun 2027 18:46:34.657            44.474               Magadan1          1389.812
       432   04 Jun 2027 19:27:20.413   04 Jun 2027 19:30:28.936           188.523            RioGallegos          5891.344
       433   04 Jun 2027 19:34:07.904   04 Jun 2027 19:34:13.850             5.946            RioGallegos           185.812
       434   04 Jun 2027 20:07:48.266   04 Jun 2027 20:08:17.328            29.062                Anadyr2           908.188
       435   04 Jun 2027 20:09:57.905   04 Jun 2027 20:13:52.720           234.815                Norilsk          7337.969
       436   04 Jun 2027 20:15:06.114   04 Jun 2027 20:15:38.604            32.490                Irkutsk          1015.312
       437   04 Jun 2027 20:16:24.715   04 Jun 2027 20:17:12.871            48.156                Irkutsk          1504.875
       438   04 Jun 2027 20:23:52.388   04 Jun 2027 20:23:57.000             4.612                Irkutsk           144.125
       439   04 Jun 2027 20:28:49.672   04 Jun 2027 20:31:47.857           178.185                Sumatra          5568.281
       440   04 Jun 2027 20:34:30.549   04 Jun 2027 20:35:38.527            67.978                Sumatra          2124.313
       441   04 Jun 2027 21:48:56.392   04 Jun 2027 21:49:11.325            14.933               Magadan1           466.656
       442   04 Jun 2027 21:49:29.914   04 Jun 2027 21:49:43.737            13.823               Magadan1           431.969
       443   04 Jun 2027 21:49:46.593   04 Jun 2027 21:49:51.953             5.360               Magadan2           167.500
       444   04 Jun 2027 21:50:07.660   04 Jun 2027 21:53:44.015           216.355                Novosib          6761.094
       445   04 Jun 2027 21:58:53.151   04 Jun 2027 22:00:07.200            74.049                  Delhi          2314.031
       446   04 Jun 2027 22:00:39.857   04 Jun 2027 22:01:36.248            56.391                  Delhi          1762.219
       447   04 Jun 2027 23:21:22.801   04 Jun 2027 23:21:50.459            27.658                Anadyr1           864.312
       448   04 Jun 2027 23:21:51.872   04 Jun 2027 23:22:36.340            44.468                Norilsk          1389.625
       449   04 Jun 2027 23:22:42.793   04 Jun 2027 23:22:52.491             9.698               Magadan1           303.062
       450   04 Jun 2027 23:23:05.355   04 Jun 2027 23:23:16.131            10.776                Norilsk           336.750
       451   04 Jun 2027 23:23:24.052   04 Jun 2027 23:24:15.068            51.016               Magadan1          1594.250
       452   04 Jun 2027 23:24:27.902   04 Jun 2027 23:28:15.990           228.088              Murmansk1          7127.750
       453   04 Jun 2027 23:30:08.897   04 Jun 2027 23:30:58.730            49.833              Murmansk1          1557.281
       454   05 Jun 2027 00:50:05.005   05 Jun 2027 00:50:33.607            28.602                Anadyr2           893.812
       455   05 Jun 2027 00:50:55.619   05 Jun 2027 00:51:22.764            27.145                Anadyr2           848.281
       456   05 Jun 2027 00:51:22.764   05 Jun 2027 00:52:08.745            45.981                Anadyr1          1436.906
       457   05 Jun 2027 00:52:48.099   05 Jun 2027 00:52:51.219             3.120                Anadyr2            97.500
       458   05 Jun 2027 00:52:59.056   05 Jun 2027 00:53:18.058            19.002                Anadyr2           593.812
       459   05 Jun 2027 00:55:16.330   05 Jun 2027 00:55:42.156            25.826                Anadyr2           807.063
       460   05 Jun 2027 00:55:50.635   05 Jun 2027 00:57:13.137            82.502               Magadan2          2578.187
       461   05 Jun 2027 00:57:39.678   05 Jun 2027 00:58:39.060            59.382               Magadan2          1855.687
       462   05 Jun 2027 00:59:57.609   05 Jun 2027 01:01:54.195           116.586              Murmansk2          3643.313
       463   05 Jun 2027 01:03:33.049   05 Jun 2027 01:04:04.000            30.951                 Moscow           967.219
       464   05 Jun 2027 01:05:10.573   05 Jun 2027 01:05:50.534            39.961                 Moscow          1248.781
       465   05 Jun 2027 01:28:48.467   05 Jun 2027 01:29:48.223            59.756               CapeTown          1867.375
       466   05 Jun 2027 01:30:31.789   05 Jun 2027 01:31:23.336            51.547               CapeTown          1610.844
       467   05 Jun 2027 02:24:09.248   05 Jun 2027 02:25:18.247            68.999                Anadyr1          2156.219
       468   05 Jun 2027 02:25:18.247   05 Jun 2027 02:26:35.158            76.911                Anadyr2          2403.469
       469   05 Jun 2027 02:28:06.543   05 Jun 2027 02:28:24.616            18.073               Magadan1           564.781
       470   05 Jun 2027 02:28:36.269   05 Jun 2027 02:28:42.460             6.191               Magadan1           193.469
       471   05 Jun 2027 02:29:24.360   05 Jun 2027 02:29:52.357            27.997               Magadan2           874.906
       472   05 Jun 2027 02:33:07.504   05 Jun 2027 02:33:11.902             4.398               Magadan1           137.438
       473   05 Jun 2027 02:35:05.138   05 Jun 2027 02:35:23.621            18.483               Magadan2           577.594
       474   05 Jun 2027 02:35:54.531   05 Jun 2027 02:37:31.946            97.415              Murmansk2          3044.219
       475   05 Jun 2027 02:37:31.946   05 Jun 2027 02:37:44.678            12.732              Murmansk1           397.875
       476   05 Jun 2027 02:38:16.309   05 Jun 2027 02:38:20.200             3.891              Murmansk1           121.594
       477   05 Jun 2027 02:39:06.918   05 Jun 2027 02:39:35.489            28.571                 Moscow           892.844
       478   05 Jun 2027 02:42:55.933   05 Jun 2027 02:43:05.637             9.704                Novosib           303.250
       479   05 Jun 2027 02:44:28.736   05 Jun 2027 02:44:50.266            21.530                 Moscow           672.812
       480   05 Jun 2027 02:48:46.192   05 Jun 2027 02:49:25.356            39.164                 Moscow          1223.875
       481   05 Jun 2027 03:07:50.907   05 Jun 2027 03:07:56.772             5.865               CapeTown           183.281
       482   05 Jun 2027 03:08:46.680   05 Jun 2027 03:09:03.433            16.753               CapeTown           523.531
