uniorb/output/strategy_4/Drop/Drop_KinoSat_112002.txt

KinoSat_112002
-------------------------
    Access    *     Start Time (UTCG)     *     Stop Time (UTCG)  *   Duration (s)        *       Station  *  Data (Mbytes)
         1   01 Jun 2027 03:26:55.288   01 Jun 2027 03:27:38.878            43.590               Magadan2          1362.188
         2   01 Jun 2027 03:27:50.323   01 Jun 2027 03:29:35.371           105.048                Irkutsk          3282.750
         3   01 Jun 2027 03:30:36.608   01 Jun 2027 03:32:42.347           125.739                Novosib          3929.344
         4   01 Jun 2027 03:32:51.201   01 Jun 2027 03:36:03.576           192.375                  Delhi          6011.719
         5   01 Jun 2027 03:36:14.764   01 Jun 2027 03:37:09.537            54.773                Irkutsk          1711.656
         6   01 Jun 2027 03:39:44.460   01 Jun 2027 03:41:16.455            91.995                  Delhi          2874.844
         7   01 Jun 2027 04:15:13.507   01 Jun 2027 04:15:41.218            27.711            RioGallegos           865.969
         8   01 Jun 2027 04:16:24.692   01 Jun 2027 04:19:14.903           170.211            RioGallegos          5319.094
         9   01 Jun 2027 05:05:14.206   01 Jun 2027 05:05:56.761            42.555                Irkutsk          1329.844
        10   01 Jun 2027 05:06:20.684   01 Jun 2027 05:06:31.271            10.587                Norilsk           330.844
        11   01 Jun 2027 05:06:38.330   01 Jun 2027 05:07:46.528            68.198                Irkutsk          2131.188
        12   01 Jun 2027 05:07:49.406   01 Jun 2027 05:07:58.655             9.249                Norilsk           289.031
        13   01 Jun 2027 05:08:02.084   01 Jun 2027 05:08:21.116            19.032                 Moscow           594.750
        14   01 Jun 2027 05:08:31.653   01 Jun 2027 05:11:18.015           166.362                Novosib          5198.812
        15   01 Jun 2027 05:11:54.914   01 Jun 2027 05:17:40.084           345.170                  Delhi         10786.563
        16   01 Jun 2027 06:43:46.745   01 Jun 2027 06:44:20.584            33.839                 Moscow          1057.469
        17   01 Jun 2027 06:44:32.049   01 Jun 2027 06:44:50.196            18.147                Norilsk           567.094
        18   01 Jun 2027 06:44:58.322   01 Jun 2027 06:47:37.307           158.985                 Moscow          4968.281
        19   01 Jun 2027 06:48:13.587   01 Jun 2027 06:48:35.936            22.349              Murmansk1           698.406
        20   01 Jun 2027 06:48:38.296   01 Jun 2027 06:49:32.694            54.398                 Moscow          1699.938
        21   01 Jun 2027 07:02:56.277   01 Jun 2027 07:04:13.878            77.601               CapeTown          2425.031
        22   01 Jun 2027 07:06:09.182   01 Jun 2027 07:07:15.206            66.024               CapeTown          2063.250
        23   01 Jun 2027 08:07:27.630   01 Jun 2027 08:07:55.694            28.064               Magadan2           877.000
        24   01 Jun 2027 08:07:58.234   01 Jun 2027 08:09:05.572            67.338               Magadan2          2104.313
        25   01 Jun 2027 08:09:54.802   01 Jun 2027 08:10:00.757             5.955               Magadan1           186.094
        26   01 Jun 2027 08:10:45.291   01 Jun 2027 08:12:35.055           109.764                Anadyr2          3430.125
        27   01 Jun 2027 08:43:20.632   01 Jun 2027 08:48:04.909           284.277               CapeTown          8883.656
        28   01 Jun 2027 09:42:34.992   01 Jun 2027 09:43:27.640            52.648                Anadyr1          1645.250
        29   01 Jun 2027 09:44:02.923   01 Jun 2027 09:46:20.433           137.510               Magadan2          4297.188
        30   01 Jun 2027 09:47:15.939   01 Jun 2027 09:48:22.607            66.668                Anadyr2          2083.375
        31   01 Jun 2027 11:17:45.204   01 Jun 2027 11:19:23.426            98.222               Magadan2          3069.438
        32   01 Jun 2027 11:19:57.988   01 Jun 2027 11:22:37.743           159.755                Anadyr1          4992.344
        33   01 Jun 2027 11:23:23.992   01 Jun 2027 11:23:51.341            27.349               Magadan2           854.656
        34   01 Jun 2027 14:09:41.626   01 Jun 2027 14:10:30.116            48.490                Sumatra          1515.312
        35   01 Jun 2027 14:14:40.292   01 Jun 2027 14:21:40.093           419.801                Sumatra         13118.781
        36   01 Jun 2027 14:24:38.531   01 Jun 2027 14:26:25.254           106.723                Irkutsk          3335.094
        37   01 Jun 2027 14:31:27.861   01 Jun 2027 14:35:11.564           223.703                Irkutsk          6990.719
        38   01 Jun 2027 15:54:25.057   01 Jun 2027 15:56:19.502           114.445                  Delhi          3576.406
        39   01 Jun 2027 16:00:04.784   01 Jun 2027 16:04:23.581           258.797                  Delhi          8087.406
        40   01 Jun 2027 16:08:32.291   01 Jun 2027 16:12:34.752           242.461                Novosib          7576.906
        41   01 Jun 2027 19:16:42.153   01 Jun 2027 19:22:55.752           373.599                 Moscow         11674.969
        42   01 Jun 2027 19:24:16.300   01 Jun 2027 19:25:54.787            98.487                 Moscow          3077.719
        43   01 Jun 2027 19:28:47.170   01 Jun 2027 19:30:24.641            97.471              Murmansk2          3045.969
        44   01 Jun 2027 20:33:59.994   01 Jun 2027 20:36:08.771           128.777               CapeTown          4024.281
        45   01 Jun 2027 20:37:40.678   01 Jun 2027 20:39:10.238            89.560               CapeTown          2798.750
        46   01 Jun 2027 20:59:32.079   01 Jun 2027 21:05:51.150           379.071              Murmansk1         11845.969
        47   01 Jun 2027 23:41:38.374   01 Jun 2027 23:42:24.605            46.231            RioGallegos          1444.719
        48   02 Jun 2027 00:19:48.280   02 Jun 2027 00:21:16.259            87.979                Anadyr2          2749.344
        49   02 Jun 2027 00:21:52.498   02 Jun 2027 00:23:31.148            98.650                Norilsk          3082.812
        50   02 Jun 2027 00:24:52.060   02 Jun 2027 00:25:43.390            51.330               Magadan2          1604.062
        51   02 Jun 2027 00:25:57.723   02 Jun 2027 00:26:28.245            30.522               Magadan2           953.812
        52   02 Jun 2027 00:26:29.940   02 Jun 2027 00:27:43.456            73.516                Irkutsk          2297.375
        53   02 Jun 2027 00:28:49.515   02 Jun 2027 00:29:57.687            68.172                Irkutsk          2130.375
        54   02 Jun 2027 00:33:27.845   02 Jun 2027 00:33:44.251            16.406                Irkutsk           512.688
        55   02 Jun 2027 00:34:45.562   02 Jun 2027 00:35:05.615            20.053                Irkutsk           626.656
        56   02 Jun 2027 00:40:53.875   02 Jun 2027 00:42:00.225            66.350                Sumatra          2073.438
        57   02 Jun 2027 00:46:19.826   02 Jun 2027 00:47:18.033            58.207                Sumatra          1818.969
        58   02 Jun 2027 01:13:46.148   02 Jun 2027 01:14:04.734            18.586            RioGallegos           580.812
        59   02 Jun 2027 01:16:48.840   02 Jun 2027 01:17:30.232            41.392            RioGallegos          1293.500
        60   02 Jun 2027 01:22:32.305   02 Jun 2027 01:23:19.904            47.599            RioGallegos          1487.469
        61   02 Jun 2027 01:54:56.539   02 Jun 2027 01:55:18.726            22.187                Anadyr1           693.344
        62   02 Jun 2027 01:56:27.249   02 Jun 2027 01:56:48.881            21.632                Anadyr1           676.000
        63   02 Jun 2027 01:57:16.154   02 Jun 2027 01:57:51.684            35.530                Anadyr2          1110.312
        64   02 Jun 2027 01:58:25.059   02 Jun 2027 01:59:38.676            73.617               Magadan2          2300.531
        65   02 Jun 2027 01:59:43.591   02 Jun 2027 01:59:48.835             5.244                Norilsk           163.875
        66   02 Jun 2027 02:00:04.962   02 Jun 2027 02:00:25.270            20.308               Magadan1           634.625
        67   02 Jun 2027 02:01:38.179   02 Jun 2027 02:03:50.985           132.806                Irkutsk          4150.187
        68   02 Jun 2027 02:04:41.680   02 Jun 2027 02:04:47.890             6.210                Novosib           194.062
        69   02 Jun 2027 02:04:55.309   02 Jun 2027 02:05:34.747            39.438                Irkutsk          1232.438
        70   02 Jun 2027 02:10:55.492   02 Jun 2027 02:10:57.693             2.201                Irkutsk            68.781
        71   02 Jun 2027 02:11:33.395   02 Jun 2027 02:13:32.164           118.769                  Delhi          3711.531
        72   02 Jun 2027 02:15:50.354   02 Jun 2027 02:17:22.506            92.152                Sumatra          2879.750
        73   02 Jun 2027 02:20:53.010   02 Jun 2027 02:21:02.336             9.326                Sumatra           291.437
        74   02 Jun 2027 02:49:51.119   02 Jun 2027 02:50:55.145            64.026            RioGallegos          2000.812
        75   02 Jun 2027 02:52:10.407   02 Jun 2027 02:52:37.906            27.499            RioGallegos           859.344
        76   02 Jun 2027 02:57:18.015   02 Jun 2027 02:57:45.393            27.378            RioGallegos           855.563
        77   02 Jun 2027 03:38:03.997   02 Jun 2027 03:38:31.115            27.118               Magadan1           847.437
        78   02 Jun 2027 03:38:57.097   02 Jun 2027 03:39:06.556             9.459               Magadan1           295.594
        79   02 Jun 2027 03:41:02.756   02 Jun 2027 03:42:22.568            79.812                Norilsk          2494.125
        80   02 Jun 2027 03:42:23.638   02 Jun 2027 03:42:34.293            10.655              Murmansk2           332.969
        81   02 Jun 2027 03:42:52.791   02 Jun 2027 03:47:08.240           255.449                Novosib          7982.781
        82   02 Jun 2027 03:47:18.172   02 Jun 2027 03:51:30.629           252.457                  Delhi          7889.281
        83   02 Jun 2027 04:27:19.534   02 Jun 2027 04:32:39.255           319.721            RioGallegos          9991.281
        84   02 Jun 2027 05:17:51.840   02 Jun 2027 05:18:47.458            55.618                Irkutsk          1738.063
        85   02 Jun 2027 05:20:47.025   02 Jun 2027 05:22:59.806           132.781                Novosib          4149.406
        86   02 Jun 2027 05:24:10.542   02 Jun 2027 05:28:03.063           232.521                  Delhi          7266.281
        87   02 Jun 2027 07:02:06.481   02 Jun 2027 07:02:56.794            50.313                 Moscow          1572.281
        88   02 Jun 2027 07:17:50.535   02 Jun 2027 07:19:36.919           106.384               CapeTown          3324.500
        89   02 Jun 2027 08:18:15.725   02 Jun 2027 08:19:16.046            60.321               Magadan2          1885.031
        90   02 Jun 2027 08:19:16.046   02 Jun 2027 08:20:19.741            63.695               Magadan1          1990.469
        91   02 Jun 2027 08:20:49.190   02 Jun 2027 08:21:30.238            41.048                Anadyr2          1282.750
        92   02 Jun 2027 08:22:45.624   02 Jun 2027 08:24:02.113            76.489                Anadyr1          2390.281
        93   02 Jun 2027 09:55:03.639   02 Jun 2027 09:59:45.346           281.707                Anadyr1          8803.344
        94   02 Jun 2027 11:28:34.467   02 Jun 2027 11:29:31.657            57.190               Magadan1          1787.187
        95   02 Jun 2027 11:29:49.684   02 Jun 2027 11:32:58.956           189.272               Magadan2          5914.750
        96   02 Jun 2027 11:32:58.956   02 Jun 2027 11:35:02.288           123.332               Magadan1          3854.125
        97   02 Jun 2027 11:35:24.779   02 Jun 2027 11:35:46.508            21.729               Magadan1           679.031
        98   02 Jun 2027 11:35:56.967   02 Jun 2027 11:35:57.867             0.900                Norilsk            28.125
        99   02 Jun 2027 12:10:42.312   02 Jun 2027 12:12:03.324            81.012            RioGallegos          2531.625
       100   02 Jun 2027 12:46:37.782   02 Jun 2027 12:47:33.053            55.271                Sumatra          1727.219
       101   02 Jun 2027 12:47:38.071   02 Jun 2027 12:47:43.120             5.049                Sumatra           157.781
       102   02 Jun 2027 12:55:22.802   02 Jun 2027 12:55:51.442            28.640                Sumatra           895.000
       103   02 Jun 2027 12:59:04.179   02 Jun 2027 13:01:47.167           162.988                Irkutsk          5093.375
       104   02 Jun 2027 13:02:22.127   02 Jun 2027 13:02:35.708            13.581                Irkutsk           424.406
       105   02 Jun 2027 13:13:08.799   02 Jun 2027 13:13:32.896            24.097                Norilsk           753.031
       106   02 Jun 2027 13:47:45.468   02 Jun 2027 13:48:50.619            65.151            RioGallegos          2035.969
       107   02 Jun 2027 13:49:31.920   02 Jun 2027 13:52:52.217           200.297            RioGallegos          6259.281
       108   02 Jun 2027 14:22:00.974   02 Jun 2027 14:27:29.199           328.225                Sumatra         10257.031
       109   02 Jun 2027 14:37:34.944   02 Jun 2027 14:43:17.966           343.022                Irkutsk         10719.438
       110   02 Jun 2027 16:08:01.899   02 Jun 2027 16:13:17.288           315.389                  Delhi          9855.906
       111   02 Jun 2027 16:17:57.927   02 Jun 2027 16:21:42.063           224.136                Novosib          7004.250
       112   02 Jun 2027 18:02:54.600   02 Jun 2027 18:03:50.485            55.885                Norilsk          1746.406
       113   02 Jun 2027 19:29:28.404   02 Jun 2027 19:36:33.375           424.971                 Moscow         13280.344
       114   02 Jun 2027 20:40:10.359   02 Jun 2027 20:41:24.930            74.571               CapeTown          2330.344
       115   02 Jun 2027 20:44:08.574   02 Jun 2027 20:45:13.335            64.761               CapeTown          2023.781
       116   02 Jun 2027 20:50:01.398   02 Jun 2027 20:50:40.863            39.465               CapeTown          1233.281
       117   02 Jun 2027 21:12:25.272   02 Jun 2027 21:17:39.747           314.475              Murmansk1          9827.344
       118   02 Jun 2027 22:56:03.024   02 Jun 2027 22:58:19.760           136.736                Anadyr2          4273.000
       119   02 Jun 2027 22:58:29.815   02 Jun 2027 22:59:09.299            39.484               Magadan1          1233.875
       120   02 Jun 2027 22:59:09.299   02 Jun 2027 22:59:35.814            26.515               Magadan2           828.594
       121   02 Jun 2027 22:59:41.615   02 Jun 2027 23:00:03.635            22.020               Magadan2           688.125
       122   02 Jun 2027 23:01:34.623   02 Jun 2027 23:01:49.554            14.931               Magadan1           466.594
       123   02 Jun 2027 23:02:02.876   02 Jun 2027 23:02:22.522            19.646               Magadan1           613.937
       124   02 Jun 2027 23:03:08.669   02 Jun 2027 23:03:28.527            19.858               Magadan1           620.562
       125   02 Jun 2027 23:04:12.314   02 Jun 2027 23:04:45.652            33.338               Magadan2          1041.812
       126   02 Jun 2027 23:10:40.970   02 Jun 2027 23:10:52.212            11.242               Magadan1           351.313
       127   02 Jun 2027 23:50:57.212   02 Jun 2027 23:54:14.290           197.078            RioGallegos          6158.688
       128   02 Jun 2027 23:56:27.795   02 Jun 2027 23:57:26.112            58.317            RioGallegos          1822.406
       129   03 Jun 2027 00:31:46.940   03 Jun 2027 00:32:57.286            70.346                Anadyr1          2198.312
       130   03 Jun 2027 00:33:07.649   03 Jun 2027 00:33:10.687             3.038                Anadyr2            94.938
       131   03 Jun 2027 00:33:52.151   03 Jun 2027 00:35:32.800           100.649                Norilsk          3145.281
       132   03 Jun 2027 00:36:39.222   03 Jun 2027 00:36:48.509             9.287               Magadan1           290.219
       133   03 Jun 2027 00:37:04.334   03 Jun 2027 00:37:45.774            41.440               Magadan1          1295.000
       134   03 Jun 2027 00:38:18.621   03 Jun 2027 00:39:43.647            85.026                Irkutsk          2657.062
       135   03 Jun 2027 00:42:56.949   03 Jun 2027 00:43:29.659            32.710                Irkutsk          1022.187
       136   03 Jun 2027 00:44:56.045   03 Jun 2027 00:45:33.867            37.822                Irkutsk          1181.937
       137   03 Jun 2027 00:46:44.605   03 Jun 2027 00:46:58.609            14.004                Irkutsk           437.625
       138   03 Jun 2027 00:52:24.150   03 Jun 2027 00:54:06.942           102.792                Sumatra          3212.250
       139   03 Jun 2027 00:56:20.768   03 Jun 2027 00:58:32.702           131.934                Sumatra          4122.938
       140   03 Jun 2027 02:06:47.386   03 Jun 2027 02:07:16.195            28.809                Anadyr1           900.281
       141   03 Jun 2027 02:07:49.019   03 Jun 2027 02:08:14.649            25.630                Anadyr2           800.938
       142   03 Jun 2027 02:08:49.111   03 Jun 2027 02:09:14.932            25.821                Anadyr2           806.906
       143   03 Jun 2027 02:09:44.866   03 Jun 2027 02:10:00.449            15.583                Anadyr1           486.969
       144   03 Jun 2027 02:10:28.258   03 Jun 2027 02:11:06.685            38.427               Magadan1          1200.844
       145   03 Jun 2027 02:11:09.113   03 Jun 2027 02:12:11.759            62.646                Norilsk          1957.688
       146   03 Jun 2027 02:13:39.717   03 Jun 2027 02:15:57.765           138.048                Irkutsk          4314.000
       147   03 Jun 2027 02:20:28.839   03 Jun 2027 02:20:40.782            11.943                Irkutsk           373.219
       148   03 Jun 2027 02:22:20.709   03 Jun 2027 02:22:58.002            37.293                  Delhi          1165.406
       149   03 Jun 2027 02:28:13.713   03 Jun 2027 02:29:50.994            97.281                Sumatra          3040.031
       150   03 Jun 2027 02:32:04.974   03 Jun 2027 02:34:02.989           118.015                Sumatra          3687.969
       151   03 Jun 2027 03:08:25.887   03 Jun 2027 03:09:09.403            43.516            RioGallegos          1359.875
       152   03 Jun 2027 03:09:43.078   03 Jun 2027 03:10:23.326            40.248            RioGallegos          1257.750
       153   03 Jun 2027 03:49:59.493   03 Jun 2027 03:50:35.271            35.778               Magadan2          1118.063
       154   03 Jun 2027 03:52:57.988   03 Jun 2027 03:54:21.532            83.544              Murmansk1          2610.750
       155   03 Jun 2027 03:54:35.895   03 Jun 2027 03:55:26.286            50.391              Murmansk2          1574.719
       156   03 Jun 2027 03:55:47.852   03 Jun 2027 03:55:50.339             2.487              Murmansk2            77.719
       157   03 Jun 2027 03:55:55.587   03 Jun 2027 04:00:22.361           266.774                Irkutsk          8336.687
       158   03 Jun 2027 04:00:36.411   03 Jun 2027 04:01:17.973            41.562                Novosib          1298.813
       159   03 Jun 2027 04:39:58.175   03 Jun 2027 04:43:28.849           210.674            RioGallegos          6583.562
       160   03 Jun 2027 05:31:10.330   03 Jun 2027 05:32:05.986            55.656                 Moscow          1739.250
       161   03 Jun 2027 05:32:11.250   03 Jun 2027 05:34:12.400           121.150                Novosib          3785.937
       162   03 Jun 2027 05:34:12.704   03 Jun 2027 05:34:30.569            17.865              Murmansk1           558.281
       163   03 Jun 2027 07:06:23.571   03 Jun 2027 07:06:40.450            16.879                Norilsk           527.469
       164   03 Jun 2027 07:06:45.653   03 Jun 2027 07:06:52.839             7.186                Norilsk           224.562
       165   03 Jun 2027 07:07:16.439   03 Jun 2027 07:07:38.210            21.771                Norilsk           680.344
       166   03 Jun 2027 07:08:11.826   03 Jun 2027 07:08:34.684            22.858              Murmansk1           714.313
       167   03 Jun 2027 07:09:01.031   03 Jun 2027 07:09:18.084            17.053              Murmansk2           532.906
       168   03 Jun 2027 07:09:21.405   03 Jun 2027 07:09:55.509            34.104                 Moscow          1065.750
       169   03 Jun 2027 07:14:09.581   03 Jun 2027 07:15:02.988            53.407                 Moscow          1668.969
       170   03 Jun 2027 07:27:14.843   03 Jun 2027 07:27:31.320            16.477               CapeTown           514.906
       171   03 Jun 2027 07:28:42.135   03 Jun 2027 07:30:03.457            81.322               CapeTown          2541.313
       172   03 Jun 2027 07:36:07.941   03 Jun 2027 07:37:02.772            54.831               CapeTown          1713.469
       173   03 Jun 2027 08:30:18.024   03 Jun 2027 08:30:38.826            20.802               Magadan2           650.063
       174   03 Jun 2027 08:30:57.915   03 Jun 2027 08:31:51.968            54.053                Anadyr2          1689.156
       175   03 Jun 2027 08:32:28.732   03 Jun 2027 08:32:41.946            13.214                Anadyr1           412.937
       176   03 Jun 2027 08:32:55.919   03 Jun 2027 08:33:40.664            44.745                Anadyr2          1398.281
       177   03 Jun 2027 08:35:53.946   03 Jun 2027 08:36:39.339            45.393                Anadyr2          1418.531
       178   03 Jun 2027 10:06:33.507   03 Jun 2027 10:07:49.921            76.414               Magadan2          2387.937
       179   03 Jun 2027 10:08:01.750   03 Jun 2027 10:08:12.275            10.525               Magadan2           328.906
       180   03 Jun 2027 10:09:05.116   03 Jun 2027 10:09:43.975            38.859                Anadyr2          1214.344
       181   03 Jun 2027 10:10:17.813   03 Jun 2027 10:11:00.991            43.178               Magadan2          1349.313
       182   03 Jun 2027 10:11:41.729   03 Jun 2027 10:12:17.586            35.857                Anadyr2          1120.531
       183   03 Jun 2027 11:37:35.025   03 Jun 2027 11:38:11.070            36.045               Magadan1          1126.406
       184   03 Jun 2027 11:38:11.070   03 Jun 2027 11:41:15.697           184.627               Magadan2          5769.594
       185   03 Jun 2027 11:41:38.109   03 Jun 2027 11:43:27.001           108.892               Magadan2          3402.875
       186   03 Jun 2027 11:43:27.001   03 Jun 2027 11:44:29.785            62.784               Magadan1          1962.000
       187   03 Jun 2027 11:44:29.785   03 Jun 2027 11:47:39.862           190.077               Magadan2          5939.906
       188   03 Jun 2027 12:58:52.809   03 Jun 2027 13:00:00.212            67.403                Sumatra          2106.344
       189   03 Jun 2027 13:08:22.948   03 Jun 2027 13:09:53.587            90.639                Sumatra          2832.469
       190   03 Jun 2027 13:12:18.020   03 Jun 2027 13:14:23.055           125.035                Irkutsk          3907.344
       191   03 Jun 2027 14:00:15.292   03 Jun 2027 14:02:11.625           116.333            RioGallegos          3635.406
       192   03 Jun 2027 14:04:34.357   03 Jun 2027 14:05:56.197            81.840            RioGallegos          2557.500
       193   03 Jun 2027 14:09:47.189   03 Jun 2027 14:10:17.551            30.362            RioGallegos           948.813
       194   03 Jun 2027 14:34:28.870   03 Jun 2027 14:36:49.216           140.346                Sumatra          4385.812
       195   03 Jun 2027 14:37:33.072   03 Jun 2027 14:40:48.592           195.520                Sumatra          6110.000
       196   03 Jun 2027 14:49:57.124   03 Jun 2027 14:56:44.412           407.288                Irkutsk         12727.750
       197   03 Jun 2027 16:21:17.378   03 Jun 2027 16:28:45.115           447.737                  Delhi         13991.781
       198   03 Jun 2027 16:29:17.332   03 Jun 2027 16:35:37.103           379.771                Novosib         11867.844
       199   03 Jun 2027 19:42:25.368   03 Jun 2027 19:49:11.535           406.167                 Moscow         12692.719
       200   03 Jun 2027 20:54:46.952   03 Jun 2027 20:58:06.444           199.492               CapeTown          6234.125
       201   03 Jun 2027 21:25:28.590   03 Jun 2027 21:29:20.314           231.724              Murmansk1          7241.375
       202   03 Jun 2027 23:13:01.794   03 Jun 2027 23:13:11.320             9.526               Magadan2           297.688
       203   03 Jun 2027 23:13:51.147   03 Jun 2027 23:14:02.797            11.650               Magadan2           364.062
       204   03 Jun 2027 23:14:57.755   03 Jun 2027 23:15:18.262            20.507               Magadan1           640.844
       205   03 Jun 2027 23:21:02.817   03 Jun 2027 23:22:18.593            75.776               Magadan1          2368.000
       206   04 Jun 2027 00:02:40.723   04 Jun 2027 00:04:54.190           133.467            RioGallegos          4170.844
       207   04 Jun 2027 00:08:10.567   04 Jun 2027 00:08:31.950            21.383            RioGallegos           668.219
       208   04 Jun 2027 00:09:29.309   04 Jun 2027 00:09:43.556            14.247            RioGallegos           445.219
       209   04 Jun 2027 00:10:53.095   04 Jun 2027 00:11:21.097            28.002            RioGallegos           875.062
       210   04 Jun 2027 00:43:44.925   04 Jun 2027 00:44:54.851            69.926                Anadyr1          2185.187
       211   04 Jun 2027 00:45:52.520   04 Jun 2027 00:47:52.242           119.722                Norilsk          3741.312
       212   04 Jun 2027 00:48:48.197   04 Jun 2027 00:49:06.459            18.262                Norilsk           570.687
       213   04 Jun 2027 00:49:24.450   04 Jun 2027 00:49:48.011            23.561               Magadan2           736.281
       214   04 Jun 2027 00:50:06.039   04 Jun 2027 00:50:22.441            16.402               Magadan2           512.563
       215   04 Jun 2027 00:50:56.003   04 Jun 2027 00:51:44.779            48.776                Irkutsk          1524.250
       216   04 Jun 2027 00:52:34.851   04 Jun 2027 00:53:49.243            74.392                Irkutsk          2324.750
       217   04 Jun 2027 00:55:58.636   04 Jun 2027 00:56:23.381            24.745                Irkutsk           773.281
       218   04 Jun 2027 01:00:46.062   04 Jun 2027 01:01:08.259            22.197                Irkutsk           693.656
       219   04 Jun 2027 01:04:03.157   04 Jun 2027 01:06:18.565           135.408                Sumatra          4231.500
       220   04 Jun 2027 01:38:17.035   04 Jun 2027 01:38:26.120             9.085            RioGallegos           283.906
       221   04 Jun 2027 01:40:31.373   04 Jun 2027 01:41:03.589            32.216            RioGallegos          1006.750
       222   04 Jun 2027 01:44:34.859   04 Jun 2027 01:44:53.273            18.414            RioGallegos           575.438
       223   04 Jun 2027 01:46:28.957   04 Jun 2027 01:47:21.752            52.795            RioGallegos          1649.844
       224   04 Jun 2027 02:19:13.831   04 Jun 2027 02:19:56.123            42.292                Anadyr2          1321.625
       225   04 Jun 2027 02:21:49.454   04 Jun 2027 02:22:34.706            45.252                Norilsk          1414.125
       226   04 Jun 2027 02:22:43.179   04 Jun 2027 02:22:55.145            11.966               Magadan2           373.938
       227   04 Jun 2027 02:23:02.861   04 Jun 2027 02:23:17.167            14.306                Norilsk           447.063
       228   04 Jun 2027 02:24:08.672   04 Jun 2027 02:24:18.759            10.087               Magadan1           315.219
       229   04 Jun 2027 02:25:42.097   04 Jun 2027 02:27:51.131           129.034                Irkutsk          4032.313
       230   04 Jun 2027 02:28:47.211   04 Jun 2027 02:28:57.210             9.999                Irkutsk           312.469
       231   04 Jun 2027 02:29:56.081   04 Jun 2027 02:31:59.089           123.008                Irkutsk          3844.000
       232   04 Jun 2027 02:40:46.913   04 Jun 2027 02:48:06.118           439.205                Sumatra         13725.156
       233   04 Jun 2027 04:05:09.714   04 Jun 2027 04:06:35.362            85.648                Irkutsk          2676.500
       234   04 Jun 2027 04:07:05.637   04 Jun 2027 04:10:14.851           189.214                Irkutsk          5912.938
       235   04 Jun 2027 04:10:26.022   04 Jun 2027 04:11:13.743            47.721                Novosib          1491.281
       236   04 Jun 2027 04:11:48.104   04 Jun 2027 04:13:52.730           124.626                  Delhi          3894.562
       237   04 Jun 2027 04:16:46.268   04 Jun 2027 04:18:57.101           130.833                  Delhi          4088.531
       238   04 Jun 2027 05:43:05.303   04 Jun 2027 05:43:09.721             4.418                 Moscow           138.062
       239   04 Jun 2027 05:43:30.151   04 Jun 2027 05:44:27.558            57.407                 Moscow          1793.969
       240   04 Jun 2027 05:44:38.424   04 Jun 2027 05:44:50.845            12.421                 Moscow           388.156
       241   04 Jun 2027 05:45:00.830   04 Jun 2027 05:45:31.850            31.020                 Moscow           969.375
       242   04 Jun 2027 05:46:00.153   04 Jun 2027 05:47:38.204            98.051                Novosib          3064.094
       243   04 Jun 2027 05:49:52.565   04 Jun 2027 05:50:01.304             8.739                 Moscow           273.094
       244   04 Jun 2027 05:50:15.767   04 Jun 2027 05:50:48.129            32.362                 Moscow          1011.313
       245   04 Jun 2027 06:03:56.911   04 Jun 2027 06:05:16.420            79.509               CapeTown          2484.656
       246   04 Jun 2027 06:11:29.946   04 Jun 2027 06:13:15.557           105.611               CapeTown          3300.344
       247   04 Jun 2027 07:18:47.465   04 Jun 2027 07:19:13.123            25.658                Norilsk           801.812
       248   04 Jun 2027 07:19:27.374   04 Jun 2027 07:19:39.295            11.921                Norilsk           372.531
       249   04 Jun 2027 07:20:11.103   04 Jun 2027 07:20:27.558            16.455              Murmansk2           514.219
       250   04 Jun 2027 07:20:53.832   04 Jun 2027 07:21:17.309            23.477              Murmansk2           733.656
       251   04 Jun 2027 07:21:31.839   04 Jun 2027 07:22:28.733            56.894              Murmansk2          1777.937
       252   04 Jun 2027 07:39:32.874   04 Jun 2027 07:40:37.148            64.274               CapeTown          2008.563
       253   04 Jun 2027 07:41:55.661   04 Jun 2027 07:44:45.010           169.349               CapeTown          5292.156
       254   04 Jun 2027 08:42:37.417   04 Jun 2027 08:42:41.457             4.040               Magadan1           126.250
       255   04 Jun 2027 08:42:58.491   04 Jun 2027 08:44:23.556            85.065                Anadyr1          2658.281
       256   04 Jun 2027 08:44:29.632   04 Jun 2027 08:45:20.385            50.753               Magadan2          1586.031
       257   04 Jun 2027 08:46:33.988   04 Jun 2027 08:46:45.386            11.398               Magadan2           356.188
       258   04 Jun 2027 09:31:25.570   04 Jun 2027 09:31:33.351             7.781            RioGallegos           243.156
       259   04 Jun 2027 10:14:51.639   04 Jun 2027 10:15:38.218            46.579                Anadyr2          1455.594
       260   04 Jun 2027 10:18:32.994   04 Jun 2027 10:19:39.811            66.817               Magadan2          2088.031
       261   04 Jun 2027 10:20:35.710   04 Jun 2027 10:20:44.413             8.703               Magadan1           271.969
       262   04 Jun 2027 10:21:15.631   04 Jun 2027 10:22:15.096            59.465               Magadan2          1858.281
       263   04 Jun 2027 11:01:36.542   04 Jun 2027 11:01:52.566            16.024            RioGallegos           500.750
       264   04 Jun 2027 11:50:11.352   04 Jun 2027 11:53:22.017           190.665               Magadan1          5958.281
       265   04 Jun 2027 11:53:22.017   04 Jun 2027 11:59:30.810           368.793               Magadan2         11524.781
       266   04 Jun 2027 12:43:19.586   04 Jun 2027 12:44:18.477            58.891            RioGallegos          1840.344
       267   04 Jun 2027 13:12:25.249   04 Jun 2027 13:13:30.927            65.678                Sumatra          2052.438
       268   04 Jun 2027 13:16:40.605   04 Jun 2027 13:17:39.248            58.643                Sumatra          1832.594
       269   04 Jun 2027 13:23:17.250   04 Jun 2027 13:23:20.885             3.635                Irkutsk           113.594
       270   04 Jun 2027 13:26:23.010   04 Jun 2027 13:27:30.290            67.280                Irkutsk          2102.500
       271   04 Jun 2027 13:27:46.540   04 Jun 2027 13:30:08.346           141.806                Irkutsk          4431.438
       272   04 Jun 2027 14:12:51.525   04 Jun 2027 14:19:00.354           368.829            RioGallegos         11525.906
       273   04 Jun 2027 14:47:55.396   04 Jun 2027 14:56:02.997           487.601                Sumatra         15237.531
       274   04 Jun 2027 15:03:01.868   04 Jun 2027 15:10:15.877           434.009                Irkutsk         13562.781
       275   04 Jun 2027 16:32:39.692   04 Jun 2027 16:39:57.886           438.194                  Delhi         13693.563
       276   04 Jun 2027 16:41:08.944   04 Jun 2027 16:47:34.044           385.100                Novosib         12034.375
       277   04 Jun 2027 19:55:40.739   04 Jun 2027 20:00:30.721           289.982                 Moscow          9061.937
       278   04 Jun 2027 20:00:40.527   04 Jun 2027 20:01:58.273            77.746              Murmansk1          2429.563
       279   04 Jun 2027 21:05:23.580   04 Jun 2027 21:13:16.271           472.691               CapeTown         14771.594
       280   04 Jun 2027 21:39:01.225   04 Jun 2027 21:40:33.620            92.395              Murmansk2          2887.344
       281   05 Jun 2027 00:57:53.431   05 Jun 2027 00:58:02.626             9.195                Norilsk           287.344
       282   05 Jun 2027 00:58:15.481   05 Jun 2027 00:58:26.798            11.317                Norilsk           353.656
       283   05 Jun 2027 00:58:39.060   05 Jun 2027 01:00:19.193           100.133               Magadan2          3129.156
       284   05 Jun 2027 01:01:50.064   05 Jun 2027 01:02:08.721            18.657               Magadan2           583.031
       285   05 Jun 2027 01:02:14.526   05 Jun 2027 01:03:46.767            92.241                Irkutsk          2882.531
       286   05 Jun 2027 01:03:51.756   05 Jun 2027 01:04:49.361            57.605                Novosib          1800.156
       287   05 Jun 2027 01:15:49.310   05 Jun 2027 01:18:35.288           165.978                Sumatra          5186.813
       288   05 Jun 2027 01:53:05.705   05 Jun 2027 01:53:17.635            11.930            RioGallegos           372.812
       289   05 Jun 2027 01:56:46.909   05 Jun 2027 01:57:29.251            42.342            RioGallegos          1323.188
       290   05 Jun 2027 02:00:04.484   05 Jun 2027 02:00:27.294            22.810            RioGallegos           712.812
       291   05 Jun 2027 02:30:25.084   05 Jun 2027 02:31:07.817            42.733                Anadyr1          1335.406
       292   05 Jun 2027 02:33:51.948   05 Jun 2027 02:35:14.208            82.260                Norilsk          2570.625
       293   05 Jun 2027 02:37:31.473   05 Jun 2027 02:37:49.252            17.779                Norilsk           555.594
       294   05 Jun 2027 02:37:51.115   05 Jun 2027 02:39:53.062           121.947                Novosib          3810.844
       295   05 Jun 2027 02:40:53.344   05 Jun 2027 02:41:02.165             8.821                Irkutsk           275.656
       296   05 Jun 2027 02:43:16.135   05 Jun 2027 02:43:50.820            34.685                Novosib          1083.906
       297   05 Jun 2027 02:44:12.804   05 Jun 2027 02:44:20.141             7.337                Irkutsk           229.281
       298   05 Jun 2027 02:46:25.833   05 Jun 2027 02:47:10.048            44.215                  Delhi          1381.719
       299   05 Jun 2027 02:52:54.924   05 Jun 2027 02:54:59.665           124.741                  Delhi          3898.156
       300   05 Jun 2027 03:00:19.841   05 Jun 2027 03:01:34.430            74.589                Sumatra          2330.906
       301   05 Jun 2027 04:16:29.057   05 Jun 2027 04:18:04.940            95.883                Irkutsk          2996.344
       302   05 Jun 2027 04:18:18.055   05 Jun 2027 04:23:20.821           302.766                Irkutsk          9461.438
       303   05 Jun 2027 04:28:20.246   05 Jun 2027 04:32:48.483           268.237                  Delhi          8382.406
       304   05 Jun 2027 05:55:08.403   05 Jun 2027 05:55:51.887            43.484                Norilsk          1358.875
       305   05 Jun 2027 05:55:54.580   05 Jun 2027 05:56:12.807            18.227                Novosib           569.594
       306   05 Jun 2027 05:56:17.728   05 Jun 2027 05:58:41.958           144.230                Novosib          4507.187
       307   05 Jun 2027 06:01:58.752   05 Jun 2027 06:02:18.537            19.785                 Moscow           618.281
       308   05 Jun 2027 06:02:51.254   05 Jun 2027 06:02:53.895             2.641                 Moscow            82.531
       309   05 Jun 2027 06:15:37.824   05 Jun 2027 06:17:32.548           114.724               CapeTown          3585.125
       310   05 Jun 2027 06:17:58.366   05 Jun 2027 06:19:04.445            66.079               CapeTown          2064.969
       311   05 Jun 2027 07:19:06.956   05 Jun 2027 07:19:46.081            39.125                Anadyr1          1222.656
       312   05 Jun 2027 07:20:06.304   05 Jun 2027 07:20:36.543            30.239               Magadan1           944.969
       313   05 Jun 2027 07:20:54.135   05 Jun 2027 07:21:27.835            33.700                Anadyr1          1053.125
       314   05 Jun 2027 07:30:49.327   05 Jun 2027 07:31:10.377            21.050                Norilsk           657.813
       315   05 Jun 2027 07:31:40.573   05 Jun 2027 07:31:46.080             5.507                Norilsk           172.094
       316   05 Jun 2027 07:32:10.749   05 Jun 2027 07:32:19.423             8.674              Murmansk1           271.063
       317   05 Jun 2027 07:32:41.482   05 Jun 2027 07:32:53.732            12.250              Murmansk1           382.813
       318   05 Jun 2027 07:33:05.207   05 Jun 2027 07:33:16.208            11.001              Murmansk2           343.781
       319   05 Jun 2027 07:33:29.948   05 Jun 2027 07:34:48.305            78.357                 Moscow          2448.656
       320   05 Jun 2027 07:51:57.771   05 Jun 2027 07:53:43.870           106.099               CapeTown          3315.594
       321   05 Jun 2027 08:52:55.554   05 Jun 2027 08:53:23.015            27.461               Magadan2           858.156
       322   05 Jun 2027 08:53:45.416   05 Jun 2027 08:54:00.945            15.529               Magadan2           485.281
       323   05 Jun 2027 08:54:07.050   05 Jun 2027 08:54:43.868            36.818               Magadan2          1150.562
       324   05 Jun 2027 08:55:16.856   05 Jun 2027 08:57:18.234           121.378               Magadan1          3793.063
       325   05 Jun 2027 10:26:42.597   05 Jun 2027 10:28:06.296            83.699               Magadan1          2615.594
       326   05 Jun 2027 10:29:25.382   05 Jun 2027 10:30:31.732            66.350               Magadan2          2073.438
       327   05 Jun 2027 10:31:25.985   05 Jun 2027 10:33:03.085            97.100               Magadan1          3034.375
       328   05 Jun 2027 10:33:28.431   05 Jun 2027 10:33:35.034             6.603               Magadan1           206.344
       329   05 Jun 2027 10:34:03.146   05 Jun 2027 10:36:16.786           133.640               Magadan2          4176.250
       330   05 Jun 2027 12:02:05.465   05 Jun 2027 12:03:14.591            69.126                Irkutsk          2160.187
       331   05 Jun 2027 12:04:58.513   05 Jun 2027 12:11:18.417           379.904               Magadan2         11872.000
       332   05 Jun 2027 13:45:28.903   05 Jun 2027 13:47:54.306           145.403                Irkutsk          4543.844
       333   05 Jun 2027 14:25:35.773   05 Jun 2027 14:32:35.083           419.310            RioGallegos         13103.437
       334   05 Jun 2027 15:00:07.557   05 Jun 2027 15:06:59.027           411.470                Sumatra         12858.438
       335   05 Jun 2027 15:16:00.067   05 Jun 2027 15:21:37.663           337.596                Irkutsk         10549.875
       336   05 Jun 2027 16:46:16.089   05 Jun 2027 16:50:36.195           260.106                  Delhi          8128.312
       337   05 Jun 2027 16:54:30.748   05 Jun 2027 16:58:47.482           256.734                Novosib          8022.938
       338   05 Jun 2027 20:09:50.827   05 Jun 2027 20:10:40.521            49.694              Murmansk2          1552.937
       339   05 Jun 2027 20:12:37.750   05 Jun 2027 20:15:28.903           171.153              Murmansk2          5348.531
       340   05 Jun 2027 20:16:08.479   05 Jun 2027 20:16:37.097            28.618              Murmansk2           894.313
       341   05 Jun 2027 21:17:42.782   05 Jun 2027 21:24:13.842           391.060               CapeTown         12220.625
       342   05 Jun 2027 23:32:06.453   05 Jun 2027 23:33:23.886            77.433                Anadyr1          2419.781
       343   05 Jun 2027 23:34:17.901   05 Jun 2027 23:34:42.332            24.431                Anadyr1           763.469
       344   05 Jun 2027 23:34:46.322   05 Jun 2027 23:36:07.236            80.914               Magadan1          2528.562
       345   05 Jun 2027 23:39:26.800   05 Jun 2027 23:40:00.985            34.185               Magadan1          1068.281
       346   05 Jun 2027 23:40:41.152   05 Jun 2027 23:40:57.792            16.640                Irkutsk           520.000
       347   05 Jun 2027 23:41:31.385   05 Jun 2027 23:42:06.459            35.074                Irkutsk          1096.063
       348   05 Jun 2027 23:42:19.835   05 Jun 2027 23:42:27.346             7.511                Irkutsk           234.719
       349   05 Jun 2027 23:43:47.643   05 Jun 2027 23:44:49.597            61.954                Irkutsk          1936.063
       350   06 Jun 2027 00:26:19.589   06 Jun 2027 00:28:17.596           118.007            RioGallegos          3687.719
       351   06 Jun 2027 00:29:57.596   06 Jun 2027 00:30:05.615             8.019            RioGallegos           250.594
       352   06 Jun 2027 00:31:22.457   06 Jun 2027 00:31:41.070            18.613            RioGallegos           581.656
       353   06 Jun 2027 00:33:50.232   06 Jun 2027 00:34:34.143            43.911            RioGallegos          1372.219
       354   06 Jun 2027 01:07:38.536   06 Jun 2027 01:08:24.251            45.715                Anadyr1          1428.594
       355   06 Jun 2027 01:08:25.961   06 Jun 2027 01:09:05.766            39.805                Anadyr2          1243.906
       356   06 Jun 2027 01:09:54.769   06 Jun 2027 01:10:13.623            18.854                Norilsk           589.187
       357   06 Jun 2027 01:10:19.873   06 Jun 2027 01:10:21.454             1.581                Norilsk            49.406
       358   06 Jun 2027 01:10:29.752   06 Jun 2027 01:12:07.821            98.069               Magadan1          3064.656
       359   06 Jun 2027 01:12:20.834   06 Jun 2027 01:13:37.453            76.619               Magadan1          2394.344
       360   06 Jun 2027 01:13:59.934   06 Jun 2027 01:14:49.762            49.828                Irkutsk          1557.125
       361   06 Jun 2027 01:15:19.148   06 Jun 2027 01:16:57.045            97.897                Novosib          3059.281
       362   06 Jun 2027 01:27:41.718   06 Jun 2027 01:28:26.721            45.003                Sumatra          1406.344
       363   06 Jun 2027 01:31:01.084   06 Jun 2027 01:31:39.460            38.376                Sumatra          1199.250
       364   06 Jun 2027 01:39:56.781   06 Jun 2027 01:40:23.429            26.648                Sumatra           832.750
       365   06 Jun 2027 02:01:56.992   06 Jun 2027 02:02:26.824            29.832            RioGallegos           932.250
       366   06 Jun 2027 02:05:04.463   06 Jun 2027 02:05:21.299            16.836            RioGallegos           526.125
       367   06 Jun 2027 02:07:54.563   06 Jun 2027 02:08:02.613             8.050            RioGallegos           251.562
       368   06 Jun 2027 02:10:03.218   06 Jun 2027 02:10:40.873            37.655            RioGallegos          1176.719
       369   06 Jun 2027 02:14:34.668   06 Jun 2027 02:14:35.359             0.691            RioGallegos            21.594
       370   06 Jun 2027 02:42:11.938   06 Jun 2027 02:42:16.357             4.419                Anadyr1           138.094
       371   06 Jun 2027 02:43:09.215   06 Jun 2027 02:44:33.214            83.999                Anadyr2          2624.969
       372   06 Jun 2027 02:45:54.452   06 Jun 2027 02:46:20.487            26.035                Norilsk           813.594
       373   06 Jun 2027 02:47:03.325   06 Jun 2027 02:47:18.880            15.555                Norilsk           486.094
       374   06 Jun 2027 02:49:49.223   06 Jun 2027 02:51:58.783           129.560                Novosib          4048.750
       375   06 Jun 2027 02:52:27.568   06 Jun 2027 02:52:46.340            18.772                Irkutsk           586.625
       376   06 Jun 2027 02:53:22.872   06 Jun 2027 02:54:10.039            47.167                Irkutsk          1473.969
       377   06 Jun 2027 02:57:56.824   06 Jun 2027 02:58:24.304            27.480                  Delhi           858.750
       378   06 Jun 2027 03:06:51.331   06 Jun 2027 03:12:12.410           321.079                Sumatra         10033.719
       379   06 Jun 2027 03:42:41.461   06 Jun 2027 03:42:55.693            14.232            RioGallegos           444.750
       380   06 Jun 2027 04:26:36.370   06 Jun 2027 04:26:46.258             9.888                Irkutsk           309.000
       381   06 Jun 2027 04:29:33.199   06 Jun 2027 04:30:30.639            57.440              Murmansk2          1795.000
       382   06 Jun 2027 04:30:46.792   06 Jun 2027 04:34:31.348           224.556                Norilsk          7017.375
       383   06 Jun 2027 04:34:55.389   06 Jun 2027 04:35:21.315            25.926                Novosib           810.187
       384   06 Jun 2027 04:37:18.706   06 Jun 2027 04:38:46.588            87.882                  Delhi          2746.312
       385   06 Jun 2027 06:07:57.738   06 Jun 2027 06:08:19.050            21.312                Novosib           666.000
       386   06 Jun 2027 06:08:48.951   06 Jun 2027 06:09:20.004            31.053                Novosib           970.406
       387   06 Jun 2027 06:09:59.913   06 Jun 2027 06:10:29.018            29.105                 Moscow           909.531
       388   06 Jun 2027 06:10:40.603   06 Jun 2027 06:10:48.501             7.898              Murmansk1           246.813
       389   06 Jun 2027 06:14:04.337   06 Jun 2027 06:14:16.637            12.300                 Moscow           384.375
       390   06 Jun 2027 06:14:30.982   06 Jun 2027 06:14:34.893             3.911                 Moscow           122.219
       391   06 Jun 2027 06:14:54.878   06 Jun 2027 06:15:03.696             8.818                 Moscow           275.562
       392   06 Jun 2027 06:27:24.288   06 Jun 2027 06:29:55.234           150.946               CapeTown          4717.062
       393   06 Jun 2027 07:30:35.007   06 Jun 2027 07:30:41.380             6.373               Magadan2           199.156
       394   06 Jun 2027 07:30:44.520   06 Jun 2027 07:31:54.934            70.414                Anadyr2          2200.437
       395   06 Jun 2027 07:32:54.343   06 Jun 2027 07:33:28.064            33.721                Anadyr1          1053.781
       396   06 Jun 2027 07:43:08.158   06 Jun 2027 07:43:34.614            26.456                Norilsk           826.750
       397   06 Jun 2027 07:45:20.719   06 Jun 2027 07:45:48.861            28.142                 Moscow           879.437
       398   06 Jun 2027 07:46:04.484   06 Jun 2027 07:46:56.849            52.365                 Moscow          1636.406
       399   06 Jun 2027 08:04:30.968   06 Jun 2027 08:10:52.478           381.510               CapeTown         11922.188
       400   06 Jun 2027 09:05:21.150   06 Jun 2027 09:05:24.314             3.164                Anadyr1            98.875
       401   06 Jun 2027 09:05:26.530   06 Jun 2027 09:06:01.544            35.014               Magadan2          1094.187
       402   06 Jun 2027 09:06:23.392   06 Jun 2027 09:06:46.019            22.627               Magadan2           707.094
       403   06 Jun 2027 09:06:58.231   06 Jun 2027 09:10:17.433           199.202                Anadyr1          6225.062
       404   06 Jun 2027 10:40:01.954   06 Jun 2027 10:40:37.165            35.211               Magadan1          1100.344
       405   06 Jun 2027 10:40:46.720   06 Jun 2027 10:42:29.551           102.831               Magadan1          3213.469
       406   06 Jun 2027 10:43:06.445   06 Jun 2027 10:43:36.675            30.230               Magadan2           944.687
       407   06 Jun 2027 10:43:50.504   06 Jun 2027 10:44:17.824            27.320               Magadan2           853.750
       408   06 Jun 2027 10:44:26.417   06 Jun 2027 10:44:56.135            29.718                Anadyr1           928.687
       409   06 Jun 2027 10:45:34.872   06 Jun 2027 10:45:44.283             9.411               Magadan1           294.094
       410   06 Jun 2027 10:46:05.670   06 Jun 2027 10:46:37.462            31.792               Magadan2           993.500
       411   06 Jun 2027 10:46:55.136   06 Jun 2027 10:48:16.162            81.026               Magadan1          2532.062
       412   06 Jun 2027 11:33:02.495   06 Jun 2027 11:33:17.229            14.734            RioGallegos           460.438
       413   06 Jun 2027 12:11:34.442   06 Jun 2027 12:13:30.751           116.309                Irkutsk          3634.656
       414   06 Jun 2027 12:13:58.396   06 Jun 2027 12:14:28.303            29.907                Irkutsk           934.594
       415   06 Jun 2027 12:15:43.848   06 Jun 2027 12:23:01.041           437.193               Magadan1         13662.281
       416   06 Jun 2027 13:52:36.502   06 Jun 2027 13:53:56.708            80.206                Irkutsk          2506.437
       417   06 Jun 2027 14:38:31.079   06 Jun 2027 14:45:45.625           434.546            RioGallegos         13579.562
       418   06 Jun 2027 15:14:01.853   06 Jun 2027 15:16:58.751           176.898                Sumatra          5528.063
       419   06 Jun 2027 15:29:54.043   06 Jun 2027 15:32:18.377           144.334                Irkutsk          4510.438
       420   06 Jun 2027 17:09:19.699   06 Jun 2027 17:11:16.051           116.352                Norilsk          3636.000
       421   06 Jun 2027 18:39:24.147   06 Jun 2027 18:40:07.336            43.189                 Moscow          1349.656
       422   06 Jun 2027 18:41:04.231   06 Jun 2027 18:43:52.883           168.652                 Moscow          5270.375
       423   06 Jun 2027 18:46:56.490   06 Jun 2027 18:47:06.878            10.388              Murmansk1           324.625
       424   06 Jun 2027 18:51:31.770   06 Jun 2027 18:52:25.693            53.923              Murmansk1          1685.094
       425   06 Jun 2027 19:01:15.737   06 Jun 2027 19:02:03.629            47.892                Anadyr2          1496.625
       426   06 Jun 2027 19:53:52.059   06 Jun 2027 19:54:15.658            23.599               CapeTown           737.469
       427   06 Jun 2027 19:54:50.081   06 Jun 2027 19:55:33.423            43.342               CapeTown          1354.437
       428   06 Jun 2027 19:59:16.921   06 Jun 2027 20:00:03.287            46.366               CapeTown          1448.938
       429   06 Jun 2027 20:21:45.934   06 Jun 2027 20:23:06.972            81.038              Murmansk2          2532.438
       430   06 Jun 2027 20:23:07.942   06 Jun 2027 20:30:23.590           435.648              Murmansk1         13614.000
       431   06 Jun 2027 21:30:53.096   06 Jun 2027 21:34:39.240           226.144               CapeTown          7067.000
       432   06 Jun 2027 22:11:55.385   06 Jun 2027 22:12:28.636            33.251               Magadan1          1039.094
       433   06 Jun 2027 22:13:05.836   06 Jun 2027 22:13:07.136             1.300               Magadan1            40.625
       434   06 Jun 2027 22:13:14.892   06 Jun 2027 22:13:45.776            30.884               Magadan1           965.125
       435   06 Jun 2027 23:44:07.004   06 Jun 2027 23:47:57.196           230.192                Anadyr1          7193.500
       436   06 Jun 2027 23:47:58.366   06 Jun 2027 23:49:41.544           103.178                Norilsk          3224.313
       437   06 Jun 2027 23:49:50.365   06 Jun 2027 23:50:58.258            67.893               Magadan2          2121.656
       438   06 Jun 2027 23:51:04.510   06 Jun 2027 23:51:48.023            43.513               Magadan2          1359.781
       439   06 Jun 2027 23:51:51.894   06 Jun 2027 23:52:06.611            14.717                Irkutsk           459.906
       440   06 Jun 2027 23:53:04.767   06 Jun 2027 23:53:33.392            28.625                Irkutsk           894.531
       441   06 Jun 2027 23:54:26.811   06 Jun 2027 23:54:43.749            16.938                Irkutsk           529.313
       442   06 Jun 2027 23:54:53.480   06 Jun 2027 23:55:42.949            49.469                Irkutsk          1545.906
       443   07 Jun 2027 00:08:23.368   07 Jun 2027 00:09:15.605            52.237                Sumatra          1632.406
       444   07 Jun 2027 00:10:56.615   07 Jun 2027 00:11:57.005            60.390                Sumatra          1887.188
       445   07 Jun 2027 00:12:34.810   07 Jun 2027 00:12:42.120             7.310                Sumatra           228.437
       446   07 Jun 2027 00:38:13.054   07 Jun 2027 00:39:19.983            66.929            RioGallegos          2091.531
       447   07 Jun 2027 00:45:55.835   07 Jun 2027 00:46:01.066             5.231            RioGallegos           163.469
       448   07 Jun 2027 00:47:11.024   07 Jun 2027 00:47:38.868            27.844            RioGallegos           870.125
       449   07 Jun 2027 00:49:48.810   07 Jun 2027 00:50:02.852            14.042            RioGallegos           438.812
       450   07 Jun 2027 01:19:33.962   07 Jun 2027 01:19:44.944            10.982                Anadyr1           343.188
       451   07 Jun 2027 01:19:50.116   07 Jun 2027 01:20:24.362            34.246                Anadyr2          1070.188
       452   07 Jun 2027 01:20:57.635   07 Jun 2027 01:21:31.389            33.754                Anadyr2          1054.812
       453   07 Jun 2027 01:21:56.436   07 Jun 2027 01:23:59.237           122.801                Norilsk          3837.531
       454   07 Jun 2027 01:24:19.083   07 Jun 2027 01:25:05.382            46.299               Magadan1          1446.844
       455   07 Jun 2027 01:25:57.213   07 Jun 2027 01:27:19.491            82.278                Irkutsk          2571.187
       456   07 Jun 2027 01:27:37.675   07 Jun 2027 01:27:49.619            11.944                Irkutsk           373.250
       457   07 Jun 2027 01:29:01.644   07 Jun 2027 01:29:13.192            11.548                Novosib           360.875
       458   07 Jun 2027 01:31:02.627   07 Jun 2027 01:31:27.743            25.116                Novosib           784.875
       459   07 Jun 2027 01:33:02.909   07 Jun 2027 01:33:38.043            35.134                Irkutsk          1097.937
       460   07 Jun 2027 01:39:39.938   07 Jun 2027 01:42:10.369           150.431                Sumatra          4700.969
       461   07 Jun 2027 02:16:59.934   07 Jun 2027 02:17:36.183            36.249            RioGallegos          1132.781
       462   07 Jun 2027 02:22:23.949   07 Jun 2027 02:22:45.463            21.514            RioGallegos           672.312
       463   07 Jun 2027 02:25:16.172   07 Jun 2027 02:25:25.236             9.064            RioGallegos           283.250
       464   07 Jun 2027 02:26:04.850   07 Jun 2027 02:26:11.473             6.623            RioGallegos           206.969
       465   07 Jun 2027 02:55:10.433   07 Jun 2027 02:56:01.468            51.035                Anadyr2          1594.844
       466   07 Jun 2027 02:57:06.341   07 Jun 2027 02:57:27.882            21.541                Anadyr1           673.156
       467   07 Jun 2027 02:57:56.942   07 Jun 2027 02:58:14.373            17.431                Norilsk           544.719
       468   07 Jun 2027 02:58:35.897   07 Jun 2027 02:58:51.788            15.891                Norilsk           496.594
       469   07 Jun 2027 02:59:16.767   07 Jun 2027 02:59:31.832            15.065                Norilsk           470.781
       470   07 Jun 2027 03:02:02.298   07 Jun 2027 03:02:14.481            12.183               Magadan2           380.719
       471   07 Jun 2027 03:02:14.481   07 Jun 2027 03:03:31.088            76.607               Magadan1          2393.969
       472   07 Jun 2027 03:03:42.639   07 Jun 2027 03:04:07.011            24.372               Magadan2           761.625
       473   07 Jun 2027 03:04:19.252   07 Jun 2027 03:04:59.097            39.845               Magadan2          1245.156
       474   07 Jun 2027 03:05:19.462   07 Jun 2027 03:07:23.657           124.195                Novosib          3881.094
       475   07 Jun 2027 03:07:32.845   07 Jun 2027 03:08:01.150            28.305                Irkutsk           884.531
       476   07 Jun 2027 03:08:17.016   07 Jun 2027 03:09:33.840            76.824                Norilsk          2400.750
       477   07 Jun 2027 03:09:40.547   07 Jun 2027 03:10:08.846            28.299                Irkutsk           884.344
       478   07 Jun 2027 03:10:17.385   07 Jun 2027 03:11:37.331            79.946                  Delhi          2498.313
       479   07 Jun 2027 03:51:44.830   07 Jun 2027 03:55:18.072           213.242            RioGallegos          6663.812
       480   07 Jun 2027 04:39:15.753   07 Jun 2027 04:39:37.029            21.276                Irkutsk           664.875
       481   07 Jun 2027 04:39:57.580   07 Jun 2027 04:42:09.069           131.489                Irkutsk          4109.031
       482   07 Jun 2027 04:42:35.881   07 Jun 2027 04:43:50.515            74.634                Irkutsk          2332.313
