uniorb/output/strategy_4/Drop/Drop_KinoSat_110901.txt

KinoSat_110901
-------------------------
    Access    *     Start Time (UTCG)     *     Stop Time (UTCG)  *   Duration (s)        *       Station  *  Data (Mbytes)
         1   01 Jun 2027 04:10:23.040   01 Jun 2027 04:13:21.893           178.853                Anadyr2          5589.156
         2   01 Jun 2027 04:13:21.893   01 Jun 2027 04:16:29.285           187.392                Anadyr1          5856.000
         3   01 Jun 2027 05:46:35.698   01 Jun 2027 05:47:27.202            51.504                Anadyr2          1609.500
         4   01 Jun 2027 05:47:47.502   01 Jun 2027 05:49:56.971           129.469                Anadyr1          4045.906
         5   01 Jun 2027 05:50:08.280   01 Jun 2027 05:52:04.999           116.719               Magadan1          3647.469
         6   01 Jun 2027 07:22:24.464   01 Jun 2027 07:23:04.474            40.010               Magadan1          1250.312
         7   01 Jun 2027 07:23:17.047   01 Jun 2027 07:23:37.553            20.506               Magadan2           640.812
         8   01 Jun 2027 07:23:37.553   01 Jun 2027 07:24:06.043            28.490               Magadan1           890.313
         9   01 Jun 2027 07:24:14.185   01 Jun 2027 07:25:31.864            77.679               Magadan2          2427.469
        10   01 Jun 2027 07:25:43.799   01 Jun 2027 07:27:50.739           126.940                Irkutsk          3966.875
        11   01 Jun 2027 07:28:02.235   01 Jun 2027 07:28:34.620            32.385                Novosib          1012.031
        12   01 Jun 2027 07:29:19.994   01 Jun 2027 07:29:38.484            18.490              Murmansk2           577.812
        13   01 Jun 2027 07:30:42.007   01 Jun 2027 07:31:02.566            20.559                Norilsk           642.469
        14   01 Jun 2027 08:02:33.806   01 Jun 2027 08:03:26.944            53.138            RioGallegos          1660.563
        15   01 Jun 2027 08:04:06.272   01 Jun 2027 08:04:30.706            24.434            RioGallegos           763.563
        16   01 Jun 2027 08:37:35.291   01 Jun 2027 08:40:03.595           148.304                Sumatra          4634.500
        17   01 Jun 2027 09:00:18.706   01 Jun 2027 09:01:18.913            60.207                Novosib          1881.469
        18   01 Jun 2027 09:01:27.573   01 Jun 2027 09:01:33.760             6.187                Norilsk           193.344
        19   01 Jun 2027 09:01:34.347   01 Jun 2027 09:01:49.634            15.287                Norilsk           477.719
        20   01 Jun 2027 09:01:54.624   01 Jun 2027 09:02:40.196            45.572                Novosib          1424.125
        21   01 Jun 2027 09:02:40.417   01 Jun 2027 09:04:49.293           128.876                Norilsk          4027.375
        22   01 Jun 2027 09:04:51.070   01 Jun 2027 09:05:23.246            32.176                Novosib          1005.500
        23   01 Jun 2027 10:15:44.683   01 Jun 2027 10:17:17.146            92.463                Sumatra          2889.469
        24   01 Jun 2027 10:25:24.437   01 Jun 2027 10:25:59.961            35.524                  Delhi          1110.125
        25   01 Jun 2027 10:37:26.724   01 Jun 2027 10:38:33.909            67.185                Novosib          2099.531
        26   01 Jun 2027 10:39:13.959   01 Jun 2027 10:41:01.188           107.229              Murmansk1          3350.906
        27   01 Jun 2027 10:41:01.188   01 Jun 2027 10:41:16.092            14.904              Murmansk2           465.750
        28   01 Jun 2027 10:42:11.061   01 Jun 2027 10:42:55.643            44.582                Norilsk          1393.187
        29   01 Jun 2027 10:45:10.108   01 Jun 2027 10:45:58.685            48.577              Murmansk2          1518.031
        30   01 Jun 2027 12:01:48.284   01 Jun 2027 12:04:25.564           157.280                  Delhi          4915.000
        31   01 Jun 2027 12:08:26.483   01 Jun 2027 12:09:19.487            53.004                 Moscow          1656.375
        32   01 Jun 2027 12:10:05.071   01 Jun 2027 12:10:30.784            25.713              Murmansk1           803.531
        33   01 Jun 2027 12:10:45.572   01 Jun 2027 12:10:55.722            10.150              Murmansk1           317.188
        34   01 Jun 2027 12:11:31.100   01 Jun 2027 12:13:42.798           131.698              Murmansk1          4115.563
        35   01 Jun 2027 12:14:22.538   01 Jun 2027 12:15:08.237            45.699              Murmansk1          1428.094
        36   01 Jun 2027 13:21:35.543   01 Jun 2027 13:24:18.980           163.437               CapeTown          5107.406
        37   01 Jun 2027 13:46:09.274   01 Jun 2027 13:48:22.358           133.084              Murmansk1          4158.875
        38   01 Jun 2027 13:50:27.845   01 Jun 2027 13:50:49.643            21.798              Murmansk2           681.188
        39   01 Jun 2027 14:00:48.313   01 Jun 2027 14:04:43.055           234.742                Anadyr1          7335.688
        40   01 Jun 2027 15:24:57.014   01 Jun 2027 15:26:25.406            88.392              Murmansk2          2762.250
        41   01 Jun 2027 15:28:31.380   01 Jun 2027 15:28:43.022            11.642              Murmansk2           363.812
        42   01 Jun 2027 15:29:10.052   01 Jun 2027 15:29:38.452            28.400              Murmansk1           887.500
        43   01 Jun 2027 15:36:07.918   01 Jun 2027 15:37:28.664            80.746                Anadyr2          2523.313
        44   01 Jun 2027 15:37:59.412   01 Jun 2027 15:38:00.953             1.541                Anadyr1            48.156
        45   01 Jun 2027 15:38:01.672   01 Jun 2027 15:38:22.498            20.826                Anadyr2           650.813
        46   01 Jun 2027 15:39:02.933   01 Jun 2027 15:39:07.506             4.573                Anadyr2           142.906
        47   01 Jun 2027 15:40:18.326   01 Jun 2027 15:43:17.917           179.591               Magadan2          5612.219
        48   01 Jun 2027 15:45:18.824   01 Jun 2027 15:45:37.631            18.807               Magadan2           587.719
        49   01 Jun 2027 17:12:00.647   01 Jun 2027 17:14:27.083           146.436                Anadyr2          4576.125
        50   01 Jun 2027 17:14:27.833   01 Jun 2027 17:16:19.269           111.436               Magadan1          3482.375
        51   01 Jun 2027 17:16:32.781   01 Jun 2027 17:17:14.782            42.001               Magadan1          1312.531
        52   01 Jun 2027 17:21:41.580   01 Jun 2027 17:22:24.731            43.151               Magadan2          1348.469
        53   01 Jun 2027 18:47:53.909   01 Jun 2027 18:49:38.276           104.367                Anadyr1          3261.469
        54   01 Jun 2027 18:49:57.677   01 Jun 2027 18:51:35.768            98.091                Anadyr2          3065.344
        55   01 Jun 2027 18:51:46.416   01 Jun 2027 18:53:30.634           104.218               Magadan1          3256.812
        56   01 Jun 2027 18:53:30.634   01 Jun 2027 18:53:52.361            21.727               Magadan2           678.969
        57   01 Jun 2027 18:55:56.387   01 Jun 2027 18:56:34.947            38.560               Magadan2          1205.000
        58   01 Jun 2027 18:56:50.265   01 Jun 2027 18:59:00.617           130.352                Irkutsk          4073.500
        59   01 Jun 2027 19:00:26.355   01 Jun 2027 19:00:36.821            10.466                Irkutsk           327.063
        60   01 Jun 2027 19:42:11.492   01 Jun 2027 19:43:34.744            83.252            RioGallegos          2601.625
        61   01 Jun 2027 19:44:22.881   01 Jun 2027 19:44:41.101            18.220            RioGallegos           569.375
        62   01 Jun 2027 19:52:17.937   01 Jun 2027 19:52:56.717            38.780            RioGallegos          1211.875
        63   01 Jun 2027 20:26:16.350   01 Jun 2027 20:27:54.438            98.088               Magadan2          3065.250
        64   01 Jun 2027 20:29:50.474   01 Jun 2027 20:30:24.419            33.945                Norilsk          1060.781
        65   01 Jun 2027 20:30:52.737   01 Jun 2027 20:31:10.131            17.394                Norilsk           543.563
        66   01 Jun 2027 20:31:16.850   01 Jun 2027 20:34:25.010           188.160                Novosib          5880.000
        67   01 Jun 2027 20:35:26.834   01 Jun 2027 20:36:30.867            64.033                Novosib          2001.031
        68   01 Jun 2027 20:43:31.572   01 Jun 2027 20:44:31.851            60.279                Sumatra          1883.719
        69   01 Jun 2027 20:53:03.097   01 Jun 2027 20:53:45.214            42.117                Sumatra          1316.156
        70   01 Jun 2027 22:01:43.791   01 Jun 2027 22:03:23.010            99.219                Norilsk          3100.594
        71   01 Jun 2027 22:05:12.053   01 Jun 2027 22:05:26.142            14.089               Magadan2           440.281
        72   01 Jun 2027 22:05:36.826   01 Jun 2027 22:05:51.300            14.474                Irkutsk           452.312
        73   01 Jun 2027 22:06:03.989   01 Jun 2027 22:06:17.995            14.006                Irkutsk           437.687
        74   01 Jun 2027 22:06:41.275   01 Jun 2027 22:07:30.921            49.646                Novosib          1551.437
        75   01 Jun 2027 22:11:47.008   01 Jun 2027 22:12:52.893            65.885                Novosib          2058.906
        76   01 Jun 2027 22:13:14.628   01 Jun 2027 22:14:38.281            83.653                  Delhi          2614.156
        77   01 Jun 2027 22:15:33.684   01 Jun 2027 22:16:58.236            84.552                  Delhi          2642.250
        78   01 Jun 2027 23:33:45.819   01 Jun 2027 23:33:57.605            11.786                Anadyr2           368.313
        79   01 Jun 2027 23:34:09.543   01 Jun 2027 23:34:10.019             0.476                Anadyr2            14.875
        80   01 Jun 2027 23:34:11.089   01 Jun 2027 23:34:35.075            23.986                Anadyr2           749.563
        81   01 Jun 2027 23:37:33.732   01 Jun 2027 23:39:19.667           105.935               Magadan1          3310.469
        82   01 Jun 2027 23:39:53.671   01 Jun 2027 23:40:11.293            17.622               Magadan1           550.688
        83   01 Jun 2027 23:40:16.172   01 Jun 2027 23:44:51.724           275.552              Murmansk1          8611.000
        84   01 Jun 2027 23:45:09.672   01 Jun 2027 23:45:28.438            18.766                 Moscow           586.437
        85   01 Jun 2027 23:46:10.724   01 Jun 2027 23:46:40.950            30.226                 Moscow           944.563
        86   01 Jun 2027 23:50:50.564   01 Jun 2027 23:51:07.757            17.193                 Moscow           537.281
        87   02 Jun 2027 00:14:01.551   02 Jun 2027 00:15:36.858            95.307               CapeTown          2978.344
        88   02 Jun 2027 01:07:49.168   02 Jun 2027 01:07:54.737             5.569                Anadyr1           174.031
        89   02 Jun 2027 01:09:42.444   02 Jun 2027 01:12:00.608           138.164               Magadan2          4317.625
        90   02 Jun 2027 01:13:30.056   02 Jun 2027 01:13:39.606             9.550               Magadan2           298.437
        91   02 Jun 2027 01:13:44.533   02 Jun 2027 01:13:58.033            13.500               Magadan2           421.875
        92   02 Jun 2027 01:15:50.394   02 Jun 2027 01:17:32.816           102.422              Murmansk2          3200.688
        93   02 Jun 2027 01:18:14.778   02 Jun 2027 01:19:03.053            48.275                Novosib          1508.594
        94   02 Jun 2027 01:21:00.301   02 Jun 2027 01:21:16.420            16.119                 Moscow           503.719
        95   02 Jun 2027 01:26:27.243   02 Jun 2027 01:26:33.323             6.080                 Moscow           190.000
        96   02 Jun 2027 01:26:41.834   02 Jun 2027 01:26:55.182            13.348                 Moscow           417.125
        97   02 Jun 2027 01:31:07.608   02 Jun 2027 01:31:23.314            15.706                 Moscow           490.813
        98   02 Jun 2027 01:43:14.672   02 Jun 2027 01:44:26.652            71.980               CapeTown          2249.375
        99   02 Jun 2027 01:54:07.104   02 Jun 2027 01:55:37.527            90.423               CapeTown          2825.719
       100   02 Jun 2027 02:39:42.253   02 Jun 2027 02:40:41.149            58.896                Anadyr2          1840.500
       101   02 Jun 2027 02:41:43.746   02 Jun 2027 02:42:33.421            49.675               Magadan1          1552.344
       102   02 Jun 2027 02:42:34.071   02 Jun 2027 02:42:56.256            22.185               Magadan2           693.281
       103   02 Jun 2027 02:44:25.241   02 Jun 2027 02:45:00.560            35.319               Magadan2          1103.719
       104   02 Jun 2027 02:51:07.743   02 Jun 2027 02:51:09.913             2.170               Magadan2            67.812
       105   02 Jun 2027 02:51:20.201   02 Jun 2027 02:51:45.481            25.280                Norilsk           790.000
       106   02 Jun 2027 02:51:48.555   02 Jun 2027 02:52:42.134            53.579              Murmansk2          1674.344
       107   02 Jun 2027 02:53:23.316   02 Jun 2027 02:53:29.034             5.718              Murmansk2           178.687
       108   02 Jun 2027 02:55:04.828   02 Jun 2027 02:57:07.148           122.320                 Moscow          3822.500
       109   02 Jun 2027 04:21:17.702   02 Jun 2027 04:21:50.585            32.883                Anadyr1          1027.594
       110   02 Jun 2027 04:22:05.858   02 Jun 2027 04:23:43.475            97.617               Magadan2          3050.531
       111   02 Jun 2027 04:24:12.357   02 Jun 2027 04:25:27.830            75.473               Magadan2          2358.531
       112   02 Jun 2027 04:25:57.072   02 Jun 2027 04:26:10.180            13.108               Magadan2           409.625
       113   02 Jun 2027 04:26:53.951   02 Jun 2027 04:27:14.575            20.624               Magadan2           644.500
       114   02 Jun 2027 05:56:53.644   02 Jun 2027 05:58:23.045            89.401                Anadyr1          2793.781
       115   02 Jun 2027 05:58:51.984   02 Jun 2027 06:01:18.932           146.948               Magadan1          4592.125
       116   02 Jun 2027 06:01:31.012   02 Jun 2027 06:02:01.667            30.655               Magadan2           957.969
       117   02 Jun 2027 06:02:29.598   02 Jun 2027 06:03:13.787            44.189                Irkutsk          1380.906
       118   02 Jun 2027 06:04:00.768   02 Jun 2027 06:04:03.895             3.127               Magadan2            97.719
       119   02 Jun 2027 07:34:26.467   02 Jun 2027 07:35:26.973            60.506                Irkutsk          1890.813
       120   02 Jun 2027 07:36:09.456   02 Jun 2027 07:38:06.620           117.164               Magadan1          3661.375
       121   02 Jun 2027 07:38:18.714   02 Jun 2027 07:38:48.299            29.585               Magadan1           924.531
       122   02 Jun 2027 07:39:43.787   02 Jun 2027 07:39:54.542            10.755                Irkutsk           336.094
       123   02 Jun 2027 07:40:05.924   02 Jun 2027 07:41:04.023            58.099                Novosib          1815.594
       124   02 Jun 2027 08:14:40.934   02 Jun 2027 08:14:50.805             9.871            RioGallegos           308.469
       125   02 Jun 2027 08:16:23.119   02 Jun 2027 08:16:30.273             7.154            RioGallegos           223.562
       126   02 Jun 2027 08:17:10.913   02 Jun 2027 08:18:24.825            73.912            RioGallegos          2309.750
       127   02 Jun 2027 08:49:29.288   02 Jun 2027 08:50:19.259            49.971                Sumatra          1561.594
       128   02 Jun 2027 08:51:13.875   02 Jun 2027 08:52:35.442            81.567                Sumatra          2548.969
       129   02 Jun 2027 09:12:45.867   02 Jun 2027 09:13:02.413            16.546                Irkutsk           517.063
       130   02 Jun 2027 09:13:20.635   02 Jun 2027 09:13:20.890             0.255                Irkutsk             7.969
       131   02 Jun 2027 09:13:43.307   02 Jun 2027 09:14:17.367            34.060                Irkutsk          1064.375
       132   02 Jun 2027 09:14:22.743   02 Jun 2027 09:14:31.273             8.530                Norilsk           266.562
       133   02 Jun 2027 09:14:38.716   02 Jun 2027 09:14:46.459             7.743                Irkutsk           241.969
       134   02 Jun 2027 09:14:57.982   02 Jun 2027 09:15:34.380            36.398                Irkutsk          1137.438
       135   02 Jun 2027 09:54:12.824   02 Jun 2027 09:55:08.989            56.165            RioGallegos          1755.156
       136   02 Jun 2027 09:57:24.612   02 Jun 2027 09:58:03.067            38.455            RioGallegos          1201.719
       137   02 Jun 2027 10:29:20.742   02 Jun 2027 10:29:49.981            29.239                Sumatra           913.719
       138   02 Jun 2027 10:31:04.491   02 Jun 2027 10:32:08.729            64.238                Sumatra          2007.438
       139   02 Jun 2027 10:38:15.372   02 Jun 2027 10:38:24.716             9.344                  Delhi           292.000
       140   02 Jun 2027 10:41:49.856   02 Jun 2027 10:42:21.340            31.484                  Delhi           983.875
       141   02 Jun 2027 10:47:58.341   02 Jun 2027 10:48:15.195            16.854                Irkutsk           526.687
       142   02 Jun 2027 10:48:17.802   02 Jun 2027 10:49:16.515            58.713                Novosib          1834.781
       143   02 Jun 2027 10:50:22.246   02 Jun 2027 10:50:38.632            16.386                Novosib           512.062
       144   02 Jun 2027 10:50:48.391   02 Jun 2027 10:51:06.629            18.238                Novosib           569.938
       145   02 Jun 2027 10:51:13.014   02 Jun 2027 10:51:13.590             0.576                Novosib            18.000
       146   02 Jun 2027 10:51:17.506   02 Jun 2027 10:51:19.860             2.354                Norilsk            73.562
       147   02 Jun 2027 10:51:32.767   02 Jun 2027 10:51:57.186            24.419                Norilsk           763.094
       148   02 Jun 2027 12:21:29.499   02 Jun 2027 12:26:14.094           284.595              Murmansk1          8893.594
       149   02 Jun 2027 12:29:43.846   02 Jun 2027 12:30:16.894            33.048              Murmansk2          1032.750
       150   02 Jun 2027 13:32:59.331   02 Jun 2027 13:34:33.504            94.173               CapeTown          2942.906
       151   02 Jun 2027 13:35:14.659   02 Jun 2027 13:36:04.557            49.898               CapeTown          1559.312
       152   02 Jun 2027 13:37:41.033   02 Jun 2027 13:39:24.167           103.134               CapeTown          3222.937
       153   02 Jun 2027 13:58:24.398   02 Jun 2027 13:59:19.367            54.969              Murmansk2          1717.781
       154   02 Jun 2027 13:59:27.191   02 Jun 2027 14:00:40.809            73.618              Murmansk1          2300.562
       155   02 Jun 2027 14:05:20.747   02 Jun 2027 14:06:25.024            64.277              Murmansk1          2008.656
       156   02 Jun 2027 14:12:40.286   02 Jun 2027 14:15:45.065           184.779                Anadyr1          5774.344
       157   02 Jun 2027 15:17:00.337   02 Jun 2027 15:17:09.588             9.251               CapeTown           289.094
       158   02 Jun 2027 15:18:56.961   02 Jun 2027 15:20:06.788            69.827               CapeTown          2182.094
       159   02 Jun 2027 15:37:31.576   02 Jun 2027 15:38:26.345            54.769              Murmansk2          1711.531
       160   02 Jun 2027 15:48:08.122   02 Jun 2027 15:49:05.356            57.234                Anadyr1          1788.562
       161   02 Jun 2027 15:49:57.199   02 Jun 2027 15:50:06.161             8.962                Anadyr2           280.063
       162   02 Jun 2027 15:50:47.864   02 Jun 2027 15:50:49.670             1.806                Anadyr2            56.437
       163   02 Jun 2027 15:51:04.272   02 Jun 2027 15:52:11.356            67.084                Anadyr2          2096.375
       164   02 Jun 2027 15:52:33.704   02 Jun 2027 15:57:20.913           287.209               Magadan1          8975.281
       165   02 Jun 2027 17:24:02.050   02 Jun 2027 17:24:07.824             5.774                Anadyr2           180.437
       166   02 Jun 2027 17:24:48.298   02 Jun 2027 17:25:49.655            61.357                Anadyr1          1917.406
       167   02 Jun 2027 17:26:25.663   02 Jun 2027 17:27:52.187            86.524               Magadan1          2703.875
       168   02 Jun 2027 17:28:17.109   02 Jun 2027 17:28:32.123            15.014               Magadan1           469.188
       169   02 Jun 2027 17:28:44.096   02 Jun 2027 17:28:52.131             8.035               Magadan2           251.094
       170   02 Jun 2027 17:34:02.371   02 Jun 2027 17:34:33.829            31.458               Magadan1           983.062
       171   02 Jun 2027 18:59:53.982   02 Jun 2027 19:03:37.574           223.592                Anadyr1          6987.250
       172   02 Jun 2027 19:03:39.591   02 Jun 2027 19:05:21.297           101.706               Magadan2          3178.312
       173   02 Jun 2027 19:05:57.140   02 Jun 2027 19:06:03.313             6.173                Norilsk           192.906
       174   02 Jun 2027 19:07:24.327   02 Jun 2027 19:08:35.878            71.551                Norilsk          2235.969
       175   02 Jun 2027 19:08:48.883   02 Jun 2027 19:10:43.068           114.185                Irkutsk          3568.281
       176   02 Jun 2027 19:11:35.473   02 Jun 2027 19:11:47.202            11.729                Irkutsk           366.531
       177   02 Jun 2027 19:12:52.281   02 Jun 2027 19:13:52.328            60.047                Irkutsk          1876.469
       178   02 Jun 2027 19:24:37.811   02 Jun 2027 19:25:11.166            33.355                Sumatra          1042.344
       179   02 Jun 2027 19:25:40.102   02 Jun 2027 19:27:23.252           103.150                Sumatra          3223.438
       180   02 Jun 2027 20:38:52.317   02 Jun 2027 20:39:02.730            10.413                Norilsk           325.406
       181   02 Jun 2027 20:40:14.419   02 Jun 2027 20:41:22.570            68.151               Magadan2          2129.719
       182   02 Jun 2027 20:41:47.027   02 Jun 2027 20:43:35.827           108.800                Irkutsk          3400.000
       183   02 Jun 2027 20:44:07.872   02 Jun 2027 20:46:16.034           128.162                Novosib          4005.062
       184   02 Jun 2027 20:49:00.436   02 Jun 2027 20:49:21.805            21.369                Novosib           667.781
       185   02 Jun 2027 20:56:04.422   02 Jun 2027 20:56:30.658            26.236                Sumatra           819.875
       186   02 Jun 2027 21:04:03.190   02 Jun 2027 21:05:04.387            61.197                Sumatra          1912.406
       187   02 Jun 2027 22:14:21.623   02 Jun 2027 22:15:22.594            60.971               Magadan2          1905.344
       188   02 Jun 2027 22:15:38.495   02 Jun 2027 22:15:45.503             7.008               Magadan2           219.000
       189   02 Jun 2027 22:17:37.665   02 Jun 2027 22:19:28.878           111.213                Novosib          3475.406
       190   02 Jun 2027 22:25:04.947   02 Jun 2027 22:28:06.755           181.808                  Delhi          5681.500
       191   02 Jun 2027 22:37:27.556   02 Jun 2027 22:37:28.414             0.858                  Delhi            26.812
       192   02 Jun 2027 23:45:29.124   02 Jun 2027 23:45:35.872             6.748                Anadyr1           210.875
       193   02 Jun 2027 23:49:07.356   02 Jun 2027 23:49:21.913            14.557                Anadyr2           454.906
       194   02 Jun 2027 23:49:29.962   02 Jun 2027 23:50:51.118            81.156               Magadan1          2536.125
       195   02 Jun 2027 23:51:40.712   02 Jun 2027 23:52:14.308            33.596               Magadan1          1049.875
       196   02 Jun 2027 23:52:26.877   02 Jun 2027 23:52:48.656            21.779                Norilsk           680.594
       197   02 Jun 2027 23:52:51.953   02 Jun 2027 23:54:01.886            69.933              Murmansk1          2185.406
       198   02 Jun 2027 23:54:02.461   02 Jun 2027 23:56:32.066           149.605              Murmansk2          4675.156
       199   02 Jun 2027 23:57:31.248   03 Jun 2027 00:00:29.707           178.459                 Moscow          5576.844
       200   03 Jun 2027 00:23:47.640   03 Jun 2027 00:25:10.139            82.499               CapeTown          2578.094
       201   03 Jun 2027 00:26:33.197   03 Jun 2027 00:27:55.761            82.564               CapeTown          2580.125
       202   03 Jun 2027 01:22:38.189   03 Jun 2027 01:22:42.474             4.285               Magadan2           133.906
       203   03 Jun 2027 01:24:58.000   03 Jun 2027 01:25:20.820            22.820               Magadan1           713.125
       204   03 Jun 2027 01:27:52.001   03 Jun 2027 01:27:58.609             6.608              Murmansk1           206.500
       205   03 Jun 2027 01:28:53.320   03 Jun 2027 01:30:52.124           118.804              Murmansk1          3712.625
       206   03 Jun 2027 01:31:07.770   03 Jun 2027 01:32:56.058           108.288                 Moscow          3384.000
       207   03 Jun 2027 01:58:09.681   03 Jun 2027 01:58:17.382             7.701               CapeTown           240.656
       208   03 Jun 2027 01:58:52.159   03 Jun 2027 01:59:00.928             8.769               CapeTown           274.031
       209   03 Jun 2027 01:59:53.292   03 Jun 2027 02:00:04.017            10.725               CapeTown           335.156
       210   03 Jun 2027 02:03:33.390   03 Jun 2027 02:03:59.062            25.672               CapeTown           802.250
       211   03 Jun 2027 02:04:23.760   03 Jun 2027 02:04:35.964            12.204               CapeTown           381.375
       212   03 Jun 2027 02:51:42.308   03 Jun 2027 02:53:18.956            96.648                Anadyr2          3020.250
       213   03 Jun 2027 02:53:22.296   03 Jun 2027 02:54:25.104            62.808               Magadan1          1962.750
       214   03 Jun 2027 02:54:25.723   03 Jun 2027 02:54:28.518             2.795               Magadan2            87.344
       215   03 Jun 2027 02:55:42.847   03 Jun 2027 02:56:10.836            27.989               Magadan1           874.656
       216   03 Jun 2027 02:59:36.489   03 Jun 2027 02:59:51.516            15.027               Magadan1           469.594
       217   03 Jun 2027 04:32:59.639   03 Jun 2027 04:33:43.065            43.426                Anadyr2          1357.062
       218   03 Jun 2027 04:34:08.807   03 Jun 2027 04:35:52.639           103.832               Magadan1          3244.750
       219   03 Jun 2027 04:36:08.594   03 Jun 2027 04:36:41.286            32.692               Magadan1          1021.625
       220   03 Jun 2027 04:36:48.022   03 Jun 2027 04:37:01.961            13.939                Norilsk           435.594
       221   03 Jun 2027 04:37:39.733   03 Jun 2027 04:39:19.073            99.340               Magadan1          3104.375
       222   03 Jun 2027 06:08:18.024   03 Jun 2027 06:09:11.753            53.729               Magadan1          1679.031
       223   03 Jun 2027 06:09:29.911   03 Jun 2027 06:11:24.447           114.536                Anadyr1          3579.250
       224   03 Jun 2027 06:11:37.903   03 Jun 2027 06:13:49.222           131.319               Magadan2          4103.719
       225   03 Jun 2027 06:14:03.395   03 Jun 2027 06:14:23.199            19.804               Magadan2           618.875
       226   03 Jun 2027 06:14:39.321   03 Jun 2027 06:14:53.227            13.906               Magadan2           434.562
       227   03 Jun 2027 06:15:13.002   03 Jun 2027 06:15:30.476            17.474                Anadyr1           546.062
       228   03 Jun 2027 06:18:49.747   03 Jun 2027 06:19:01.618            11.871                Norilsk           370.969
       229   03 Jun 2027 07:44:59.495   03 Jun 2027 07:46:06.350            66.855               Magadan1          2089.219
       230   03 Jun 2027 07:46:30.581   03 Jun 2027 07:46:42.711            12.130               Magadan2           379.062
       231   03 Jun 2027 07:47:37.233   03 Jun 2027 07:47:51.986            14.753                Irkutsk           461.031
       232   03 Jun 2027 07:48:17.260   03 Jun 2027 07:48:22.341             5.081               Magadan1           158.781
       233   03 Jun 2027 07:48:58.465   03 Jun 2027 07:49:45.274            46.809               Magadan1          1462.781
       234   03 Jun 2027 07:49:51.930   03 Jun 2027 07:50:21.259            29.329               Magadan1           916.531
       235   03 Jun 2027 07:51:16.476   03 Jun 2027 07:51:47.070            30.594                Novosib           956.063
       236   03 Jun 2027 07:54:45.781   03 Jun 2027 07:54:58.603            12.822                Norilsk           400.687
       237   03 Jun 2027 08:26:51.714   03 Jun 2027 08:27:37.909            46.195            RioGallegos          1443.594
       238   03 Jun 2027 08:27:46.385   03 Jun 2027 08:28:04.753            18.368            RioGallegos           574.000
       239   03 Jun 2027 08:30:27.595   03 Jun 2027 08:30:44.733            17.138            RioGallegos           535.562
       240   03 Jun 2027 09:01:28.914   03 Jun 2027 09:01:39.124            10.210                Sumatra           319.063
       241   03 Jun 2027 09:04:38.013   03 Jun 2027 09:05:29.905            51.892                Sumatra          1621.625
       242   03 Jun 2027 09:22:28.817   03 Jun 2027 09:23:07.204            38.387                Novosib          1199.594
       243   03 Jun 2027 09:23:47.062   03 Jun 2027 09:23:58.513            11.451                Norilsk           357.844
       244   03 Jun 2027 09:24:47.746   03 Jun 2027 09:25:12.598            24.852                Novosib           776.625
       245   03 Jun 2027 09:25:45.694   03 Jun 2027 09:26:01.933            16.239                Irkutsk           507.469
       246   03 Jun 2027 09:26:22.614   03 Jun 2027 09:27:33.325            70.711                Irkutsk          2209.719
       247   03 Jun 2027 09:27:59.141   03 Jun 2027 09:28:22.199            23.058                Novosib           720.563
       248   03 Jun 2027 10:07:23.309   03 Jun 2027 10:08:05.684            42.375            RioGallegos          1324.219
       249   03 Jun 2027 10:09:23.811   03 Jun 2027 10:10:20.103            56.292            RioGallegos          1759.125
       250   03 Jun 2027 10:46:03.789   03 Jun 2027 10:47:08.953            65.164                  Delhi          2036.375
       251   03 Jun 2027 10:59:45.074   03 Jun 2027 10:59:56.216            11.142                Novosib           348.188
       252   03 Jun 2027 11:00:10.244   03 Jun 2027 11:01:14.261            64.017                Novosib          2000.531
       253   03 Jun 2027 11:01:35.184   03 Jun 2027 11:01:56.591            21.407                Norilsk           668.969
       254   03 Jun 2027 11:02:13.275   03 Jun 2027 11:02:22.675             9.400                Novosib           293.750
       255   03 Jun 2027 11:03:13.765   03 Jun 2027 11:03:14.270             0.505                Novosib            15.781
       256   03 Jun 2027 11:04:01.180   03 Jun 2027 11:04:25.233            24.053                Novosib           751.656
       257   03 Jun 2027 12:30:14.227   03 Jun 2027 12:30:26.568            12.341                 Moscow           385.656
       258   03 Jun 2027 12:31:55.400   03 Jun 2027 12:32:44.463            49.063                 Moscow          1533.219
       259   03 Jun 2027 12:33:23.491   03 Jun 2027 12:34:18.582            55.091                 Moscow          1721.594
       260   03 Jun 2027 12:34:22.865   03 Jun 2027 12:36:14.379           111.514              Murmansk1          3484.812
       261   03 Jun 2027 12:36:52.482   03 Jun 2027 12:38:06.418            73.936              Murmansk1          2310.500
       262   03 Jun 2027 12:42:59.185   03 Jun 2027 12:43:48.551            49.366                Norilsk          1542.687
       263   03 Jun 2027 13:44:33.584   03 Jun 2027 13:46:39.241           125.657               CapeTown          3926.781
       264   03 Jun 2027 13:47:52.561   03 Jun 2027 13:49:33.115           100.554               CapeTown          3142.313
       265   03 Jun 2027 14:10:41.560   03 Jun 2027 14:13:13.900           152.340              Murmansk2          4760.625
       266   03 Jun 2027 14:24:34.444   03 Jun 2027 14:27:12.545           158.101                Anadyr2          4940.656
       267   03 Jun 2027 15:21:21.273   03 Jun 2027 15:22:17.637            56.364               CapeTown          1761.375
       268   03 Jun 2027 15:50:09.510   03 Jun 2027 15:51:27.078            77.568              Murmansk1          2424.000
       269   03 Jun 2027 15:52:45.977   03 Jun 2027 15:53:49.749            63.772              Murmansk2          1992.875
       270   03 Jun 2027 15:54:36.694   03 Jun 2027 15:54:39.411             2.717              Murmansk2            84.906
       271   03 Jun 2027 16:00:08.655   03 Jun 2027 16:01:56.998           108.343                Anadyr2          3385.719
       272   03 Jun 2027 16:03:01.970   03 Jun 2027 16:03:31.210            29.240                Anadyr1           913.750
       273   03 Jun 2027 16:04:36.342   03 Jun 2027 16:08:00.187           203.845               Magadan2          6370.156
       274   03 Jun 2027 16:08:11.892   03 Jun 2027 16:09:23.178            71.286               Magadan2          2227.688
       275   03 Jun 2027 17:36:03.427   03 Jun 2027 17:36:40.900            37.473                Anadyr2          1171.031
       276   03 Jun 2027 17:36:59.219   03 Jun 2027 17:37:45.157            45.938                Anadyr2          1435.563
       277   03 Jun 2027 17:38:24.312   03 Jun 2027 17:39:23.744            59.432               Magadan1          1857.250
       278   03 Jun 2027 17:40:19.367   03 Jun 2027 17:40:25.481             6.114               Magadan2           191.062
       279   03 Jun 2027 17:40:41.807   03 Jun 2027 17:40:57.858            16.051               Magadan1           501.594
       280   03 Jun 2027 17:42:23.119   03 Jun 2027 17:43:13.518            50.399               Magadan2          1574.969
       281   03 Jun 2027 18:33:17.998   03 Jun 2027 18:35:12.625           114.627            RioGallegos          3582.094
       282   03 Jun 2027 19:12:28.064   03 Jun 2027 19:12:54.702            26.638                Anadyr2           832.437
       283   03 Jun 2027 19:13:33.875   03 Jun 2027 19:13:41.608             7.733                Anadyr2           241.656
       284   03 Jun 2027 19:13:49.000   03 Jun 2027 19:13:59.825            10.825                Anadyr2           338.281
       285   03 Jun 2027 19:14:07.686   03 Jun 2027 19:18:01.885           234.199                Norilsk          7318.719
       286   03 Jun 2027 19:19:18.558   03 Jun 2027 19:22:29.988           191.430                Irkutsk          5982.188
       287   03 Jun 2027 19:23:02.737   03 Jun 2027 19:23:48.072            45.335                Irkutsk          1416.719
       288   03 Jun 2027 19:24:58.336   03 Jun 2027 19:26:12.351            74.015                Irkutsk          2312.969
       289   03 Jun 2027 19:34:47.996   03 Jun 2027 19:36:38.368           110.372                Sumatra          3449.125
       290   03 Jun 2027 19:39:55.980   03 Jun 2027 19:41:10.142            74.162                Sumatra          2317.562
       291   03 Jun 2027 20:54:35.587   03 Jun 2027 20:56:12.177            96.590                Novosib          3018.437
       292   03 Jun 2027 20:58:57.121   03 Jun 2027 20:59:21.064            23.943                Novosib           748.219
       293   03 Jun 2027 20:59:32.051   03 Jun 2027 20:59:49.066            17.015                Novosib           531.719
       294   03 Jun 2027 21:00:49.397   03 Jun 2027 21:01:01.955            12.558                Novosib           392.437
       295   03 Jun 2027 21:06:47.346   03 Jun 2027 21:07:22.601            35.255                  Delhi          1101.719
       296   03 Jun 2027 21:13:09.798   03 Jun 2027 21:14:02.978            53.180                Sumatra          1661.875
       297   03 Jun 2027 22:26:22.034   03 Jun 2027 22:27:36.566            74.532               Magadan2          2329.125
       298   03 Jun 2027 22:29:02.587   03 Jun 2027 22:33:15.567           252.980              Murmansk1          7905.625
       299   03 Jun 2027 22:36:59.202   03 Jun 2027 22:37:51.103            51.901                  Delhi          1621.906
       300   03 Jun 2027 22:45:14.898   03 Jun 2027 22:46:31.675            76.777                  Delhi          2399.281
       301   03 Jun 2027 23:54:49.026   03 Jun 2027 23:54:52.204             3.178                Anadyr2            99.312
       302   04 Jun 2027 00:00:50.205   04 Jun 2027 00:00:58.846             8.641                Anadyr1           270.031
       303   04 Jun 2027 00:01:25.068   04 Jun 2027 00:02:18.388            53.320               Magadan2          1666.250
       304   04 Jun 2027 00:02:23.897   04 Jun 2027 00:03:09.279            45.382               Magadan1          1418.188
       305   04 Jun 2027 00:03:19.659   04 Jun 2027 00:03:26.701             7.042                Norilsk           220.063
       306   04 Jun 2027 00:03:59.991   04 Jun 2027 00:06:02.525           122.534              Murmansk1          3829.188
       307   04 Jun 2027 00:06:02.525   04 Jun 2027 00:08:04.693           122.168              Murmansk2          3817.750
       308   04 Jun 2027 00:08:39.110   04 Jun 2027 00:09:34.536            55.426                 Moscow          1732.063
       309   04 Jun 2027 00:34:36.243   04 Jun 2027 00:36:35.949           119.706               CapeTown          3740.812
       310   04 Jun 2027 00:37:35.902   04 Jun 2027 00:37:54.953            19.051               CapeTown           595.344
       311   04 Jun 2027 00:38:46.411   04 Jun 2027 00:39:40.201            53.790               CapeTown          1680.937
       312   04 Jun 2027 01:32:39.647   04 Jun 2027 01:33:40.325            60.678               Magadan1          1896.188
       313   04 Jun 2027 01:33:58.529   04 Jun 2027 01:34:27.830            29.301               Magadan1           915.656
       314   04 Jun 2027 01:39:53.684   04 Jun 2027 01:41:33.188            99.504              Murmansk2          3109.500
       315   04 Jun 2027 01:41:33.188   04 Jun 2027 01:41:56.618            23.430              Murmansk1           732.188
       316   04 Jun 2027 01:41:58.684   04 Jun 2027 01:42:28.756            30.072              Murmansk2           939.750
       317   04 Jun 2027 01:46:05.528   04 Jun 2027 01:46:15.343             9.815                 Moscow           306.719
       318   04 Jun 2027 01:47:06.863   04 Jun 2027 01:47:11.627             4.764                 Moscow           148.875
       319   04 Jun 2027 01:47:25.540   04 Jun 2027 01:47:38.344            12.804                 Moscow           400.125
       320   04 Jun 2027 01:48:23.838   04 Jun 2027 01:48:47.353            23.515                 Moscow           734.844
       321   04 Jun 2027 01:50:59.175   04 Jun 2027 01:51:23.262            24.087                 Moscow           752.719
       322   04 Jun 2027 01:55:53.651   04 Jun 2027 01:56:00.602             6.951                 Moscow           217.219
       323   04 Jun 2027 02:10:13.515   04 Jun 2027 02:10:58.708            45.193               CapeTown          1412.281
       324   04 Jun 2027 02:15:42.759   04 Jun 2027 02:16:28.880            46.121               CapeTown          1441.281
       325   04 Jun 2027 03:05:44.589   04 Jun 2027 03:05:54.874            10.285               Magadan1           321.406
       326   04 Jun 2027 03:09:44.037   04 Jun 2027 03:10:54.693            70.656               Magadan1          2208.000
       327   04 Jun 2027 03:11:08.875   04 Jun 2027 03:12:55.798           106.923                Anadyr2          3341.344
       328   04 Jun 2027 03:12:55.798   04 Jun 2027 03:13:56.085            60.287                Anadyr1          1883.969
       329   04 Jun 2027 03:13:56.484   04 Jun 2027 03:15:58.504           122.020               Magadan1          3813.125
       330   04 Jun 2027 04:49:33.293   04 Jun 2027 04:50:02.844            29.551               Magadan2           923.469
       331   04 Jun 2027 04:50:27.289   04 Jun 2027 04:52:27.855           120.566                Anadyr1          3767.688
       332   04 Jun 2027 06:20:30.808   04 Jun 2027 06:21:24.723            53.915               Magadan1          1684.844
       333   04 Jun 2027 06:21:33.049   04 Jun 2027 06:21:41.679             8.630               Magadan2           269.687
       334   04 Jun 2027 06:21:44.269   04 Jun 2027 06:22:01.874            17.605                Anadyr2           550.156
       335   04 Jun 2027 06:22:16.236   04 Jun 2027 06:22:25.815             9.579               Magadan1           299.344
       336   04 Jun 2027 06:22:25.815   04 Jun 2027 06:22:45.432            19.617               Magadan2           613.031
       337   04 Jun 2027 06:22:58.167   04 Jun 2027 06:23:55.260            57.093                Anadyr2          1784.156
       338   04 Jun 2027 06:24:08.632   04 Jun 2027 06:24:18.837            10.205               Magadan2           318.906
       339   04 Jun 2027 06:24:41.141   04 Jun 2027 06:24:47.017             5.876                Anadyr1           183.625
       340   04 Jun 2027 06:24:53.341   04 Jun 2027 06:25:01.562             8.221               Magadan2           256.906
       341   04 Jun 2027 06:25:03.181   04 Jun 2027 06:25:52.554            49.373               Magadan2          1542.906
       342   04 Jun 2027 06:26:04.824   04 Jun 2027 06:26:10.858             6.034               Magadan1           188.562
       343   04 Jun 2027 06:26:12.467   04 Jun 2027 06:26:46.659            34.192                Anadyr2          1068.500
       344   04 Jun 2027 06:27:40.278   04 Jun 2027 06:27:55.208            14.930               Magadan1           466.563
       345   04 Jun 2027 06:30:59.390   04 Jun 2027 06:31:37.800            38.410                Norilsk          1200.312
       346   04 Jun 2027 07:58:04.970   04 Jun 2027 07:58:24.853            19.883               Magadan1           621.344
       347   04 Jun 2027 07:58:33.441   04 Jun 2027 07:59:05.596            32.155               Magadan1          1004.844
       348   04 Jun 2027 08:00:18.234   04 Jun 2027 08:00:22.973             4.739               Magadan2           148.094
       349   04 Jun 2027 08:00:39.648   04 Jun 2027 08:00:42.889             3.241                Irkutsk           101.281
       350   04 Jun 2027 08:01:12.110   04 Jun 2027 08:01:38.948            26.838               Magadan2           838.688
       351   04 Jun 2027 08:04:23.294   04 Jun 2027 08:04:27.006             3.712              Murmansk2           116.000
       352   04 Jun 2027 08:09:26.855   04 Jun 2027 08:09:57.029            30.174              Murmansk1           942.938
       353   04 Jun 2027 08:39:06.383   04 Jun 2027 08:39:31.269            24.886            RioGallegos           777.688
       354   04 Jun 2027 08:39:42.060   04 Jun 2027 08:40:08.407            26.347            RioGallegos           823.344
       355   04 Jun 2027 09:13:34.171   04 Jun 2027 09:14:33.245            59.074                Sumatra          1846.063
       356   04 Jun 2027 09:35:51.324   04 Jun 2027 09:36:15.750            24.426                Irkutsk           763.313
       357   04 Jun 2027 09:36:54.206   04 Jun 2027 09:37:29.254            35.048                Irkutsk          1095.250
       358   04 Jun 2027 09:37:47.275   04 Jun 2027 09:38:10.544            23.269                Irkutsk           727.156
       359   04 Jun 2027 09:38:31.308   04 Jun 2027 09:39:25.801            54.493                Irkutsk          1702.906
       360   04 Jun 2027 09:39:56.010   04 Jun 2027 09:40:11.753            15.743                Novosib           491.969
       361   04 Jun 2027 10:21:25.606   04 Jun 2027 10:22:42.288            76.682            RioGallegos          2396.313
       362   04 Jun 2027 10:58:06.124   04 Jun 2027 10:59:30.223            84.099                  Delhi          2628.094
       363   04 Jun 2027 11:12:01.223   04 Jun 2027 11:12:02.446             1.223                Novosib            38.219
       364   04 Jun 2027 11:13:28.550   04 Jun 2027 11:13:59.728            31.178                Novosib           974.312
       365   04 Jun 2027 11:14:07.031   04 Jun 2027 11:15:14.874            67.843                Novosib          2120.094
       366   04 Jun 2027 11:15:20.211   04 Jun 2027 11:16:11.864            51.653                Novosib          1614.156
       367   04 Jun 2027 12:43:06.334   04 Jun 2027 12:43:50.505            44.171                 Moscow          1380.344
       368   04 Jun 2027 12:45:36.734   04 Jun 2027 12:48:54.113           197.379              Murmansk1          6168.094
       369   04 Jun 2027 12:50:36.209   04 Jun 2027 12:51:12.015            35.806                Norilsk          1118.938
       370   04 Jun 2027 12:52:58.799   04 Jun 2027 12:53:33.977            35.178                Norilsk          1099.313
       371   04 Jun 2027 13:56:14.839   04 Jun 2027 13:58:47.915           153.076               CapeTown          4783.625
       372   04 Jun 2027 13:59:47.914   04 Jun 2027 14:00:53.938            66.024               CapeTown          2063.250
       373   04 Jun 2027 14:23:00.829   04 Jun 2027 14:23:45.859            45.030              Murmansk1          1407.187
       374   04 Jun 2027 14:24:43.678   04 Jun 2027 14:24:51.782             8.104              Murmansk2           253.250
       375   04 Jun 2027 14:26:33.253   04 Jun 2027 14:26:51.140            17.887              Murmansk1           558.969
       376   04 Jun 2027 14:26:51.140   04 Jun 2027 14:27:30.560            39.420              Murmansk2          1231.875
       377   04 Jun 2027 14:29:59.059   04 Jun 2027 14:30:28.273            29.214              Murmansk1           912.937
       378   04 Jun 2027 14:36:30.201   04 Jun 2027 14:39:11.642           161.441                Anadyr2          5045.031
       379   04 Jun 2027 14:42:15.984   04 Jun 2027 14:43:02.210            46.226                Anadyr1          1444.563
       380   04 Jun 2027 15:32:01.026   04 Jun 2027 15:32:08.975             7.949               CapeTown           248.406
       381   04 Jun 2027 16:02:51.357   04 Jun 2027 16:04:27.911            96.554              Murmansk1          3017.313
       382   04 Jun 2027 16:04:27.911   04 Jun 2027 16:04:47.724            19.813              Murmansk2           619.156
       383   04 Jun 2027 16:06:15.164   04 Jun 2027 16:06:32.926            17.762              Murmansk1           555.063
       384   04 Jun 2027 16:12:09.453   04 Jun 2027 16:12:39.925            30.472                Anadyr1           952.250
       385   04 Jun 2027 16:13:50.588   04 Jun 2027 16:15:12.896            82.308                Anadyr1          2572.125
       386   04 Jun 2027 16:15:14.405   04 Jun 2027 16:18:52.361           217.956               Magadan2          6811.125
       387   04 Jun 2027 16:19:54.343   04 Jun 2027 16:21:24.300            89.957               Magadan1          2811.156
       388   04 Jun 2027 17:48:04.729   04 Jun 2027 17:49:46.572           101.843                Anadyr2          3182.594
       389   04 Jun 2027 17:49:49.471   04 Jun 2027 17:50:16.149            26.678                Anadyr1           833.688
       390   04 Jun 2027 17:50:23.646   04 Jun 2027 17:52:19.188           115.542               Magadan1          3610.687
       391   04 Jun 2027 17:57:30.590   04 Jun 2027 17:57:31.771             1.181               Magadan1            36.906
       392   04 Jun 2027 17:57:43.901   04 Jun 2027 17:57:48.990             5.089               Magadan1           159.031
       393   04 Jun 2027 18:44:09.055   04 Jun 2027 18:46:53.675           164.620            RioGallegos          5144.375
       394   04 Jun 2027 18:49:01.671   04 Jun 2027 18:50:08.370            66.699            RioGallegos          2084.344
       395   04 Jun 2027 19:23:52.949   04 Jun 2027 19:23:54.915             1.966                Anadyr2            61.438
       396   04 Jun 2027 19:25:58.939   04 Jun 2027 19:26:01.223             2.284                Anadyr2            71.375
       397   04 Jun 2027 19:26:03.991   04 Jun 2027 19:29:38.286           214.295                Norilsk          6696.719
       398   04 Jun 2027 19:30:55.769   04 Jun 2027 19:32:10.525            74.756                Irkutsk          2336.125
       399   04 Jun 2027 19:32:45.709   04 Jun 2027 19:34:11.138            85.429                Irkutsk          2669.656
       400   04 Jun 2027 19:35:38.350   04 Jun 2027 19:37:05.318            86.968                Irkutsk          2717.750
       401   04 Jun 2027 19:45:46.109   04 Jun 2027 19:48:14.760           148.651                Sumatra          4645.344
       402   04 Jun 2027 19:51:51.641   04 Jun 2027 19:52:23.865            32.224                Sumatra          1007.000
       403   04 Jun 2027 19:52:38.774   04 Jun 2027 19:53:58.496            79.722                Sumatra          2491.313
       404   04 Jun 2027 21:06:22.876   04 Jun 2027 21:06:31.136             8.260                Novosib           258.125
       405   04 Jun 2027 21:06:44.015   04 Jun 2027 21:07:11.501            27.486                Novosib           858.937
       406   04 Jun 2027 21:08:04.496   04 Jun 2027 21:08:19.286            14.790                Novosib           462.188
       407   04 Jun 2027 21:16:09.210   04 Jun 2027 21:18:08.966           119.756                  Delhi          3742.375
       408   04 Jun 2027 21:20:36.485   04 Jun 2027 21:21:29.665            53.180                  Delhi          1661.875
       409   04 Jun 2027 22:38:21.499   04 Jun 2027 22:39:28.120            66.621               Magadan1          2081.906
       410   04 Jun 2027 22:40:44.831   04 Jun 2027 22:45:06.593           261.762              Murmansk1          8180.062
       411   04 Jun 2027 22:45:33.297   04 Jun 2027 22:46:15.193            41.896              Murmansk1          1309.250
       412   05 Jun 2027 00:06:30.818   05 Jun 2027 00:06:41.580            10.762                Anadyr1           336.312
       413   05 Jun 2027 00:08:58.850   05 Jun 2027 00:09:25.537            26.687                Anadyr1           833.969
       414   05 Jun 2027 00:11:22.992   05 Jun 2027 00:12:11.711            48.719                Anadyr2          1522.469
       415   05 Jun 2027 00:12:30.260   05 Jun 2027 00:13:48.256            77.996               Magadan1          2437.375
       416   05 Jun 2027 00:14:37.263   05 Jun 2027 00:14:56.168            18.905               Magadan2           590.781
       417   05 Jun 2027 00:15:27.816   05 Jun 2027 00:16:10.800            42.984               Magadan2          1343.250
       418   05 Jun 2027 00:16:19.527   05 Jun 2027 00:20:27.250           247.723              Murmansk1          7741.344
       419   05 Jun 2027 00:21:19.095   05 Jun 2027 00:21:38.305            19.210                 Moscow           600.313
       420   05 Jun 2027 00:22:10.385   05 Jun 2027 00:23:37.177            86.792                 Moscow          2712.250
       421   05 Jun 2027 00:47:22.484   05 Jun 2027 00:48:08.896            46.412               CapeTown          1450.375
       422   05 Jun 2027 00:49:16.529   05 Jun 2027 00:49:53.879            37.350               CapeTown          1167.188
       423   05 Jun 2027 00:51:05.732   05 Jun 2027 00:51:29.832            24.100               CapeTown           753.125
       424   05 Jun 2027 01:44:09.460   05 Jun 2027 01:45:43.001            93.541               Magadan2          2923.156
       425   05 Jun 2027 01:51:55.411   05 Jun 2027 01:53:58.640           123.229              Murmansk1          3850.906
       426   05 Jun 2027 01:54:28.061   05 Jun 2027 01:54:53.243            25.182                Novosib           786.937
       427   05 Jun 2027 01:56:59.513   05 Jun 2027 01:58:14.889            75.376                 Moscow          2355.500
       428   05 Jun 2027 02:22:14.621   05 Jun 2027 02:22:32.290            17.669               CapeTown           552.156
       429   05 Jun 2027 02:23:35.657   05 Jun 2027 02:23:58.307            22.650               CapeTown           707.813
       430   05 Jun 2027 02:26:02.984   05 Jun 2027 02:26:35.072            32.088               CapeTown          1002.750
       431   05 Jun 2027 03:15:48.196   05 Jun 2027 03:16:28.199            40.003                Anadyr2          1250.094
       432   05 Jun 2027 03:21:45.487   05 Jun 2027 03:25:19.282           213.795               Magadan1          6681.094
       433   05 Jun 2027 05:01:02.393   05 Jun 2027 05:02:28.505            86.112                Anadyr1          2691.000
       434   05 Jun 2027 05:02:28.505   05 Jun 2027 05:03:33.496            64.991                Anadyr2          2030.969
       435   05 Jun 2027 05:04:12.312   05 Jun 2027 05:04:18.867             6.555               Magadan2           204.844
       436   05 Jun 2027 06:33:38.238   05 Jun 2027 06:33:40.745             2.507               Magadan1            78.344
       437   05 Jun 2027 06:34:07.483   05 Jun 2027 06:34:18.830            11.347               Magadan2           354.594
       438   05 Jun 2027 06:34:18.830   05 Jun 2027 06:34:29.098            10.268               Magadan1           320.875
       439   05 Jun 2027 06:34:49.559   05 Jun 2027 06:36:07.883            78.324               Magadan2          2447.625
       440   05 Jun 2027 06:36:11.396   05 Jun 2027 06:36:56.225            44.829               Magadan1          1400.906
       441   05 Jun 2027 06:37:23.088   05 Jun 2027 06:38:05.896            42.808               Magadan2          1337.750
       442   05 Jun 2027 06:38:08.396   05 Jun 2027 06:38:36.592            28.196                Anadyr2           881.125
       443   05 Jun 2027 06:38:58.059   05 Jun 2027 06:39:41.516            43.457               Magadan1          1358.031
       444   05 Jun 2027 06:45:26.615   05 Jun 2027 06:45:34.331             7.716              Murmansk1           241.125
       445   05 Jun 2027 07:58:18.877   05 Jun 2027 07:58:47.212            28.335                Sumatra           885.469
       446   05 Jun 2027 08:13:27.894   05 Jun 2027 08:13:35.651             7.757                Irkutsk           242.406
       447   05 Jun 2027 08:14:27.251   05 Jun 2027 08:14:37.213             9.962                Irkutsk           311.313
       448   05 Jun 2027 08:21:28.798   05 Jun 2027 08:21:31.275             2.477              Murmansk2            77.406
       449   05 Jun 2027 08:51:25.267   05 Jun 2027 08:52:19.708            54.441            RioGallegos          1701.281
       450   05 Jun 2027 08:57:30.128   05 Jun 2027 08:57:47.500            17.372            RioGallegos           542.875
       451   05 Jun 2027 09:00:44.129   05 Jun 2027 09:00:46.087             1.958            RioGallegos            61.187
       452   05 Jun 2027 09:25:45.376   05 Jun 2027 09:27:27.958           102.582                Sumatra          3205.688
       453   05 Jun 2027 09:46:32.801   05 Jun 2027 09:46:41.264             8.463                Irkutsk           264.469
       454   05 Jun 2027 09:49:39.670   05 Jun 2027 09:49:47.989             8.319                Irkutsk           259.969
       455   05 Jun 2027 09:50:02.223   05 Jun 2027 09:50:15.109            12.886                Novosib           402.687
       456   05 Jun 2027 09:50:30.836   05 Jun 2027 09:51:14.443            43.607                Novosib          1362.719
       457   05 Jun 2027 09:51:51.555   05 Jun 2027 09:52:02.332            10.777                Novosib           336.781
       458   05 Jun 2027 11:10:34.766   05 Jun 2027 11:14:21.263           226.497                  Delhi          7078.031
       459   05 Jun 2027 11:25:06.018   05 Jun 2027 11:25:32.279            26.261                Novosib           820.656
       460   05 Jun 2027 11:25:39.496   05 Jun 2027 11:26:03.544            24.048                Novosib           751.500
       461   05 Jun 2027 11:26:34.078   05 Jun 2027 11:26:56.504            22.426                Norilsk           700.812
       462   05 Jun 2027 11:26:59.428   05 Jun 2027 11:27:14.745            15.317                Novosib           478.656
       463   05 Jun 2027 11:27:18.449   05 Jun 2027 11:27:20.539             2.090                Norilsk            65.313
       464   05 Jun 2027 12:54:11.326   05 Jun 2027 12:55:10.685            59.359                 Moscow          1854.969
       465   05 Jun 2027 12:55:47.827   05 Jun 2027 12:56:14.408            26.581                 Moscow           830.656
       466   05 Jun 2027 12:57:42.788   05 Jun 2027 13:00:34.966           172.178              Murmansk1          5380.563
       467   05 Jun 2027 13:03:30.393   05 Jun 2027 13:04:36.630            66.237                Norilsk          2069.906
       468   05 Jun 2027 13:14:46.230   05 Jun 2027 13:15:29.111            42.881                Anadyr1          1340.031
       469   05 Jun 2027 13:16:23.490   05 Jun 2027 13:17:02.996            39.506                Anadyr2          1234.562
       470   05 Jun 2027 14:08:01.301   05 Jun 2027 14:10:14.111           132.810               CapeTown          4150.312
       471   05 Jun 2027 14:10:59.858   05 Jun 2027 14:11:44.529            44.671               CapeTown          1395.969
       472   05 Jun 2027 14:35:22.312   05 Jun 2027 14:35:50.922            28.610              Murmansk2           894.062
       473   05 Jun 2027 14:37:11.250   05 Jun 2027 14:38:35.011            83.761              Murmansk2          2617.531
       474   05 Jun 2027 14:48:27.187   05 Jun 2027 14:51:12.602           165.415                Anadyr2          5169.219
       475   05 Jun 2027 14:55:36.919   05 Jun 2027 14:56:09.800            32.881                Anadyr1          1027.531
       476   05 Jun 2027 15:46:02.218   05 Jun 2027 15:47:44.310           102.092               CapeTown          3190.375
       477   05 Jun 2027 16:15:37.998   05 Jun 2027 16:16:29.243            51.245              Murmansk1          1601.406
       478   05 Jun 2027 16:16:49.613   05 Jun 2027 16:18:12.476            82.863              Murmansk2          2589.469
       479   05 Jun 2027 16:24:10.460   05 Jun 2027 16:25:46.021            95.561                Anadyr1          2986.281
       480   05 Jun 2027 16:27:03.972   05 Jun 2027 16:30:25.514           201.542               Magadan1          6298.187
       481   05 Jun 2027 18:00:05.930   05 Jun 2027 18:03:25.812           199.882                Anadyr1          6246.312
       482   05 Jun 2027 18:03:44.128   05 Jun 2027 18:04:51.290            67.162               Magadan2          2098.812
