uniorb/output/strategy_4/Drop/Drop_KinoSat_110209.txt

KinoSat_110209
-------------------------
    Access    *     Start Time (UTCG)     *     Stop Time (UTCG)  *   Duration (s)        *       Station  *  Data (Mbytes)
         1   01 Jun 2027 03:24:06.441   01 Jun 2027 03:24:22.641            16.200               Magadan1          2025.000
         2   01 Jun 2027 03:25:11.966   01 Jun 2027 03:27:38.878           146.912               Magadan1         18364.000
         3   01 Jun 2027 03:27:38.878   01 Jun 2027 03:29:11.646            92.768               Magadan2         11596.000
         4   01 Jun 2027 03:35:32.475   01 Jun 2027 03:36:08.136            35.661              Murmansk1          4457.625
         5   01 Jun 2027 04:04:54.228   01 Jun 2027 04:05:04.861            10.633            RioGallegos          1329.125
         6   01 Jun 2027 04:06:47.365   01 Jun 2027 04:08:04.682            77.317            RioGallegos          9664.625
         7   01 Jun 2027 04:39:47.203   01 Jun 2027 04:43:49.323           242.120                Sumatra         30265.000
         8   01 Jun 2027 05:02:27.677   01 Jun 2027 05:03:07.768            40.091                Irkutsk          5011.375
         9   01 Jun 2027 05:03:15.516   01 Jun 2027 05:04:26.894            71.378                Novosib          8922.250
        10   01 Jun 2027 05:04:43.594   01 Jun 2027 05:05:45.840            62.246                Novosib          7780.750
        11   01 Jun 2027 06:18:52.147   01 Jun 2027 06:21:11.440           139.293                Sumatra         17411.625
        12   01 Jun 2027 06:24:51.140   01 Jun 2027 06:25:48.503            57.363                  Delhi          7170.375
        13   01 Jun 2027 06:40:11.594   01 Jun 2027 06:41:12.828            61.234                 Moscow          7654.250
        14   01 Jun 2027 06:41:35.902   01 Jun 2027 06:42:37.194            61.292              Murmansk1          7661.500
        15   01 Jun 2027 06:43:23.875   01 Jun 2027 06:43:26.026             2.151                 Moscow           268.875
        16   01 Jun 2027 06:44:20.584   01 Jun 2027 06:44:58.322            37.738                 Moscow          4717.250
        17   01 Jun 2027 08:13:37.398   01 Jun 2027 08:15:01.402            84.004              Murmansk2         10500.500
        18   01 Jun 2027 08:15:22.278   01 Jun 2027 08:16:05.492            43.214              Murmansk2          5401.750
        19   01 Jun 2027 08:16:16.721   01 Jun 2027 08:16:27.458            10.737                 Moscow          1342.125
        20   01 Jun 2027 08:16:41.528   01 Jun 2027 08:21:21.362           279.834              Murmansk2         34979.250
        21   01 Jun 2027 09:23:27.749   01 Jun 2027 09:29:27.495           359.746               CapeTown         44968.250
        22   01 Jun 2027 13:16:42.771   01 Jun 2027 13:21:26.071           283.300               Magadan1         35412.500
        23   01 Jun 2027 15:44:22.933   01 Jun 2027 15:47:35.991           193.058            RioGallegos         24132.250
        24   01 Jun 2027 16:32:04.570   01 Jun 2027 16:33:39.873            95.303                Irkutsk         11912.875
        25   01 Jun 2027 16:36:46.346   01 Jun 2027 16:37:16.452            30.106                Irkutsk          3763.250
        26   01 Jun 2027 16:40:35.476   01 Jun 2027 16:41:11.534            36.058                Novosib          4507.250
        27   01 Jun 2027 16:41:34.463   01 Jun 2027 16:41:36.806             2.343                Irkutsk           292.875
        28   01 Jun 2027 16:45:45.267   01 Jun 2027 16:48:53.169           187.902                Sumatra         23487.750
        29   01 Jun 2027 18:10:30.186   01 Jun 2027 18:12:40.737           130.551                Novosib         16318.875
        30   01 Jun 2027 18:15:24.428   01 Jun 2027 18:18:02.024           157.596                  Delhi         19699.500
        31   01 Jun 2027 19:46:32.114   01 Jun 2027 19:47:33.110            60.996                 Moscow          2168.875
        32   02 Jun 2027 03:42:22.568   02 Jun 2027 03:46:52.784           270.216                Norilsk         33777.000
        33   02 Jun 2027 04:26:48.318   02 Jun 2027 04:26:51.622             3.304            RioGallegos           413.000
        34   02 Jun 2027 04:51:44.727   02 Jun 2027 04:54:33.167           168.440                Sumatra         21055.000
        35   02 Jun 2027 05:15:50.560   02 Jun 2027 05:16:53.218            62.658                Irkutsk          7832.250
        36   02 Jun 2027 05:18:22.108   02 Jun 2027 05:23:08.710           286.602                Norilsk         35825.250
        37   02 Jun 2027 05:23:11.367   02 Jun 2027 05:25:18.048           126.681              Murmansk2         15835.125
        38   02 Jun 2027 06:42:58.082   02 Jun 2027 06:48:33.401           335.319                  Delhi         41914.875
        39   02 Jun 2027 06:48:34.778   02 Jun 2027 06:49:22.297            47.519                 Moscow          5939.875
        40   02 Jun 2027 06:53:48.776   02 Jun 2027 06:54:13.934            25.158                Novosib          3144.750
        41   02 Jun 2027 06:54:22.776   02 Jun 2027 06:57:03.822           161.046                 Moscow         20130.750
        42   02 Jun 2027 06:57:05.650   02 Jun 2027 07:00:50.848           225.198              Murmansk2         28149.750
        43   02 Jun 2027 08:30:11.296   02 Jun 2027 08:33:14.867           183.571                 Moscow         22946.375
        44   02 Jun 2027 08:33:24.837   02 Jun 2027 08:36:43.971           199.134              Murmansk2         24891.750
        45   02 Jun 2027 09:35:13.015   02 Jun 2027 09:45:19.539           606.524               CapeTown         75815.500
        46   02 Jun 2027 10:00:19.919   02 Jun 2027 10:00:44.063            24.144                 Moscow          3018.000
        47   02 Jun 2027 10:03:06.289   02 Jun 2027 10:04:55.264           108.975              Murmansk1         13621.875
        48   02 Jun 2027 10:05:01.019   02 Jun 2027 10:07:07.200           126.181                 Moscow         15772.625
        49   02 Jun 2027 10:07:56.080   02 Jun 2027 10:10:14.154           138.074              Murmansk2         17259.250
        50   02 Jun 2027 10:10:14.154   02 Jun 2027 10:12:41.836           147.682              Murmansk1         18460.250
        51   02 Jun 2027 10:14:52.880   02 Jun 2027 10:24:19.541           566.661                Anadyr1         70832.625
        52   02 Jun 2027 11:16:26.138   02 Jun 2027 11:22:18.444           352.306               CapeTown         44038.250
        53   02 Jun 2027 11:40:11.452   02 Jun 2027 11:40:49.237            37.785              Murmansk2          4723.125
        54   02 Jun 2027 11:54:43.367   02 Jun 2027 11:55:08.953            25.586               Magadan1          3198.250
        55   02 Jun 2027 11:57:57.056   02 Jun 2027 11:58:47.041            49.985               Magadan2          6248.125
        56   02 Jun 2027 13:28:41.097   02 Jun 2027 13:33:26.710           285.613               Magadan1         35701.625
        57   02 Jun 2027 15:25:35.861   02 Jun 2027 15:29:13.126           217.265                Sumatra         27158.125
        58   02 Jun 2027 16:05:47.555   02 Jun 2027 16:07:34.028           106.473            RioGallegos         13309.125
        59   02 Jun 2027 16:44:57.834   02 Jun 2027 16:46:18.368            80.534                Novosib         10066.750
        60   02 Jun 2027 16:52:02.618   02 Jun 2027 16:53:58.573           115.955                Novosib         14494.375
        61   02 Jun 2027 16:57:45.581   02 Jun 2027 16:58:55.405            69.824                Sumatra          8728.000
        62   02 Jun 2027 18:23:50.363   02 Jun 2027 18:26:36.213           165.850                Novosib         20731.250
        63   02 Jun 2027 18:27:17.248   02 Jun 2027 18:30:15.820           178.572                  Delhi         22321.500
        64   02 Jun 2027 19:58:16.985   02 Jun 2027 19:59:47.513            90.528                 Moscow         11316.000
        65   02 Jun 2027 21:42:58.668   02 Jun 2027 21:44:53.261           114.593                 Moscow         14324.125
        66   02 Jun 2027 22:06:51.437   02 Jun 2027 22:08:17.956            86.519               CapeTown          1502.500
        67   03 Jun 2027 03:54:15.372   03 Jun 2027 03:58:41.221           265.849                Norilsk         33231.125
        68   03 Jun 2027 05:03:47.838   03 Jun 2027 05:05:43.095           115.257                Sumatra         14407.125
        69   03 Jun 2027 05:14:25.820   03 Jun 2027 05:16:12.192           106.372                  Delhi         13296.500
        70   03 Jun 2027 05:30:19.166   03 Jun 2027 05:31:44.329            85.163                Novosib         10645.375
        71   03 Jun 2027 05:32:05.986   03 Jun 2027 05:32:22.371            16.385                 Moscow          2048.125
        72   03 Jun 2027 05:32:50.398   03 Jun 2027 05:37:14.748           264.350              Murmansk2         33043.750
        73   03 Jun 2027 06:54:29.192   03 Jun 2027 06:55:21.539            52.347                  Delhi          6543.375
        74   03 Jun 2027 06:56:01.017   03 Jun 2027 07:00:23.584           262.567                  Delhi         32820.875
        75   03 Jun 2027 07:00:28.385   03 Jun 2027 07:01:14.167            45.782                 Moscow          5722.750
        76   03 Jun 2027 07:06:21.238   03 Jun 2027 07:09:08.781           167.543                 Moscow         20942.875
        77   03 Jun 2027 07:09:18.084   03 Jun 2027 07:12:51.082           212.998              Murmansk2         26624.750
        78   03 Jun 2027 08:35:40.570   03 Jun 2027 08:35:54.222            13.652                 Moscow          1706.500
        79   03 Jun 2027 08:37:22.140   03 Jun 2027 08:37:39.875            17.735                 Moscow          2216.875
        80   03 Jun 2027 08:40:51.968   03 Jun 2027 08:45:15.708           263.740                 Moscow         32967.500
        81   03 Jun 2027 08:45:24.152   03 Jun 2027 08:48:45.603           201.451              Murmansk2         25181.375
        82   03 Jun 2027 09:50:01.750   03 Jun 2027 09:57:50.666           468.916               CapeTown         58614.500
        83   03 Jun 2027 10:15:56.834   03 Jun 2027 10:16:23.861            27.027              Murmansk2          3378.375
        84   03 Jun 2027 10:16:52.245   03 Jun 2027 10:19:00.695           128.450                 Moscow         16056.250
        85   03 Jun 2027 10:19:57.698   03 Jun 2027 10:22:12.458           134.760              Murmansk2         16845.000
        86   03 Jun 2027 10:22:12.458   03 Jun 2027 10:24:42.948           150.490              Murmansk1         18811.250
        87   03 Jun 2027 10:26:51.903   03 Jun 2027 10:36:52.074           600.171                Anadyr1         75021.375
        88   03 Jun 2027 11:29:52.312   03 Jun 2027 11:34:03.855           251.543               CapeTown         31442.875
        89   03 Jun 2027 12:09:29.314   03 Jun 2027 12:09:50.150            20.836               Magadan1          2604.500
        90   03 Jun 2027 12:11:15.706   03 Jun 2027 12:14:18.943           183.237               Magadan1         22904.625
        91   03 Jun 2027 15:25:59.503   03 Jun 2027 15:28:39.587           160.084                Irkutsk         20010.500
        92   03 Jun 2027 15:36:22.623   03 Jun 2027 15:39:03.832           161.209                Sumatra         20151.125
        93   03 Jun 2027 15:41:33.471   03 Jun 2027 15:44:45.360           191.889                Sumatra         23986.125
        94   03 Jun 2027 16:58:35.662   03 Jun 2027 16:59:57.186            81.524                Novosib         10190.500
        95   03 Jun 2027 17:06:58.800   03 Jun 2027 17:08:54.493           115.693                  Delhi         14461.625
        96   03 Jun 2027 17:17:41.311   03 Jun 2027 17:19:11.920            90.609                Sumatra         11326.125
        97   03 Jun 2027 18:39:13.722   03 Jun 2027 18:41:29.957           136.235                  Delhi         17029.375
        98   03 Jun 2027 20:10:05.677   03 Jun 2027 20:13:05.881           180.204                 Moscow         22525.500
        99   03 Jun 2027 21:47:00.731   03 Jun 2027 21:47:30.186            29.455              Murmansk1          3681.875
       100   03 Jun 2027 21:50:58.122   03 Jun 2027 21:53:10.969           132.847                 Moscow          5865.126
       101   04 Jun 2027 04:06:09.023   04 Jun 2027 04:07:28.159            79.136              Murmansk2          9892.000
       102   04 Jun 2027 04:07:28.159   04 Jun 2027 04:08:08.354            40.195              Murmansk1          5024.375
       103   04 Jun 2027 05:15:56.725   04 Jun 2027 05:16:15.547            18.822                Sumatra          2352.750
       104   04 Jun 2027 05:18:04.370   04 Jun 2027 05:18:45.043            40.673                Sumatra          5084.125
       105   04 Jun 2027 05:20:20.267   04 Jun 2027 05:20:41.374            21.107                Sumatra          2638.375
       106   04 Jun 2027 05:24:56.495   04 Jun 2027 05:26:45.652           109.157                  Delhi         13644.625
       107   04 Jun 2027 05:40:40.436   04 Jun 2027 05:41:06.049            25.613                 Moscow          3201.625
       108   04 Jun 2027 05:42:09.996   04 Jun 2027 05:43:45.036            95.040                Novosib         11880.000
       109   04 Jun 2027 05:44:27.558   04 Jun 2027 05:44:34.215             6.657                 Moscow           832.125
       110   04 Jun 2027 05:44:45.291   04 Jun 2027 05:49:12.030           266.739              Murmansk1         33342.375
       111   04 Jun 2027 07:08:01.196   04 Jun 2027 07:12:09.128           247.932                  Delhi         30991.500
       112   04 Jun 2027 07:12:10.031   04 Jun 2027 07:13:00.492            50.461              Murmansk1          6307.625
       113   04 Jun 2027 07:17:43.284   04 Jun 2027 07:18:01.540            18.256                Novosib          2282.000
       114   04 Jun 2027 07:18:14.636   04 Jun 2027 07:21:13.238           178.602                 Moscow         22325.250
       115   04 Jun 2027 07:21:17.309   04 Jun 2027 07:24:51.596           214.287              Murmansk1         26785.875
       116   04 Jun 2027 08:47:41.281   04 Jun 2027 08:49:56.307           135.026                 Moscow         16878.250
       117   04 Jun 2027 08:52:31.803   04 Jun 2027 08:57:15.877           284.074                 Moscow         35509.250
       118   04 Jun 2027 08:57:24.640   04 Jun 2027 09:00:47.284           202.644              Murmansk2         25330.500
       119   04 Jun 2027 10:03:17.181   04 Jun 2027 10:10:13.882           416.701               CapeTown         52087.625
       120   04 Jun 2027 10:27:19.625   04 Jun 2027 10:28:29.933            70.308              Murmansk1          8788.500
       121   04 Jun 2027 10:28:53.672   04 Jun 2027 10:30:53.921           120.249                 Moscow         15031.125
       122   04 Jun 2027 10:31:59.230   04 Jun 2027 10:36:38.909           279.679              Murmansk2         34959.875
       123   04 Jun 2027 10:38:44.573   04 Jun 2027 10:39:23.665            39.092                Anadyr1          4886.500
       124   04 Jun 2027 10:43:10.398   04 Jun 2027 10:43:25.302            14.904                Anadyr2          1863.000
       125   04 Jun 2027 12:17:23.923   04 Jun 2027 12:20:38.271           194.348               Magadan2         24293.500
       126   04 Jun 2027 12:20:38.271   04 Jun 2027 12:20:47.700             9.429               Magadan1          1178.625
       127   04 Jun 2027 13:52:39.831   04 Jun 2027 13:53:18.169            38.338               Magadan1          4792.250
       128   04 Jun 2027 14:00:48.348   04 Jun 2027 14:02:14.470            86.122               Magadan2         10765.250
       129   04 Jun 2027 15:33:01.214   04 Jun 2027 15:37:10.003           248.789                Irkutsk         31098.625
       130   04 Jun 2027 15:47:33.928   04 Jun 2027 15:50:52.200           198.272                Sumatra         24784.000
       131   04 Jun 2027 15:53:46.737   04 Jun 2027 15:56:39.726           172.989                Sumatra         21623.625
       132   04 Jun 2027 17:11:48.299   04 Jun 2027 17:12:57.691            69.392                Novosib          8674.000
       133   04 Jun 2027 17:17:45.035   04 Jun 2027 17:20:37.787           172.752                  Delhi         21594.000
       134   04 Jun 2027 18:58:57.059   04 Jun 2027 19:00:38.550           101.491                  Delhi         12686.375
       135   04 Jun 2027 20:21:57.145   04 Jun 2027 20:26:03.432           246.287                 Moscow         15979.000
       136   05 Jun 2027 04:18:04.940   05 Jun 2027 04:18:18.055            13.115                Irkutsk          1639.375
       137   05 Jun 2027 04:18:19.416   05 Jun 2027 04:19:43.336            83.920                Novosib         10490.000
       138   05 Jun 2027 05:28:11.970   05 Jun 2027 05:28:41.418            29.448                Sumatra          3681.000
       139   05 Jun 2027 05:30:31.495   05 Jun 2027 05:32:39.103           127.608                Sumatra         15951.000
       140   05 Jun 2027 05:36:36.116   05 Jun 2027 05:39:00.372           144.256                  Delhi         18032.000
       141   05 Jun 2027 05:53:30.556   05 Jun 2027 05:56:44.170           193.614                 Moscow         24201.750
       142   05 Jun 2027 05:56:48.839   05 Jun 2027 06:01:09.854           261.015              Murmansk1         32626.875
       143   05 Jun 2027 07:19:58.014   05 Jun 2027 07:23:48.910           230.896                  Delhi         28862.000
       144   05 Jun 2027 07:23:56.868   05 Jun 2027 07:25:24.456            87.588                 Moscow         10948.500
       145   05 Jun 2027 07:30:01.631   05 Jun 2027 07:33:17.215           195.584                 Moscow         24448.000
       146   05 Jun 2027 07:33:33.850   05 Jun 2027 07:36:52.356           198.506              Murmansk2         24813.250
       147   05 Jun 2027 08:59:41.300   05 Jun 2027 09:02:16.579           155.279                 Moscow         19409.875
       148   05 Jun 2027 09:03:24.257   05 Jun 2027 09:04:41.902            77.645              Murmansk2          9705.625
       149   05 Jun 2027 09:04:47.598   05 Jun 2027 09:09:15.280           267.682                 Moscow         33460.250
       150   05 Jun 2027 09:09:29.638   05 Jun 2027 09:12:44.930           195.292              Murmansk1         24411.500
       151   05 Jun 2027 10:55:11.893   05 Jun 2027 10:55:25.329            13.436                Anadyr2          1679.500
       152   05 Jun 2027 10:58:03.644   05 Jun 2027 11:00:15.316           131.672                Anadyr1         16459.000
       153   05 Jun 2027 12:29:55.852   05 Jun 2027 12:33:55.332           239.480               Magadan1         29935.000
       154   05 Jun 2027 15:01:21.470   05 Jun 2027 15:03:07.322           105.852            RioGallegos         13231.500
       155   05 Jun 2027 15:44:47.394   05 Jun 2027 15:47:33.604           166.210                Irkutsk         20776.250
       156   05 Jun 2027 16:01:19.081   05 Jun 2027 16:02:46.483            87.402                Sumatra         10925.250
       157   05 Jun 2027 16:05:53.863   05 Jun 2027 16:08:12.789           138.926                Sumatra         17365.750
       158   05 Jun 2027 17:20:24.895   05 Jun 2027 17:23:42.902           198.007                Novosib         24750.875
       159   05 Jun 2027 17:29:00.185   05 Jun 2027 17:32:26.129           205.944                  Delhi         25743.000
       160   05 Jun 2027 19:07:29.227   05 Jun 2027 19:08:11.405            42.178                  Delhi          5272.250
       161   05 Jun 2027 20:33:50.733   05 Jun 2027 20:36:09.537           138.804                 Moscow         17350.500
       162   05 Jun 2027 21:07:25.063   05 Jun 2027 21:07:34.672             9.609               CapeTown          1201.125
       163   05 Jun 2027 22:06:14.480   05 Jun 2027 22:06:38.493            24.013              Murmansk1          2536.500
       164   06 Jun 2027 05:40:34.719   06 Jun 2027 05:42:11.072            96.353                Sumatra         12044.125
       165   06 Jun 2027 05:48:21.683   06 Jun 2027 05:51:10.928           169.245                  Delhi         21155.625
       166   06 Jun 2027 06:05:59.175   06 Jun 2027 06:07:44.289           105.114                Novosib         13139.250
       167   06 Jun 2027 06:08:07.321   06 Jun 2027 06:08:52.781            45.460                 Moscow          5682.500
       168   06 Jun 2027 06:08:57.960   06 Jun 2027 06:13:08.176           250.216              Murmansk2         31277.000
       169   06 Jun 2027 07:31:51.216   06 Jun 2027 07:35:20.970           209.754                  Delhi         26219.250
       170   06 Jun 2027 07:35:43.441   06 Jun 2027 07:37:05.317            81.876                 Moscow         10234.500
       171   06 Jun 2027 07:37:18.163   06 Jun 2027 07:37:54.006            35.843              Murmansk1          4480.375
       172   06 Jun 2027 07:42:08.217   06 Jun 2027 07:45:20.719           192.502                 Moscow         24062.750
       173   06 Jun 2027 07:45:35.733   06 Jun 2027 07:48:53.333           197.600              Murmansk1         24700.000
       174   06 Jun 2027 09:11:40.543   06 Jun 2027 09:13:16.237            95.694                 Moscow         11961.750
       175   06 Jun 2027 09:13:26.042   06 Jun 2027 09:14:32.386            66.344              Murmansk2          8293.000
       176   06 Jun 2027 09:15:25.325   06 Jun 2027 09:17:19.602           114.277              Murmansk1         14284.625
       177   06 Jun 2027 09:17:20.546   06 Jun 2027 09:21:13.822           233.276                 Moscow         29159.500
       178   06 Jun 2027 09:21:17.849   06 Jun 2027 09:24:45.371           207.522              Murmansk2         25940.250
       179   06 Jun 2027 12:41:08.598   06 Jun 2027 12:45:42.167           273.569               Magadan2         34196.125
       180   06 Jun 2027 12:50:00.617   06 Jun 2027 12:50:39.080            38.463               Magadan2          4807.875
       181   06 Jun 2027 14:21:32.677   06 Jun 2027 14:22:30.414            57.737               Magadan2          7217.125
       182   06 Jun 2027 15:09:12.035   06 Jun 2027 15:13:18.080           246.045            RioGallegos         30755.625
       183   06 Jun 2027 15:57:47.777   06 Jun 2027 16:00:38.470           170.693                Irkutsk         21336.625
       184   06 Jun 2027 16:10:33.855   06 Jun 2027 16:12:29.353           115.498                Sumatra         14437.250
       185   06 Jun 2027 17:32:18.862   06 Jun 2027 17:34:28.509           129.647                Novosib         16205.875
       186   06 Jun 2027 17:40:29.024   06 Jun 2027 17:44:18.673           229.649                  Delhi         28706.125
       187   06 Jun 2027 19:15:23.218   06 Jun 2027 19:16:04.945            41.727                  Delhi          5215.875
       188   06 Jun 2027 19:21:31.481   06 Jun 2027 19:22:22.229            50.748                  Delhi          6343.500
       189   06 Jun 2027 20:44:12.149   06 Jun 2027 20:44:41.078            28.929              Murmansk2          3616.125
       190   06 Jun 2027 20:45:46.007   06 Jun 2027 20:47:29.377           103.370                 Moscow         12921.250
       191   06 Jun 2027 22:18:16.136   06 Jun 2027 22:19:10.068            53.932              Murmansk2          3107.125
       192   07 Jun 2027 04:16:24.212   07 Jun 2027 04:20:48.437           264.225                Sumatra         33028.125
       193   07 Jun 2027 04:42:06.793   07 Jun 2027 04:42:51.747            44.954              Murmansk1          5619.250
       194   07 Jun 2027 04:42:56.076   07 Jun 2027 04:47:18.264           262.188                Norilsk         32773.500
       195   07 Jun 2027 04:47:20.207   07 Jun 2027 04:49:46.525           146.318              Murmansk2         18289.750
       196   07 Jun 2027 05:55:06.527   07 Jun 2027 06:02:46.237           459.710                Sumatra         57463.750
       197   07 Jun 2027 06:03:17.847   07 Jun 2027 06:09:44.002           386.155                  Delhi         48269.375
       198   07 Jun 2027 06:17:51.743   07 Jun 2027 06:21:00.367           188.624                 Moscow         23578.000
       199   07 Jun 2027 06:21:08.224   07 Jun 2027 06:25:06.958           238.734              Murmansk1         29841.750
       200   07 Jun 2027 07:43:40.331   07 Jun 2027 07:44:22.216            41.885                  Delhi          5235.625
       201   07 Jun 2027 07:47:01.871   07 Jun 2027 07:49:05.151           123.280                Novosib         15410.000
       202   07 Jun 2027 07:54:53.101   07 Jun 2027 07:55:59.323            66.222                Norilsk          8277.750
       203   07 Jun 2027 07:56:11.014   07 Jun 2027 08:00:54.499           283.485              Murmansk1         35435.625
       204   07 Jun 2027 09:04:50.436   07 Jun 2027 09:06:33.647           103.211               CapeTown         12901.375
       205   07 Jun 2027 09:23:38.893   07 Jun 2027 09:24:20.890            41.997                 Moscow          5249.625
       206   07 Jun 2027 09:27:26.553   07 Jun 2027 09:29:28.807           122.254              Murmansk1         15281.750
       207   07 Jun 2027 09:30:17.520   07 Jun 2027 09:33:11.360           173.840                 Moscow         21730.000
       208   07 Jun 2027 09:33:19.863   07 Jun 2027 09:36:52.337           212.474              Murmansk1         26559.250
       209   07 Jun 2027 09:39:35.937   07 Jun 2027 09:46:29.362           413.425                Anadyr2         51678.125
       210   07 Jun 2027 10:41:16.723   07 Jun 2027 10:46:46.746           330.023               CapeTown         41252.875
       211   07 Jun 2027 12:53:03.686   07 Jun 2027 12:54:53.613           109.927               Magadan2         13740.875
       212   07 Jun 2027 12:57:48.725   07 Jun 2027 12:58:17.973            29.248               Magadan1          3656.000
       213   07 Jun 2027 13:00:18.747   07 Jun 2027 13:02:35.239           136.492               Magadan2         17061.500
       214   07 Jun 2027 14:28:41.721   07 Jun 2027 14:29:04.777            23.056               Magadan2          2882.000
       215   07 Jun 2027 14:32:01.458   07 Jun 2027 14:33:34.178            92.720               Magadan1         11590.000
       216   07 Jun 2027 15:20:57.167   07 Jun 2027 15:23:33.698           156.531            RioGallegos         19566.375
       217   07 Jun 2027 16:08:29.190   07 Jun 2027 16:10:15.788           106.598                Irkutsk         13324.750
       218   07 Jun 2027 16:22:16.305   07 Jun 2027 16:26:51.922           275.617                Sumatra         34452.125
       219   07 Jun 2027 17:52:06.540   07 Jun 2027 17:56:14.909           248.369                  Delhi         31046.125
       220   07 Jun 2027 19:27:33.287   07 Jun 2027 19:27:50.910            17.623                  Delhi          2202.875
       221   07 Jun 2027 20:54:19.679   07 Jun 2027 20:54:42.607            22.928              Murmansk2          2866.000
       222   07 Jun 2027 20:55:14.809   07 Jun 2027 20:56:10.206            55.397              Murmansk1          6924.625
       223   07 Jun 2027 20:57:42.641   07 Jun 2027 20:59:03.799            81.158                 Moscow         10144.750
       224   07 Jun 2027 21:22:06.752   07 Jun 2027 21:22:58.035            51.283               CapeTown          6410.375
       225   08 Jun 2027 03:18:28.515   08 Jun 2027 03:19:31.066            62.551                Novosib          7818.875
       226   08 Jun 2027 03:19:32.338   08 Jun 2027 03:23:26.233           233.895                Norilsk         29236.875
       227   08 Jun 2027 03:23:35.656   08 Jun 2027 03:24:55.459            79.803              Murmansk1          9975.375
       228   08 Jun 2027 04:28:10.012   08 Jun 2027 04:30:56.021           166.009                Sumatra         20751.125
       229   08 Jun 2027 04:54:29.321   08 Jun 2027 04:55:29.613            60.292                 Moscow          7536.500
       230   08 Jun 2027 04:55:31.319   08 Jun 2027 04:59:19.942           228.623                Norilsk         28577.875
       231   08 Jun 2027 04:59:34.693   08 Jun 2027 05:01:41.274           126.581              Murmansk1         15822.625
       232   08 Jun 2027 06:19:48.659   08 Jun 2027 06:24:56.417           307.758                  Delhi         38469.750
       233   08 Jun 2027 06:24:57.284   08 Jun 2027 06:25:32.393            35.109                 Moscow          4388.625
       234   08 Jun 2027 06:30:05.768   08 Jun 2027 06:33:07.142           181.374                 Moscow         22671.750
       235   08 Jun 2027 06:33:31.521   08 Jun 2027 06:37:06.160           214.639              Murmansk2         26829.875
       236   08 Jun 2027 07:57:37.343   08 Jun 2027 07:59:14.918            97.575                 Moscow         12196.875
       237   08 Jun 2027 08:06:54.952   08 Jun 2027 08:09:21.484           146.532                Norilsk         18316.500
       238   08 Jun 2027 08:09:21.904   08 Jun 2027 08:09:26.265             4.361                 Moscow           545.125
       239   08 Jun 2027 08:09:34.277   08 Jun 2027 08:12:55.817           201.540              Murmansk2         25192.500
       240   08 Jun 2027 09:17:20.515   08 Jun 2027 09:19:57.894           157.379               CapeTown         19672.375
       241   08 Jun 2027 09:35:36.208   08 Jun 2027 09:35:58.811            22.603                 Moscow          2825.375
       242   08 Jun 2027 09:39:27.930   08 Jun 2027 09:40:09.554            41.624              Murmansk1          5203.000
       243   08 Jun 2027 09:40:15.505   08 Jun 2027 09:45:07.703           292.198                 Moscow         36524.750
       244   08 Jun 2027 09:45:08.056   08 Jun 2027 09:48:53.913           225.857              Murmansk1         28232.125
       245   08 Jun 2027 09:51:23.233   08 Jun 2027 09:59:16.914           473.681                Anadyr2         59210.125
       246   08 Jun 2027 10:53:38.237   08 Jun 2027 10:58:47.146           308.909               CapeTown         38613.625
       247   08 Jun 2027 11:20:03.669   08 Jun 2027 11:21:21.059            77.390              Murmansk1          9673.750
       248   08 Jun 2027 11:21:21.059   08 Jun 2027 11:24:42.805           201.746              Murmansk2         25218.250
       249   08 Jun 2027 11:28:57.988   08 Jun 2027 11:38:45.937           587.949                Anadyr2         73493.625
       250   08 Jun 2027 13:05:00.092   08 Jun 2027 13:09:40.865           280.773               Magadan1         35096.625
       251   08 Jun 2027 15:32:46.002   08 Jun 2027 15:38:25.698           339.696            RioGallegos         42462.000
       252   08 Jun 2027 16:20:23.425   08 Jun 2027 16:22:26.800           123.375                Irkutsk         15421.875
       253   08 Jun 2027 16:34:05.245   08 Jun 2027 16:37:01.525           176.280                Sumatra         22035.000
       254   08 Jun 2027 17:56:11.330   08 Jun 2027 17:57:28.793            77.463                Novosib          9682.875
       255   08 Jun 2027 18:03:50.346   08 Jun 2027 18:08:14.553           264.207                  Delhi         33025.875
       256   08 Jun 2027 21:16:00.709   08 Jun 2027 21:16:11.685            10.976              Murmansk2          1372.000
       257   08 Jun 2027 21:16:29.267   08 Jun 2027 21:17:45.176            75.909                 Moscow          9488.625
       258   08 Jun 2027 21:33:50.370   08 Jun 2027 21:36:31.184           160.814               CapeTown         20101.750
       259   09 Jun 2027 03:30:26.526   09 Jun 2027 03:34:54.554           268.028              Murmansk2         33503.500
       260   09 Jun 2027 04:40:01.938   09 Jun 2027 04:43:05.517           183.579                Sumatra         22947.375
       261   09 Jun 2027 05:06:22.477   09 Jun 2027 05:07:55.959            93.482                Novosib         11685.250
       262   09 Jun 2027 05:08:06.111   09 Jun 2027 05:11:21.718           195.607                Norilsk         24450.875
       263   09 Jun 2027 05:11:21.870   09 Jun 2027 05:13:36.707           134.837              Murmansk1         16854.625
       264   09 Jun 2027 06:32:05.583   09 Jun 2027 06:36:54.033           288.450                  Delhi         36056.250
       265   09 Jun 2027 06:42:17.435   09 Jun 2027 06:43:36.013            78.578                Novosib          9822.250
       266   09 Jun 2027 06:43:40.404   09 Jun 2027 06:44:46.693            66.289                Norilsk          8286.125
       267   09 Jun 2027 06:44:56.874   09 Jun 2027 06:45:13.232            16.358                 Moscow          2044.750
       268   09 Jun 2027 06:45:25.503   09 Jun 2027 06:49:05.740           220.237              Murmansk2         27529.625
       269   09 Jun 2027 08:16:38.572   09 Jun 2027 08:16:45.041             6.469              Murmansk2           808.625
       270   09 Jun 2027 08:18:30.233   09 Jun 2027 08:23:05.495           275.262                Norilsk         34407.750
       271   09 Jun 2027 08:23:27.830   09 Jun 2027 08:24:57.269            89.439              Murmansk2         11179.875
       272   09 Jun 2027 09:29:42.878   09 Jun 2027 09:32:53.842           190.964               CapeTown         23870.500
       273   09 Jun 2027 09:51:29.413   09 Jun 2027 09:52:37.272            67.859              Murmansk1          8482.375
       274   09 Jun 2027 09:53:02.420   09 Jun 2027 09:54:17.463            75.043                 Moscow          9380.375
       275   09 Jun 2027 09:56:10.563   09 Jun 2027 09:59:28.445           197.882              Murmansk1         24735.250
       276   09 Jun 2027 09:59:28.445   09 Jun 2027 10:00:55.383            86.938              Murmansk2         10867.250
       277   09 Jun 2027 10:03:14.177   09 Jun 2027 10:11:58.372           524.195                Anadyr2         65524.375
       278   09 Jun 2027 11:05:53.374   09 Jun 2027 11:10:42.593           289.219               CapeTown         36152.375
       279   09 Jun 2027 11:31:13.916   09 Jun 2027 11:36:40.772           326.856              Murmansk1         40857.000
       280   09 Jun 2027 11:41:14.559   09 Jun 2027 11:51:00.519           585.960                Anadyr1         73245.000
       281   09 Jun 2027 13:14:32.706   09 Jun 2027 13:17:39.509           186.803                Anadyr2         23350.375
       282   09 Jun 2027 13:19:16.782   09 Jun 2027 13:22:02.761           165.979               Magadan2         20747.375
       283   09 Jun 2027 13:26:14.101   09 Jun 2027 13:28:32.366           138.265               Magadan2         17283.125
       284   09 Jun 2027 15:44:37.621   09 Jun 2027 15:47:49.314           191.693            RioGallegos         23961.625
       285   09 Jun 2027 15:54:07.045   09 Jun 2027 15:56:16.993           129.948            RioGallegos         16243.500
       286   09 Jun 2027 16:32:19.331   09 Jun 2027 16:33:54.177            94.846                Irkutsk         11855.750
       287   09 Jun 2027 16:40:50.843   09 Jun 2027 16:41:27.257            36.414                Novosib          4551.750
       288   09 Jun 2027 16:46:00.050   09 Jun 2027 16:49:08.056           188.006                Sumatra         23500.750
       289   09 Jun 2027 18:12:55.750   09 Jun 2027 18:13:13.020            17.270                Novosib          2158.750
       290   09 Jun 2027 18:13:50.628   09 Jun 2027 18:13:52.282             1.654                Norilsk           206.750
       291   09 Jun 2027 18:15:03.562   09 Jun 2027 18:15:21.123            17.561                Novosib          2195.125
       292   09 Jun 2027 18:15:39.093   09 Jun 2027 18:18:17.137           158.044                  Delhi         19755.500
       293   09 Jun 2027 18:20:17.476   09 Jun 2027 18:20:53.356            35.880                  Delhi          4485.000
       294   09 Jun 2027 19:46:46.625   09 Jun 2027 19:47:57.840            71.215                 Moscow          8901.875
       295   09 Jun 2027 21:25:22.392   09 Jun 2027 21:26:27.786            65.394                 Moscow          8174.250
       296   09 Jun 2027 21:29:44.957   09 Jun 2027 21:31:13.307            88.350                 Moscow         11043.750
       297   09 Jun 2027 21:45:39.220   09 Jun 2027 21:46:42.283            63.063               CapeTown          7882.875
       298   09 Jun 2027 21:53:00.966   09 Jun 2027 21:53:28.092            27.126               CapeTown          3390.750
       299   09 Jun 2027 21:56:52.093   09 Jun 2027 21:58:01.338            69.245               CapeTown          3634.500
       300   10 Jun 2027 03:42:38.997   10 Jun 2027 03:47:09.961           270.964                Norilsk         33870.500
       301   10 Jun 2027 04:51:59.557   10 Jun 2027 04:54:47.062           167.505                Sumatra         20938.125
       302   10 Jun 2027 05:18:36.839   10 Jun 2027 05:23:23.571           286.732                Norilsk         35841.500
       303   10 Jun 2027 05:23:23.783   10 Jun 2027 05:25:32.803           129.020              Murmansk1         16127.500
       304   10 Jun 2027 06:44:12.346   10 Jun 2027 06:48:48.097           275.751                  Delhi         34468.875
       305   10 Jun 2027 06:48:48.347   10 Jun 2027 06:49:40.075            51.728                 Moscow          6466.000
       306   10 Jun 2027 06:54:03.254   10 Jun 2027 06:54:28.159            24.905                Novosib          3113.125
       307   10 Jun 2027 06:54:40.665   10 Jun 2027 06:57:18.727           158.062                 Moscow         19757.750
       308   10 Jun 2027 06:57:20.211   10 Jun 2027 07:01:05.670           225.459              Murmansk1         28182.375
       309   10 Jun 2027 08:30:29.575   10 Jun 2027 08:33:29.712           180.137                 Moscow         22517.125
       310   10 Jun 2027 08:33:39.734   10 Jun 2027 08:36:58.825           199.091              Murmansk2         24886.375
       311   10 Jun 2027 09:35:28.607   10 Jun 2027 09:45:34.974           606.367               CapeTown         75795.875
       312   10 Jun 2027 10:00:34.615   10 Jun 2027 10:00:58.422            23.807                 Moscow          2975.875
       313   10 Jun 2027 10:03:21.145   10 Jun 2027 10:05:11.874           110.729              Murmansk1         13841.125
       314   10 Jun 2027 10:05:16.064   10 Jun 2027 10:07:23.578           127.514                 Moscow         15939.250
       315   10 Jun 2027 10:08:10.815   10 Jun 2027 10:11:00.356           169.541              Murmansk2         21192.625
       316   10 Jun 2027 10:11:00.356   10 Jun 2027 10:12:56.690           116.334              Murmansk1         14541.750
       317   10 Jun 2027 10:15:07.589   10 Jun 2027 10:24:34.969           567.380                Anadyr2         70922.500
       318   10 Jun 2027 11:18:02.833   10 Jun 2027 11:22:33.063           270.230               CapeTown         33778.750
       319   10 Jun 2027 11:44:04.006   10 Jun 2027 11:45:20.597            76.591              Murmansk1          9573.875
       320   10 Jun 2027 11:45:20.597   10 Jun 2027 11:48:37.556           196.959              Murmansk2         24619.875
       321   10 Jun 2027 11:51:26.563   10 Jun 2027 11:54:54.248           207.685                Anadyr2         25960.625
       322   10 Jun 2027 11:55:00.363   10 Jun 2027 11:58:10.019           189.656               Magadan2         23707.000
       323   10 Jun 2027 13:31:16.251   10 Jun 2027 13:33:41.713           145.462               Magadan1         18182.750
       324   10 Jun 2027 15:15:00.888   10 Jun 2027 15:17:20.595           139.707                Irkutsk         17463.375
       325   10 Jun 2027 15:25:49.083   10 Jun 2027 15:27:36.568           107.485                Sumatra         13435.625
       326   10 Jun 2027 16:45:12.361   10 Jun 2027 16:46:43.613            91.252                Novosib         11406.500
       327   10 Jun 2027 16:49:02.658   10 Jun 2027 16:49:23.278            20.620                Irkutsk          2577.500
       328   10 Jun 2027 16:51:10.997   10 Jun 2027 16:52:05.750            54.753                Irkutsk          6844.125
       329   10 Jun 2027 16:58:00.461   10 Jun 2027 17:00:19.925           139.464                Sumatra         17433.000
       330   10 Jun 2027 17:05:01.170   10 Jun 2027 17:05:43.807            42.637                Sumatra          5329.625
       331   10 Jun 2027 18:24:05.775   10 Jun 2027 18:25:08.627            62.852                Novosib          7856.500
       332   10 Jun 2027 18:27:31.981   10 Jun 2027 18:30:41.767           189.786                  Delhi         23723.250
       333   10 Jun 2027 18:32:23.740   10 Jun 2027 18:33:00.150            36.410                  Delhi          4551.250
       334   10 Jun 2027 18:36:57.308   10 Jun 2027 18:37:03.453             6.145                  Delhi           768.125
       335   10 Jun 2027 19:58:31.577   10 Jun 2027 20:01:29.994           178.417                 Moscow         22302.125
       336   10 Jun 2027 21:38:24.163   10 Jun 2027 21:38:29.905             5.742                 Moscow           717.750
       337   10 Jun 2027 21:45:08.262   10 Jun 2027 21:46:30.328            82.066                 Moscow         10258.250
       338   10 Jun 2027 21:59:24.807   10 Jun 2027 22:00:17.411            52.604               CapeTown          3333.875
       339   11 Jun 2027 03:54:31.740   11 Jun 2027 03:58:55.713           263.973                Norilsk         32996.625
       340   11 Jun 2027 05:04:02.766   11 Jun 2027 05:05:57.209           114.443                Sumatra         14305.375
       341   11 Jun 2027 05:14:41.025   11 Jun 2027 05:16:36.580           115.555                  Delhi         14444.375
       342   11 Jun 2027 05:29:02.488   11 Jun 2027 05:29:45.893            43.405                Novosib          5425.625
       343   11 Jun 2027 05:30:33.252   11 Jun 2027 05:31:59.171            85.919                Novosib         10739.875
       344   11 Jun 2027 05:32:20.354   11 Jun 2027 05:32:37.391            17.037                 Moscow          2129.625
       345   11 Jun 2027 05:33:05.024   11 Jun 2027 05:37:29.515           264.491              Murmansk1         33061.375
       346   11 Jun 2027 06:54:43.477   11 Jun 2027 06:55:33.125            49.648                  Delhi          6206.000
       347   11 Jun 2027 06:56:15.752   11 Jun 2027 07:00:38.209           262.457                  Delhi         32807.125
       348   11 Jun 2027 07:00:45.374   11 Jun 2027 07:01:28.329            42.955                 Moscow          5369.375
       349   11 Jun 2027 07:06:38.306   11 Jun 2027 07:11:24.069           285.763                Norilsk         35720.375
       350   11 Jun 2027 07:11:45.786   11 Jun 2027 07:13:05.911            80.125              Murmansk1         10015.625
       351   11 Jun 2027 08:35:55.413   11 Jun 2027 08:36:08.983            13.570                 Moscow          1696.250
       352   11 Jun 2027 08:37:01.782   11 Jun 2027 08:37:51.522            49.740              Murmansk1          6217.500
       353   11 Jun 2027 08:41:06.887   11 Jun 2027 08:45:30.544           263.657                 Moscow         32957.125
       354   11 Jun 2027 08:45:42.116   11 Jun 2027 08:49:00.459           198.343              Murmansk2         24792.875
       355   11 Jun 2027 09:50:17.817   11 Jun 2027 09:58:05.950           468.133               CapeTown         58516.625
       356   11 Jun 2027 10:15:32.618   11 Jun 2027 10:16:59.258            86.640              Murmansk2         10830.000
       357   11 Jun 2027 10:17:06.882   11 Jun 2027 10:20:46.656           219.774                 Moscow         27471.750
       358   11 Jun 2027 10:21:16.030   11 Jun 2027 10:22:51.284            95.254              Murmansk2         11906.750
       359   11 Jun 2027 10:22:51.284   11 Jun 2027 10:24:57.799           126.515              Murmansk1         15814.375
       360   11 Jun 2027 10:27:07.312   11 Jun 2027 10:36:34.457           567.145                Anadyr1         70893.125
       361   11 Jun 2027 12:09:43.752   11 Jun 2027 12:10:05.030            21.278               Magadan1          2659.750
       362   11 Jun 2027 12:11:31.252   11 Jun 2027 12:14:34.504           183.252               Magadan1         22906.500
       363   11 Jun 2027 13:41:30.513   11 Jun 2027 13:43:48.046           137.533               Magadan2         17191.625
       364   11 Jun 2027 15:21:34.273   11 Jun 2027 15:21:43.422             9.149                Irkutsk          1143.625
       365   11 Jun 2027 15:27:15.030   11 Jun 2027 15:28:52.056            97.026                Irkutsk         12128.250
       366   11 Jun 2027 15:36:36.458   11 Jun 2027 15:41:48.796           312.338                Sumatra         39042.250
       367   11 Jun 2027 16:56:58.212   11 Jun 2027 16:58:51.618           113.406                Novosib         14175.750
       368   11 Jun 2027 17:07:11.855   11 Jun 2027 17:09:09.057           117.202                  Delhi         14650.250
       369   11 Jun 2027 18:39:28.516   11 Jun 2027 18:41:44.023           135.507                  Delhi         16938.375
       370   11 Jun 2027 18:47:03.615   11 Jun 2027 18:49:02.707           119.092                  Delhi         14886.500
       371   11 Jun 2027 20:13:21.531   11 Jun 2027 20:14:43.923            82.392                 Moscow         10299.000
       372   11 Jun 2027 21:50:32.544   11 Jun 2027 21:50:34.657             2.113                 Moscow           264.125
       373   11 Jun 2027 21:51:13.268   11 Jun 2027 21:53:25.868           132.600                 Moscow         10620.250
       374   12 Jun 2027 04:06:23.507   12 Jun 2027 04:07:44.228            80.721              Murmansk2         10090.125
       375   12 Jun 2027 04:07:44.228   12 Jun 2027 04:08:06.127            21.899              Murmansk1          2737.375
       376   12 Jun 2027 05:16:11.758   12 Jun 2027 05:16:28.379            16.621                Sumatra          2077.625
       377   12 Jun 2027 05:18:19.437   12 Jun 2027 05:18:59.691            40.254                Sumatra          5031.750
       378   12 Jun 2027 05:20:36.580   12 Jun 2027 05:20:56.011            19.431                Sumatra          2428.875
       379   12 Jun 2027 05:25:10.921   12 Jun 2027 05:27:00.761           109.840                  Delhi         13730.000
       380   12 Jun 2027 05:30:33.546   12 Jun 2027 05:31:49.611            76.065                  Delhi          9508.125
       381   12 Jun 2027 05:42:28.484   12 Jun 2027 05:43:59.869            91.385                Novosib         11423.125
       382   12 Jun 2027 05:44:44.552   12 Jun 2027 05:44:49.200             4.648                 Moscow           581.000
       383   12 Jun 2027 05:44:59.929   12 Jun 2027 05:49:26.807           266.878              Murmansk2         33359.750
       384   12 Jun 2027 07:08:15.884   12 Jun 2027 07:12:23.667           247.783                  Delhi         30972.875
       385   12 Jun 2027 07:12:24.769   12 Jun 2027 07:13:15.103            50.334              Murmansk2          6291.750
       386   12 Jun 2027 07:17:51.430   12 Jun 2027 07:18:17.581            26.151                Novosib          3268.875
       387   12 Jun 2027 07:18:27.838   12 Jun 2027 07:21:28.133           180.295                 Moscow         22536.875
       388   12 Jun 2027 07:21:32.206   12 Jun 2027 07:25:06.430           214.224              Murmansk2         26778.000
       389   12 Jun 2027 08:47:56.114   12 Jun 2027 08:50:11.670           135.556                 Moscow         16944.500
       390   12 Jun 2027 08:52:46.542   12 Jun 2027 08:57:30.696           284.154                 Moscow         35519.250
       391   12 Jun 2027 08:57:31.837   12 Jun 2027 09:01:02.141           210.304              Murmansk1         26288.000
       392   12 Jun 2027 10:03:32.758   12 Jun 2027 10:10:29.043           416.285               CapeTown         52035.625
       393   12 Jun 2027 10:27:34.285   12 Jun 2027 10:28:46.521            72.236              Murmansk2          9029.500
       394   12 Jun 2027 10:29:08.302   12 Jun 2027 10:31:08.494           120.192                 Moscow         15024.000
       395   12 Jun 2027 10:32:13.964   12 Jun 2027 10:36:54.267           280.303              Murmansk1         35037.875
       396   12 Jun 2027 10:39:39.007   12 Jun 2027 10:40:30.889            51.882                Anadyr1          6485.250
       397   12 Jun 2027 10:42:46.943   12 Jun 2027 10:43:27.390            40.447                Anadyr2          5055.875
       398   12 Jun 2027 12:17:38.567   12 Jun 2027 12:22:01.377           262.810               Magadan2         32851.250
       399   12 Jun 2027 14:00:11.706   12 Jun 2027 14:01:03.324            51.618               Magadan1          6452.250
       400   12 Jun 2027 14:50:29.020   12 Jun 2027 14:50:53.988            24.968            RioGallegos          3121.000
       401   12 Jun 2027 15:33:15.755   12 Jun 2027 15:37:24.873           249.118                Irkutsk         31139.750
       402   12 Jun 2027 15:47:48.053   12 Jun 2027 15:51:07.004           198.951                Sumatra         24868.875
       403   12 Jun 2027 15:54:01.931   12 Jun 2027 15:56:54.008           172.077                Sumatra         21509.625
       404   12 Jun 2027 17:12:03.897   12 Jun 2027 17:13:12.613            68.716                Novosib          8589.500
       405   12 Jun 2027 17:17:58.914   12 Jun 2027 17:20:52.471           173.557                  Delhi         21694.625
       406   12 Jun 2027 18:56:47.438   12 Jun 2027 18:58:44.487           117.049                  Delhi         14631.125
       407   12 Jun 2027 20:22:11.839   12 Jun 2027 20:23:21.808            69.969                 Moscow          8746.125
       408   12 Jun 2027 20:29:31.280   12 Jun 2027 20:31:41.115           129.835                 Moscow          4391.875
       409   13 Jun 2027 04:18:27.091   13 Jun 2027 04:18:32.889             5.798                Irkutsk           724.750
       410   13 Jun 2027 04:18:35.150   13 Jun 2027 04:19:58.226            83.076                Novosib         10384.500
       411   13 Jun 2027 04:19:59.939   13 Jun 2027 04:20:07.276             7.337              Murmansk1           917.125
       412   13 Jun 2027 05:28:27.118   13 Jun 2027 05:28:55.786            28.668                Sumatra          3583.500
       413   13 Jun 2027 05:30:46.035   13 Jun 2027 05:32:53.820           127.785                Sumatra         15973.125
       414   13 Jun 2027 05:36:50.647   13 Jun 2027 05:39:15.406           144.759                  Delhi         18094.875
       415   13 Jun 2027 05:53:46.560   13 Jun 2027 05:56:59.131           192.571                 Moscow         24071.375
       416   13 Jun 2027 05:57:03.307   13 Jun 2027 06:01:24.641           261.334              Murmansk1         32666.750
       417   13 Jun 2027 07:20:12.654   13 Jun 2027 07:24:03.338           230.684                  Delhi         28835.500
       418   13 Jun 2027 07:24:03.622   13 Jun 2027 07:24:48.451            44.829                Novosib          5603.625
       419   13 Jun 2027 07:25:07.320   13 Jun 2027 07:25:39.223            31.903              Murmansk1          3987.875
       420   13 Jun 2027 07:30:16.821   13 Jun 2027 07:33:32.103           195.282                 Moscow         24410.250
       421   13 Jun 2027 07:33:32.682   13 Jun 2027 07:37:07.195           214.513              Murmansk1         26814.125
       422   13 Jun 2027 08:59:56.126   13 Jun 2027 09:02:31.101           154.975                 Moscow         19371.875
       423   13 Jun 2027 09:03:38.909   13 Jun 2027 09:04:56.655            77.746              Murmansk2          9718.250
       424   13 Jun 2027 09:05:02.274   13 Jun 2027 09:09:30.096           267.822                 Moscow         33477.750
       425   13 Jun 2027 09:09:42.670   13 Jun 2027 09:13:01.178           198.508              Murmansk1         24813.500
       426   13 Jun 2027 10:50:56.919   13 Jun 2027 10:52:06.412            69.493                Anadyr2          8686.625
       427   13 Jun 2027 10:58:18.990   13 Jun 2027 10:58:29.332            10.342                Anadyr2          1292.750
       428   13 Jun 2027 12:30:11.166   13 Jun 2027 12:33:58.803           227.637               Magadan1         28454.625
       429   13 Jun 2027 15:01:31.825   13 Jun 2027 15:03:22.859           111.034            RioGallegos         13879.250
       430   13 Jun 2027 15:45:02.007   13 Jun 2027 15:49:20.697           258.690                Irkutsk         32336.250
       431   13 Jun 2027 16:01:36.990   13 Jun 2027 16:03:01.408            84.418                Sumatra         10552.250
       432   13 Jun 2027 16:06:08.934   13 Jun 2027 16:08:27.227           138.293                Sumatra         17286.625
       433   13 Jun 2027 17:20:39.594   13 Jun 2027 17:21:57.132            77.538                Novosib          9692.250
       434   13 Jun 2027 17:29:14.376   13 Jun 2027 17:32:40.911           206.535                  Delhi         25816.875
       435   13 Jun 2027 19:03:31.636   13 Jun 2027 19:04:38.964            67.328                  Delhi          8416.000
       436   13 Jun 2027 19:06:37.921   13 Jun 2027 19:07:45.268            67.347                  Delhi          8418.375
       437   13 Jun 2027 20:34:05.458   13 Jun 2027 20:36:23.518           138.060                 Moscow         17257.500
       438   13 Jun 2027 20:38:40.377   13 Jun 2027 20:39:05.881            25.504                 Moscow          3188.000
       439   13 Jun 2027 20:41:21.709   13 Jun 2027 20:41:43.272            21.563                 Moscow           739.375
