uniorb/output/strategy_4/Drop/Drop_KinoSat_111706.txt

KinoSat_111706
-------------------------
    Access    *     Start Time (UTCG)     *     Stop Time (UTCG)  *   Duration (s)        *       Station  *  Data (Mbytes)
         1   01 Jun 2027 03:00:38.579   01 Jun 2027 03:01:48.909            70.330              Murmansk1          2197.812
         2   01 Jun 2027 03:01:52.018   01 Jun 2027 03:03:23.219            91.201                Norilsk          2850.031
         3   01 Jun 2027 03:03:48.677   01 Jun 2027 03:05:47.471           118.794                Irkutsk          3712.313
         4   01 Jun 2027 03:08:31.824   01 Jun 2027 03:11:04.337           152.513                  Delhi          4766.031
         5   01 Jun 2027 04:40:37.606   01 Jun 2027 04:43:21.241           163.635              Murmansk1          5113.594
         6   01 Jun 2027 04:43:21.241   01 Jun 2027 04:45:16.659           115.418              Murmansk2          3606.813
         7   01 Jun 2027 04:45:44.390   01 Jun 2027 04:45:58.626            14.236                 Moscow           444.875
         8   01 Jun 2027 04:47:08.617   01 Jun 2027 04:48:32.847            84.230                 Moscow          2632.188
         9   01 Jun 2027 05:00:39.068   01 Jun 2027 05:03:31.349           172.281               CapeTown          5383.781
        10   01 Jun 2027 06:05:08.761   01 Jun 2027 06:05:29.791            21.030               Magadan1           657.187
        11   01 Jun 2027 06:05:32.445   01 Jun 2027 06:08:31.229           178.784               Magadan1          5587.000
        12   01 Jun 2027 06:15:36.845   01 Jun 2027 06:16:09.030            32.185              Murmansk1          1005.781
        13   01 Jun 2027 06:16:11.793   01 Jun 2027 06:17:12.582            60.789                 Moscow          1899.656
        14   01 Jun 2027 06:17:36.295   01 Jun 2027 06:19:28.685           112.390              Murmansk1          3512.188
        15   01 Jun 2027 06:19:28.685   01 Jun 2027 06:19:43.926            15.241              Murmansk2           476.281
        16   01 Jun 2027 06:19:43.926   01 Jun 2027 06:20:28.780            44.854              Murmansk1          1401.688
        17   01 Jun 2027 07:40:28.436   01 Jun 2027 07:42:00.297            91.861                Anadyr2          2870.656
        18   01 Jun 2027 07:42:21.908   01 Jun 2027 07:45:06.277           164.369               Magadan1          5136.531
        19   01 Jun 2027 07:45:06.277   01 Jun 2027 07:45:28.795            22.518               Magadan2           703.687
        20   01 Jun 2027 07:50:23.650   01 Jun 2027 07:51:32.289            68.639                 Moscow          2144.969
        21   01 Jun 2027 09:15:27.548   01 Jun 2027 09:16:10.896            43.348               Magadan1          1354.625
        22   01 Jun 2027 09:16:14.105   01 Jun 2027 09:18:12.308           118.203               Magadan1          3693.844
        23   01 Jun 2027 09:18:25.423   01 Jun 2027 09:21:09.079           163.656                Anadyr2          5114.250
        24   01 Jun 2027 10:49:51.985   01 Jun 2027 10:52:53.540           181.555               Magadan1          5673.594
        25   01 Jun 2027 10:53:01.719   01 Jun 2027 10:54:20.651            78.932               Magadan2          2466.625
        26   01 Jun 2027 10:55:14.983   01 Jun 2027 10:56:18.785            63.802               Magadan2          1993.813
        27   01 Jun 2027 13:12:41.606   01 Jun 2027 13:17:38.719           297.113            RioGallegos          9284.781
        28   01 Jun 2027 13:49:48.516   01 Jun 2027 13:51:42.068           113.552                Sumatra          3548.500
        29   01 Jun 2027 14:01:28.977   01 Jun 2027 14:06:27.425           298.448                Irkutsk          9326.500
        30   01 Jun 2027 15:34:11.060   01 Jun 2027 15:35:01.885            50.825                  Delhi          1588.281
        31   01 Jun 2027 15:40:06.935   01 Jun 2027 15:43:30.943           204.008                Novosib          6375.250
        32   01 Jun 2027 15:47:14.050   01 Jun 2027 15:47:20.383             6.333                Norilsk           197.906
        33   01 Jun 2027 18:54:25.255   01 Jun 2027 18:54:56.831            31.576              Murmansk2           986.750
        34   01 Jun 2027 18:55:57.879   01 Jun 2027 18:59:46.946           229.067              Murmansk1          7158.344
        35   01 Jun 2027 19:00:57.728   01 Jun 2027 19:01:38.372            40.644              Murmansk1          1270.125
        36   01 Jun 2027 20:03:00.746   01 Jun 2027 20:09:00.075           359.329               CapeTown         11229.031
        37   01 Jun 2027 20:43:42.251   01 Jun 2027 20:44:15.431            33.180               Magadan1          1036.875
        38   01 Jun 2027 20:44:52.841   01 Jun 2027 20:45:13.124            20.283               Magadan1           633.844
        39   01 Jun 2027 20:46:54.370   01 Jun 2027 20:47:16.191            21.821               Magadan2           681.906
        40   01 Jun 2027 22:17:11.505   01 Jun 2027 22:20:53.506           222.001                Anadyr1          6937.531
        41   01 Jun 2027 22:20:56.998   01 Jun 2027 22:25:13.385           256.387               Magadan1          8012.094
        42   01 Jun 2027 22:25:32.295   01 Jun 2027 22:26:26.464            54.169                Irkutsk          1692.781
        43   01 Jun 2027 22:27:28.783   01 Jun 2027 22:27:53.444            24.661                Irkutsk           770.656
        44   01 Jun 2027 23:11:23.354   01 Jun 2027 23:12:02.452            39.098            RioGallegos          1221.813
        45   01 Jun 2027 23:12:52.862   01 Jun 2027 23:12:58.149             5.287            RioGallegos           165.219
        46   01 Jun 2027 23:13:03.443   01 Jun 2027 23:13:30.467            27.024            RioGallegos           844.500
        47   01 Jun 2027 23:22:14.833   01 Jun 2027 23:22:34.943            20.110            RioGallegos           628.437
        48   01 Jun 2027 23:22:55.147   01 Jun 2027 23:22:57.664             2.517            RioGallegos            78.656
        49   01 Jun 2027 23:52:42.006   01 Jun 2027 23:53:21.011            39.005                Anadyr2          1218.906
        50   01 Jun 2027 23:54:01.843   01 Jun 2027 23:55:24.304            82.461                Anadyr1          2576.906
        51   01 Jun 2027 23:55:26.073   01 Jun 2027 23:56:43.363            77.290                Norilsk          2415.313
        52   01 Jun 2027 23:56:53.654   01 Jun 2027 23:57:25.572            31.918               Magadan1           997.437
        53   01 Jun 2027 23:57:43.758   01 Jun 2027 23:58:05.450            21.692               Magadan2           677.875
        54   01 Jun 2027 23:58:31.017   01 Jun 2027 23:58:46.504            15.487               Magadan2           483.969
        55   01 Jun 2027 23:59:04.604   02 Jun 2027 00:00:07.577            62.973                Irkutsk          1967.906
        56   02 Jun 2027 00:00:19.127   02 Jun 2027 00:01:45.422            86.295                Novosib          2696.719
        57   02 Jun 2027 00:03:22.627   02 Jun 2027 00:04:24.354            61.727                Novosib          1928.969
        58   02 Jun 2027 00:20:38.073   02 Jun 2027 00:21:25.794            47.721                Sumatra          1491.281
        59   02 Jun 2027 00:48:54.378   02 Jun 2027 00:49:01.887             7.509            RioGallegos           234.656
        60   02 Jun 2027 00:50:08.884   02 Jun 2027 00:50:12.861             3.977            RioGallegos           124.281
        61   02 Jun 2027 00:51:59.201   02 Jun 2027 00:52:12.188            12.987            RioGallegos           405.844
        62   02 Jun 2027 00:56:33.456   02 Jun 2027 00:56:39.129             5.673            RioGallegos           177.281
        63   02 Jun 2027 00:57:18.013   02 Jun 2027 00:57:32.827            14.814            RioGallegos           462.938
        64   02 Jun 2027 01:27:12.766   02 Jun 2027 01:28:01.297            48.531                Anadyr2          1516.594
        65   02 Jun 2027 01:28:19.735   02 Jun 2027 01:28:33.310            13.575                Anadyr1           424.219
        66   02 Jun 2027 01:29:15.193   02 Jun 2027 01:29:48.696            33.503                Anadyr1          1046.969
        67   02 Jun 2027 01:31:00.504   02 Jun 2027 01:32:43.093           102.589                Norilsk          3205.906
        68   02 Jun 2027 01:32:45.542   02 Jun 2027 01:33:17.237            31.695               Magadan1           990.469
        69   02 Jun 2027 01:34:39.381   02 Jun 2027 01:34:42.623             3.242               Magadan2           101.312
        70   02 Jun 2027 01:34:54.346   02 Jun 2027 01:37:21.503           147.157                Novosib          4598.656
        71   02 Jun 2027 01:38:19.794   02 Jun 2027 01:39:01.729            41.935                Novosib          1310.469
        72   02 Jun 2027 01:43:14.679   02 Jun 2027 01:43:31.633            16.954                  Delhi           529.813
        73   02 Jun 2027 01:44:58.439   02 Jun 2027 01:45:56.289            57.850                  Delhi          1807.812
        74   02 Jun 2027 01:52:26.291   02 Jun 2027 01:53:16.030            49.739                Sumatra          1554.344
        75   02 Jun 2027 01:55:53.575   02 Jun 2027 01:56:11.312            17.737                Sumatra           554.281
        76   02 Jun 2027 02:24:42.273   02 Jun 2027 02:25:00.630            18.357            RioGallegos           573.656
        77   02 Jun 2027 02:25:55.992   02 Jun 2027 02:26:47.644            51.652            RioGallegos          1614.125
        78   02 Jun 2027 02:30:33.573   02 Jun 2027 02:32:15.822           102.249            RioGallegos          3195.281
        79   02 Jun 2027 03:13:36.726   02 Jun 2027 03:14:35.440            58.714                Irkutsk          1834.812
        80   02 Jun 2027 03:14:36.663   02 Jun 2027 03:15:56.897            80.234              Murmansk2          2507.313
        81   02 Jun 2027 03:16:00.169   02 Jun 2027 03:16:34.440            34.271                Novosib          1070.969
        82   02 Jun 2027 03:17:14.438   02 Jun 2027 03:18:35.230            80.792                Irkutsk          2524.750
        83   02 Jun 2027 03:18:35.376   02 Jun 2027 03:19:46.866            71.490                 Moscow          2234.063
        84   02 Jun 2027 03:20:07.332   02 Jun 2027 03:22:19.140           131.808                  Delhi          4119.000
        85   02 Jun 2027 04:34:08.763   02 Jun 2027 04:34:17.776             9.013                Anadyr2           281.656
        86   02 Jun 2027 04:53:16.768   02 Jun 2027 04:54:27.956            71.188                Novosib          2224.625
        87   02 Jun 2027 04:55:47.346   02 Jun 2027 04:55:47.995             0.649                Novosib            20.281
        88   02 Jun 2027 04:56:30.992   02 Jun 2027 04:59:06.957           155.965                 Moscow          4873.906
        89   02 Jun 2027 05:12:26.852   02 Jun 2027 05:15:55.918           209.066               CapeTown          6533.312
        90   02 Jun 2027 06:08:58.672   02 Jun 2027 06:12:46.303           227.631                Anadyr1          7113.469
        91   02 Jun 2027 06:13:36.972   02 Jun 2027 06:14:38.025            61.053               Magadan1          1907.906
        92   02 Jun 2027 06:15:06.117   02 Jun 2027 06:16:04.962            58.845                Anadyr2          1838.906
        93   02 Jun 2027 06:16:28.071   02 Jun 2027 06:19:15.982           167.911               Magadan2          5247.219
        94   02 Jun 2027 06:20:53.278   02 Jun 2027 06:21:32.755            39.477                Norilsk          1233.656
        95   02 Jun 2027 07:51:42.278   02 Jun 2027 07:52:11.374            29.096               Magadan2           909.250
        96   02 Jun 2027 07:52:31.660   02 Jun 2027 07:55:04.297           152.637                Anadyr1          4769.906
        97   02 Jun 2027 09:25:31.129   02 Jun 2027 09:25:55.901            24.772                Anadyr1           774.125
        98   02 Jun 2027 09:26:35.375   02 Jun 2027 09:27:25.162            49.787               Magadan2          1555.844
        99   02 Jun 2027 09:27:55.510   02 Jun 2027 09:28:08.834            13.324               Magadan1           416.375
       100   02 Jun 2027 09:28:43.434   02 Jun 2027 09:29:01.649            18.215                Irkutsk           569.219
       101   02 Jun 2027 09:29:32.556   02 Jun 2027 09:30:54.204            81.648               Magadan2          2551.500
       102   02 Jun 2027 09:30:55.565   02 Jun 2027 09:31:12.177            16.612               Magadan1           519.125
       103   02 Jun 2027 09:31:28.338   02 Jun 2027 09:32:08.098            39.760               Magadan2          1242.500
       104   02 Jun 2027 09:32:45.465   02 Jun 2027 09:32:54.706             9.241                Norilsk           288.781
       105   02 Jun 2027 10:08:41.314   02 Jun 2027 10:09:34.896            53.582            RioGallegos          1674.438
       106   02 Jun 2027 10:10:59.630   02 Jun 2027 10:11:55.096            55.466            RioGallegos          1733.312
       107   02 Jun 2027 11:02:45.502   02 Jun 2027 11:03:24.537            39.035                Irkutsk          1219.844
       108   02 Jun 2027 11:03:54.659   02 Jun 2027 11:04:45.784            51.125                Irkutsk          1597.656
       109   02 Jun 2027 11:04:52.915   02 Jun 2027 11:05:14.495            21.580               Magadan2           674.375
       110   02 Jun 2027 11:05:34.078   02 Jun 2027 11:07:13.085            99.007               Magadan1          3093.969
       111   02 Jun 2027 11:07:25.257   02 Jun 2027 11:08:00.039            34.782                Irkutsk          1086.938
       112   02 Jun 2027 11:08:07.111   02 Jun 2027 11:08:21.736            14.625                Norilsk           457.031
       113   02 Jun 2027 11:08:35.554   02 Jun 2027 11:08:56.109            20.555                Novosib           642.344
       114   02 Jun 2027 11:08:59.356   02 Jun 2027 11:09:12.146            12.790                Irkutsk           399.687
       115   02 Jun 2027 11:44:01.367   02 Jun 2027 11:45:49.957           108.590            RioGallegos          3393.438
       116   02 Jun 2027 12:18:45.041   02 Jun 2027 12:19:14.714            29.673                Sumatra           927.281
       117   02 Jun 2027 12:32:22.175   02 Jun 2027 12:32:26.799             4.624                  Delhi           144.500
       118   02 Jun 2027 12:32:54.931   02 Jun 2027 12:35:18.731           143.800                Irkutsk          4493.750
       119   02 Jun 2027 12:36:53.120   02 Jun 2027 12:37:30.705            37.585                Irkutsk          1174.531
       120   02 Jun 2027 12:41:06.410   02 Jun 2027 12:41:26.029            19.619              Murmansk1           613.094
       121   02 Jun 2027 12:48:41.558   02 Jun 2027 12:49:15.609            34.051                Norilsk          1064.094
       122   02 Jun 2027 13:23:53.557   02 Jun 2027 13:24:35.302            41.745            RioGallegos          1304.531
       123   02 Jun 2027 13:27:54.971   02 Jun 2027 13:28:15.091            20.120            RioGallegos           628.750
       124   02 Jun 2027 13:30:28.417   02 Jun 2027 13:30:40.700            12.283            RioGallegos           383.844
       125   02 Jun 2027 14:05:13.054   02 Jun 2027 14:07:21.912           128.858                  Delhi          4026.812
       126   02 Jun 2027 14:11:47.197   02 Jun 2027 14:12:48.314            61.117                Novosib          1909.906
       127   02 Jun 2027 14:14:49.363   02 Jun 2027 14:16:07.307            77.944                Norilsk          2435.750
       128   02 Jun 2027 14:16:33.857   02 Jun 2027 14:17:53.903            80.046                Norilsk          2501.438
       129   02 Jun 2027 15:47:21.707   02 Jun 2027 15:49:43.621           141.914                 Moscow          4434.812
       130   02 Jun 2027 15:49:52.165   02 Jun 2027 15:50:39.105            46.940                 Moscow          1466.875
       131   02 Jun 2027 15:50:47.101   02 Jun 2027 15:52:08.591            81.490              Murmansk1          2546.562
       132   02 Jun 2027 15:54:36.580   02 Jun 2027 15:56:00.561            83.981                Norilsk          2624.406
       133   02 Jun 2027 15:57:08.730   02 Jun 2027 15:57:21.664            12.934                Norilsk           404.187
       134   02 Jun 2027 15:58:13.151   02 Jun 2027 15:59:06.395            53.244                Norilsk          1663.875
       135   02 Jun 2027 16:00:06.784   02 Jun 2027 16:00:12.315             5.531                Norilsk           172.844
       136   02 Jun 2027 17:02:02.745   02 Jun 2027 17:02:30.641            27.896               CapeTown           871.750
       137   02 Jun 2027 17:03:04.003   02 Jun 2027 17:05:02.548           118.545               CapeTown          3704.531
       138   02 Jun 2027 17:24:36.140   02 Jun 2027 17:24:51.903            15.763                 Moscow           492.594
       139   02 Jun 2027 17:27:47.259   02 Jun 2027 17:28:01.213            13.954              Murmansk2           436.062
       140   02 Jun 2027 17:28:28.670   02 Jun 2027 17:29:34.877            66.207                 Moscow          2068.969
       141   02 Jun 2027 17:30:07.451   02 Jun 2027 17:31:42.221            94.770              Murmansk1          2961.562
       142   02 Jun 2027 17:41:51.892   02 Jun 2027 17:42:34.043            42.151                Anadyr1          1317.219
       143   02 Jun 2027 17:46:47.882   02 Jun 2027 17:47:29.678            41.796                Anadyr1          1306.125
       144   02 Jun 2027 18:36:49.867   02 Jun 2027 18:38:48.639           118.772               CapeTown          3711.625
       145   02 Jun 2027 19:07:01.334   02 Jun 2027 19:07:52.117            50.783              Murmansk2          1586.969
       146   02 Jun 2027 19:07:59.039   02 Jun 2027 19:11:09.968           190.929              Murmansk1          5966.531
       147   02 Jun 2027 19:11:53.793   02 Jun 2027 19:11:56.088             2.295              Murmansk1            71.719
       148   02 Jun 2027 19:13:40.089   02 Jun 2027 19:14:25.006            44.917              Murmansk2          1403.656
       149   02 Jun 2027 19:21:38.077   02 Jun 2027 19:21:43.971             5.894               Magadan1           184.187
       150   02 Jun 2027 19:21:59.389   02 Jun 2027 19:22:22.835            23.446               Magadan1           732.688
       151   02 Jun 2027 19:23:59.433   02 Jun 2027 19:24:03.531             4.098               Magadan2           128.063
       152   02 Jun 2027 19:26:45.503   02 Jun 2027 19:27:09.456            23.953               Magadan1           748.531
       153   02 Jun 2027 20:16:28.208   02 Jun 2027 20:18:05.449            97.241               CapeTown          3038.781
       154   02 Jun 2027 20:53:19.602   02 Jun 2027 20:56:29.373           189.771                Anadyr1          5930.344
       155   02 Jun 2027 20:56:47.086   02 Jun 2027 20:58:24.330            97.244               Magadan2          3038.875
       156   02 Jun 2027 20:58:42.177   02 Jun 2027 20:59:00.634            18.457               Magadan2           576.781
       157   02 Jun 2027 21:06:14.339   02 Jun 2027 21:06:24.912            10.573               Magadan1           330.406
       158   02 Jun 2027 21:06:41.137   02 Jun 2027 21:07:09.120            27.983               Magadan1           874.469
       159   02 Jun 2027 22:29:11.825   02 Jun 2027 22:31:11.562           119.737                Anadyr2          3741.781
       160   02 Jun 2027 22:31:19.290   02 Jun 2027 22:32:52.734            93.444                Anadyr1          2920.125
       161   02 Jun 2027 22:32:57.776   02 Jun 2027 22:34:59.041           121.265                Norilsk          3789.531
       162   02 Jun 2027 22:35:02.711   02 Jun 2027 22:36:44.050           101.339               Magadan2          3166.844
       163   02 Jun 2027 22:36:49.439   02 Jun 2027 22:36:54.302             4.863                Irkutsk           151.969
       164   02 Jun 2027 22:37:53.133   02 Jun 2027 22:39:11.177            78.044                Irkutsk          2438.875
       165   02 Jun 2027 22:42:17.136   02 Jun 2027 22:42:27.457            10.321                Irkutsk           322.531
       166   02 Jun 2027 22:52:57.081   02 Jun 2027 22:54:10.539            73.458                Sumatra          2295.563
       167   02 Jun 2027 22:55:38.555   02 Jun 2027 22:56:48.891            70.336                Sumatra          2198.000
       168   03 Jun 2027 00:04:37.059   03 Jun 2027 00:06:08.315            91.256                Anadyr1          2851.750
       169   03 Jun 2027 00:06:33.709   03 Jun 2027 00:06:54.775            21.066                Anadyr2           658.313
       170   03 Jun 2027 00:07:02.545   03 Jun 2027 00:08:45.557           103.012                Norilsk          3219.125
       171   03 Jun 2027 00:09:02.389   03 Jun 2027 00:09:13.570            11.181               Magadan1           349.406
       172   03 Jun 2027 00:10:05.102   03 Jun 2027 00:10:28.951            23.849               Magadan2           745.281
       173   03 Jun 2027 00:11:02.078   03 Jun 2027 00:11:43.777            41.699                Irkutsk          1303.094
       174   03 Jun 2027 00:11:59.101   03 Jun 2027 00:13:50.280           111.179                Novosib          3474.344
       175   03 Jun 2027 00:17:36.631   03 Jun 2027 00:18:11.359            34.728                Novosib          1085.250
       176   03 Jun 2027 00:24:45.514   03 Jun 2027 00:25:12.281            26.767                Sumatra           836.469
       177   03 Jun 2027 00:27:27.955   03 Jun 2027 00:27:54.893            26.938                Sumatra           841.813
       178   03 Jun 2027 00:28:49.373   03 Jun 2027 00:29:00.062            10.689                Sumatra           334.031
       179   03 Jun 2027 00:33:31.961   03 Jun 2027 00:33:38.010             6.049                Sumatra           189.031
       180   03 Jun 2027 00:33:43.800   03 Jun 2027 00:34:07.844            24.044                Sumatra           751.375
       181   03 Jun 2027 01:01:11.559   03 Jun 2027 01:01:46.830            35.271            RioGallegos          1102.219
       182   03 Jun 2027 01:05:17.129   03 Jun 2027 01:05:23.214             6.085            RioGallegos           190.156
       183   03 Jun 2027 01:06:09.288   03 Jun 2027 01:06:38.548            29.260            RioGallegos           914.375
       184   03 Jun 2027 01:09:59.260   03 Jun 2027 01:10:28.862            29.602            RioGallegos           925.063
       185   03 Jun 2027 01:39:15.387   03 Jun 2027 01:39:55.524            40.137                Anadyr1          1254.281
       186   03 Jun 2027 01:40:05.801   03 Jun 2027 01:40:33.310            27.509                Anadyr2           859.656
       187   03 Jun 2027 01:41:04.901   03 Jun 2027 01:41:16.466            11.565                Anadyr2           361.406
       188   03 Jun 2027 01:43:02.845   03 Jun 2027 01:44:55.889           113.044                Norilsk          3532.625
       189   03 Jun 2027 01:46:27.098   03 Jun 2027 01:47:54.890            87.792              Murmansk2          2743.500
       190   03 Jun 2027 01:48:03.310   03 Jun 2027 01:48:48.992            45.682                Novosib          1427.562
       191   03 Jun 2027 01:49:14.231   03 Jun 2027 01:49:32.181            17.950                Novosib           560.938
       192   03 Jun 2027 01:52:06.338   03 Jun 2027 01:52:29.702            23.364                Irkutsk           730.125
       193   03 Jun 2027 01:54:18.449   03 Jun 2027 01:55:08.290            49.841                  Delhi          1557.531
       194   03 Jun 2027 02:02:35.905   03 Jun 2027 02:03:49.454            73.549                  Delhi          2298.406
       195   03 Jun 2027 02:36:48.993   03 Jun 2027 02:38:08.588            79.595            RioGallegos          2487.344
       196   03 Jun 2027 02:38:26.207   03 Jun 2027 02:38:57.883            31.676            RioGallegos           989.875
       197   03 Jun 2027 02:39:26.813   03 Jun 2027 02:40:13.527            46.714            RioGallegos          1459.812
       198   03 Jun 2027 02:43:59.648   03 Jun 2027 02:44:10.264            10.616            RioGallegos           331.750
       199   03 Jun 2027 03:27:29.495   03 Jun 2027 03:29:18.529           109.034              Murmansk2          3407.313
       200   03 Jun 2027 03:29:52.649   03 Jun 2027 03:30:16.003            23.354                 Moscow           729.812
       201   03 Jun 2027 03:30:20.308   03 Jun 2027 03:30:41.923            21.615                Irkutsk           675.469
       202   03 Jun 2027 03:30:54.534   03 Jun 2027 03:31:47.169            52.635                Norilsk          1644.844
       203   03 Jun 2027 03:32:24.219   03 Jun 2027 03:32:31.883             7.664                Novosib           239.500
       204   03 Jun 2027 03:33:18.991   03 Jun 2027 03:37:43.251           264.260                  Delhi          8258.125
       205   03 Jun 2027 05:04:18.524   03 Jun 2027 05:04:35.976            17.452                 Moscow           545.375
       206   03 Jun 2027 05:04:38.029   03 Jun 2027 05:04:56.978            18.949                 Moscow           592.156
       207   03 Jun 2027 05:05:05.940   03 Jun 2027 05:05:19.567            13.627                Novosib           425.844
       208   03 Jun 2027 05:05:54.973   03 Jun 2027 05:05:56.322             1.349              Murmansk2            42.156
       209   03 Jun 2027 05:06:14.719   03 Jun 2027 05:07:07.491            52.772                 Moscow          1649.125
       210   03 Jun 2027 05:07:27.512   03 Jun 2027 05:07:55.259            27.747                 Moscow           867.094
       211   03 Jun 2027 05:08:41.849   03 Jun 2027 05:09:08.896            27.047                 Moscow           845.219
       212   03 Jun 2027 05:24:19.782   03 Jun 2027 05:27:05.808           166.026               CapeTown          5188.312
       213   03 Jun 2027 06:27:26.426   03 Jun 2027 06:27:39.754            13.328                Anadyr2           416.500
       214   03 Jun 2027 06:27:39.754   03 Jun 2027 06:27:47.826             8.072                Anadyr1           252.250
       215   03 Jun 2027 06:28:06.542   03 Jun 2027 06:29:34.462            87.920                Anadyr2          2747.500
       216   03 Jun 2027 07:03:43.892   03 Jun 2027 07:05:10.525            86.633               CapeTown          2707.281
       217   03 Jun 2027 08:01:49.174   03 Jun 2027 08:02:40.191            51.017               Magadan1          1594.281
       218   03 Jun 2027 08:02:44.184   03 Jun 2027 08:02:44.987             0.803                Anadyr1            25.094
       219   03 Jun 2027 08:02:47.917   03 Jun 2027 08:02:59.220            11.303               Magadan2           353.219
       220   03 Jun 2027 08:03:04.197   03 Jun 2027 08:03:43.961            39.764               Magadan2          1242.625
       221   03 Jun 2027 08:03:52.603   03 Jun 2027 08:04:36.928            44.325                Anadyr1          1385.156
       222   03 Jun 2027 08:05:12.568   03 Jun 2027 08:05:23.816            11.248               Magadan1           351.500
       223   03 Jun 2027 08:05:23.816   03 Jun 2027 08:05:43.539            19.723               Magadan2           616.344
       224   03 Jun 2027 08:06:02.288   03 Jun 2027 08:07:26.690            84.402                Anadyr2          2637.563
       225   03 Jun 2027 08:50:59.548   03 Jun 2027 08:51:36.000            36.452            RioGallegos          1139.125
       226   03 Jun 2027 09:36:03.714   03 Jun 2027 09:37:02.007            58.293                Irkutsk          1821.656
       227   03 Jun 2027 09:37:49.633   03 Jun 2027 09:38:00.032            10.399               Magadan1           324.969
       228   03 Jun 2027 09:38:11.951   03 Jun 2027 09:38:47.710            35.759               Magadan2          1117.469
       229   03 Jun 2027 09:39:21.658   03 Jun 2027 09:39:27.689             6.031               Magadan1           188.469
       230   03 Jun 2027 09:39:27.689   03 Jun 2027 09:40:10.462            42.773               Magadan2          1336.656
       231   03 Jun 2027 09:41:37.813   03 Jun 2027 09:42:48.140            70.327               Magadan1          2197.719
       232   03 Jun 2027 09:42:53.252   03 Jun 2027 09:43:41.830            48.578                Anadyr2          1518.062
       233   03 Jun 2027 09:44:15.727   03 Jun 2027 09:44:32.825            17.098               Magadan2           534.313
       234   03 Jun 2027 09:44:37.391   03 Jun 2027 09:44:38.877             1.486                Norilsk            46.438
       235   03 Jun 2027 09:44:45.204   03 Jun 2027 09:44:56.579            11.375                Novosib           355.469
       236   03 Jun 2027 09:51:34.471   03 Jun 2027 09:51:46.030            11.559              Murmansk1           361.219
       237   03 Jun 2027 10:20:27.099   03 Jun 2027 10:20:34.261             7.162            RioGallegos           223.813
       238   03 Jun 2027 10:21:08.715   03 Jun 2027 10:21:40.995            32.280            RioGallegos          1008.750
       239   03 Jun 2027 10:23:05.558   03 Jun 2027 10:23:48.440            42.882            RioGallegos          1340.062
       240   03 Jun 2027 10:58:10.442   03 Jun 2027 10:59:37.334            86.892                Sumatra          2715.375
       241   03 Jun 2027 11:14:10.016   03 Jun 2027 11:16:40.915           150.899               Magadan2          4715.594
       242   03 Jun 2027 11:16:40.915   03 Jun 2027 11:17:39.137            58.222               Magadan1          1819.437
       243   03 Jun 2027 11:18:17.719   03 Jun 2027 11:18:27.701             9.982                Norilsk           311.937
       244   03 Jun 2027 11:18:32.189   03 Jun 2027 11:18:38.204             6.015                Novosib           187.969
       245   03 Jun 2027 11:18:38.747   03 Jun 2027 11:18:47.487             8.740                Norilsk           273.125
       246   03 Jun 2027 11:18:50.103   03 Jun 2027 11:19:08.160            18.057                Irkutsk           564.281
       247   03 Jun 2027 11:19:10.126   03 Jun 2027 11:19:29.765            19.639               Magadan1           613.719
       248   03 Jun 2027 11:19:40.048   03 Jun 2027 11:19:45.505             5.457                Novosib           170.531
       249   03 Jun 2027 11:20:03.145   03 Jun 2027 11:20:16.876            13.731                Irkutsk           429.094
       250   03 Jun 2027 11:20:17.118   03 Jun 2027 11:20:39.485            22.367                Novosib           698.969
       251   03 Jun 2027 11:20:42.122   03 Jun 2027 11:21:15.329            33.207                Irkutsk          1037.719
       252   03 Jun 2027 11:56:14.004   03 Jun 2027 11:56:52.666            38.662            RioGallegos          1208.187
       253   03 Jun 2027 11:59:02.860   03 Jun 2027 11:59:34.384            31.524            RioGallegos           985.125
       254   03 Jun 2027 12:30:47.412   03 Jun 2027 12:32:36.467           109.055                Sumatra          3407.969
       255   03 Jun 2027 12:45:15.950   03 Jun 2027 12:46:18.600            62.650                Irkutsk          1957.812
       256   03 Jun 2027 12:48:01.420   03 Jun 2027 12:48:02.859             1.439                Novosib            44.969
       257   03 Jun 2027 12:49:08.994   03 Jun 2027 12:49:39.965            30.971                Novosib           967.844
       258   03 Jun 2027 12:50:15.264   03 Jun 2027 12:51:07.736            52.472                Norilsk          1639.750
       259   03 Jun 2027 13:37:15.338   03 Jun 2027 13:39:36.504           141.166            RioGallegos          4411.437
       260   03 Jun 2027 14:23:08.276   03 Jun 2027 14:23:57.082            48.806                  Delhi          1525.187
       261   03 Jun 2027 14:24:16.745   03 Jun 2027 14:28:12.822           236.077                Novosib          7377.406
       262   03 Jun 2027 14:30:30.218   03 Jun 2027 14:30:44.514            14.296                Norilsk           446.750
       263   03 Jun 2027 14:32:43.042   03 Jun 2027 14:33:41.329            58.287                Novosib          1821.469
       264   03 Jun 2027 15:59:22.061   03 Jun 2027 16:01:41.212           139.151                 Moscow          4348.469
       265   03 Jun 2027 16:02:50.815   03 Jun 2027 16:03:50.052            59.237              Murmansk1          1851.156
       266   03 Jun 2027 16:07:21.216   03 Jun 2027 16:13:13.296           352.080                Norilsk         11002.500
       267   03 Jun 2027 17:37:05.027   03 Jun 2027 17:37:37.566            32.539                 Moscow          1016.844
       268   03 Jun 2027 17:40:05.577   03 Jun 2027 17:41:14.638            69.061              Murmansk1          2158.156
       269   03 Jun 2027 17:44:04.269   03 Jun 2027 17:44:16.034            11.765              Murmansk2           367.656
       270   03 Jun 2027 17:53:47.347   03 Jun 2027 17:53:51.444             4.097                Anadyr2           128.031
       271   03 Jun 2027 17:54:07.255   03 Jun 2027 17:55:10.451            63.196                Anadyr1          1974.875
       272   03 Jun 2027 18:48:57.084   03 Jun 2027 18:50:48.170           111.086               CapeTown          3471.437
       273   03 Jun 2027 19:19:40.942   03 Jun 2027 19:25:41.544           360.602              Murmansk2         11268.813
       274   03 Jun 2027 19:33:18.006   03 Jun 2027 19:33:40.792            22.786               Magadan2           712.062
       275   03 Jun 2027 19:34:31.298   03 Jun 2027 19:35:02.444            31.146               Magadan2           973.313
       276   03 Jun 2027 21:05:21.347   03 Jun 2027 21:06:57.580            96.233                Anadyr2          3007.281
       277   03 Jun 2027 21:07:11.470   03 Jun 2027 21:08:54.734           103.264                Anadyr1          3227.000
       278   03 Jun 2027 21:08:56.446   03 Jun 2027 21:10:40.772           104.326               Magadan2          3260.188
       279   03 Jun 2027 21:10:40.772   03 Jun 2027 21:12:30.632           109.860               Magadan1          3433.125
       280   03 Jun 2027 21:17:42.629   03 Jun 2027 21:17:53.480            10.851               Magadan1           339.094
       281   03 Jun 2027 21:18:27.017   03 Jun 2027 21:18:32.745             5.728               Magadan1           179.000
       282   03 Jun 2027 21:19:56.562   03 Jun 2027 21:20:15.555            18.993               Magadan2           593.531
       283   03 Jun 2027 22:01:52.825   03 Jun 2027 22:04:09.596           136.771            RioGallegos          4274.094
       284   03 Jun 2027 22:41:11.738   03 Jun 2027 22:43:21.181           129.443                Anadyr1          4045.094
       285   03 Jun 2027 22:43:34.657   03 Jun 2027 22:45:17.771           103.114               Magadan2          3222.313
       286   03 Jun 2027 22:45:41.657   03 Jun 2027 22:46:20.588            38.931               Magadan1          1216.594
       287   03 Jun 2027 22:48:13.447   03 Jun 2027 22:48:28.866            15.419               Magadan1           481.844
       288   03 Jun 2027 22:48:50.546   03 Jun 2027 22:49:57.028            66.482                Irkutsk          2077.562
       289   03 Jun 2027 22:50:16.651   03 Jun 2027 22:50:30.987            14.336                Irkutsk           448.000
       290   03 Jun 2027 22:53:39.726   03 Jun 2027 22:53:47.307             7.581                Irkutsk           236.906
       291   03 Jun 2027 23:03:34.988   03 Jun 2027 23:05:37.475           122.487                Sumatra          3827.719
       292   03 Jun 2027 23:08:34.853   03 Jun 2027 23:09:15.052            40.199                Sumatra          1256.219
       293   03 Jun 2027 23:11:20.708   03 Jun 2027 23:11:34.103            13.395                Sumatra           418.594
       294   04 Jun 2027 00:16:31.046   04 Jun 2027 00:18:16.934           105.888                Anadyr1          3309.000
       295   04 Jun 2027 00:19:04.378   04 Jun 2027 00:20:43.317            98.939                Norilsk          3091.844
       296   04 Jun 2027 00:21:03.580   04 Jun 2027 00:21:16.081            12.501               Magadan2           390.656
       297   04 Jun 2027 00:21:57.306   04 Jun 2027 00:22:05.627             8.321               Magadan2           260.031
       298   04 Jun 2027 00:22:34.087   04 Jun 2027 00:23:04.006            29.919               Magadan2           934.969
       299   04 Jun 2027 00:23:44.648   04 Jun 2027 00:25:35.364           110.716                Novosib          3459.875
       300   04 Jun 2027 00:26:48.005   04 Jun 2027 00:26:56.168             8.163                Novosib           255.094
       301   04 Jun 2027 00:27:35.435   04 Jun 2027 00:27:45.872            10.437                Novosib           326.156
       302   04 Jun 2027 00:29:31.512   04 Jun 2027 00:29:46.822            15.310                Novosib           478.437
       303   04 Jun 2027 00:32:56.819   04 Jun 2027 00:33:32.306            35.487                Novosib          1108.969
       304   04 Jun 2027 00:34:18.662   04 Jun 2027 00:34:49.465            30.803                  Delhi           962.594
       305   04 Jun 2027 00:34:51.995   04 Jun 2027 00:35:36.464            44.469                  Delhi          1389.656
       306   04 Jun 2027 01:11:04.351   04 Jun 2027 01:11:41.999            37.648            RioGallegos          1176.500
       307   04 Jun 2027 01:12:31.645   04 Jun 2027 01:12:54.878            23.233            RioGallegos           726.031
       308   04 Jun 2027 01:16:47.523   04 Jun 2027 01:17:03.980            16.457            RioGallegos           514.281
       309   04 Jun 2027 01:18:37.402   04 Jun 2027 01:18:59.919            22.517            RioGallegos           703.656
       310   04 Jun 2027 01:22:24.794   04 Jun 2027 01:22:42.617            17.823            RioGallegos           556.969
       311   04 Jun 2027 01:50:42.122   04 Jun 2027 01:51:10.852            28.730                Anadyr2           897.813
       312   04 Jun 2027 01:51:47.609   04 Jun 2027 01:52:05.522            17.913                Anadyr2           559.781
       313   04 Jun 2027 01:52:32.866   04 Jun 2027 01:52:48.497            15.631                Anadyr1           488.469
       314   04 Jun 2027 01:53:11.658   04 Jun 2027 01:53:17.635             5.977                Anadyr2           186.781
       315   04 Jun 2027 01:55:05.137   04 Jun 2027 01:56:58.305           113.168                Norilsk          3536.500
       316   04 Jun 2027 01:58:04.855   04 Jun 2027 01:59:05.442            60.587              Murmansk2          1893.344
       317   04 Jun 2027 01:59:05.798   04 Jun 2027 02:00:49.486           103.688                Irkutsk          3240.250
       318   04 Jun 2027 02:04:17.078   04 Jun 2027 02:04:57.060            39.982                Irkutsk          1249.437
       319   04 Jun 2027 02:08:59.161   04 Jun 2027 02:09:23.354            24.193                  Delhi           756.031
       320   04 Jun 2027 02:14:05.305   04 Jun 2027 02:14:22.760            17.455                  Delhi           545.469
       321   04 Jun 2027 02:16:17.211   04 Jun 2027 02:18:19.076           121.865                  Delhi          3808.281
       322   04 Jun 2027 02:48:03.358   04 Jun 2027 02:50:36.555           153.197            RioGallegos          4787.406
       323   04 Jun 2027 03:40:30.446   04 Jun 2027 03:40:41.673            11.227                Novosib           350.844
       324   04 Jun 2027 03:41:11.078   04 Jun 2027 03:43:05.200           114.122              Murmansk1          3566.312
       325   04 Jun 2027 03:43:16.460   04 Jun 2027 03:43:59.599            43.139                 Moscow          1348.094
       326   04 Jun 2027 03:44:36.874   04 Jun 2027 03:46:36.535           119.661                Novosib          3739.406
       327   04 Jun 2027 03:46:49.192   04 Jun 2027 03:47:30.299            41.107                 Moscow          1284.594
       328   04 Jun 2027 03:48:23.465   04 Jun 2027 03:51:46.660           203.195                  Delhi          6349.844
       329   04 Jun 2027 05:01:53.129   04 Jun 2027 05:02:30.494            37.365               Magadan2          1167.656
       330   04 Jun 2027 05:16:41.912   04 Jun 2027 05:16:53.417            11.505                Novosib           359.531
       331   04 Jun 2027 05:17:14.955   04 Jun 2027 05:18:32.869            77.914                Novosib          2434.812
       332   04 Jun 2027 05:19:24.783   04 Jun 2027 05:19:26.790             2.007                 Moscow            62.719
       333   04 Jun 2027 05:20:51.128   04 Jun 2027 05:21:20.381            29.253                 Moscow           914.156
       334   04 Jun 2027 05:22:00.018   04 Jun 2027 05:22:01.614             1.596                 Moscow            49.875
       335   04 Jun 2027 05:36:17.740   04 Jun 2027 05:39:01.157           163.417               CapeTown          5106.781
       336   04 Jun 2027 06:39:20.980   04 Jun 2027 06:40:07.991            47.011                Anadyr1          1469.094
       337   04 Jun 2027 06:40:11.064   04 Jun 2027 06:40:17.695             6.631                Anadyr1           207.219
       338   04 Jun 2027 06:40:34.229   04 Jun 2027 06:40:34.762             0.533               Magadan2            16.656
       339   04 Jun 2027 06:40:57.811   04 Jun 2027 06:41:07.690             9.879                Anadyr2           308.719
       340   04 Jun 2027 06:41:07.690   04 Jun 2027 06:41:38.900            31.210                Anadyr1           975.313
       341   04 Jun 2027 06:45:02.736   04 Jun 2027 06:45:03.887             1.151                Anadyr2            35.969
       342   04 Jun 2027 07:15:40.007   04 Jun 2027 07:19:53.598           253.591               CapeTown          7924.719
       343   04 Jun 2027 08:15:31.332   04 Jun 2027 08:15:50.495            19.163                Anadyr2           598.844
       344   04 Jun 2027 08:16:17.715   04 Jun 2027 08:18:02.779           105.064                Anadyr1          3283.250
       345   04 Jun 2027 08:18:15.460   04 Jun 2027 08:19:27.516            72.056               Magadan2          2251.750
       346   04 Jun 2027 09:50:29.774   04 Jun 2027 09:50:37.171             7.397               Magadan1           231.156
       347   04 Jun 2027 09:51:03.072   04 Jun 2027 09:51:07.401             4.329               Magadan1           135.281
       348   04 Jun 2027 09:51:16.758   04 Jun 2027 09:52:13.996            57.238               Magadan1          1788.688
       349   04 Jun 2027 09:53:15.761   04 Jun 2027 09:53:21.811             6.050                Novosib           189.063
       350   04 Jun 2027 09:53:22.839   04 Jun 2027 09:53:48.562            25.723                Novosib           803.844
       351   04 Jun 2027 09:54:31.143   04 Jun 2027 09:54:48.790            17.647                Norilsk           551.469
       352   04 Jun 2027 09:55:09.046   04 Jun 2027 09:55:50.534            41.488                Irkutsk          1296.500
       353   04 Jun 2027 09:55:53.993   04 Jun 2027 09:56:53.652            59.659                Irkutsk          1864.344
       354   04 Jun 2027 09:56:59.408   04 Jun 2027 09:57:06.029             6.621                Norilsk           206.906
       355   04 Jun 2027 09:57:13.824   04 Jun 2027 09:57:30.313            16.489                Norilsk           515.281
       356   04 Jun 2027 10:32:16.116   04 Jun 2027 10:33:01.180            45.064            RioGallegos          1408.250
       357   04 Jun 2027 10:34:22.814   04 Jun 2027 10:34:28.982             6.168            RioGallegos           192.750
       358   04 Jun 2027 10:43:01.172   04 Jun 2027 10:43:35.521            34.349            RioGallegos          1073.406
       359   04 Jun 2027 11:09:06.373   04 Jun 2027 11:11:03.573           117.200                Sumatra          3662.500
       360   04 Jun 2027 11:27:27.421   04 Jun 2027 11:28:14.499            47.078                Irkutsk          1471.187
       361   04 Jun 2027 11:28:24.201   04 Jun 2027 11:30:32.084           127.883               Magadan1          3996.344
       362   04 Jun 2027 11:30:50.898   04 Jun 2027 11:31:24.497            33.599                Novosib          1049.969
       363   04 Jun 2027 11:31:28.792   04 Jun 2027 11:32:10.956            42.164                Norilsk          1317.625
       364   04 Jun 2027 11:32:24.847   04 Jun 2027 11:32:44.971            20.124                Norilsk           628.875
       365   04 Jun 2027 11:32:48.599   04 Jun 2027 11:33:11.552            22.953                Novosib           717.281
       366   04 Jun 2027 12:08:30.693   04 Jun 2027 12:09:49.898            79.205            RioGallegos          2475.156
       367   04 Jun 2027 12:42:55.585   04 Jun 2027 12:45:01.250           125.665                Sumatra          3927.031
       368   04 Jun 2027 12:57:41.750   04 Jun 2027 12:58:27.513            45.763                Irkutsk          1430.094
       369   04 Jun 2027 13:01:31.123   04 Jun 2027 13:02:52.836            81.713                Irkutsk          2553.531
       370   04 Jun 2027 14:27:31.828   04 Jun 2027 14:28:06.478            34.650                  Delhi          1082.813
       371   04 Jun 2027 14:28:57.572   04 Jun 2027 14:29:50.704            53.132                  Delhi          1660.375
       372   04 Jun 2027 14:32:08.313   04 Jun 2027 14:32:29.396            21.083                  Delhi           658.844
       373   04 Jun 2027 14:34:53.402   04 Jun 2027 14:35:53.958            60.556                  Delhi          1892.375
       374   04 Jun 2027 14:36:10.134   04 Jun 2027 14:36:36.097            25.963                Novosib           811.344
       375   04 Jun 2027 14:38:57.097   04 Jun 2027 14:40:45.662           108.565                Novosib          3392.656
       376   04 Jun 2027 14:40:51.018   04 Jun 2027 14:42:04.296            73.278                Norilsk          2289.938
       377   04 Jun 2027 14:43:25.770   04 Jun 2027 14:44:21.647            55.877                Norilsk          1746.156
       378   04 Jun 2027 16:11:25.352   04 Jun 2027 16:14:29.778           184.426                 Moscow          5763.313
       379   04 Jun 2027 16:15:47.607   04 Jun 2027 16:16:08.841            21.234              Murmansk2           663.563
       380   04 Jun 2027 16:20:10.903   04 Jun 2027 16:24:43.551           272.648                Norilsk          8520.250
       381   04 Jun 2027 17:31:43.075   04 Jun 2027 17:31:44.265             1.190               CapeTown            37.187
       382   04 Jun 2027 17:32:12.428   04 Jun 2027 17:32:24.756            12.328               CapeTown           385.250
       383   04 Jun 2027 17:34:49.798   04 Jun 2027 17:35:12.873            23.075               CapeTown           721.094
       384   04 Jun 2027 17:49:39.357   04 Jun 2027 17:51:14.221            94.864                 Moscow          2964.500
       385   04 Jun 2027 17:52:26.062   04 Jun 2027 17:54:10.803           104.741              Murmansk1          3273.156
       386   04 Jun 2027 17:55:36.197   04 Jun 2027 17:56:06.465            30.268              Murmansk1           945.875
       387   04 Jun 2027 18:05:44.187   04 Jun 2027 18:05:51.249             7.062                Anadyr2           220.688
       388   04 Jun 2027 18:06:20.125   04 Jun 2027 18:07:11.133            51.008                Anadyr1          1594.000
       389   04 Jun 2027 18:12:17.587   04 Jun 2027 18:12:48.491            30.904                Anadyr1           965.750
       390   04 Jun 2027 19:01:07.388   04 Jun 2027 19:02:46.825            99.437               CapeTown          3107.406
       391   04 Jun 2027 19:08:34.465   04 Jun 2027 19:09:40.815            66.350               CapeTown          2073.437
       392   04 Jun 2027 19:32:24.677   04 Jun 2027 19:39:17.726           413.049              Murmansk2         12907.781
       393   04 Jun 2027 21:17:23.011   04 Jun 2027 21:18:57.633            94.622                Anadyr1          2956.937
       394   04 Jun 2027 21:19:18.809   04 Jun 2027 21:20:22.156            63.347                Anadyr2          1979.594
       395   04 Jun 2027 21:20:49.038   04 Jun 2027 21:21:31.700            42.662                Anadyr2          1333.188
       396   04 Jun 2027 21:21:37.683   04 Jun 2027 21:24:01.511           143.828               Magadan2          4494.625
       397   04 Jun 2027 21:24:27.496   04 Jun 2027 21:24:48.713            21.217               Magadan2           663.031
       398   04 Jun 2027 21:26:36.440   04 Jun 2027 21:26:42.743             6.303               Magadan1           196.969
       399   04 Jun 2027 21:30:26.671   04 Jun 2027 21:30:32.928             6.257               Magadan1           195.531
       400   04 Jun 2027 22:13:04.798   04 Jun 2027 22:15:51.055           166.257            RioGallegos          5195.531
       401   04 Jun 2027 22:18:16.209   04 Jun 2027 22:19:05.654            49.445            RioGallegos          1545.156
       402   04 Jun 2027 22:53:11.195   04 Jun 2027 22:54:21.005            69.810                Anadyr1          2181.562
       403   04 Jun 2027 22:54:22.367   04 Jun 2027 22:55:02.227            39.860                Anadyr2          1245.625
       404   04 Jun 2027 22:55:17.133   04 Jun 2027 22:56:10.901            53.768                Norilsk          1680.250
       405   04 Jun 2027 22:56:49.910   04 Jun 2027 22:57:19.235            29.325                Norilsk           916.406
       406   04 Jun 2027 22:57:26.812   04 Jun 2027 22:57:51.056            24.244               Magadan1           757.625
       407   04 Jun 2027 22:58:07.757   04 Jun 2027 22:58:12.313             4.556                Norilsk           142.375
       408   04 Jun 2027 22:58:13.538   04 Jun 2027 22:58:38.132            24.594                Norilsk           768.563
       409   04 Jun 2027 23:00:03.115   04 Jun 2027 23:00:48.175            45.060                Irkutsk          1408.125
       410   04 Jun 2027 23:02:35.501   04 Jun 2027 23:03:17.939            42.438                Irkutsk          1326.188
       411   04 Jun 2027 23:14:42.609   04 Jun 2027 23:16:32.759           110.150                Sumatra          3442.188
       412   04 Jun 2027 23:21:02.260   04 Jun 2027 23:22:08.912            66.652                Sumatra          2082.875
       413   05 Jun 2027 00:28:23.881   05 Jun 2027 00:29:23.399            59.518                Anadyr2          1859.937
       414   05 Jun 2027 00:30:27.774   05 Jun 2027 00:31:11.527            43.753                Anadyr1          1367.281
       415   05 Jun 2027 00:31:21.355   05 Jun 2027 00:31:54.303            32.948                Norilsk          1029.625
       416   05 Jun 2027 00:31:56.311   05 Jun 2027 00:33:01.260            64.949               Magadan2          2029.656
       417   05 Jun 2027 00:33:18.695   05 Jun 2027 00:33:25.299             6.604               Magadan2           206.375
       418   05 Jun 2027 00:34:06.798   05 Jun 2027 00:34:30.048            23.250               Magadan2           726.562
       419   05 Jun 2027 00:35:00.613   05 Jun 2027 00:37:11.628           131.015                Irkutsk          4094.219
       420   05 Jun 2027 00:39:46.537   05 Jun 2027 00:40:49.442            62.905                Novosib          1965.781
       421   05 Jun 2027 00:44:54.832   05 Jun 2027 00:46:22.222            87.390                  Delhi          2730.938
       422   05 Jun 2027 00:53:45.955   05 Jun 2027 00:54:37.078            51.123                Sumatra          1597.594
       423   05 Jun 2027 01:24:32.638   05 Jun 2027 01:24:43.101            10.463            RioGallegos           326.969
       424   05 Jun 2027 01:26:45.631   05 Jun 2027 01:27:07.501            21.870            RioGallegos           683.437
       425   05 Jun 2027 01:28:51.834   05 Jun 2027 01:29:34.667            42.833            RioGallegos          1338.531
       426   05 Jun 2027 02:02:55.895   05 Jun 2027 02:03:08.048            12.153                Anadyr1           379.781
       427   05 Jun 2027 02:03:36.619   05 Jun 2027 02:04:05.620            29.001                Anadyr1           906.281
       428   05 Jun 2027 02:04:31.889   05 Jun 2027 02:05:04.398            32.509                Anadyr2          1015.906
       429   05 Jun 2027 02:07:07.359   05 Jun 2027 02:09:00.764           113.405                Norilsk          3543.906
       430   05 Jun 2027 02:09:52.136   05 Jun 2027 02:10:51.481            59.345              Murmansk2          1854.531
       431   05 Jun 2027 02:10:54.394   05 Jun 2027 02:11:50.541            56.147                Novosib          1754.594
       432   05 Jun 2027 02:12:14.686   05 Jun 2027 02:12:40.669            25.983                Irkutsk           811.969
       433   05 Jun 2027 02:17:16.594   05 Jun 2027 02:18:10.496            53.902                Irkutsk          1684.438
       434   05 Jun 2027 02:22:46.793   05 Jun 2027 02:24:06.639            79.846                  Delhi          2495.187
       435   05 Jun 2027 03:00:23.588   05 Jun 2027 03:03:50.069           206.481            RioGallegos          6452.531
       436   05 Jun 2027 03:04:50.539   05 Jun 2027 03:05:36.982            46.443            RioGallegos          1451.344
       437   05 Jun 2027 03:49:15.247   05 Jun 2027 03:51:13.506           118.259                Irkutsk          3695.594
       438   05 Jun 2027 03:53:53.232   05 Jun 2027 03:54:30.622            37.390              Murmansk2          1168.437
       439   05 Jun 2027 03:54:36.095   05 Jun 2027 03:54:50.841            14.746                Norilsk           460.812
       440   05 Jun 2027 03:57:43.212   05 Jun 2027 03:58:17.815            34.603                Novosib          1081.344
       441   05 Jun 2027 05:28:54.712   05 Jun 2027 05:29:49.333            54.621                Novosib          1706.906
       442   05 Jun 2027 05:29:54.140   05 Jun 2027 05:30:35.663            41.523              Murmansk1          1297.594
       443   05 Jun 2027 05:33:08.585   05 Jun 2027 05:33:28.582            19.997                 Moscow           624.906
       444   05 Jun 2027 05:34:01.840   05 Jun 2027 05:34:08.652             6.812                 Moscow           212.875
       445   05 Jun 2027 05:48:20.754   05 Jun 2027 05:50:43.139           142.385               CapeTown          4449.531
       446   05 Jun 2027 06:51:13.470   05 Jun 2027 06:52:09.253            55.783                Anadyr1          1743.219
       447   05 Jun 2027 06:52:27.792   05 Jun 2027 06:53:01.232            33.440               Magadan1          1045.000
       448   05 Jun 2027 06:53:22.108   05 Jun 2027 06:53:30.042             7.934               Magadan2           247.938
       449   05 Jun 2027 06:53:30.042   05 Jun 2027 06:53:42.849            12.807               Magadan1           400.219
       450   05 Jun 2027 06:54:11.461   05 Jun 2027 06:54:26.633            15.172                Anadyr2           474.125
       451   05 Jun 2027 06:55:13.025   05 Jun 2027 06:55:18.384             5.359               Magadan2           167.469
       452   05 Jun 2027 06:55:51.909   05 Jun 2027 06:55:59.709             7.800                Anadyr1           243.750
       453   05 Jun 2027 06:57:12.670   05 Jun 2027 06:57:38.873            26.203                Anadyr2           818.844
       454   05 Jun 2027 07:29:34.796   05 Jun 2027 07:31:38.964           124.168               CapeTown          3880.250
       455   05 Jun 2027 08:27:38.951   05 Jun 2027 08:28:04.927            25.976                Anadyr1           811.750
       456   05 Jun 2027 08:28:31.350   05 Jun 2027 08:28:42.491            11.141               Magadan2           348.156
       457   05 Jun 2027 08:28:53.897   05 Jun 2027 08:31:14.349           140.452                Anadyr2          4389.125
       458   05 Jun 2027 09:59:41.154   05 Jun 2027 09:59:57.538            16.384               Magadan1           512.000
       459   05 Jun 2027 10:01:50.832   05 Jun 2027 10:03:04.293            73.461               Magadan1          2295.656
       460   05 Jun 2027 10:03:10.086   05 Jun 2027 10:03:21.655            11.569               Magadan1           361.531
       461   05 Jun 2027 10:04:18.515   05 Jun 2027 10:04:20.137             1.622               Magadan2            50.687
       462   05 Jun 2027 10:05:07.244   05 Jun 2027 10:07:23.039           135.795                Anadyr2          4243.594
       463   05 Jun 2027 10:07:33.173   05 Jun 2027 10:08:04.962            31.789               Magadan1           993.406
       464   05 Jun 2027 10:08:25.168   05 Jun 2027 10:08:35.198            10.030                Norilsk           313.437
       465   05 Jun 2027 10:08:39.179   05 Jun 2027 10:09:08.756            29.577                Norilsk           924.281
       466   05 Jun 2027 10:09:30.585   05 Jun 2027 10:09:35.620             5.035                Norilsk           157.344
       467   05 Jun 2027 10:44:08.366   05 Jun 2027 10:45:10.662            62.296            RioGallegos          1946.750
       468   05 Jun 2027 10:47:14.720   05 Jun 2027 10:47:44.875            30.155            RioGallegos           942.344
       469   05 Jun 2027 11:20:22.574   05 Jun 2027 11:20:35.130            12.556                Sumatra           392.375
       470   05 Jun 2027 11:21:54.034   05 Jun 2027 11:23:04.890            70.856                Sumatra          2214.250
       471   05 Jun 2027 11:39:14.335   05 Jun 2027 11:39:35.985            21.650                Norilsk           676.563
       472   05 Jun 2027 11:40:02.973   05 Jun 2027 11:40:24.616            21.643                Irkutsk           676.344
       473   05 Jun 2027 11:40:30.073   05 Jun 2027 11:41:00.488            30.415                Irkutsk           950.469
       474   05 Jun 2027 11:41:05.195   05 Jun 2027 11:41:07.740             2.545                Norilsk            79.531
       475   05 Jun 2027 11:41:33.701   05 Jun 2027 11:42:39.921            66.220                Novosib          2069.375
       476   05 Jun 2027 11:42:47.152   05 Jun 2027 11:43:04.101            16.949                Irkutsk           529.656
       477   05 Jun 2027 11:43:05.451   05 Jun 2027 11:44:17.093            71.642                Irkutsk          2238.812
       478   05 Jun 2027 11:44:23.480   05 Jun 2027 11:44:26.671             3.191                Norilsk            99.719
       479   05 Jun 2027 11:44:45.853   05 Jun 2027 11:45:12.588            26.735                Novosib           835.469
       480   05 Jun 2027 12:20:51.816   05 Jun 2027 12:21:13.409            21.593            RioGallegos           674.781
       481   05 Jun 2027 12:22:31.336   05 Jun 2027 12:22:54.950            23.614            RioGallegos           737.938
       482   05 Jun 2027 12:25:08.182   05 Jun 2027 12:25:44.091            35.909            RioGallegos          1122.156
