uniorb/output/strategy_4/Drop/Drop_KinoSat_111109.txt

KinoSat_111109
-------------------------
    Access    *     Start Time (UTCG)     *     Stop Time (UTCG)  *   Duration (s)        *       Station  *  Data (Mbytes)
         1   01 Jun 2027 03:00:02.111   01 Jun 2027 03:00:47.489            45.378                 Moscow          1055.500
         2   01 Jun 2027 03:01:08.841   01 Jun 2027 03:01:21.229            12.388                 Moscow           387.125
         3   01 Jun 2027 03:01:36.061   01 Jun 2027 03:01:51.327            15.266                 Moscow           477.062
         4   01 Jun 2027 03:02:16.045   01 Jun 2027 03:03:14.715            58.670                 Moscow          1833.438
         5   01 Jun 2027 03:18:10.072   01 Jun 2027 03:20:35.886           145.814               CapeTown          4556.687
         6   01 Jun 2027 04:22:04.633   01 Jun 2027 04:22:37.746            33.113               Magadan2          1034.781
         7   01 Jun 2027 04:22:43.954   01 Jun 2027 04:24:22.622            98.668                Anadyr1          3083.375
         8   01 Jun 2027 04:24:22.622   01 Jun 2027 04:24:23.920             1.298                Anadyr2            40.563
         9   01 Jun 2027 04:24:28.411   01 Jun 2027 04:25:48.191            79.780               Magadan1          2493.125
        10   01 Jun 2027 04:26:27.120   01 Jun 2027 04:26:28.654             1.534                Anadyr2            47.937
        11   01 Jun 2027 05:58:38.593   01 Jun 2027 05:59:21.899            43.306                Irkutsk          1353.313
        12   01 Jun 2027 06:00:16.963   01 Jun 2027 06:01:56.497            99.534                Anadyr2          3110.437
        13   01 Jun 2027 06:01:56.497   01 Jun 2027 06:02:12.813            16.316                Anadyr1           509.875
        14   01 Jun 2027 06:42:24.710   01 Jun 2027 06:43:27.791            63.081            RioGallegos          1971.281
        15   01 Jun 2027 07:33:39.679   01 Jun 2027 07:34:34.633            54.954                Norilsk          1717.312
        16   01 Jun 2027 07:34:34.810   01 Jun 2027 07:37:28.246           173.436                Anadyr1          5419.875
        17   01 Jun 2027 07:37:28.334   01 Jun 2027 07:38:18.255            49.921                Irkutsk          1560.031
        18   01 Jun 2027 07:38:28.861   01 Jun 2027 07:38:51.985            23.124                Irkutsk           722.625
        19   01 Jun 2027 07:38:57.762   01 Jun 2027 07:39:01.379             3.617               Magadan1           113.031
        20   01 Jun 2027 07:39:58.051   01 Jun 2027 07:40:37.021            38.970              Murmansk1          1217.812
        21   01 Jun 2027 07:41:21.775   01 Jun 2027 07:41:35.720            13.945                Norilsk           435.781
        22   01 Jun 2027 07:41:37.882   01 Jun 2027 07:42:18.725            40.843              Murmansk2          1276.344
        23   01 Jun 2027 07:45:49.858   01 Jun 2027 07:46:20.216            30.358              Murmansk1           948.688
        24   01 Jun 2027 08:13:58.860   01 Jun 2027 08:15:54.272           115.412            RioGallegos          3606.625
        25   01 Jun 2027 08:50:17.449   01 Jun 2027 08:51:15.908            58.459                Sumatra          1826.844
        26   01 Jun 2027 09:10:51.149   01 Jun 2027 09:11:17.153            26.004                Irkutsk           812.625
        27   01 Jun 2027 09:11:44.515   01 Jun 2027 09:15:31.097           226.582                Novosib          7080.687
        28   01 Jun 2027 09:16:15.747   01 Jun 2027 09:16:44.728            28.981                Norilsk           905.656
        29   01 Jun 2027 09:17:57.514   01 Jun 2027 09:18:46.354            48.840              Murmansk1          1526.250
        30   01 Jun 2027 09:50:39.282   01 Jun 2027 09:51:35.484            56.202            RioGallegos          1756.313
        31   01 Jun 2027 10:24:57.556   01 Jun 2027 10:26:28.670            91.114                Sumatra          2847.312
        32   01 Jun 2027 10:35:47.066   01 Jun 2027 10:36:53.431            66.365                  Delhi          2073.906
        33   01 Jun 2027 10:47:30.207   01 Jun 2027 10:49:05.013            94.806                Irkutsk          2962.688
        34   01 Jun 2027 10:49:24.497   01 Jun 2027 10:50:38.704            74.207                Novosib          2318.969
        35   01 Jun 2027 10:52:15.006   01 Jun 2027 10:52:28.338            13.332              Murmansk1           416.625
        36   01 Jun 2027 12:09:44.016   01 Jun 2027 12:14:12.339           268.323                  Delhi          8385.094
        37   01 Jun 2027 12:18:02.995   01 Jun 2027 12:18:16.245            13.250                Novosib           414.062
        38   01 Jun 2027 12:18:35.890   01 Jun 2027 12:19:15.828            39.938                Novosib          1248.063
        39   01 Jun 2027 12:20:57.832   01 Jun 2027 12:22:59.838           122.006              Murmansk1          3812.687
        40   01 Jun 2027 12:23:07.127   01 Jun 2027 12:24:25.711            78.584              Murmansk2          2455.750
        41   01 Jun 2027 12:24:41.785   01 Jun 2027 12:25:12.311            30.526                Norilsk           953.937
        42   01 Jun 2027 12:26:28.219   01 Jun 2027 12:27:00.643            32.424                Norilsk          1013.250
        43   01 Jun 2027 13:53:20.713   01 Jun 2027 13:56:32.511           191.798                 Moscow          5993.687
        44   01 Jun 2027 13:56:52.268   01 Jun 2027 13:59:29.527           157.259              Murmansk2          4914.344
        45   01 Jun 2027 14:00:24.069   01 Jun 2027 14:00:49.449            25.380              Murmansk1           793.125
        46   01 Jun 2027 14:02:55.287   01 Jun 2027 14:05:07.883           132.596                Norilsk          4143.625
        47   01 Jun 2027 14:06:08.788   01 Jun 2027 14:06:40.687            31.899                Norilsk           996.844
        48   01 Jun 2027 14:13:29.648   01 Jun 2027 14:14:03.921            34.273                Anadyr2          1071.031
        49   01 Jun 2027 14:14:42.653   01 Jun 2027 14:15:24.047            41.394                Anadyr1          1293.563
        50   01 Jun 2027 15:08:47.948   01 Jun 2027 15:09:27.108            39.160               CapeTown          1223.750
        51   01 Jun 2027 15:32:05.841   01 Jun 2027 15:32:48.054            42.213                 Moscow          1319.156
        52   01 Jun 2027 15:34:36.582   01 Jun 2027 15:35:22.634            46.052              Murmansk2          1439.125
        53   01 Jun 2027 15:36:50.980   01 Jun 2027 15:37:17.651            26.671              Murmansk1           833.469
        54   01 Jun 2027 15:47:33.419   01 Jun 2027 15:49:45.667           132.248                Anadyr2          4132.750
        55   01 Jun 2027 15:53:24.031   01 Jun 2027 15:53:25.597             1.566                Anadyr1            48.937
        56   01 Jun 2027 16:43:08.346   01 Jun 2027 16:43:57.627            49.281               CapeTown          1540.031
        57   01 Jun 2027 16:47:52.196   01 Jun 2027 16:48:36.191            43.995               CapeTown          1374.844
        58   01 Jun 2027 17:15:00.277   01 Jun 2027 17:19:42.481           282.204              Murmansk1          8818.875
        59   01 Jun 2027 17:23:18.047   01 Jun 2027 17:24:07.730            49.683                Anadyr1          1552.594
        60   01 Jun 2027 17:25:33.791   01 Jun 2027 17:26:24.448            50.657                Anadyr1          1583.031
        61   01 Jun 2027 17:30:05.062   01 Jun 2027 17:30:47.483            42.421               Magadan1          1325.656
        62   01 Jun 2027 17:34:01.740   01 Jun 2027 17:34:44.410            42.670               Magadan1          1333.437
        63   01 Jun 2027 18:59:13.711   01 Jun 2027 19:02:26.681           192.970                Anadyr1          6030.312
        64   01 Jun 2027 19:02:50.992   01 Jun 2027 19:05:48.145           177.153               Magadan2          5536.031
        65   01 Jun 2027 19:54:30.267   01 Jun 2027 19:57:26.756           176.489            RioGallegos          5515.281
        66   01 Jun 2027 20:01:09.495   01 Jun 2027 20:01:21.280            11.785            RioGallegos           368.281
        67   01 Jun 2027 20:34:58.841   01 Jun 2027 20:35:28.332            29.491                Anadyr2           921.594
        68   01 Jun 2027 20:37:08.010   01 Jun 2027 20:40:58.301           230.291                Norilsk          7196.594
        69   01 Jun 2027 20:41:41.879   01 Jun 2027 20:41:53.227            11.348                Irkutsk           354.625
        70   01 Jun 2027 20:42:03.061   01 Jun 2027 20:42:10.530             7.469                Irkutsk           233.406
        71   01 Jun 2027 20:42:16.980   01 Jun 2027 20:43:19.167            62.187                Irkutsk          1943.344
        72   01 Jun 2027 20:44:34.868   01 Jun 2027 20:45:04.645            29.777                Irkutsk           930.531
        73   01 Jun 2027 20:51:48.933   01 Jun 2027 20:51:56.960             8.027                Irkutsk           250.844
        74   01 Jun 2027 20:55:59.722   01 Jun 2027 20:57:22.650            82.928                Sumatra          2591.500
        75   01 Jun 2027 20:58:54.897   01 Jun 2027 20:59:58.525            63.628                Sumatra          1988.375
        76   01 Jun 2027 21:02:52.341   01 Jun 2027 21:03:00.513             8.172                Sumatra           255.375
        77   01 Jun 2027 22:11:06.433   01 Jun 2027 22:11:47.925            41.492                Anadyr1          1296.625
        78   01 Jun 2027 22:13:23.986   01 Jun 2027 22:13:29.261             5.275                Norilsk           164.844
        79   01 Jun 2027 22:13:35.740   01 Jun 2027 22:13:53.767            18.027               Magadan1           563.344
        80   01 Jun 2027 22:13:53.767   01 Jun 2027 22:14:37.497            43.730               Magadan2          1366.563
        81   01 Jun 2027 22:14:55.483   01 Jun 2027 22:15:55.804            60.321               Magadan2          1885.031
        82   01 Jun 2027 22:17:17.841   01 Jun 2027 22:17:53.924            36.083                Novosib          1127.594
        83   01 Jun 2027 22:18:23.801   01 Jun 2027 22:18:54.037            30.236                Novosib           944.875
        84   01 Jun 2027 22:22:36.752   01 Jun 2027 22:22:45.619             8.867                Novosib           277.094
        85   01 Jun 2027 22:22:58.998   01 Jun 2027 22:23:11.623            12.625                Novosib           394.531
        86   01 Jun 2027 22:23:17.815   01 Jun 2027 22:24:24.420            66.605                Novosib          2081.406
        87   01 Jun 2027 22:26:02.978   01 Jun 2027 22:27:12.608            69.630                  Delhi          2175.937
        88   01 Jun 2027 22:33:16.356   01 Jun 2027 22:33:35.398            19.042                  Delhi           595.062
        89   01 Jun 2027 23:43:57.872   01 Jun 2027 23:45:02.844            64.972                Anadyr2          2030.375
        90   01 Jun 2027 23:46:27.353   01 Jun 2027 23:46:45.067            17.714                Anadyr1           553.562
        91   01 Jun 2027 23:48:59.122   01 Jun 2027 23:50:01.816            62.694                Norilsk          1959.187
        92   01 Jun 2027 23:50:13.175   01 Jun 2027 23:50:34.853            21.678                Norilsk           677.437
        93   01 Jun 2027 23:50:38.062   01 Jun 2027 23:51:30.021            51.959               Magadan2          1623.719
        94   01 Jun 2027 23:51:37.806   01 Jun 2027 23:56:21.625           283.819              Murmansk1          8869.344
        95   02 Jun 2027 00:47:28.664   02 Jun 2027 00:47:42.539            13.875            RioGallegos           433.594
        96   02 Jun 2027 01:17:15.400   02 Jun 2027 01:17:36.248            20.848                Anadyr1           651.500
        97   02 Jun 2027 01:17:53.163   02 Jun 2027 01:18:17.772            24.609                Anadyr1           769.031
        98   02 Jun 2027 01:18:30.241   02 Jun 2027 01:18:58.520            28.279                Anadyr1           883.719
        99   02 Jun 2027 01:19:39.606   02 Jun 2027 01:20:25.447            45.841                Anadyr1          1432.531
       100   02 Jun 2027 01:23:01.407   02 Jun 2027 01:25:05.477           124.070               Magadan2          3877.188
       101   02 Jun 2027 01:25:05.477   02 Jun 2027 01:25:13.025             7.548               Magadan1           235.875
       102   02 Jun 2027 01:27:07.884   02 Jun 2027 01:28:26.413            78.529              Murmansk2          2454.031
       103   02 Jun 2027 01:28:57.272   02 Jun 2027 01:30:08.771            71.499                Novosib          2234.344
       104   02 Jun 2027 01:35:11.193   02 Jun 2027 01:35:42.385            31.192                 Moscow           974.750
       105   02 Jun 2027 01:39:44.405   02 Jun 2027 01:40:05.515            21.110                  Delhi           659.687
       106   02 Jun 2027 01:55:58.622   02 Jun 2027 01:56:30.675            32.053               CapeTown          1001.656
       107   02 Jun 2027 02:01:25.376   02 Jun 2027 02:01:30.551             5.175               CapeTown           161.719
       108   02 Jun 2027 02:02:11.150   02 Jun 2027 02:02:27.599            16.449               CapeTown           514.031
       109   02 Jun 2027 02:03:36.489   02 Jun 2027 02:05:08.201            91.712               CapeTown          2866.000
       110   02 Jun 2027 02:51:19.651   02 Jun 2027 02:52:27.142            67.491                Anadyr2          2109.094
       111   02 Jun 2027 02:54:39.274   02 Jun 2027 02:55:16.487            37.213               Magadan1          1162.906
       112   02 Jun 2027 02:55:16.487   02 Jun 2027 02:55:41.090            24.603               Magadan2           768.844
       113   02 Jun 2027 02:57:06.480   02 Jun 2027 02:57:22.602            16.122               Magadan1           503.813
       114   02 Jun 2027 03:11:50.156   02 Jun 2027 03:12:57.765            67.609              Murmansk2          2112.781
       115   02 Jun 2027 03:13:03.400   02 Jun 2027 03:14:36.663            93.263              Murmansk2          2914.469
       116   02 Jun 2027 03:14:36.663   02 Jun 2027 03:15:41.506            64.843              Murmansk1          2026.344
       117   02 Jun 2027 04:27:03.759   02 Jun 2027 04:28:26.743            82.984                Anadyr2          2593.250
       118   02 Jun 2027 04:32:59.817   02 Jun 2027 04:33:25.097            25.280               Magadan1           790.000
       119   02 Jun 2027 04:33:42.385   02 Jun 2027 04:34:09.894            27.509               Magadan1           859.656
       120   02 Jun 2027 04:34:17.776   02 Jun 2027 04:36:00.075           102.299                Anadyr2          3196.844
       121   02 Jun 2027 07:47:20.341   02 Jun 2027 07:50:23.151           182.810               Magadan2          5712.812
       122   02 Jun 2027 07:50:45.107   02 Jun 2027 07:50:55.622            10.515               Magadan2           328.594
       123   02 Jun 2027 09:23:42.926   02 Jun 2027 09:23:55.303            12.377                Novosib           386.781
       124   02 Jun 2027 09:23:55.729   02 Jun 2027 09:25:09.091            73.362                Irkutsk          2292.562
       125   02 Jun 2027 09:25:13.262   02 Jun 2027 09:26:00.733            47.471                Irkutsk          1483.469
       126   02 Jun 2027 09:26:13.114   02 Jun 2027 09:26:57.553            44.439                Irkutsk          1388.719
       127   02 Jun 2027 10:03:04.461   02 Jun 2027 10:03:53.470            49.009            RioGallegos          1531.531
       128   02 Jun 2027 10:04:37.828   02 Jun 2027 10:04:41.510             3.682            RioGallegos           115.062
       129   02 Jun 2027 10:05:16.304   02 Jun 2027 10:05:44.867            28.563            RioGallegos           892.594
       130   02 Jun 2027 10:37:17.939   02 Jun 2027 10:38:39.187            81.248                Sumatra          2539.000
       131   02 Jun 2027 10:58:49.287   02 Jun 2027 10:58:57.748             8.461                Novosib           264.406
       132   02 Jun 2027 10:59:34.788   02 Jun 2027 10:59:41.038             6.250                Irkutsk           195.313
       133   02 Jun 2027 10:59:51.918   02 Jun 2027 11:00:02.067            10.149                Novosib           317.156
       134   02 Jun 2027 11:00:07.798   02 Jun 2027 11:01:13.398            65.600                Irkutsk          2050.000
       135   02 Jun 2027 11:01:33.428   02 Jun 2027 11:02:12.488            39.060                Novosib          1220.625
       136   02 Jun 2027 11:02:22.043   02 Jun 2027 11:02:26.806             4.763                Norilsk           148.844
       137   02 Jun 2027 11:02:30.715   02 Jun 2027 11:02:50.801            20.086                Norilsk           627.687
       138   02 Jun 2027 12:22:17.428   02 Jun 2027 12:25:15.766           178.338                  Delhi          5573.062
       139   02 Jun 2027 12:30:44.384   02 Jun 2027 12:31:17.837            33.453                Novosib          1045.406
       140   02 Jun 2027 12:31:50.501   02 Jun 2027 12:32:42.372            51.871                Novosib          1620.969
       141   02 Jun 2027 12:34:19.298   02 Jun 2027 12:34:39.870            20.572                Norilsk           642.875
       142   02 Jun 2027 12:34:54.795   02 Jun 2027 12:35:20.282            25.487              Murmansk1           796.469
       143   02 Jun 2027 12:38:30.469   02 Jun 2027 12:39:06.338            35.869                Norilsk          1120.906
       144   02 Jun 2027 14:05:29.628   02 Jun 2027 14:07:15.810           106.182                 Moscow          3318.187
       145   02 Jun 2027 14:09:00.612   02 Jun 2027 14:13:21.278           260.666              Murmansk1          8145.812
       146   02 Jun 2027 14:17:53.903   02 Jun 2027 14:18:27.780            33.877                Norilsk          1058.656
       147   02 Jun 2027 14:24:52.118   02 Jun 2027 14:26:01.483            69.365                Anadyr1          2167.656
       148   02 Jun 2027 14:26:26.716   02 Jun 2027 14:28:37.842           131.126                Anadyr2          4097.687
       149   02 Jun 2027 15:44:53.949   02 Jun 2027 15:45:28.522            34.573                 Moscow          1080.406
       150   02 Jun 2027 15:47:01.178   02 Jun 2027 15:47:38.341            37.163              Murmansk2          1161.344
       151   02 Jun 2027 15:48:19.172   02 Jun 2027 15:48:59.453            40.281              Murmansk2          1258.781
       152   02 Jun 2027 15:56:04.448   02 Jun 2027 15:56:34.485            30.037              Murmansk1           938.656
       153   02 Jun 2027 15:59:31.709   02 Jun 2027 16:00:55.772            84.063                Anadyr1          2626.969
       154   02 Jun 2027 16:03:56.760   02 Jun 2027 16:04:30.061            33.301                Anadyr1          1040.656
       155   02 Jun 2027 16:05:56.299   02 Jun 2027 16:06:02.839             6.540                Anadyr1           204.375
       156   02 Jun 2027 16:07:52.330   02 Jun 2027 16:07:52.502             0.172                Anadyr2             5.375
       157   02 Jun 2027 16:10:15.394   02 Jun 2027 16:10:53.745            38.351                Anadyr2          1198.469
       158   02 Jun 2027 16:55:25.304   02 Jun 2027 16:55:39.114            13.810               CapeTown           431.563
       159   02 Jun 2027 16:57:12.191   02 Jun 2027 16:58:47.492            95.301               CapeTown          2978.156
       160   02 Jun 2027 17:27:55.964   02 Jun 2027 17:30:07.451           131.487              Murmansk1          4108.969
       161   02 Jun 2027 17:35:19.337   02 Jun 2027 17:36:51.662            92.325                Anadyr1          2885.156
       162   02 Jun 2027 17:38:01.132   02 Jun 2027 17:39:50.141           109.009               Magadan2          3406.531
       163   02 Jun 2027 17:43:44.246   02 Jun 2027 17:44:01.467            17.221               Magadan1           538.156
       164   02 Jun 2027 19:11:14.798   02 Jun 2027 19:13:13.011           118.213                Anadyr1          3694.156
       165   02 Jun 2027 19:13:26.139   02 Jun 2027 19:15:18.262           112.123                Anadyr2          3503.844
       166   02 Jun 2027 19:15:52.478   02 Jun 2027 19:17:31.674            99.196               Magadan1          3099.875
       167   02 Jun 2027 19:17:31.674   02 Jun 2027 19:17:59.274            27.600               Magadan2           862.500
       168   02 Jun 2027 19:23:43.686   02 Jun 2027 19:23:59.433            15.747               Magadan2           492.094
       169   02 Jun 2027 20:06:08.184   02 Jun 2027 20:09:07.021           178.837            RioGallegos          5588.656
       170   02 Jun 2027 20:09:16.629   02 Jun 2027 20:09:25.514             8.885            RioGallegos           277.656
       171   02 Jun 2027 20:10:34.460   02 Jun 2027 20:11:35.493            61.033            RioGallegos          1907.281
       172   02 Jun 2027 20:11:40.391   02 Jun 2027 20:12:37.514            57.123            RioGallegos          1785.094
       173   02 Jun 2027 20:49:07.177   02 Jun 2027 20:52:58.930           231.753                Norilsk          7242.281
       174   02 Jun 2027 20:53:45.042   02 Jun 2027 20:54:16.925            31.883                Irkutsk           996.344
       175   02 Jun 2027 20:55:19.639   02 Jun 2027 20:55:44.092            24.453                Irkutsk           764.156
       176   02 Jun 2027 21:07:31.839   02 Jun 2027 21:09:41.373           129.534                Sumatra          4047.937
       177   02 Jun 2027 21:10:45.473   02 Jun 2027 21:11:41.740            56.267                Sumatra          1758.344
       178   02 Jun 2027 22:25:25.132   02 Jun 2027 22:25:31.119             5.987                Norilsk           187.094
       179   02 Jun 2027 22:25:38.269   02 Jun 2027 22:27:04.570            86.301               Magadan2          2696.906
       180   02 Jun 2027 22:28:52.321   02 Jun 2027 22:29:11.554            19.233                Irkutsk           601.031
       181   02 Jun 2027 22:29:46.432   02 Jun 2027 22:30:18.867            32.435                Novosib          1013.594
       182   02 Jun 2027 22:30:21.850   02 Jun 2027 22:30:51.954            30.104                Novosib           940.750
       183   02 Jun 2027 22:31:34.512   02 Jun 2027 22:32:12.774            38.262                Novosib          1195.688
       184   02 Jun 2027 22:35:34.990   02 Jun 2027 22:35:49.338            14.348                Novosib           448.375
       185   02 Jun 2027 22:37:28.414   02 Jun 2027 22:40:29.008           180.594                  Delhi          5643.563
       186   02 Jun 2027 23:57:54.297   02 Jun 2027 23:58:08.697            14.400                Anadyr2           450.000
       187   02 Jun 2027 23:58:28.079   02 Jun 2027 23:58:41.817            13.738                Anadyr2           429.313
       188   03 Jun 2027 00:00:09.719   03 Jun 2027 00:01:03.348            53.629                Anadyr2          1675.906
       189   03 Jun 2027 00:01:23.127   03 Jun 2027 00:01:51.115            27.988               Magadan1           874.625
       190   03 Jun 2027 00:01:54.764   03 Jun 2027 00:02:26.485            31.721                Norilsk           991.281
       191   03 Jun 2027 00:03:07.972   03 Jun 2027 00:03:34.058            26.086               Magadan1           815.188
       192   03 Jun 2027 00:03:37.054   03 Jun 2027 00:05:36.760           119.706              Murmansk1          3740.812
       193   03 Jun 2027 00:07:10.103   03 Jun 2027 00:07:24.141            14.038              Murmansk2           438.688
       194   03 Jun 2027 00:08:20.306   03 Jun 2027 00:08:55.951            35.645              Murmansk2          1113.906
       195   03 Jun 2027 00:09:47.388   03 Jun 2027 00:10:53.067            65.679                 Moscow          2052.469
       196   03 Jun 2027 00:11:57.702   03 Jun 2027 00:12:32.354            34.652                 Moscow          1082.875
       197   03 Jun 2027 00:24:18.190   03 Jun 2027 00:24:34.638            16.448                  Delhi           514.000
       198   03 Jun 2027 00:56:09.120   03 Jun 2027 00:57:06.172            57.052            RioGallegos          1782.875
       199   03 Jun 2027 01:28:58.807   03 Jun 2027 01:29:17.407            18.600                Anadyr2           581.250
       200   03 Jun 2027 01:30:25.762   03 Jun 2027 01:30:52.576            26.814                Anadyr2           837.937
       201   03 Jun 2027 01:30:58.805   03 Jun 2027 01:31:40.920            42.115                Anadyr2          1316.094
       202   03 Jun 2027 01:34:30.698   03 Jun 2027 01:35:55.864            85.166               Magadan1          2661.438
       203   03 Jun 2027 01:36:28.994   03 Jun 2027 01:36:59.020            30.026               Magadan1           938.313
       204   03 Jun 2027 01:37:43.678   03 Jun 2027 01:38:18.212            34.534               Magadan2          1079.187
       205   03 Jun 2027 01:39:08.933   03 Jun 2027 01:39:30.554            21.621              Murmansk2           675.656
       206   03 Jun 2027 01:39:30.554   03 Jun 2027 01:41:16.468           105.914              Murmansk1          3309.813
       207   03 Jun 2027 01:42:38.184   03 Jun 2027 01:42:52.651            14.467                 Moscow           452.094
       208   03 Jun 2027 01:46:22.097   03 Jun 2027 01:48:03.066           100.969                 Moscow          3155.281
       209   03 Jun 2027 02:11:45.951   03 Jun 2027 02:12:40.369            54.418               CapeTown          1700.563
       210   03 Jun 2027 02:17:23.502   03 Jun 2027 02:18:03.389            39.887               CapeTown          1246.469
       211   03 Jun 2027 03:04:36.506   03 Jun 2027 03:05:34.278            57.772                Anadyr2          1805.375
       212   03 Jun 2027 03:24:24.250   03 Jun 2027 03:24:58.609            34.359              Murmansk1          1073.719
       213   03 Jun 2027 03:25:20.365   03 Jun 2027 03:26:08.702            48.337              Murmansk1          1510.531
       214   03 Jun 2027 04:39:19.073   03 Jun 2027 04:39:56.423            37.350               Magadan2          1167.188
       215   03 Jun 2027 04:45:23.515   03 Jun 2027 04:46:32.508            68.993               Magadan1          2156.031
       216   03 Jun 2027 04:46:38.486   03 Jun 2027 04:46:45.553             7.067                Anadyr2           220.844
       217   03 Jun 2027 04:47:09.277   03 Jun 2027 04:50:42.689           213.412               Magadan1          6669.125
       218   03 Jun 2027 06:22:31.694   03 Jun 2027 06:22:37.309             5.615               Magadan2           175.469
       219   03 Jun 2027 06:23:07.055   03 Jun 2027 06:23:22.173            15.118                Anadyr2           472.438
       220   03 Jun 2027 06:23:31.448   03 Jun 2027 06:23:38.990             7.542               Magadan2           235.687
       221   03 Jun 2027 06:23:40.691   03 Jun 2027 06:24:19.919            39.228               Magadan2          1225.875
       222   03 Jun 2027 06:24:20.573   03 Jun 2027 06:24:49.879            29.306                Anadyr1           915.812
       223   03 Jun 2027 07:56:42.466   03 Jun 2027 07:56:43.274             0.808               Magadan1            25.250
       224   03 Jun 2027 07:57:22.003   03 Jun 2027 07:57:28.921             6.918                Novosib           216.187
       225   03 Jun 2027 07:57:30.004   03 Jun 2027 07:57:46.559            16.555                Irkutsk           517.344
       226   03 Jun 2027 07:57:51.846   03 Jun 2027 07:57:52.410             0.564               Magadan2            17.625
       227   03 Jun 2027 07:57:52.410   03 Jun 2027 07:58:35.735            43.325               Magadan1          1353.906
       228   03 Jun 2027 07:58:42.454   03 Jun 2027 07:59:16.021            33.567               Magadan1          1048.969
       229   03 Jun 2027 07:59:57.409   03 Jun 2027 08:00:24.405            26.996               Magadan2           843.625
       230   03 Jun 2027 08:00:34.028   03 Jun 2027 08:00:45.096            11.068                Irkutsk           345.875
       231   03 Jun 2027 08:01:33.855   03 Jun 2027 08:01:49.174            15.319               Magadan1           478.719
       232   03 Jun 2027 08:01:56.516   03 Jun 2027 08:02:25.991            29.475                Irkutsk           921.094
       233   03 Jun 2027 08:02:40.191   03 Jun 2027 08:02:47.917             7.726               Magadan1           241.438
       234   03 Jun 2027 08:05:39.031   03 Jun 2027 08:05:56.571            17.540              Murmansk1           548.125
       235   03 Jun 2027 08:06:36.418   03 Jun 2027 08:07:01.166            24.748              Murmansk1           773.375
       236   03 Jun 2027 08:37:51.989   03 Jun 2027 08:38:21.687            29.698            RioGallegos           928.063
       237   03 Jun 2027 08:39:18.622   03 Jun 2027 08:39:48.798            30.176            RioGallegos           943.000
       238   03 Jun 2027 09:13:21.070   03 Jun 2027 09:14:09.879            48.809                Sumatra          1525.281
       239   03 Jun 2027 09:15:24.737   03 Jun 2027 09:15:53.742            29.005                Sumatra           906.406
       240   03 Jun 2027 09:35:39.201   03 Jun 2027 09:35:40.781             1.580                Novosib            49.375
       241   03 Jun 2027 09:35:44.189   03 Jun 2027 09:36:43.575            59.386                Novosib          1855.813
       242   03 Jun 2027 09:37:18.218   03 Jun 2027 09:37:48.367            30.149                Irkutsk           942.156
       243   03 Jun 2027 09:37:55.524   03 Jun 2027 09:38:33.895            38.371                Irkutsk          1199.094
       244   03 Jun 2027 10:15:35.198   03 Jun 2027 10:16:05.228            30.030            RioGallegos           938.438
       245   03 Jun 2027 10:17:20.770   03 Jun 2027 10:17:22.595             1.825            RioGallegos            57.031
       246   03 Jun 2027 10:19:38.352   03 Jun 2027 10:20:13.199            34.847            RioGallegos          1088.969
       247   03 Jun 2027 10:49:47.189   03 Jun 2027 10:49:59.971            12.782                Sumatra           399.438
       248   03 Jun 2027 10:57:06.159   03 Jun 2027 10:57:49.429            43.270                  Delhi          1352.188
       249   03 Jun 2027 11:11:38.588   03 Jun 2027 11:12:08.157            29.569                Irkutsk           924.031
       250   03 Jun 2027 11:12:28.372   03 Jun 2027 11:12:36.628             8.256                Norilsk           258.000
       251   03 Jun 2027 11:12:49.237   03 Jun 2027 11:12:53.206             3.969                Novosib           124.031
       252   03 Jun 2027 11:12:57.067   03 Jun 2027 11:13:24.197            27.130                Norilsk           847.812
       253   03 Jun 2027 11:13:39.508   03 Jun 2027 11:13:45.654             6.146                Novosib           192.062
       254   03 Jun 2027 11:14:23.443   03 Jun 2027 11:14:25.487             2.044                Novosib            63.875
       255   03 Jun 2027 11:14:28.548   03 Jun 2027 11:14:32.406             3.858                Norilsk           120.562
       256   03 Jun 2027 11:14:36.003   03 Jun 2027 11:14:51.115            15.112                Novosib           472.250
       257   03 Jun 2027 12:35:02.763   03 Jun 2027 12:37:05.308           122.545                  Delhi          3829.531
       258   03 Jun 2027 12:37:54.899   03 Jun 2027 12:38:34.874            39.975                  Delhi          1249.219
       259   03 Jun 2027 12:43:34.575   03 Jun 2027 12:44:09.812            35.237                Novosib          1101.156
       260   03 Jun 2027 12:44:37.538   03 Jun 2027 12:45:07.080            29.542                Novosib           923.187
       261   03 Jun 2027 12:45:10.246   03 Jun 2027 12:46:25.127            74.881              Murmansk1          2340.031
       262   03 Jun 2027 12:46:50.531   03 Jun 2027 12:47:01.632            11.101                Norilsk           346.906
       263   03 Jun 2027 12:48:45.821   03 Jun 2027 12:50:15.264            89.443                Norilsk          2795.094
       264   03 Jun 2027 13:58:54.818   03 Jun 2027 14:00:15.323            80.505               CapeTown          2515.781
       265   03 Jun 2027 14:17:41.841   03 Jun 2027 14:18:19.697            37.856                 Moscow          1183.000
       266   03 Jun 2027 14:18:47.373   03 Jun 2027 14:19:15.512            28.139                 Moscow           879.344
       267   03 Jun 2027 14:21:10.743   03 Jun 2027 14:22:17.725            66.982              Murmansk2          2093.188
       268   03 Jun 2027 14:22:17.725   03 Jun 2027 14:22:26.051             8.326              Murmansk1           260.187
       269   03 Jun 2027 14:23:52.569   03 Jun 2027 14:24:07.347            14.778              Murmansk2           461.812
       270   03 Jun 2027 14:24:17.825   03 Jun 2027 14:24:50.919            33.094              Murmansk1          1034.187
       271   03 Jun 2027 14:36:31.041   03 Jun 2027 14:38:15.197           104.156                Anadyr1          3254.875
       272   03 Jun 2027 14:39:35.883   03 Jun 2027 14:39:48.564            12.681                Anadyr1           396.281
       273   03 Jun 2027 14:40:44.110   03 Jun 2027 14:41:09.883            25.773                Anadyr2           805.406
       274   03 Jun 2027 15:30:52.162   03 Jun 2027 15:31:08.251            16.089               CapeTown           502.781
       275   03 Jun 2027 15:34:32.385   03 Jun 2027 15:34:43.958            11.573               CapeTown           361.656
       276   03 Jun 2027 15:37:53.320   03 Jun 2027 15:38:51.048            57.728               CapeTown          1804.000
       277   03 Jun 2027 15:58:51.263   03 Jun 2027 15:59:22.061            30.798                 Moscow           962.437
       278   03 Jun 2027 15:59:28.258   03 Jun 2027 16:00:17.044            48.786              Murmansk1          1524.563
       279   03 Jun 2027 16:01:41.212   03 Jun 2027 16:02:04.551            23.339                 Moscow           729.344
       280   03 Jun 2027 16:02:21.604   03 Jun 2027 16:03:50.052            88.448              Murmansk2          2764.000
       281   03 Jun 2027 16:11:30.705   03 Jun 2027 16:11:43.803            13.098                Anadyr2           409.313
       282   03 Jun 2027 16:11:43.803   03 Jun 2027 16:12:41.102            57.299                Anadyr1          1790.594
       283   03 Jun 2027 16:13:23.719   03 Jun 2027 16:13:43.030            19.311                Anadyr2           603.469
       284   03 Jun 2027 16:19:42.513   03 Jun 2027 16:20:57.008            74.495                Anadyr1          2327.969
       285   03 Jun 2027 17:07:47.562   03 Jun 2027 17:08:48.955            61.393               CapeTown          1918.531
       286   03 Jun 2027 17:41:05.136   03 Jun 2027 17:44:04.269           179.133              Murmansk2          5597.906
       287   03 Jun 2027 17:47:20.733   03 Jun 2027 17:48:47.253            86.520                Anadyr1          2703.750
       288   03 Jun 2027 17:49:11.343   03 Jun 2027 17:49:43.053            31.710                Anadyr1           990.938
       289   03 Jun 2027 17:49:55.883   03 Jun 2027 17:51:15.214            79.331               Magadan1          2479.094
       290   03 Jun 2027 17:51:42.256   03 Jun 2027 17:52:34.237            51.981               Magadan2          1624.406
       291   03 Jun 2027 19:23:15.685   03 Jun 2027 19:27:19.867           244.182                Anadyr2          7630.688
       292   03 Jun 2027 19:27:29.674   03 Jun 2027 19:28:51.973            82.299               Magadan2          2571.844
       293   03 Jun 2027 19:28:52.440   03 Jun 2027 19:29:28.061            35.621                Norilsk          1113.156
       294   03 Jun 2027 20:17:52.052   03 Jun 2027 20:21:09.236           197.184            RioGallegos          6162.000
       295   03 Jun 2027 21:00:19.103   03 Jun 2027 21:01:04.796            45.693                Anadyr1          1427.906
       296   03 Jun 2027 21:01:07.057   03 Jun 2027 21:03:29.812           142.755                Norilsk          4461.094
       297   03 Jun 2027 21:04:05.913   03 Jun 2027 21:04:59.934            54.021                Norilsk          1688.156
       298   03 Jun 2027 21:05:22.256   03 Jun 2027 21:06:25.900            63.644                Irkutsk          1988.875
       299   03 Jun 2027 21:07:56.366   03 Jun 2027 21:09:27.426            91.060                Novosib          2845.625
       300   03 Jun 2027 21:10:28.015   03 Jun 2027 21:10:38.108            10.093                Novosib           315.406
       301   03 Jun 2027 21:19:12.139   03 Jun 2027 21:20:39.364            87.225                Sumatra          2725.781
       302   03 Jun 2027 21:21:34.795   03 Jun 2027 21:22:41.831            67.036                Sumatra          2094.875
       303   03 Jun 2027 22:37:02.818   03 Jun 2027 22:37:29.425            26.607                Norilsk           831.469
       304   03 Jun 2027 22:37:40.569   03 Jun 2027 22:37:46.568             5.999               Magadan2           187.469
       305   03 Jun 2027 22:37:47.320   03 Jun 2027 22:39:04.139            76.819               Magadan1          2400.594
       306   03 Jun 2027 22:40:32.189   03 Jun 2027 22:40:49.996            17.807                Norilsk           556.469
       307   03 Jun 2027 22:41:06.609   03 Jun 2027 22:41:15.173             8.564                Novosib           267.625
       308   03 Jun 2027 22:41:36.295   03 Jun 2027 22:42:02.849            26.554                Irkutsk           829.813
       309   03 Jun 2027 22:42:09.326   03 Jun 2027 22:43:10.810            61.484                Novosib          1921.375
       310   03 Jun 2027 22:47:39.195   03 Jun 2027 22:47:42.667             3.472                Novosib           108.500
       311   03 Jun 2027 22:47:48.559   03 Jun 2027 22:47:51.229             2.670                Novosib            83.438
       312   03 Jun 2027 22:49:03.681   03 Jun 2027 22:52:18.979           195.298                  Delhi          6103.063
       313   04 Jun 2027 00:08:58.316   04 Jun 2027 00:09:48.384            50.068                Anadyr1          1564.625
       314   04 Jun 2027 00:13:02.397   04 Jun 2027 00:13:15.437            13.040                Norilsk           407.500
       315   04 Jun 2027 00:13:16.470   04 Jun 2027 00:16:11.251           174.781               Magadan1          5461.906
       316   04 Jun 2027 00:16:31.875   04 Jun 2027 00:17:37.769            65.894              Murmansk1          2059.187
       317   04 Jun 2027 00:18:19.736   04 Jun 2027 00:19:08.667            48.931              Murmansk1          1529.094
       318   04 Jun 2027 00:20:40.131   04 Jun 2027 00:21:05.377            25.246                 Moscow           788.938
       319   04 Jun 2027 00:22:19.052   04 Jun 2027 00:23:03.004            43.952                 Moscow          1373.500
       320   04 Jun 2027 00:23:16.113   04 Jun 2027 00:24:03.202            47.089                 Moscow          1471.531
       321   04 Jun 2027 01:40:43.148   04 Jun 2027 01:42:19.611            96.463                Anadyr2          3014.469
       322   04 Jun 2027 01:42:58.724   04 Jun 2027 01:43:27.169            28.445                Anadyr1           888.906
       323   04 Jun 2027 01:43:27.169   04 Jun 2027 01:43:31.893             4.724                Anadyr2           147.625
       324   04 Jun 2027 01:43:42.176   04 Jun 2027 01:43:56.101            13.925                Anadyr1           435.156
       325   04 Jun 2027 01:45:58.973   04 Jun 2027 01:47:45.627           106.654               Magadan1          3332.937
       326   04 Jun 2027 01:48:51.305   04 Jun 2027 01:49:08.986            17.681                Norilsk           552.531
       327   04 Jun 2027 01:49:45.491   04 Jun 2027 01:49:47.877             2.386               Magadan2            74.563
       328   04 Jun 2027 01:51:10.221   04 Jun 2027 01:53:09.854           119.633              Murmansk1          3738.531
       329   04 Jun 2027 01:53:19.461   04 Jun 2027 01:53:46.388            26.927                Novosib           841.469
       330   04 Jun 2027 01:55:53.651   04 Jun 2027 01:56:00.602             6.951                 Moscow           217.219
       331   04 Jun 2027 01:56:21.378   04 Jun 2027 01:57:01.866            40.488                 Moscow          1265.250
       332   04 Jun 2027 02:05:30.302   04 Jun 2027 02:05:32.280             1.978                 Moscow            61.812
       333   04 Jun 2027 02:06:16.511   04 Jun 2027 02:06:24.821             8.310                 Moscow           259.688
       334   04 Jun 2027 02:19:04.226   04 Jun 2027 02:19:49.115            44.889               CapeTown          1402.781
       335   04 Jun 2027 02:21:03.478   04 Jun 2027 02:21:23.029            19.551               CapeTown           610.969
       336   04 Jun 2027 02:25:22.547   04 Jun 2027 02:25:35.556            13.009               CapeTown           406.531
       337   04 Jun 2027 03:17:45.967   04 Jun 2027 03:18:08.475            22.508               Magadan1           703.375
       338   04 Jun 2027 03:18:33.275   04 Jun 2027 03:18:57.243            23.968               Magadan1           749.000
       339   04 Jun 2027 03:19:19.755   04 Jun 2027 03:19:43.382            23.627               Magadan1           738.344
       340   04 Jun 2027 03:21:26.239   04 Jun 2027 03:21:44.467            18.228               Magadan1           569.625
       341   04 Jun 2027 03:22:29.840   04 Jun 2027 03:23:51.596            81.756                Anadyr1          2554.875
       342   04 Jun 2027 03:24:45.237   04 Jun 2027 03:24:52.267             7.030                Anadyr1           219.688
       343   04 Jun 2027 03:37:55.786   04 Jun 2027 03:38:38.979            43.193              Murmansk1          1349.781
       344   04 Jun 2027 03:39:00.807   04 Jun 2027 03:39:03.782             2.975              Murmansk1            92.969
       345   04 Jun 2027 04:52:29.955   04 Jun 2027 04:52:52.299            22.344                Anadyr2           698.250
       346   04 Jun 2027 04:57:31.725   04 Jun 2027 05:03:51.672           379.947                Anadyr1         11873.344
       347   04 Jun 2027 06:34:12.869   04 Jun 2027 06:34:31.509            18.640               Magadan2           582.500
       348   04 Jun 2027 06:35:03.365   04 Jun 2027 06:35:14.952            11.587               Magadan2           362.094
       349   04 Jun 2027 06:35:38.992   04 Jun 2027 06:36:20.007            41.015                Anadyr2          1281.719
       350   04 Jun 2027 06:36:30.098   04 Jun 2027 06:37:18.488            48.390               Magadan2          1512.187
       351   04 Jun 2027 06:37:58.425   04 Jun 2027 06:38:17.886            19.461                Anadyr2           608.156
       352   04 Jun 2027 08:08:25.114   04 Jun 2027 08:08:40.789            15.675               Magadan1           489.844
       353   04 Jun 2027 08:09:24.684   04 Jun 2027 08:09:33.767             9.083                Irkutsk           283.844
       354   04 Jun 2027 08:09:44.339   04 Jun 2027 08:09:57.340            13.001                Irkutsk           406.281
       355   04 Jun 2027 08:10:20.795   04 Jun 2027 08:10:57.249            36.454               Magadan2          1139.188
       356   04 Jun 2027 08:11:05.123   04 Jun 2027 08:11:59.544            54.421               Magadan1          1700.656
       357   04 Jun 2027 08:12:28.507   04 Jun 2027 08:13:33.091            64.584               Magadan1          2018.250
       358   04 Jun 2027 08:13:52.211   04 Jun 2027 08:14:34.781            42.570               Magadan2          1330.313
       359   04 Jun 2027 08:17:51.044   04 Jun 2027 08:18:13.224            22.180              Murmansk1           693.125
       360   04 Jun 2027 08:49:53.454   04 Jun 2027 08:50:24.390            30.936            RioGallegos           966.750
       361   04 Jun 2027 08:51:08.577   04 Jun 2027 08:52:11.461            62.884            RioGallegos          1965.125
       362   04 Jun 2027 09:25:04.899   04 Jun 2027 09:25:17.284            12.385                Sumatra           387.031
       363   04 Jun 2027 09:27:22.267   04 Jun 2027 09:28:26.052            63.785                Sumatra          1993.281
       364   04 Jun 2027 09:47:04.608   04 Jun 2027 09:47:16.886            12.278                Novosib           383.687
       365   04 Jun 2027 09:47:18.596   04 Jun 2027 09:47:44.245            25.649                Norilsk           801.531
       366   04 Jun 2027 09:48:01.582   04 Jun 2027 09:48:48.022            46.440                Novosib          1451.250
       367   04 Jun 2027 09:48:52.525   04 Jun 2027 09:49:22.393            29.868                Irkutsk           933.375
       368   04 Jun 2027 09:49:26.952   04 Jun 2027 09:49:53.433            26.481                Irkutsk           827.531
       369   04 Jun 2027 09:50:06.286   04 Jun 2027 09:50:19.430            13.144                Novosib           410.750
       370   04 Jun 2027 09:52:15.594   04 Jun 2027 09:52:18.184             2.590                Novosib            80.937
       371   04 Jun 2027 10:28:12.588   04 Jun 2027 10:29:03.760            51.172            RioGallegos          1599.125
       372   04 Jun 2027 10:30:53.623   04 Jun 2027 10:31:10.509            16.886            RioGallegos           527.688
       373   04 Jun 2027 11:02:28.955   04 Jun 2027 11:05:03.965           155.010                Sumatra          4844.063
       374   04 Jun 2027 11:24:52.540   04 Jun 2027 11:24:55.171             2.631                Norilsk            82.219
       375   04 Jun 2027 11:24:57.618   04 Jun 2027 11:25:21.788            24.170                Norilsk           755.313
       376   04 Jun 2027 11:25:29.033   04 Jun 2027 11:25:38.693             9.660                Norilsk           301.875
       377   04 Jun 2027 11:26:01.382   04 Jun 2027 11:26:15.439            14.057                Novosib           439.281
       378   04 Jun 2027 11:26:21.526   04 Jun 2027 11:26:32.926            11.400                Novosib           356.250
       379   04 Jun 2027 11:26:34.252   04 Jun 2027 11:26:48.381            14.129                Norilsk           441.531
       380   04 Jun 2027 12:48:07.090   04 Jun 2027 12:49:41.266            94.176                  Delhi          2943.000
       381   04 Jun 2027 12:52:02.420   04 Jun 2027 12:52:18.055            15.635                  Delhi           488.594
       382   04 Jun 2027 12:55:36.700   04 Jun 2027 12:56:14.353            37.653                 Moscow          1176.656
       383   04 Jun 2027 12:56:38.024   04 Jun 2027 12:58:59.453           141.429                Novosib          4419.656
       384   04 Jun 2027 13:00:29.807   04 Jun 2027 13:00:48.028            18.221                Norilsk           569.406
       385   04 Jun 2027 13:03:10.577   04 Jun 2027 13:04:15.513            64.936                Norilsk          2029.250
       386   04 Jun 2027 14:10:40.464   04 Jun 2027 14:11:48.848            68.384               CapeTown          2137.000
       387   04 Jun 2027 14:29:57.551   04 Jun 2027 14:30:17.866            20.315                 Moscow           634.844
       388   04 Jun 2027 14:30:29.185   04 Jun 2027 14:30:49.969            20.784                 Moscow           649.500
       389   04 Jun 2027 14:33:22.715   04 Jun 2027 14:34:19.360            56.645              Murmansk2          1770.156
       390   04 Jun 2027 14:34:45.665   04 Jun 2027 14:34:48.685             3.020              Murmansk2            94.375
       391   04 Jun 2027 14:36:09.116   04 Jun 2027 14:37:29.853            80.737              Murmansk1          2523.031
       392   04 Jun 2027 14:48:17.083   04 Jun 2027 14:48:46.930            29.847                Anadyr2           932.719
       393   04 Jun 2027 14:49:45.903   04 Jun 2027 14:49:58.930            13.027                Anadyr2           407.094
       394   04 Jun 2027 14:51:57.396   04 Jun 2027 14:52:35.539            38.143                Anadyr2          1191.969
       395   04 Jun 2027 14:53:11.191   04 Jun 2027 14:53:47.819            36.628                Anadyr2          1144.625
       396   04 Jun 2027 14:55:30.856   04 Jun 2027 14:55:54.940            24.084                Anadyr2           752.625
       397   04 Jun 2027 15:42:50.363   04 Jun 2027 15:43:40.736            50.373               CapeTown          1574.156
       398   04 Jun 2027 15:46:22.180   04 Jun 2027 15:46:23.142             0.962               CapeTown            30.063
       399   04 Jun 2027 15:51:14.143   04 Jun 2027 15:51:37.468            23.325               CapeTown           728.906
       400   04 Jun 2027 16:11:16.974   04 Jun 2027 16:11:25.352             8.378                 Moscow           261.812
       401   04 Jun 2027 16:11:57.982   04 Jun 2027 16:13:21.843            83.861              Murmansk1          2620.656
       402   04 Jun 2027 16:14:23.466   04 Jun 2027 16:14:56.150            32.684              Murmansk1          1021.375
       403   04 Jun 2027 16:16:08.841   04 Jun 2027 16:16:57.029            48.188              Murmansk2          1505.875
       404   04 Jun 2027 16:23:30.272   04 Jun 2027 16:25:39.337           129.065                Anadyr1          4033.281
       405   04 Jun 2027 16:25:42.771   04 Jun 2027 16:25:49.276             6.505                Anadyr2           203.281
       406   04 Jun 2027 16:28:11.365   04 Jun 2027 16:31:02.000           170.635               Magadan1          5332.344
       407   04 Jun 2027 17:59:22.194   04 Jun 2027 18:03:16.720           234.526                Anadyr1          7328.938
       408   04 Jun 2027 18:03:21.324   04 Jun 2027 18:04:21.400            60.076               Magadan1          1877.375
       409   04 Jun 2027 18:05:44.375   04 Jun 2027 18:07:03.095            78.720               Magadan1          2460.000
       410   04 Jun 2027 19:35:16.338   04 Jun 2027 19:39:07.227           230.889                Anadyr1          7215.281
       411   04 Jun 2027 19:39:35.771   04 Jun 2027 19:41:21.167           105.396                Norilsk          3293.625
       412   04 Jun 2027 19:42:08.329   04 Jun 2027 19:42:34.808            26.479               Magadan2           827.469
       413   04 Jun 2027 19:43:30.421   04 Jun 2027 19:43:40.601            10.180               Magadan1           318.125
       414   04 Jun 2027 19:43:47.514   04 Jun 2027 19:44:18.103            30.589               Magadan1           955.906
       415   04 Jun 2027 19:46:37.090   04 Jun 2027 19:46:44.406             7.316               Magadan2           228.625
       416   04 Jun 2027 20:29:40.006   04 Jun 2027 20:32:55.724           195.718            RioGallegos          6116.188
       417   04 Jun 2027 20:39:51.043   04 Jun 2027 20:40:07.737            16.694            RioGallegos           521.688
       418   04 Jun 2027 21:11:26.094   04 Jun 2027 21:13:04.128            98.034                Anadyr2          3063.563
       419   04 Jun 2027 21:13:37.249   04 Jun 2027 21:15:28.521           111.272               Magadan2          3477.250
       420   04 Jun 2027 21:17:16.040   04 Jun 2027 21:18:33.697            77.657                Irkutsk          2426.781
       421   04 Jun 2027 21:19:00.800   04 Jun 2027 21:20:11.127            70.327                Novosib          2197.719
       422   04 Jun 2027 21:21:32.783   04 Jun 2027 21:21:49.596            16.813                Novosib           525.406
       423   04 Jun 2027 21:22:33.639   04 Jun 2027 21:23:32.227            58.588                Novosib          1830.875
       424   04 Jun 2027 21:31:54.916   04 Jun 2027 21:32:47.099            52.183                Sumatra          1630.719
       425   04 Jun 2027 21:33:49.571   04 Jun 2027 21:33:54.531             4.960                Sumatra           155.000
       426   04 Jun 2027 22:45:31.443   04 Jun 2027 22:46:19.150            47.707                Anadyr1          1490.844
       427   04 Jun 2027 22:49:04.842   04 Jun 2027 22:51:00.225           115.383                Norilsk          3605.719
       428   04 Jun 2027 22:51:40.127   04 Jun 2027 22:51:55.476            15.349               Magadan2           479.656
       429   04 Jun 2027 22:52:13.797   04 Jun 2027 22:52:20.558             6.761               Magadan2           211.281
       430   04 Jun 2027 22:52:57.161   04 Jun 2027 22:53:50.899            53.738                Irkutsk          1679.312
       431   04 Jun 2027 22:54:18.699   04 Jun 2027 22:54:23.894             5.195                Novosib           162.344
       432   04 Jun 2027 22:54:30.492   04 Jun 2027 22:54:39.874             9.382                Novosib           293.188
       433   04 Jun 2027 22:55:34.865   04 Jun 2027 22:56:50.330            75.465                Novosib          2358.281
       434   04 Jun 2027 23:00:45.833   04 Jun 2027 23:02:40.449           114.616                  Delhi          3581.750
       435   04 Jun 2027 23:05:20.746   04 Jun 2027 23:07:06.909           106.163                  Delhi          3317.594
       436   05 Jun 2027 00:20:59.534   05 Jun 2027 00:21:32.929            33.395                Anadyr2          1043.594
       437   05 Jun 2027 00:25:03.794   05 Jun 2027 00:25:17.601            13.807                Norilsk           431.469
       438   05 Jun 2027 00:25:24.137   05 Jun 2027 00:27:58.946           154.809               Magadan2          4837.781
       439   05 Jun 2027 00:28:33.544   05 Jun 2027 00:30:17.723           104.179              Murmansk1          3255.594
       440   05 Jun 2027 00:31:05.461   05 Jun 2027 00:31:14.075             8.614              Murmansk1           269.188
       441   05 Jun 2027 00:32:05.718   05 Jun 2027 00:33:02.000            56.282                 Moscow          1758.813
       442   05 Jun 2027 00:33:30.136   05 Jun 2027 00:35:03.664            93.528                 Moscow          2922.750
       443   05 Jun 2027 01:52:28.545   05 Jun 2027 01:54:11.162           102.617                Anadyr2          3206.781
       444   05 Jun 2027 01:54:58.179   05 Jun 2027 01:55:35.750            37.571                Anadyr2          1174.094
       445   05 Jun 2027 01:57:26.850   05 Jun 2027 01:59:07.771           100.921               Magadan2          3153.781
       446   05 Jun 2027 02:01:16.540   05 Jun 2027 02:01:36.825            20.285               Magadan2           633.906
       447   05 Jun 2027 02:02:26.959   05 Jun 2027 02:02:30.095             3.136               Magadan2            98.000
       448   05 Jun 2027 02:02:55.065   05 Jun 2027 02:02:55.419             0.354                Norilsk            11.063
       449   05 Jun 2027 02:03:11.702   05 Jun 2027 02:03:49.052            37.350              Murmansk1          1167.187
       450   05 Jun 2027 02:04:31.054   05 Jun 2027 02:05:10.273            39.219              Murmansk2          1225.594
       451   05 Jun 2027 02:05:42.438   05 Jun 2027 02:06:55.564            73.126                Novosib          2285.187
       452   05 Jun 2027 02:10:55.384   05 Jun 2027 02:11:47.617            52.233                 Moscow          1632.281
       453   05 Jun 2027 02:30:46.181   05 Jun 2027 02:31:03.447            17.266               CapeTown           539.563
       454   05 Jun 2027 02:33:19.381   05 Jun 2027 02:33:24.299             4.918               CapeTown           153.687
       455   05 Jun 2027 02:34:03.498   05 Jun 2027 02:34:14.577            11.079               CapeTown           346.219
       456   05 Jun 2027 02:37:26.675   05 Jun 2027 02:38:22.164            55.489               CapeTown          1734.031
       457   05 Jun 2027 03:33:50.810   05 Jun 2027 03:34:48.449            57.639               Magadan2          1801.219
       458   05 Jun 2027 03:34:51.676   05 Jun 2027 03:36:39.166           107.490                Anadyr2          3359.062
       459   05 Jun 2027 03:36:51.863   05 Jun 2027 03:38:12.141            80.278                Anadyr1          2508.687
       460   05 Jun 2027 05:10:35.850   05 Jun 2027 05:13:58.724           202.874                Anadyr2          6339.813
       461   05 Jun 2027 05:14:07.260   05 Jun 2027 05:14:39.649            32.389                Anadyr1          1012.156
       462   05 Jun 2027 05:15:14.361   05 Jun 2027 05:15:35.166            20.805               Magadan2           650.156
       463   05 Jun 2027 06:45:07.905   05 Jun 2027 06:46:17.146            69.241                Anadyr2          2163.781
       464   05 Jun 2027 06:46:24.096   05 Jun 2027 06:47:02.649            38.553                Anadyr2          1204.781
       465   05 Jun 2027 06:47:02.649   05 Jun 2027 06:47:36.259            33.610                Anadyr1          1050.312
       466   05 Jun 2027 06:47:40.894   05 Jun 2027 06:47:57.996            17.102               Magadan1           534.438
       467   05 Jun 2027 06:47:58.444   05 Jun 2027 06:48:24.006            25.562                Anadyr2           798.813
       468   05 Jun 2027 06:48:33.985   05 Jun 2027 06:48:43.170             9.185               Magadan1           287.031
       469   05 Jun 2027 06:49:06.466   05 Jun 2027 06:49:19.917            13.451               Magadan2           420.344
       470   05 Jun 2027 06:49:25.653   05 Jun 2027 06:49:44.316            18.663               Magadan2           583.219
       471   05 Jun 2027 06:50:10.987   05 Jun 2027 06:51:09.399            58.412               Magadan2          1825.375
       472   05 Jun 2027 08:20:12.355   05 Jun 2027 08:20:41.536            29.181               Magadan2           911.906
       473   05 Jun 2027 08:21:36.761   05 Jun 2027 08:22:01.303            24.542                Irkutsk           766.938
       474   05 Jun 2027 08:22:54.420   05 Jun 2027 08:23:05.164            10.744               Magadan1           335.750
       475   05 Jun 2027 08:23:15.200   05 Jun 2027 08:24:20.457            65.257                Novosib          2039.281
       476   05 Jun 2027 08:24:35.240   05 Jun 2027 08:24:51.844            16.604               Magadan1           518.875
       477   05 Jun 2027 08:25:31.573   05 Jun 2027 08:25:55.102            23.529               Magadan2           735.281
       478   05 Jun 2027 08:25:56.690   05 Jun 2027 08:26:01.952             5.262              Murmansk1           164.437
       479   05 Jun 2027 08:26:47.575   05 Jun 2027 08:27:14.519            26.944                Irkutsk           842.000
       480   05 Jun 2027 09:01:58.320   05 Jun 2027 09:03:08.564            70.244            RioGallegos          2195.125
       481   05 Jun 2027 09:36:55.090   05 Jun 2027 09:37:46.777            51.687                Sumatra          1615.219
       482   05 Jun 2027 09:40:22.428   05 Jun 2027 09:40:23.881             1.453                Sumatra            45.406
