uniorb/output/strategy_4/Drop/Drop_KinoSat_110310.txt

KinoSat_110310
-------------------------
    Access    *     Start Time (UTCG)     *     Stop Time (UTCG)  *   Duration (s)        *       Station  *  Data (Mbytes)
         1   01 Jun 2027 03:08:17.626   01 Jun 2027 03:08:41.859            24.233                Irkutsk          3029.125
         2   01 Jun 2027 03:08:56.296   01 Jun 2027 03:11:07.687           131.391               Magadan1         16423.875
         3   01 Jun 2027 03:11:13.181   01 Jun 2027 03:11:17.700             4.519               Magadan1           564.875
         4   01 Jun 2027 03:11:34.269   01 Jun 2027 03:13:02.893            88.624                Anadyr1         11078.000
         5   01 Jun 2027 03:13:27.124   01 Jun 2027 03:13:52.608            25.484                Anadyr2          3185.500
         6   01 Jun 2027 03:14:13.261   01 Jun 2027 03:15:41.686            88.425               Magadan2         11053.125
         7   01 Jun 2027 04:27:07.496   01 Jun 2027 04:30:18.740           191.244                Sumatra         23905.500
         8   01 Jun 2027 04:47:05.873   01 Jun 2027 04:47:15.917            10.044                Irkutsk          1255.500
         9   01 Jun 2027 04:48:04.355   01 Jun 2027 04:48:54.442            50.087                Norilsk          6260.875
        10   01 Jun 2027 04:48:58.277   01 Jun 2027 04:50:13.539            75.262              Murmansk2          9407.750
        11   01 Jun 2027 04:50:17.395   01 Jun 2027 04:50:24.695             7.300              Murmansk2           912.500
        12   01 Jun 2027 04:50:40.111   01 Jun 2027 04:51:29.991            49.880              Murmansk2          6235.000
        13   01 Jun 2027 04:51:32.817   01 Jun 2027 04:51:48.191            15.374                Irkutsk          1921.750
        14   01 Jun 2027 04:53:24.236   01 Jun 2027 04:53:28.088             3.852                Norilsk           481.500
        15   01 Jun 2027 05:27:13.310   01 Jun 2027 05:28:52.569            99.259            RioGallegos         12407.375
        16   01 Jun 2027 06:12:23.107   01 Jun 2027 06:14:19.756           116.649                  Delhi         14581.125
        17   01 Jun 2027 06:24:23.580   01 Jun 2027 06:24:35.817            12.237                Irkutsk          1529.625
        18   01 Jun 2027 06:24:38.937   01 Jun 2027 06:24:40.637             1.700                 Moscow           212.500
        19   01 Jun 2027 06:24:48.567   01 Jun 2027 06:25:24.808            36.241                Norilsk          4530.125
        20   01 Jun 2027 06:25:28.257   01 Jun 2027 06:25:42.047            13.790              Murmansk2          1723.750
        21   01 Jun 2027 06:25:50.110   01 Jun 2027 06:26:34.297            44.187                 Moscow          5523.375
        22   01 Jun 2027 06:26:37.166   01 Jun 2027 06:26:58.133            20.967                Novosib          2620.875
        23   01 Jun 2027 06:28:38.708   01 Jun 2027 06:28:43.851             5.143                 Moscow           642.875
        24   01 Jun 2027 07:46:16.485   01 Jun 2027 07:47:51.076            94.591                  Delhi         11823.875
        25   01 Jun 2027 08:01:13.545   01 Jun 2027 08:02:37.367            83.822                Novosib         10477.750
        26   01 Jun 2027 08:02:48.234   01 Jun 2027 08:03:14.188            25.954              Murmansk1          3244.250
        27   01 Jun 2027 09:37:50.373   01 Jun 2027 09:40:06.754           136.381              Murmansk2         17047.625
        28   01 Jun 2027 09:40:06.754   01 Jun 2027 09:40:20.292            13.538              Murmansk1          1692.250
        29   01 Jun 2027 09:40:31.408   01 Jun 2027 09:41:15.286            43.878                Norilsk          5484.750
        30   01 Jun 2027 10:46:02.133   01 Jun 2027 10:46:14.241            12.108               CapeTown          1513.500
        31   01 Jun 2027 10:48:09.865   01 Jun 2027 10:49:39.989            90.124               CapeTown         11265.500
        32   01 Jun 2027 11:24:14.059   01 Jun 2027 11:25:40.993            86.934                Anadyr1         10866.750
        33   01 Jun 2027 11:27:05.589   01 Jun 2027 11:28:49.834           104.245                Anadyr2         13030.625
        34   01 Jun 2027 11:31:32.548   01 Jun 2027 11:33:38.028           125.480                Anadyr2         15685.000
        35   01 Jun 2027 13:02:50.544   01 Jun 2027 13:08:30.890           340.346               Magadan1         42543.250
        36   01 Jun 2027 15:31:17.812   01 Jun 2027 15:34:54.933           217.121            RioGallegos         27140.125
        37   01 Jun 2027 16:20:47.018   01 Jun 2027 16:22:33.216           106.198                Irkutsk         13274.750
        38   01 Jun 2027 16:32:48.203   01 Jun 2027 16:36:14.515           206.312                Sumatra         25789.000
        39   01 Jun 2027 17:56:45.814   01 Jun 2027 17:57:58.997            73.183                Novosib          9147.875
        40   01 Jun 2027 18:02:54.289   01 Jun 2027 18:05:58.583           184.294                  Delhi         23036.750
        41   01 Jun 2027 21:05:51.150   01 Jun 2027 21:06:05.071            13.921              Murmansk2          1740.125
        42   01 Jun 2027 21:07:24.796   01 Jun 2027 21:08:49.350            84.554                 Moscow          2154.750
        43   02 Jun 2027 03:27:57.122   02 Jun 2027 03:28:34.490            37.368                Novosib          4671.000
        44   02 Jun 2027 04:38:31.783   02 Jun 2027 04:40:18.671           106.888                Sumatra         13361.000
        45   02 Jun 2027 04:41:13.384   02 Jun 2027 04:42:11.735            58.351                Sumatra          7293.875
        46   02 Jun 2027 05:01:29.674   02 Jun 2027 05:03:48.700           139.026                Irkutsk         17378.250
        47   02 Jun 2027 05:03:56.758   02 Jun 2027 05:05:24.728            87.970                Norilsk         10996.250
        48   02 Jun 2027 05:05:34.529   02 Jun 2027 05:09:16.188           221.659              Murmansk1         27707.375
        49   02 Jun 2027 05:10:48.324   02 Jun 2027 05:11:26.867            38.543              Murmansk1          4817.875
        50   02 Jun 2027 05:40:34.329   02 Jun 2027 05:41:18.880            44.551            RioGallegos          5568.875
        51   02 Jun 2027 05:42:02.548   02 Jun 2027 05:42:49.382            46.834            RioGallegos          5854.250
        52   02 Jun 2027 05:46:33.339   02 Jun 2027 05:46:44.793            11.454            RioGallegos          1431.750
        53   02 Jun 2027 06:13:51.199   02 Jun 2027 06:14:10.992            19.793                Sumatra          2474.125
        54   02 Jun 2027 06:15:54.190   02 Jun 2027 06:18:03.610           129.420                Sumatra         16177.500
        55   02 Jun 2027 06:21:25.234   02 Jun 2027 06:21:39.746            14.512                Sumatra          1814.000
        56   02 Jun 2027 06:21:59.784   02 Jun 2027 06:22:19.861            20.077                  Delhi          2509.625
        57   02 Jun 2027 06:28:29.128   02 Jun 2027 06:29:16.730            47.602                Novosib          5950.250
        58   02 Jun 2027 06:29:24.775   02 Jun 2027 06:30:32.799            68.024                Irkutsk          8503.000
        59   02 Jun 2027 06:39:42.485   02 Jun 2027 06:41:15.342            92.857                Novosib         11607.125
        60   02 Jun 2027 06:41:39.471   02 Jun 2027 06:43:38.345           118.874                Norilsk         14859.250
        61   02 Jun 2027 06:44:32.304   02 Jun 2027 06:45:00.185            27.881              Murmansk1          3485.125
        62   02 Jun 2027 06:45:31.411   02 Jun 2027 06:45:42.494            11.083              Murmansk1          1385.375
        63   02 Jun 2027 06:46:06.923   02 Jun 2027 06:46:39.670            32.747              Murmansk1          4093.375
        64   02 Jun 2027 07:58:47.256   02 Jun 2027 08:02:41.786           234.530                  Delhi         29316.250
        65   02 Jun 2027 08:07:12.801   02 Jun 2027 08:10:38.355           205.554                Novosib         25694.250
        66   02 Jun 2027 08:15:06.693   02 Jun 2027 08:20:17.271           310.578              Murmansk1         38822.250
        67   02 Jun 2027 08:20:17.271   02 Jun 2027 08:22:23.301           126.030              Murmansk2         15753.750
        68   02 Jun 2027 09:45:36.957   02 Jun 2027 09:46:52.556            75.599                 Moscow          9449.875
        69   02 Jun 2027 09:48:44.348   02 Jun 2027 09:49:08.783            24.435              Murmansk1          3054.375
        70   02 Jun 2027 09:49:22.928   02 Jun 2027 09:49:38.737            15.809              Murmansk1          1976.125
        71   02 Jun 2027 09:50:06.807   02 Jun 2027 09:51:10.535            63.728              Murmansk1          7966.000
        72   02 Jun 2027 09:52:28.397   02 Jun 2027 09:55:29.687           181.290                Norilsk         22661.250
        73   02 Jun 2027 10:01:40.939   02 Jun 2027 10:06:25.633           284.694                Anadyr2         35586.750
        74   02 Jun 2027 11:23:34.361   02 Jun 2027 11:24:09.021            34.660              Murmansk2          4332.500
        75   02 Jun 2027 11:36:11.979   02 Jun 2027 11:37:23.434            71.455                Anadyr2          8931.875
        76   02 Jun 2027 11:39:14.423   02 Jun 2027 11:40:49.935            95.512                Anadyr1         11939.000
        77   02 Jun 2027 11:41:10.157   02 Jun 2027 11:43:27.996           137.839                Anadyr2         17229.875
        78   02 Jun 2027 13:14:42.768   02 Jun 2027 13:17:24.151           161.383               Magadan1         20172.875
        79   02 Jun 2027 13:19:50.300   02 Jun 2027 13:21:30.856           100.556               Magadan1         12569.500
        80   02 Jun 2027 15:42:53.441   02 Jun 2027 15:46:46.997           233.556            RioGallegos         29194.500
        81   02 Jun 2027 16:30:59.637   02 Jun 2027 16:32:53.183           113.546                Irkutsk         14193.250
        82   02 Jun 2027 16:44:17.802   02 Jun 2027 16:45:44.986            87.184                Sumatra         10898.000
        83   02 Jun 2027 16:53:34.353   02 Jun 2027 16:55:31.674           117.321                Sumatra         14665.125
        84   02 Jun 2027 18:07:24.234   02 Jun 2027 18:08:25.159            60.925                Novosib          7615.625
        85   02 Jun 2027 18:14:16.200   02 Jun 2027 18:16:02.868           106.668                  Delhi         13333.500
        86   02 Jun 2027 18:20:30.791   02 Jun 2027 18:22:19.855           109.064                  Delhi         13633.000
        87   02 Jun 2027 19:47:22.870   02 Jun 2027 19:48:06.297            43.427                 Moscow          5428.375
        88   02 Jun 2027 21:18:27.052   02 Jun 2027 21:19:00.347            33.295              Murmansk2          4161.875
        89   02 Jun 2027 21:19:19.123   02 Jun 2027 21:21:14.873           115.750                 Moscow         14468.750
        90   02 Jun 2027 21:44:14.677   02 Jun 2027 21:45:26.383            71.706               CapeTown          8963.250
        91   02 Jun 2027 21:50:50.581   02 Jun 2027 21:51:09.161            18.580               CapeTown          2322.500
        92   03 Jun 2027 03:39:52.204   03 Jun 2027 03:41:18.225            86.021                Norilsk         10752.625
        93   03 Jun 2027 04:50:05.963   03 Jun 2027 04:51:58.170           112.207                Sumatra         14025.875
        94   03 Jun 2027 05:04:34.295   03 Jun 2027 05:05:54.344            80.049                  Delhi         10006.125
        95   03 Jun 2027 05:15:12.611   03 Jun 2027 05:15:20.503             7.892              Murmansk1           986.500
        96   03 Jun 2027 05:15:49.754   03 Jun 2027 05:16:20.723            30.969              Murmansk2          3871.125
        97   03 Jun 2027 05:16:20.723   03 Jun 2027 05:21:03.761           283.038              Murmansk1         35379.750
        98   03 Jun 2027 06:27:30.436   03 Jun 2027 06:28:47.548            77.112                Sumatra          9639.000
        99   03 Jun 2027 06:30:20.039   03 Jun 2027 06:30:24.005             3.966                Sumatra           495.750
       100   03 Jun 2027 06:33:10.990   03 Jun 2027 06:35:26.187           135.197                Sumatra         16899.625
       101   03 Jun 2027 06:36:02.327   03 Jun 2027 06:37:34.730            92.403                  Delhi         11550.375
       102   03 Jun 2027 06:40:37.789   03 Jun 2027 06:43:14.032           156.243                Novosib         19530.375
       103   03 Jun 2027 06:44:29.053   03 Jun 2027 06:45:08.102            39.049                Irkutsk          4881.125
       104   03 Jun 2027 06:45:28.749   03 Jun 2027 06:47:04.187            95.438                 Moscow         11929.750
       105   03 Jun 2027 06:51:41.856   03 Jun 2027 06:52:13.283            31.427              Murmansk2          3928.375
       106   03 Jun 2027 06:52:18.804   03 Jun 2027 06:53:14.191            55.387                Novosib          6923.375
       107   03 Jun 2027 06:53:27.521   03 Jun 2027 06:54:26.781            59.260                 Moscow          7407.500
       108   03 Jun 2027 06:55:10.945   03 Jun 2027 06:56:47.461            96.516              Murmansk1         12064.500
       109   03 Jun 2027 06:56:47.461   03 Jun 2027 06:57:28.118            40.657              Murmansk2          5082.125
       110   03 Jun 2027 08:11:28.901   03 Jun 2027 08:13:05.600            96.699                  Delhi         12087.375
       111   03 Jun 2027 08:20:00.363   03 Jun 2027 08:23:07.111           186.748                Novosib         23343.500
       112   03 Jun 2027 08:27:08.502   03 Jun 2027 08:27:15.172             6.670                Novosib           833.750
       113   03 Jun 2027 08:27:53.355   03 Jun 2027 08:30:52.619           179.264                 Moscow         22408.000
       114   03 Jun 2027 08:30:55.193   03 Jun 2027 08:32:40.651           105.458                Norilsk         13182.250
       115   03 Jun 2027 08:32:58.895   03 Jun 2027 08:34:24.344            85.449              Murmansk1         10681.125
       116   03 Jun 2027 09:54:17.755   03 Jun 2027 09:58:55.085           277.330                 Moscow         34666.250
       117   03 Jun 2027 09:59:08.965   03 Jun 2027 10:02:25.747           196.782              Murmansk2         24597.750
       118   03 Jun 2027 10:03:12.983   03 Jun 2027 10:03:45.449            32.466              Murmansk1          4058.250
       119   03 Jun 2027 10:07:22.100   03 Jun 2027 10:07:24.016             1.916              Murmansk1           239.500
       120   03 Jun 2027 10:13:16.443   03 Jun 2027 10:17:17.261           240.818                Anadyr1         30102.250
       121   03 Jun 2027 10:17:55.083   03 Jun 2027 10:19:28.864            93.781                Anadyr2         11722.625
       122   03 Jun 2027 11:36:00.680   03 Jun 2027 11:37:07.842            67.162              Murmansk2          8395.250
       123   03 Jun 2027 11:48:10.652   03 Jun 2027 11:52:50.387           279.735                Anadyr1         34966.875
       124   03 Jun 2027 11:55:06.867   03 Jun 2027 11:55:41.643            34.776                Anadyr1          4347.000
       125   03 Jun 2027 11:57:13.388   03 Jun 2027 11:58:38.779            85.391                Anadyr1         10673.875
       126   03 Jun 2027 12:44:53.807   03 Jun 2027 12:45:36.217            42.410               CapeTown          5301.250
       127   03 Jun 2027 12:46:26.719   03 Jun 2027 12:47:02.467            35.748               CapeTown          4468.500
       128   03 Jun 2027 12:48:34.925   03 Jun 2027 12:49:56.345            81.420               CapeTown         10177.500
       129   03 Jun 2027 12:51:03.639   03 Jun 2027 12:51:58.193            54.554               CapeTown          6819.250
       130   03 Jun 2027 13:26:36.927   03 Jun 2027 13:31:06.338           269.411               Magadan1         33676.375
       131   03 Jun 2027 15:54:35.787   03 Jun 2027 16:00:46.370           370.583            RioGallegos         46322.875
       132   03 Jun 2027 16:42:03.980   03 Jun 2027 16:43:30.878            86.898                Irkutsk         10862.250
       133   03 Jun 2027 16:45:15.113   03 Jun 2027 16:46:22.601            67.488                Novosib          8436.000
       134   03 Jun 2027 16:58:09.180   03 Jun 2027 17:00:11.804           122.624                Sumatra         15328.000
       135   03 Jun 2027 18:25:49.125   03 Jun 2027 18:29:41.733           232.608                  Delhi         29076.000
       136   03 Jun 2027 18:34:35.762   03 Jun 2027 18:35:07.498            31.736                  Delhi          3967.000
       137   03 Jun 2027 19:58:15.180   03 Jun 2027 19:59:24.462            69.282              Murmansk2          8660.250
       138   03 Jun 2027 21:31:14.986   03 Jun 2027 21:33:36.063           141.077                 Moscow         17634.625
       139   03 Jun 2027 21:55:49.146   03 Jun 2027 21:57:43.210           114.064               CapeTown         14258.000
       140   03 Jun 2027 22:04:57.856   03 Jun 2027 22:05:07.613             9.757               CapeTown          1219.625
       141   04 Jun 2027 03:52:00.791   04 Jun 2027 03:52:57.558            56.767                Novosib          7095.875
       142   04 Jun 2027 03:53:01.622   04 Jun 2027 03:56:10.843           189.221              Murmansk2         23652.625
       143   04 Jun 2027 05:01:47.889   04 Jun 2027 05:03:40.378           112.489                Sumatra         14061.125
       144   04 Jun 2027 05:04:18.261   04 Jun 2027 05:06:14.636           116.375                Sumatra         14546.875
       145   04 Jun 2027 05:27:33.036   04 Jun 2027 05:28:18.397            45.361                Novosib          5670.125
       146   04 Jun 2027 05:28:21.412   04 Jun 2027 05:33:21.224           299.812              Murmansk2         37476.500
       147   04 Jun 2027 05:33:44.567   04 Jun 2027 05:35:12.056            87.489              Murmansk1         10936.125
       148   04 Jun 2027 06:11:22.220   04 Jun 2027 06:11:35.277            13.057            RioGallegos          1632.125
       149   04 Jun 2027 06:38:55.384   04 Jun 2027 06:40:56.010           120.626                Sumatra         15078.250
       150   04 Jun 2027 06:45:08.666   04 Jun 2027 06:47:23.562           134.896                Sumatra         16862.000
       151   04 Jun 2027 06:52:49.726   04 Jun 2027 06:56:00.489           190.763                Novosib         23845.375
       152   04 Jun 2027 06:56:11.723   04 Jun 2027 06:59:47.348           215.625                Irkutsk         26953.125
       153   04 Jun 2027 07:03:32.008   04 Jun 2027 07:03:53.597            21.589                 Moscow          2698.625
       154   04 Jun 2027 07:03:59.523   04 Jun 2027 07:08:49.387           289.864                Norilsk         36233.000
       155   04 Jun 2027 08:32:59.656   04 Jun 2027 08:35:11.663           132.007                Novosib         16500.875
       156   04 Jun 2027 08:38:53.857   04 Jun 2027 08:40:08.399            74.542                 Moscow          9317.750
       157   04 Jun 2027 08:40:13.492   04 Jun 2027 08:44:39.577           266.085                Norilsk         33260.625
       158   04 Jun 2027 08:44:51.090   04 Jun 2027 08:46:25.559            94.469              Murmansk1         11808.625
       159   04 Jun 2027 10:07:56.221   04 Jun 2027 10:09:35.617            99.396                 Moscow         12424.500
       160   04 Jun 2027 10:10:15.679   04 Jun 2027 10:11:00.593            44.914                 Moscow          5614.250
       161   04 Jun 2027 10:13:51.678   04 Jun 2027 10:15:04.237            72.559              Murmansk2          9069.875
       162   04 Jun 2027 10:16:11.750   04 Jun 2027 10:16:36.465            24.715              Murmansk2          3089.375
       163   04 Jun 2027 10:17:43.756   04 Jun 2027 10:19:05.784            82.028              Murmansk1         10253.500
       164   04 Jun 2027 10:19:34.234   04 Jun 2027 10:20:00.546            26.312              Murmansk2          3289.000
       165   04 Jun 2027 10:20:32.971   04 Jun 2027 10:21:18.271            45.300              Murmansk2          5662.500
       166   04 Jun 2027 10:25:00.670   04 Jun 2027 10:29:12.730           252.060                Anadyr1         31507.500
       167   04 Jun 2027 10:29:24.103   04 Jun 2027 10:32:20.862           176.759                Anadyr2         22094.875
       168   04 Jun 2027 11:50:35.938   04 Jun 2027 11:51:20.339            44.401              Murmansk1          5550.125
       169   04 Jun 2027 11:52:03.594   04 Jun 2027 11:52:15.753            12.159              Murmansk1          1519.875
       170   04 Jun 2027 11:56:57.570   04 Jun 2027 11:57:34.109            36.539              Murmansk2          4567.375
       171   04 Jun 2027 12:02:17.786   04 Jun 2027 12:03:25.728            67.942                Anadyr2          8492.750
       172   04 Jun 2027 12:04:51.106   04 Jun 2027 12:06:12.828            81.722                Anadyr2         10215.250
       173   04 Jun 2027 13:38:32.588   04 Jun 2027 13:43:48.495           315.907               Magadan2         39488.375
       174   04 Jun 2027 16:06:22.612   04 Jun 2027 16:09:00.739           158.127            RioGallegos         19765.875
       175   04 Jun 2027 16:09:53.163   04 Jun 2027 16:12:13.233           140.070            RioGallegos         17508.750
       176   04 Jun 2027 16:53:57.074   04 Jun 2027 16:55:56.637           119.563                Irkutsk         14945.375
       177   04 Jun 2027 16:59:06.130   04 Jun 2027 17:01:17.898           131.768                Novosib         16471.000
       178   04 Jun 2027 17:10:25.600   04 Jun 2027 17:12:18.928           113.328                Sumatra         14166.000
       179   04 Jun 2027 18:37:29.516   04 Jun 2027 18:39:48.480           138.964                  Delhi         17370.500
       180   04 Jun 2027 18:44:50.111   04 Jun 2027 18:46:46.277           116.166                  Delhi         14520.750
       181   04 Jun 2027 20:08:56.339   04 Jun 2027 20:12:29.239           212.900                 Moscow         26612.500
       182   04 Jun 2027 21:53:32.371   04 Jun 2027 21:53:56.291            23.920                 Moscow          2990.000
       183   04 Jun 2027 22:09:54.288   04 Jun 2027 22:11:42.887           108.599               CapeTown          7505.499
       184   05 Jun 2027 04:04:04.399   05 Jun 2027 04:08:01.024           236.625                Norilsk         29578.125
       185   05 Jun 2027 05:13:36.363   05 Jun 2027 05:14:56.855            80.492                Sumatra         10061.500
       186   05 Jun 2027 05:26:06.729   05 Jun 2027 05:27:17.360            70.631                  Delhi          8828.875
       187   05 Jun 2027 05:39:35.002   05 Jun 2027 05:44:51.173           316.171                Norilsk         39521.375
       188   05 Jun 2027 06:18:07.313   05 Jun 2027 06:18:24.492            17.179            RioGallegos          2147.375
       189   05 Jun 2027 06:18:40.158   05 Jun 2027 06:19:03.414            23.256            RioGallegos          2907.000
       190   05 Jun 2027 06:20:01.509   05 Jun 2027 06:20:43.079            41.570            RioGallegos          5196.250
       191   05 Jun 2027 06:21:49.013   05 Jun 2027 06:22:18.101            29.088            RioGallegos          3636.000
       192   05 Jun 2027 06:23:23.291   05 Jun 2027 06:24:21.457            58.166            RioGallegos          7270.750
       193   05 Jun 2027 06:51:51.213   05 Jun 2027 06:53:56.555           125.342                Sumatra         15667.750
       194   05 Jun 2027 06:57:39.763   05 Jun 2027 06:59:05.433            85.670                  Delhi         10708.750
       195   05 Jun 2027 07:00:09.018   05 Jun 2027 07:00:25.363            16.345                  Delhi          2043.125
       196   05 Jun 2027 07:05:05.134   05 Jun 2027 07:08:58.044           232.910                Novosib         29113.750
       197   05 Jun 2027 07:09:00.790   05 Jun 2027 07:11:31.723           150.933                 Moscow         18866.625
       198   05 Jun 2027 07:15:46.469   05 Jun 2027 07:16:36.512            50.043                Norilsk          6255.375
       199   05 Jun 2027 07:16:40.823   05 Jun 2027 07:18:40.405           119.582                 Moscow         14947.750
       200   05 Jun 2027 07:19:10.952   05 Jun 2027 07:20:02.439            51.487              Murmansk1          6435.875
       201   05 Jun 2027 07:22:32.031   05 Jun 2027 07:22:36.473             4.442              Murmansk1           555.250
       202   05 Jun 2027 08:37:59.158   05 Jun 2027 08:39:55.163           116.005                  Delhi         14500.625
       203   05 Jun 2027 08:42:01.069   05 Jun 2027 08:42:24.416            23.347                  Delhi          2918.375
       204   05 Jun 2027 08:50:56.178   05 Jun 2027 08:51:57.477            61.299              Murmansk1          7662.375
       205   05 Jun 2027 08:52:47.137   05 Jun 2027 08:56:37.534           230.397                Norilsk         28799.625
       206   05 Jun 2027 08:56:42.328   05 Jun 2027 08:58:26.915           104.587              Murmansk1         13073.375
       207   05 Jun 2027 09:57:34.373   05 Jun 2027 10:05:54.509           500.136               CapeTown         62517.000
       208   05 Jun 2027 10:18:50.786   05 Jun 2027 10:28:00.569           549.783                 Moscow         68722.875
       209   05 Jun 2027 10:28:28.304   05 Jun 2027 10:33:16.094           287.790              Murmansk2         35973.750
       210   05 Jun 2027 10:34:09.146   05 Jun 2027 10:34:24.998            15.852              Murmansk2          1981.500
       211   05 Jun 2027 10:36:49.673   05 Jun 2027 10:43:51.092           421.419                Anadyr2         52677.375
       212   05 Jun 2027 12:01:01.301   05 Jun 2027 12:04:42.506           221.205              Murmansk2         27650.625
       213   05 Jun 2027 12:16:17.898   05 Jun 2027 12:19:26.533           188.635               Magadan1         23579.375
       214   05 Jun 2027 13:50:29.449   05 Jun 2027 13:51:52.919            83.470               Magadan2         10433.750
       215   05 Jun 2027 13:52:35.880   05 Jun 2027 13:53:39.079            63.199               Magadan1          7899.875
       216   05 Jun 2027 15:32:46.711   05 Jun 2027 15:35:23.578           156.867                Irkutsk         19608.375
       217   05 Jun 2027 16:18:12.701   05 Jun 2027 16:21:03.196           170.495            RioGallegos         21311.875
       218   05 Jun 2027 17:05:52.037   05 Jun 2027 17:07:45.043           113.006                Irkutsk         14125.750
       219   05 Jun 2027 17:08:13.666   05 Jun 2027 17:10:56.613           162.947                Novosib         20368.375
       220   05 Jun 2027 17:11:42.483   05 Jun 2027 17:14:25.953           163.470                Novosib         20433.750
       221   05 Jun 2027 18:46:19.309   05 Jun 2027 18:46:52.340            33.031                Novosib          4128.875
       222   05 Jun 2027 18:48:30.103   05 Jun 2027 18:49:37.817            67.714                Novosib          8464.250
       223   05 Jun 2027 18:51:33.017   05 Jun 2027 18:53:39.441           126.424                  Delhi         15803.000
       224   05 Jun 2027 20:20:28.276   05 Jun 2027 20:24:21.178           232.902                 Moscow         29112.750
       225   05 Jun 2027 22:19:15.474   05 Jun 2027 22:19:50.229            34.755               CapeTown          3119.000
       226   06 Jun 2027 04:16:05.514   06 Jun 2027 04:16:23.566            18.052                Norilsk          2256.500
       227   06 Jun 2027 04:16:28.114   06 Jun 2027 04:18:46.881           138.767              Murmansk2         17345.875
       228   06 Jun 2027 05:25:30.730   06 Jun 2027 05:27:49.972           139.242                Sumatra         17405.250
       229   06 Jun 2027 05:36:07.279   06 Jun 2027 05:38:58.225           170.946                  Delhi         21368.250
       230   06 Jun 2027 05:51:57.487   06 Jun 2027 05:54:21.323           143.836              Murmansk2         17979.500
       231   06 Jun 2027 05:54:38.902   06 Jun 2027 05:56:52.962           134.060                Norilsk         16757.500
       232   06 Jun 2027 06:31:06.370   06 Jun 2027 06:31:45.919            39.549            RioGallegos          4943.625
       233   06 Jun 2027 06:32:09.170   06 Jun 2027 06:32:12.535             3.365            RioGallegos           420.625
       234   06 Jun 2027 06:32:43.806   06 Jun 2027 06:33:36.676            52.870            RioGallegos          6608.750
       235   06 Jun 2027 06:34:08.877   06 Jun 2027 06:35:23.392            74.515            RioGallegos          9314.375
       236   06 Jun 2027 06:36:41.141   06 Jun 2027 06:37:12.415            31.274            RioGallegos          3909.250
       237   06 Jun 2027 07:05:33.517   06 Jun 2027 07:07:24.738           111.221                Sumatra         13902.625
       238   06 Jun 2027 07:09:43.758   06 Jun 2027 07:12:34.207           170.449                  Delhi         21306.125
       239   06 Jun 2027 07:15:34.405   06 Jun 2027 07:16:52.717            78.312                  Delhi          9789.000
       240   06 Jun 2027 07:17:24.301   06 Jun 2027 07:17:37.702            13.401                Novosib          1675.125
       241   06 Jun 2027 07:17:46.939   06 Jun 2027 07:18:17.822            30.883                  Delhi          3860.375
       242   06 Jun 2027 07:19:33.542   06 Jun 2027 07:21:40.608           127.066                Novosib         15883.250
       243   06 Jun 2027 07:21:41.998   06 Jun 2027 07:23:44.418           122.420                Irkutsk         15302.500
       244   06 Jun 2027 07:27:39.879   06 Jun 2027 07:28:12.708            32.829                Norilsk          4103.625
       245   06 Jun 2027 07:28:12.720   06 Jun 2027 07:29:04.318            51.598                Novosib          6449.750
       246   06 Jun 2027 07:29:34.674   06 Jun 2027 07:30:46.201            71.527                 Moscow          8940.875
       247   06 Jun 2027 07:31:11.200   06 Jun 2027 07:32:02.981            51.781              Murmansk2          6472.625
       248   06 Jun 2027 07:34:33.419   06 Jun 2027 07:34:36.186             2.767              Murmansk1           345.875
       249   06 Jun 2027 09:04:01.064   06 Jun 2027 09:08:34.169           273.105                Norilsk         34138.125
       250   06 Jun 2027 09:08:40.440   06 Jun 2027 09:10:28.394           107.954              Murmansk1         13494.250
       251   06 Jun 2027 10:08:59.035   06 Jun 2027 10:18:12.798           553.763               CapeTown         69220.375
       252   06 Jun 2027 10:31:13.171   06 Jun 2027 10:38:54.607           461.436                 Moscow         57679.500
       253   06 Jun 2027 10:39:03.378   06 Jun 2027 10:45:14.419           371.041              Murmansk2         46380.125
       254   06 Jun 2027 10:45:56.941   06 Jun 2027 10:46:18.759            21.818              Murmansk2          2727.250
       255   06 Jun 2027 10:48:41.742   06 Jun 2027 10:54:13.765           332.023                Anadyr1         41502.875
       256   06 Jun 2027 10:54:22.630   06 Jun 2027 10:57:44.887           202.257                Anadyr2         25282.125
       257   06 Jun 2027 12:13:36.057   06 Jun 2027 12:16:32.835           176.778              Murmansk1         22097.250
       258   06 Jun 2027 12:24:09.877   06 Jun 2027 12:24:51.791            41.914                Anadyr2          5239.250
       259   06 Jun 2027 12:26:51.311   06 Jun 2027 12:27:29.043            37.732                Anadyr2          4716.500
       260   06 Jun 2027 12:27:48.735   06 Jun 2027 12:31:39.174           230.439               Magadan1         28804.875
       261   06 Jun 2027 14:04:58.739   06 Jun 2027 14:05:39.038            40.299               Magadan2          5037.375
       262   06 Jun 2027 14:08:53.044   06 Jun 2027 14:09:42.486            49.442               Magadan1          6180.250
       263   06 Jun 2027 15:43:51.096   06 Jun 2027 15:47:10.535           199.439                Irkutsk         24929.875
       264   06 Jun 2027 15:47:46.727   06 Jun 2027 15:50:13.779           147.052                Irkutsk         18381.500
       265   06 Jun 2027 16:00:27.601   06 Jun 2027 16:02:33.145           125.544                Sumatra         15693.000
       266   06 Jun 2027 17:17:56.057   06 Jun 2027 17:17:59.550             3.493                Irkutsk           436.625
       267   06 Jun 2027 17:18:53.287   06 Jun 2027 17:22:49.012           235.725                Novosib         29465.625
       268   06 Jun 2027 17:40:29.297   06 Jun 2027 17:41:06.310            37.013                Sumatra          4626.625
       269   06 Jun 2027 17:42:58.741   06 Jun 2027 17:43:13.662            14.921                Sumatra          1865.125
       270   06 Jun 2027 18:58:20.539   06 Jun 2027 18:58:47.311            26.772                Novosib          3346.500
       271   06 Jun 2027 19:01:06.096   06 Jun 2027 19:03:54.198           168.102                  Delhi         21012.750
       272   06 Jun 2027 19:10:16.939   06 Jun 2027 19:10:35.908            18.969                  Delhi          2371.125
       273   06 Jun 2027 20:30:23.590   06 Jun 2027 20:31:22.135            58.545              Murmansk1          7318.125
       274   06 Jun 2027 20:32:10.266   06 Jun 2027 20:32:54.099            43.833                 Moscow          5479.125
       275   06 Jun 2027 20:34:12.285   06 Jun 2027 20:36:15.136           122.851                 Moscow         14470.626
       276   07 Jun 2027 04:27:57.485   07 Jun 2027 04:27:59.405             1.920                Irkutsk           240.000
       277   07 Jun 2027 04:27:59.697   07 Jun 2027 04:28:20.318            20.621                Novosib          2577.625
       278   07 Jun 2027 04:28:22.998   07 Jun 2027 04:31:06.240           163.242              Murmansk1         20405.250
       279   07 Jun 2027 05:37:30.706   07 Jun 2027 05:39:52.045           141.339                Sumatra         17667.375
       280   07 Jun 2027 05:47:27.184   07 Jun 2027 05:47:57.321            30.137                  Delhi          3767.125
       281   07 Jun 2027 05:48:58.310   07 Jun 2027 05:50:37.664            99.354                  Delhi         12419.250
       282   07 Jun 2027 06:04:01.248   07 Jun 2027 06:05:28.955            87.707                Novosib         10963.375
       283   07 Jun 2027 06:05:31.597   07 Jun 2027 06:06:00.111            28.514                 Moscow          3564.250
       284   07 Jun 2027 06:06:06.362   07 Jun 2027 06:09:27.796           201.434              Murmansk2         25179.250
       285   07 Jun 2027 06:09:27.796   07 Jun 2027 06:11:01.864            94.068              Murmansk1         11758.500
       286   07 Jun 2027 06:43:31.345   07 Jun 2027 06:45:50.087           138.742            RioGallegos         17342.750
       287   07 Jun 2027 06:47:22.433   07 Jun 2027 06:48:16.572            54.139            RioGallegos          6767.375
       288   07 Jun 2027 07:21:53.346   07 Jun 2027 07:26:41.178           287.832                  Delhi         35979.000
       289   07 Jun 2027 07:29:08.013   07 Jun 2027 07:29:51.710            43.697                  Delhi          5462.125
       290   07 Jun 2027 07:30:22.598   07 Jun 2027 07:33:53.194           210.596                Novosib         26324.500
       291   07 Jun 2027 07:34:31.605   07 Jun 2027 07:34:57.503            25.898                 Moscow          3237.250
       292   07 Jun 2027 07:39:42.944   07 Jun 2027 07:45:36.344           353.400              Murmansk1         44175.000
       293   07 Jun 2027 07:46:10.934   07 Jun 2027 07:46:36.237            25.303              Murmansk1          3162.875
       294   07 Jun 2027 09:06:06.330   07 Jun 2027 09:07:16.936            70.606                 Moscow          8825.750
       295   07 Jun 2027 09:09:34.201   07 Jun 2027 09:10:34.082            59.881              Murmansk2          7485.125
       296   07 Jun 2027 09:10:56.346   07 Jun 2027 09:11:03.364             7.018              Murmansk1           877.250
       297   07 Jun 2027 09:15:29.764   07 Jun 2027 09:20:28.919           299.155                Norilsk         37394.375
       298   07 Jun 2027 09:20:43.383   07 Jun 2027 09:22:29.965           106.582              Murmansk1         13322.750
       299   07 Jun 2027 10:21:16.930   07 Jun 2027 10:27:16.045           359.115               CapeTown         44889.375
       300   07 Jun 2027 10:43:40.038   07 Jun 2027 10:45:45.551           125.513                 Moscow         15689.125
       301   07 Jun 2027 10:46:33.864   07 Jun 2027 10:47:36.448            62.584                 Moscow          7823.000
       302   07 Jun 2027 10:47:57.469   07 Jun 2027 10:48:20.192            22.723              Murmansk1          2840.375
       303   07 Jun 2027 10:49:15.924   07 Jun 2027 10:51:01.956           106.032              Murmansk2         13254.000
       304   07 Jun 2027 10:51:05.138   07 Jun 2027 10:51:33.102            27.964              Murmansk1          3495.500
       305   07 Jun 2027 10:52:14.275   07 Jun 2027 10:52:49.407            35.132              Murmansk1          4391.500
       306   07 Jun 2027 10:53:26.393   07 Jun 2027 10:53:48.716            22.323              Murmansk1          2790.375
       307   07 Jun 2027 11:00:35.952   07 Jun 2027 11:05:05.775           269.823                Anadyr1         33727.875
       308   07 Jun 2027 11:06:46.973   07 Jun 2027 11:09:04.469           137.496                Anadyr2         17187.000
       309   07 Jun 2027 12:26:14.218   07 Jun 2027 12:28:45.063           150.845              Murmansk2         18855.625
       310   07 Jun 2027 12:36:10.375   07 Jun 2027 12:36:48.475            38.100                Anadyr1          4762.500
       311   07 Jun 2027 12:37:33.076   07 Jun 2027 12:39:04.362            91.286                Anadyr1         11410.750
       312   07 Jun 2027 12:40:59.660   07 Jun 2027 12:43:32.968           153.308               Magadan2         19163.500
       313   07 Jun 2027 14:14:25.923   07 Jun 2027 14:15:26.623            60.700               Magadan1          7587.500
       314   07 Jun 2027 14:18:13.999   07 Jun 2027 14:21:18.687           184.688               Magadan2         23086.000
       315   07 Jun 2027 15:11:13.039   07 Jun 2027 15:11:34.161            21.122            RioGallegos          2640.250
       316   07 Jun 2027 15:55:18.616   07 Jun 2027 15:59:00.717           222.101                Irkutsk         27762.625
       317   07 Jun 2027 16:10:44.375   07 Jun 2027 16:12:55.229           130.854                Sumatra         16356.750
       318   07 Jun 2027 17:30:36.417   07 Jun 2027 17:32:44.029           127.612                Novosib         15951.500
       319   07 Jun 2027 17:36:38.662   07 Jun 2027 17:36:45.176             6.514                Novosib           814.250
       320   07 Jun 2027 17:42:15.115   07 Jun 2027 17:43:24.839            69.724                  Delhi          8715.500
       321   07 Jun 2027 17:43:32.790   07 Jun 2027 17:45:31.115           118.325                Sumatra         14790.625
       322   07 Jun 2027 19:13:00.555   07 Jun 2027 19:14:43.141           102.586                  Delhi         12823.250
       323   07 Jun 2027 19:23:35.796   07 Jun 2027 19:23:47.304            11.508                  Delhi          1438.500
       324   07 Jun 2027 20:40:01.776   07 Jun 2027 20:40:31.524            29.748              Murmansk1          3718.500
       325   07 Jun 2027 20:43:56.968   07 Jun 2027 20:46:22.999           146.031                 Moscow         18253.875
       326   07 Jun 2027 22:43:02.441   07 Jun 2027 22:44:33.926            91.485               CapeTown         10424.250
       327   08 Jun 2027 04:16:11.316   08 Jun 2027 04:18:46.303           154.987                Sumatra         19373.375
       328   08 Jun 2027 04:40:08.290   08 Jun 2027 04:44:58.766           290.476                Norilsk         36309.500
       329   08 Jun 2027 04:45:14.744   08 Jun 2027 04:46:18.936            64.192              Murmansk2          8024.000
       330   08 Jun 2027 04:46:18.936   08 Jun 2027 04:47:56.504            97.568              Murmansk1         12196.000
       331   08 Jun 2027 05:15:09.172   08 Jun 2027 05:19:27.782           258.610            RioGallegos         32326.250
       332   08 Jun 2027 05:49:36.306   08 Jun 2027 05:51:13.324            97.018                Sumatra         12127.250
       333   08 Jun 2027 05:52:35.209   08 Jun 2027 05:54:13.486            98.277                Sumatra         12284.625
       334   08 Jun 2027 06:04:17.193   08 Jun 2027 06:04:50.226            33.033                Irkutsk          4129.125
       335   08 Jun 2027 06:14:29.144   08 Jun 2027 06:14:59.380            30.236              Murmansk1          3779.500
       336   08 Jun 2027 06:15:47.184   08 Jun 2027 06:17:29.994           102.810                Novosib         12851.250
       337   08 Jun 2027 06:17:30.118   08 Jun 2027 06:20:08.906           158.788              Murmansk1         19848.500
       338   08 Jun 2027 06:20:08.906   08 Jun 2027 06:20:54.341            45.435              Murmansk2          5679.375
       339   08 Jun 2027 06:22:18.069   08 Jun 2027 06:22:58.806            40.737              Murmansk1          5092.125
       340   08 Jun 2027 06:57:47.469   08 Jun 2027 06:58:35.192            47.723            RioGallegos          5965.375
       341   08 Jun 2027 07:34:09.001   08 Jun 2027 07:39:19.209           310.208                  Delhi         38776.000
       342   08 Jun 2027 07:39:57.736   08 Jun 2027 07:40:51.645            53.909                  Delhi          6738.625
       343   08 Jun 2027 07:43:22.130   08 Jun 2027 07:46:09.299           167.169                Novosib         20896.125
       344   08 Jun 2027 07:51:36.243   08 Jun 2027 07:52:49.894            73.651                Novosib          9206.375
       345   08 Jun 2027 07:53:07.911   08 Jun 2027 07:58:36.576           328.665              Murmansk2         41083.125
       346   08 Jun 2027 09:21:26.236   08 Jun 2027 09:23:23.756           117.520                 Moscow         14690.000
       347   08 Jun 2027 09:26:30.800   08 Jun 2027 09:34:31.602           480.802              Murmansk2         60100.250
       348   08 Jun 2027 10:36:42.286   08 Jun 2027 10:38:27.280           104.994               CapeTown         13124.250
       349   08 Jun 2027 10:57:45.394   08 Jun 2027 10:59:55.556           130.162                 Moscow         16270.250
       350   08 Jun 2027 11:00:08.489   08 Jun 2027 11:08:55.510           527.021              Murmansk1         65877.625
       351   08 Jun 2027 11:12:31.737   08 Jun 2027 11:14:23.467           111.730                Anadyr2         13966.250
       352   08 Jun 2027 11:15:09.755   08 Jun 2027 11:18:40.439           210.684                Anadyr1         26335.500
       353   08 Jun 2027 11:19:08.372   08 Jun 2027 11:20:34.705            86.333                Anadyr1         10791.625
       354   08 Jun 2027 12:38:56.346   08 Jun 2027 12:39:25.823            29.477              Murmansk1          3684.625
       355   08 Jun 2027 12:51:15.418   08 Jun 2027 12:55:28.349           252.931               Magadan1         31616.375
       356   08 Jun 2027 12:57:02.722   08 Jun 2027 12:57:11.994             9.272               Magadan2          1159.000
       357   08 Jun 2027 14:26:25.245   08 Jun 2027 14:27:18.255            53.010               Magadan2          6626.250
       358   08 Jun 2027 15:20:07.909   08 Jun 2027 15:23:20.134           192.225            RioGallegos         24028.125
       359   08 Jun 2027 16:06:56.271   08 Jun 2027 16:08:52.590           116.319                Irkutsk         14539.875
       360   08 Jun 2027 16:12:46.287   08 Jun 2027 16:13:33.411            47.124                Irkutsk          5890.500
       361   08 Jun 2027 16:21:44.264   08 Jun 2027 16:24:39.060           174.796                Sumatra         21849.500
       362   08 Jun 2027 17:44:54.060   08 Jun 2027 17:46:39.194           105.134                Novosib         13141.750
       363   08 Jun 2027 17:52:05.832   08 Jun 2027 17:54:28.302           142.470                  Delhi         17808.750
       364   08 Jun 2027 19:24:58.534   08 Jun 2027 19:26:13.353            74.819                  Delhi          9352.375
       365   08 Jun 2027 20:52:41.068   08 Jun 2027 20:52:48.888             7.820              Murmansk1           977.500
       366   08 Jun 2027 20:54:56.402   08 Jun 2027 20:56:36.150            99.748              Murmansk2         12468.500
       367   08 Jun 2027 20:58:30.494   08 Jun 2027 21:00:07.590            97.096                 Moscow         12137.000
       368   08 Jun 2027 21:22:08.584   08 Jun 2027 21:22:21.735            13.151               CapeTown          1643.875
       369   08 Jun 2027 21:24:28.492   08 Jun 2027 21:25:38.113            69.621               CapeTown          8702.625
       370   08 Jun 2027 22:55:03.354   08 Jun 2027 22:55:06.831             3.477               CapeTown           434.625
       371   09 Jun 2027 03:14:54.484   09 Jun 2027 03:15:04.712            10.228                Irkutsk          1278.500
       372   09 Jun 2027 03:16:00.623   09 Jun 2027 03:24:48.158           527.535              Murmansk2         65941.875
       373   09 Jun 2027 04:27:21.606   09 Jun 2027 04:30:33.392           191.786                Sumatra         23973.250
       374   09 Jun 2027 04:51:58.151   09 Jun 2027 04:58:20.833           382.682              Murmansk1         47835.250
       375   09 Jun 2027 04:58:20.833   09 Jun 2027 04:59:48.612            87.779              Murmansk2         10972.375
       376   09 Jun 2027 05:30:21.714   09 Jun 2027 05:31:11.071            49.357            RioGallegos          6169.625
       377   09 Jun 2027 05:31:30.219   09 Jun 2027 05:31:45.828            15.609            RioGallegos          1951.125
       378   09 Jun 2027 06:01:47.880   09 Jun 2027 06:04:25.093           157.213                Sumatra         19651.625
       379   09 Jun 2027 06:10:31.974   09 Jun 2027 06:12:38.025           126.051                  Delhi         15756.375
       380   09 Jun 2027 06:16:38.343   09 Jun 2027 06:18:06.286            87.943                Novosib         10992.875
       381   09 Jun 2027 06:18:47.816   09 Jun 2027 06:20:27.553            99.737                Irkutsk         12467.125
       382   09 Jun 2027 06:27:12.353   09 Jun 2027 06:29:30.384           138.031                Novosib         17253.875
       383   09 Jun 2027 06:29:30.825   09 Jun 2027 06:33:27.717           236.892              Murmansk1         29611.500
       384   09 Jun 2027 06:33:47.112   09 Jun 2027 06:34:08.859            21.747              Murmansk1          2718.375
       385   09 Jun 2027 06:34:34.298   09 Jun 2027 06:34:56.320            22.022              Murmansk1          2752.750
       386   09 Jun 2027 07:46:31.569   09 Jun 2027 07:52:22.398           350.829                  Delhi         43853.625
       387   09 Jun 2027 07:53:51.376   09 Jun 2027 07:54:27.867            36.491                  Delhi          4561.375
       388   09 Jun 2027 07:54:48.597   09 Jun 2027 07:58:15.147           206.550                Novosib         25818.750
       389   09 Jun 2027 08:03:31.063   09 Jun 2027 08:10:11.718           400.655              Murmansk2         50081.875
       390   09 Jun 2027 09:30:13.305   09 Jun 2027 09:35:07.525           294.220                 Moscow         36777.500
       391   09 Jun 2027 09:35:08.218   09 Jun 2027 09:36:57.407           109.189              Murmansk1         13648.625
       392   09 Jun 2027 09:36:57.407   09 Jun 2027 09:37:22.396            24.989              Murmansk2          3123.625
       393   09 Jun 2027 09:38:06.262   09 Jun 2027 09:40:22.477           136.215              Murmansk1         17026.875
       394   09 Jun 2027 09:40:22.477   09 Jun 2027 09:40:37.251            14.774              Murmansk2          1846.750
       395   09 Jun 2027 09:40:47.561   09 Jun 2027 09:43:27.897           160.336                Norilsk         20042.000
       396   09 Jun 2027 09:43:38.667   09 Jun 2027 09:44:59.586            80.919              Murmansk1         10114.875
       397   09 Jun 2027 09:50:43.314   09 Jun 2027 09:53:11.995           148.681                Anadyr1         18585.125
       398   09 Jun 2027 11:11:25.513   09 Jun 2027 11:12:29.037            63.524              Murmansk2          7940.500
       399   09 Jun 2027 11:24:28.728   09 Jun 2027 11:25:55.366            86.638                Anadyr2         10829.750
       400   09 Jun 2027 11:28:47.849   09 Jun 2027 11:29:04.650            16.801                Anadyr1          2100.125
       401   09 Jun 2027 11:31:47.870   09 Jun 2027 11:33:53.024           125.154                Anadyr1         15644.250
       402   09 Jun 2027 12:19:58.806   09 Jun 2027 12:20:07.403             8.597               CapeTown          1074.625
       403   09 Jun 2027 12:22:02.352   09 Jun 2027 12:23:04.905            62.553               CapeTown          7819.125
       404   09 Jun 2027 12:24:34.153   09 Jun 2027 12:24:34.432             0.279               CapeTown            34.875
       405   09 Jun 2027 12:51:43.366   09 Jun 2027 12:53:37.664           114.298              Murmansk2         14287.250
       406   09 Jun 2027 13:03:05.115   09 Jun 2027 13:09:26.148           381.033               Magadan2         47629.125
       407   09 Jun 2027 15:31:32.099   09 Jun 2027 15:35:09.592           217.493            RioGallegos         27186.625
       408   09 Jun 2027 16:33:02.406   09 Jun 2027 16:36:29.220           206.814                Sumatra         25851.750
       409   09 Jun 2027 16:39:28.796   09 Jun 2027 16:41:01.230            92.434                Sumatra         11554.250
       410   09 Jun 2027 17:57:00.910   09 Jun 2027 17:58:36.325            95.415                Novosib         11926.875
       411   09 Jun 2027 18:03:08.343   09 Jun 2027 18:06:13.192           184.849                  Delhi         23106.125
       412   09 Jun 2027 21:09:04.459   09 Jun 2027 21:10:22.133            77.674                 Moscow          9709.250
       413   09 Jun 2027 21:33:01.246   09 Jun 2027 21:34:22.969            81.723               CapeTown         10215.375
       414   09 Jun 2027 21:40:28.140   09 Jun 2027 21:40:48.203            20.063               CapeTown          2507.875
       415   10 Jun 2027 03:28:15.146   10 Jun 2027 03:28:55.479            40.333                Novosib          5041.625
       416   10 Jun 2027 03:28:57.087   10 Jun 2027 03:32:55.202           238.115              Murmansk1         29764.375
       417   10 Jun 2027 04:38:46.056   10 Jun 2027 04:39:44.471            58.415                Sumatra          7301.875
       418   10 Jun 2027 04:41:30.312   10 Jun 2027 04:42:26.489            56.177                Sumatra          7022.125
       419   10 Jun 2027 05:03:54.975   10 Jun 2027 05:04:03.411             8.436                Irkutsk          1054.500
       420   10 Jun 2027 05:04:11.614   10 Jun 2027 05:04:14.687             3.073                Norilsk           384.125
       421   10 Jun 2027 05:04:23.648   10 Jun 2027 05:09:01.157           277.509                Norilsk         34688.625
       422   10 Jun 2027 05:09:30.679   10 Jun 2027 05:10:54.269            83.590              Murmansk2         10448.750
       423   10 Jun 2027 05:11:36.088   10 Jun 2027 05:11:41.475             5.387              Murmansk2           673.375
       424   10 Jun 2027 05:39:52.160   10 Jun 2027 05:42:16.395           144.235            RioGallegos         18029.375
       425   10 Jun 2027 06:14:06.229   10 Jun 2027 06:14:25.414            19.185                Sumatra          2398.125
       426   10 Jun 2027 06:16:08.618   10 Jun 2027 06:18:17.159           128.541                Sumatra         16067.625
       427   10 Jun 2027 06:22:14.283   10 Jun 2027 06:22:35.375            21.092                  Delhi          2636.500
       428   10 Jun 2027 06:28:43.937   10 Jun 2027 06:29:30.961            47.024                Novosib          5878.000
       429   10 Jun 2027 06:29:39.314   10 Jun 2027 06:30:47.405            68.091                Irkutsk          8511.375
       430   10 Jun 2027 06:31:34.686   10 Jun 2027 06:32:58.427            83.741                Irkutsk         10467.625
       431   10 Jun 2027 06:33:33.533   10 Jun 2027 06:35:18.087           104.554                Novosib         13069.250
       432   10 Jun 2027 06:39:51.763   10 Jun 2027 06:40:06.274            14.511              Murmansk1          1813.875
       433   10 Jun 2027 06:40:06.274   10 Jun 2027 06:40:34.144            27.870              Murmansk2          3483.750
       434   10 Jun 2027 06:40:47.467   10 Jun 2027 06:41:30.043            42.576                Novosib          5322.000
       435   10 Jun 2027 06:41:32.103   10 Jun 2027 06:43:53.499           141.396                Norilsk         17674.500
       436   10 Jun 2027 06:45:15.233   10 Jun 2027 06:45:45.793            30.560              Murmansk2          3820.000
       437   10 Jun 2027 06:46:21.383   10 Jun 2027 06:46:54.351            32.968              Murmansk2          4121.000
       438   10 Jun 2027 07:59:02.474   10 Jun 2027 08:02:56.597           234.123                  Delhi         29265.375
       439   10 Jun 2027 08:07:28.118   10 Jun 2027 08:10:53.324           205.206                Novosib         25650.750
       440   10 Jun 2027 08:15:23.485   10 Jun 2027 08:16:02.993            39.508              Murmansk2          4938.500
       441   10 Jun 2027 08:16:02.993   10 Jun 2027 08:20:32.020           269.027              Murmansk1         33628.375
       442   10 Jun 2027 08:20:32.020   10 Jun 2027 08:22:38.023           126.003              Murmansk2         15750.375
       443   10 Jun 2027 09:45:26.292   10 Jun 2027 09:45:51.615            25.323                 Moscow          3165.375
       444   10 Jun 2027 09:45:52.646   10 Jun 2027 09:47:29.588            96.942              Murmansk1         12117.750
       445   10 Jun 2027 09:47:29.588   10 Jun 2027 09:48:08.040            38.452              Murmansk2          4806.500
       446   10 Jun 2027 09:48:59.088   10 Jun 2027 09:49:23.409            24.321              Murmansk2          3040.125
       447   10 Jun 2027 09:49:39.352   10 Jun 2027 09:49:54.658            15.306              Murmansk2          1913.250
       448   10 Jun 2027 09:50:13.648   10 Jun 2027 09:50:35.666            22.018              Murmansk2          2752.250
       449   10 Jun 2027 09:52:26.544   10 Jun 2027 09:52:52.951            26.407              Murmansk2          3300.875
       450   10 Jun 2027 09:52:53.788   10 Jun 2027 09:55:43.950           170.162                Norilsk         21270.250
       451   10 Jun 2027 10:01:55.176   10 Jun 2027 10:05:38.159           222.983                Anadyr2         27872.875
       452   10 Jun 2027 11:23:49.422   10 Jun 2027 11:24:54.814            65.392              Murmansk1          8174.000
       453   10 Jun 2027 11:32:28.209   10 Jun 2027 11:33:11.976            43.767              Murmansk2          5470.875
       454   10 Jun 2027 11:36:26.659   10 Jun 2027 11:37:37.888            71.229                Anadyr1          8903.625
       455   10 Jun 2027 11:39:29.570   10 Jun 2027 11:41:04.759            95.189                Anadyr1         11898.625
       456   10 Jun 2027 11:45:54.159   10 Jun 2027 11:47:12.826            78.667                Anadyr1          9833.375
       457   10 Jun 2027 12:33:00.394   10 Jun 2027 12:33:38.478            38.084               CapeTown          4760.500
       458   10 Jun 2027 12:34:14.779   10 Jun 2027 12:35:13.604            58.825               CapeTown          7353.125
       459   10 Jun 2027 12:36:23.200   10 Jun 2027 12:36:40.579            17.379               CapeTown          2172.375
       460   10 Jun 2027 12:39:31.817   10 Jun 2027 12:39:55.805            23.988               CapeTown          2998.500
       461   10 Jun 2027 12:41:16.562   10 Jun 2027 12:41:37.772            21.210               CapeTown          2651.250
       462   10 Jun 2027 13:04:37.108   10 Jun 2027 13:06:21.830           104.722              Murmansk2         13090.250
       463   10 Jun 2027 13:14:57.375   10 Jun 2027 13:18:14.660           197.285               Magadan2         24660.625
       464   10 Jun 2027 13:18:35.532   10 Jun 2027 13:20:27.102           111.570               Magadan1         13946.250
       465   10 Jun 2027 15:43:07.852   10 Jun 2027 15:47:01.698           233.846            RioGallegos         29230.750
       466   10 Jun 2027 15:48:54.133   10 Jun 2027 15:49:56.499            62.366            RioGallegos          7795.750
       467   10 Jun 2027 16:33:08.260   10 Jun 2027 16:34:44.159            95.899                Irkutsk         11987.375
       468   10 Jun 2027 16:44:32.146   10 Jun 2027 16:46:00.101            87.955                Sumatra         10994.375
       469   10 Jun 2027 16:55:46.221   10 Jun 2027 16:55:54.532             8.311                Sumatra          1038.875
       470   10 Jun 2027 18:06:07.322   10 Jun 2027 18:08:39.133           151.811                Novosib         18976.375
       471   10 Jun 2027 18:14:30.451   10 Jun 2027 18:16:17.810           107.359                  Delhi         13419.875
       472   10 Jun 2027 18:20:45.881   10 Jun 2027 18:22:32.339           106.458                  Delhi         13307.250
       473   10 Jun 2027 21:18:42.315   10 Jun 2027 21:19:15.496            33.181              Murmansk2          4147.625
       474   10 Jun 2027 21:19:33.759   10 Jun 2027 21:21:29.915           116.156                 Moscow         14519.500
       475   10 Jun 2027 21:44:28.975   10 Jun 2027 21:45:41.360            72.385               CapeTown          9048.125
       476   10 Jun 2027 21:48:03.071   10 Jun 2027 21:49:17.842            74.771               CapeTown          9346.375
       477   11 Jun 2027 03:40:07.000   11 Jun 2027 03:41:50.091           103.091                Norilsk         12886.375
       478   11 Jun 2027 04:50:20.363   11 Jun 2027 04:52:13.219           112.856                Sumatra         14107.000
       479   11 Jun 2027 05:01:34.591   11 Jun 2027 05:02:04.310            29.719                Sumatra          3714.875
       480   11 Jun 2027 05:04:47.406   11 Jun 2027 05:06:16.553            89.147                  Delhi         11143.375
       481   11 Jun 2027 05:15:30.314   11 Jun 2027 05:16:02.959            32.645                Irkutsk          4080.625
       482   11 Jun 2027 05:16:09.820   11 Jun 2027 05:17:44.210            94.390              Murmansk1         11798.750
