uniorb/output/strategy_4/Drop/Drop_KinoSat_110806.txt

KinoSat_110806
-------------------------
    Access    *     Start Time (UTCG)     *     Stop Time (UTCG)  *   Duration (s)        *       Station  *  Data (Mbytes)
         1   01 Jun 2027 03:27:38.878   01 Jun 2027 03:29:11.646            92.768               Magadan1          2899.000
         2   01 Jun 2027 03:29:11.646   01 Jun 2027 03:29:44.832            33.186               Magadan2          1037.062
         3   01 Jun 2027 03:29:44.832   01 Jun 2027 03:30:10.100            25.268               Magadan1           789.625
         4   01 Jun 2027 03:30:15.487   01 Jun 2027 03:32:37.358           141.871                Anadyr1          4433.469
         5   01 Jun 2027 05:03:54.219   01 Jun 2027 05:05:34.107            99.888               Magadan1          3121.500
         6   01 Jun 2027 05:05:42.725   01 Jun 2027 05:05:51.139             8.414               Magadan2           262.937
         7   01 Jun 2027 05:05:54.380   01 Jun 2027 05:06:30.088            35.708               Magadan2          1115.875
         8   01 Jun 2027 05:06:31.271   01 Jun 2027 05:07:14.068            42.797                Norilsk          1337.406
         9   01 Jun 2027 05:07:20.972   01 Jun 2027 05:07:39.051            18.079              Murmansk1           564.969
        10   01 Jun 2027 05:07:43.445   01 Jun 2027 05:08:14.035            30.590               Magadan1           955.937
        11   01 Jun 2027 05:44:24.852   01 Jun 2027 05:46:01.052            96.200            RioGallegos          3006.250
        12   01 Jun 2027 06:38:28.452   01 Jun 2027 06:39:33.506            65.054               Magadan2          2032.937
        13   01 Jun 2027 06:39:35.042   01 Jun 2027 06:42:21.336           166.294                Irkutsk          5196.688
        14   01 Jun 2027 06:42:42.281   01 Jun 2027 06:44:09.549            87.268                Norilsk          2727.125
        15   01 Jun 2027 07:18:38.460   01 Jun 2027 07:19:11.044            32.584            RioGallegos          1018.250
        16   01 Jun 2027 07:19:51.263   01 Jun 2027 07:20:27.573            36.310            RioGallegos          1134.688
        17   01 Jun 2027 07:53:58.520   01 Jun 2027 07:56:20.901           142.381                Sumatra          4449.406
        18   01 Jun 2027 08:06:41.087   01 Jun 2027 08:07:51.432            70.345                  Delhi          2198.281
        19   01 Jun 2027 08:15:30.382   01 Jun 2027 08:16:30.502            60.120                Norilsk          1878.750
        20   01 Jun 2027 08:16:41.528   01 Jun 2027 08:19:57.644           196.116              Murmansk2          6128.625
        21   01 Jun 2027 08:19:57.644   01 Jun 2027 08:21:21.362            83.718              Murmansk1          2616.187
        22   01 Jun 2027 08:56:39.095   01 Jun 2027 08:57:08.679            29.584            RioGallegos           924.500
        23   01 Jun 2027 08:57:39.883   01 Jun 2027 08:57:57.736            17.853            RioGallegos           557.906
        24   01 Jun 2027 08:59:49.504   01 Jun 2027 09:00:15.980            26.476            RioGallegos           827.375
        25   01 Jun 2027 09:30:51.777   01 Jun 2027 09:31:00.491             8.714                Sumatra           272.312
        26   01 Jun 2027 09:31:13.400   01 Jun 2027 09:31:18.572             5.172                Sumatra           161.625
        27   01 Jun 2027 09:31:57.951   01 Jun 2027 09:33:36.856            98.905                Sumatra          3090.781
        28   01 Jun 2027 09:54:20.872   01 Jun 2027 09:54:36.941            16.069              Murmansk2           502.156
        29   01 Jun 2027 09:54:37.725   01 Jun 2027 09:56:04.452            86.727                Norilsk          2710.219
        30   01 Jun 2027 09:56:18.550   01 Jun 2027 09:56:40.810            22.260              Murmansk2           695.625
        31   01 Jun 2027 09:56:41.384   01 Jun 2027 09:56:49.520             8.136                Norilsk           254.250
        32   01 Jun 2027 09:57:21.199   01 Jun 2027 09:57:34.429            13.230                 Moscow           413.438
        33   01 Jun 2027 11:16:17.539   01 Jun 2027 11:18:16.285           118.746                  Delhi          3710.813
        34   01 Jun 2027 11:20:08.808   01 Jun 2027 11:20:18.304             9.496                  Delhi           296.750
        35   01 Jun 2027 11:28:08.630   01 Jun 2027 11:28:35.465            26.835                 Moscow           838.594
        36   01 Jun 2027 11:29:23.005   01 Jun 2027 11:30:47.510            84.505                 Moscow          2640.781
        37   01 Jun 2027 11:30:58.835   01 Jun 2027 11:31:15.536            16.701              Murmansk1           521.906
        38   01 Jun 2027 11:31:37.617   01 Jun 2027 11:33:49.189           131.572                 Moscow          4111.625
        39   01 Jun 2027 11:34:18.932   01 Jun 2027 11:36:17.587           118.655              Murmansk1          3707.969
        40   01 Jun 2027 11:36:24.573   01 Jun 2027 11:36:44.663            20.090                Norilsk           627.812
        41   01 Jun 2027 12:38:52.549   01 Jun 2027 12:40:54.123           121.574               CapeTown          3799.187
        42   01 Jun 2027 12:42:10.725   01 Jun 2027 12:43:39.968            89.243               CapeTown          2788.844
        43   01 Jun 2027 13:02:02.658   01 Jun 2027 13:03:47.293           104.635              Murmansk2          3269.844
        44   01 Jun 2027 13:03:47.293   01 Jun 2027 13:06:53.562           186.269              Murmansk1          5820.906
        45   01 Jun 2027 13:12:07.509   01 Jun 2027 13:12:13.130             5.621              Murmansk2           175.656
        46   01 Jun 2027 13:12:26.605   01 Jun 2027 13:12:34.383             7.778              Murmansk2           243.062
        47   01 Jun 2027 13:17:10.677   01 Jun 2027 13:23:29.519           378.842                Anadyr1         11838.813
        48   01 Jun 2027 14:40:29.075   01 Jun 2027 14:41:10.741            41.666              Murmansk1          1302.062
        49   01 Jun 2027 14:42:22.099   01 Jun 2027 14:44:11.787           109.688              Murmansk2          3427.750
        50   01 Jun 2027 14:52:16.873   01 Jun 2027 14:54:19.880           123.007                Anadyr2          3843.969
        51   01 Jun 2027 14:54:53.202   01 Jun 2027 14:55:29.603            36.401                Anadyr2          1137.531
        52   01 Jun 2027 14:56:02.498   01 Jun 2027 14:56:24.258            21.760                Anadyr2           680.000
        53   01 Jun 2027 14:57:45.665   01 Jun 2027 14:59:42.794           117.129               Magadan1          3660.281
        54   01 Jun 2027 16:22:42.229   01 Jun 2027 16:23:52.716            70.487              Murmansk2          2202.719
        55   01 Jun 2027 16:28:07.599   01 Jun 2027 16:29:57.067           109.468                Anadyr1          3420.875
        56   01 Jun 2027 16:30:40.338   01 Jun 2027 16:33:41.329           180.991               Magadan1          5655.969
        57   01 Jun 2027 16:34:40.155   01 Jun 2027 16:35:42.887            62.732               Magadan1          1960.375
        58   01 Jun 2027 16:39:17.184   01 Jun 2027 16:39:20.887             3.703               Magadan1           115.719
        59   01 Jun 2027 18:04:01.944   01 Jun 2027 18:07:25.273           203.329                Anadyr1          6354.031
        60   01 Jun 2027 18:08:00.486   01 Jun 2027 18:09:20.427            79.941               Magadan1          2498.156
        61   01 Jun 2027 18:09:20.427   01 Jun 2027 18:10:14.257            53.830               Magadan2          1682.187
        62   01 Jun 2027 18:10:37.355   01 Jun 2027 18:10:46.432             9.077                Norilsk           283.656
        63   01 Jun 2027 18:58:32.286   01 Jun 2027 19:02:15.258           222.972            RioGallegos          6967.875
        64   01 Jun 2027 19:07:25.759   01 Jun 2027 19:07:58.102            32.343            RioGallegos          1010.719
        65   01 Jun 2027 19:41:53.873   01 Jun 2027 19:44:46.870           172.997                Norilsk          5406.156
        66   01 Jun 2027 19:45:01.946   01 Jun 2027 19:46:29.519            87.573                Norilsk          2736.656
        67   01 Jun 2027 19:46:35.782   01 Jun 2027 19:47:33.648            57.866                Irkutsk          1808.313
        68   01 Jun 2027 19:48:11.537   01 Jun 2027 19:53:04.453           292.916                Novosib          9153.625
        69   01 Jun 2027 20:02:29.083   01 Jun 2027 20:03:45.498            76.415                Sumatra          2387.969
        70   01 Jun 2027 20:11:29.139   01 Jun 2027 20:12:13.244            44.105                Sumatra          1378.281
        71   01 Jun 2027 21:21:41.681   01 Jun 2027 21:21:45.512             3.831                Irkutsk           119.719
        72   01 Jun 2027 21:21:51.171   01 Jun 2027 21:22:26.531            35.360                Novosib          1105.000
        73   01 Jun 2027 21:23:24.984   01 Jun 2027 21:24:05.253            40.269                Novosib          1258.406
        74   01 Jun 2027 21:25:51.599   01 Jun 2027 21:25:53.694             2.095                Novosib            65.469
        75   01 Jun 2027 21:27:30.904   01 Jun 2027 21:28:02.562            31.658                Novosib           989.313
        76   01 Jun 2027 21:29:40.556   01 Jun 2027 21:34:45.488           304.932                  Delhi          9529.125
        77   01 Jun 2027 22:53:49.212   01 Jun 2027 22:53:56.972             7.760                Norilsk           242.500
        78   01 Jun 2027 22:54:08.640   01 Jun 2027 22:55:24.421            75.781               Magadan2          2368.156
        79   01 Jun 2027 22:56:10.323   01 Jun 2027 22:56:48.295            37.972               Magadan2          1186.625
        80   01 Jun 2027 22:57:11.268   01 Jun 2027 23:00:15.911           184.643              Murmansk1          5770.094
        81   01 Jun 2027 23:01:08.390   01 Jun 2027 23:07:01.183           352.793                 Moscow         11024.781
        82   02 Jun 2027 00:26:28.245   02 Jun 2027 00:27:16.258            48.013               Magadan1          1500.406
        83   02 Jun 2027 00:27:36.671   02 Jun 2027 00:28:17.390            40.719               Magadan1          1272.469
        84   02 Jun 2027 00:28:44.109   02 Jun 2027 00:29:01.368            17.259               Magadan1           539.344
        85   02 Jun 2027 00:31:57.321   02 Jun 2027 00:33:31.918            94.597              Murmansk2          2956.156
        86   02 Jun 2027 00:35:17.470   02 Jun 2027 00:36:09.049            51.579              Murmansk1          1611.844
        87   02 Jun 2027 00:37:22.684   02 Jun 2027 00:37:56.354            33.670                 Moscow          1052.188
        88   02 Jun 2027 00:39:41.809   02 Jun 2027 00:41:10.126            88.317                 Moscow          2759.906
        89   02 Jun 2027 00:59:40.739   02 Jun 2027 01:00:18.399            37.660               CapeTown          1176.875
        90   02 Jun 2027 01:07:42.236   02 Jun 2027 01:07:46.161             3.925               CapeTown           122.656
        91   02 Jun 2027 01:10:37.868   02 Jun 2027 01:10:59.124            21.256               CapeTown           664.250
        92   02 Jun 2027 01:55:53.080   02 Jun 2027 01:56:48.881            55.801                Anadyr1          1743.781
        93   02 Jun 2027 01:57:16.154   02 Jun 2027 01:57:25.308             9.154                Anadyr1           286.063
        94   02 Jun 2027 01:57:51.684   02 Jun 2027 01:58:01.672             9.988                Anadyr1           312.125
        95   02 Jun 2027 01:58:19.548   02 Jun 2027 01:59:38.676            79.128               Magadan2          2472.750
        96   02 Jun 2027 02:00:56.674   02 Jun 2027 02:01:19.399            22.725               Magadan2           710.156
        97   02 Jun 2027 02:03:28.220   02 Jun 2027 02:03:50.159            21.939               Magadan1           685.594
        98   02 Jun 2027 02:04:58.172   02 Jun 2027 02:05:10.935            12.763                Norilsk           398.844
        99   02 Jun 2027 02:07:55.391   02 Jun 2027 02:09:25.117            89.726              Murmansk1          2803.938
       100   02 Jun 2027 02:09:36.496   02 Jun 2027 02:09:58.170            21.674              Murmansk2           677.312
       101   02 Jun 2027 02:11:08.290   02 Jun 2027 02:11:16.118             7.828              Murmansk1           244.625
       102   02 Jun 2027 02:11:27.167   02 Jun 2027 02:11:38.239            11.072                 Moscow           346.000
       103   02 Jun 2027 02:14:10.482   02 Jun 2027 02:14:15.869             5.387                 Moscow           168.344
       104   02 Jun 2027 02:14:32.408   02 Jun 2027 02:14:41.326             8.918                 Moscow           278.688
       105   02 Jun 2027 02:14:49.785   02 Jun 2027 02:15:00.202            10.417                 Moscow           325.531
       106   02 Jun 2027 02:16:37.902   02 Jun 2027 02:16:54.901            16.999                 Moscow           531.219
       107   02 Jun 2027 02:19:54.153   02 Jun 2027 02:19:57.223             3.070                 Moscow            95.938
       108   02 Jun 2027 02:20:39.160   02 Jun 2027 02:20:46.559             7.399                 Moscow           231.219
       109   02 Jun 2027 02:21:03.412   02 Jun 2027 02:21:23.179            19.767                 Moscow           617.719
       110   02 Jun 2027 02:35:47.189   02 Jun 2027 02:36:26.977            39.788               CapeTown          1243.375
       111   02 Jun 2027 02:42:25.944   02 Jun 2027 02:43:36.521            70.577               CapeTown          2205.531
       112   02 Jun 2027 03:36:47.256   02 Jun 2027 03:37:13.803            26.547                Anadyr2           829.594
       113   02 Jun 2027 03:37:13.803   02 Jun 2027 03:38:11.643            57.840                Anadyr1          1807.500
       114   02 Jun 2027 03:38:26.312   02 Jun 2027 03:42:02.084           215.772                Anadyr2          6742.875
       115   02 Jun 2027 03:42:02.084   02 Jun 2027 03:42:47.501            45.417                Anadyr1          1419.281
       116   02 Jun 2027 03:44:06.969   02 Jun 2027 03:44:37.758            30.789                Anadyr2           962.156
       117   02 Jun 2027 05:16:03.212   02 Jun 2027 05:17:53.396           110.184               Magadan2          3443.250
       118   02 Jun 2027 05:17:57.314   02 Jun 2027 05:18:04.126             6.812               Magadan2           212.875
       119   02 Jun 2027 05:18:29.369   02 Jun 2027 05:19:39.423            70.054               Magadan2          2189.187
       120   02 Jun 2027 06:51:32.984   02 Jun 2027 06:51:42.515             9.531               Magadan2           297.844
       121   02 Jun 2027 06:51:55.662   02 Jun 2027 06:52:32.654            36.992                Novosib          1156.000
       122   02 Jun 2027 06:52:34.336   02 Jun 2027 06:52:47.644            13.308                Irkutsk           415.875
       123   02 Jun 2027 06:53:01.708   02 Jun 2027 06:53:47.332            45.624                Irkutsk          1425.750
       124   02 Jun 2027 06:54:04.954   02 Jun 2027 06:55:16.678            71.724               Magadan2          2241.375
       125   02 Jun 2027 06:55:50.582   02 Jun 2027 06:56:23.697            33.115                Novosib          1034.844
       126   02 Jun 2027 06:57:05.650   02 Jun 2027 06:57:42.475            36.825              Murmansk1          1150.781
       127   02 Jun 2027 08:09:20.215   02 Jun 2027 08:11:45.065           144.850                Sumatra          4526.563
       128   02 Jun 2027 08:27:54.430   02 Jun 2027 08:28:21.394            26.964                Irkutsk           842.625
       129   02 Jun 2027 08:29:33.082   02 Jun 2027 08:29:54.980            21.898                Irkutsk           684.313
       130   02 Jun 2027 08:30:01.622   02 Jun 2027 08:30:22.762            21.140                Novosib           660.625
       131   02 Jun 2027 08:30:23.772   02 Jun 2027 08:30:27.471             3.699                Irkutsk           115.594
       132   02 Jun 2027 08:31:13.632   02 Jun 2027 08:31:51.798            38.166                Irkutsk          1192.688
       133   02 Jun 2027 08:35:09.503   02 Jun 2027 08:35:15.355             5.852                Norilsk           182.875
       134   02 Jun 2027 09:09:20.289   02 Jun 2027 09:12:25.497           185.208            RioGallegos          5787.750
       135   02 Jun 2027 09:13:10.346   02 Jun 2027 09:13:15.005             4.659            RioGallegos           145.594
       136   02 Jun 2027 09:13:38.015   02 Jun 2027 09:13:58.834            20.819            RioGallegos           650.594
       137   02 Jun 2027 09:15:11.830   02 Jun 2027 09:15:45.511            33.681            RioGallegos          1052.531
       138   02 Jun 2027 09:16:57.644   02 Jun 2027 09:17:02.570             4.926            RioGallegos           153.937
       139   02 Jun 2027 09:17:04.662   02 Jun 2027 09:18:13.911            69.249            RioGallegos          2164.031
       140   02 Jun 2027 09:43:42.118   02 Jun 2027 09:45:17.244            95.126                Sumatra          2972.687
       141   02 Jun 2027 10:04:01.326   02 Jun 2027 10:04:33.407            32.081                Norilsk          1002.531
       142   02 Jun 2027 10:04:37.860   02 Jun 2027 10:05:21.405            43.545                Irkutsk          1360.781
       143   02 Jun 2027 10:06:13.043   02 Jun 2027 10:06:20.328             7.285                Norilsk           227.656
       144   02 Jun 2027 10:06:28.440   02 Jun 2027 10:06:32.530             4.090                Novosib           127.812
       145   02 Jun 2027 10:06:44.271   02 Jun 2027 10:06:56.665            12.394                Novosib           387.312
       146   02 Jun 2027 10:07:04.813   02 Jun 2027 10:07:16.739            11.926                Novosib           372.688
       147   02 Jun 2027 10:07:26.406   02 Jun 2027 10:07:41.972            15.566                Novosib           486.438
       148   02 Jun 2027 11:29:37.754   02 Jun 2027 11:32:15.263           157.509                  Delhi          4922.156
       149   02 Jun 2027 11:45:41.159   02 Jun 2027 11:46:30.851            49.692                Norilsk          1552.875
       150   02 Jun 2027 12:49:52.004   02 Jun 2027 12:52:34.047           162.043               CapeTown          5063.844
       151   02 Jun 2027 12:55:50.985   02 Jun 2027 12:57:46.963           115.978               CapeTown          3624.313
       152   02 Jun 2027 13:14:15.488   02 Jun 2027 13:14:43.619            28.131              Murmansk1           879.094
       153   02 Jun 2027 13:14:46.633   02 Jun 2027 13:15:47.874            61.241              Murmansk2          1913.781
       154   02 Jun 2027 13:28:58.767   02 Jun 2027 13:32:46.840           228.073                Anadyr1          7127.281
       155   02 Jun 2027 13:32:56.594   02 Jun 2027 13:34:30.234            93.640                Anadyr2          2926.250
       156   02 Jun 2027 14:53:00.099   02 Jun 2027 14:53:21.824            21.725              Murmansk1           678.906
       157   02 Jun 2027 14:54:23.349   02 Jun 2027 14:54:29.636             6.287              Murmansk2           196.469
       158   02 Jun 2027 14:54:46.336   02 Jun 2027 14:55:32.840            46.504              Murmansk2          1453.250
       159   02 Jun 2027 15:04:16.565   02 Jun 2027 15:05:20.489            63.924                Anadyr2          1997.625
       160   02 Jun 2027 15:05:20.489   02 Jun 2027 15:06:01.009            40.520                Anadyr1          1266.250
       161   02 Jun 2027 15:06:22.677   02 Jun 2027 15:07:30.939            68.262                Anadyr2          2133.188
       162   02 Jun 2027 15:08:34.219   02 Jun 2027 15:13:32.649           298.430               Magadan1          9325.938
       163   02 Jun 2027 16:40:08.967   02 Jun 2027 16:40:22.073            13.106                Anadyr1           409.563
       164   02 Jun 2027 16:40:56.141   02 Jun 2027 16:41:47.021            50.880                Anadyr1          1590.000
       165   02 Jun 2027 16:42:36.949   02 Jun 2027 16:44:33.997           117.048               Magadan1          3657.750
       166   02 Jun 2027 16:44:48.049   02 Jun 2027 16:45:23.355            35.306               Magadan2          1103.313
       167   02 Jun 2027 18:16:02.355   02 Jun 2027 18:19:26.759           204.404                Anadyr2          6387.625
       168   02 Jun 2027 18:19:48.839   02 Jun 2027 18:21:46.981           118.142               Magadan2          3691.937
       169   02 Jun 2027 18:22:06.802   02 Jun 2027 18:22:20.645            13.843                Norilsk           432.594
       170   02 Jun 2027 18:23:25.020   02 Jun 2027 18:23:34.069             9.049               Magadan1           282.781
       171   02 Jun 2027 18:25:16.155   02 Jun 2027 18:28:22.303           186.148                Irkutsk          5817.125
       172   02 Jun 2027 19:10:21.689   02 Jun 2027 19:11:38.145            76.456            RioGallegos          2389.250
       173   02 Jun 2027 19:13:08.991   02 Jun 2027 19:13:35.484            26.493            RioGallegos           827.906
       174   02 Jun 2027 19:20:16.917   02 Jun 2027 19:21:34.981            78.064            RioGallegos          2439.500
       175   02 Jun 2027 19:54:24.350   02 Jun 2027 19:55:08.031            43.681               Magadan2          1365.031
       176   02 Jun 2027 19:57:50.208   02 Jun 2027 19:58:14.775            24.567               Magadan1           767.719
       177   02 Jun 2027 19:58:19.729   02 Jun 2027 19:59:22.755            63.026                Irkutsk          1969.563
       178   02 Jun 2027 19:59:30.848   02 Jun 2027 20:02:41.096           190.248                Novosib          5945.250
       179   02 Jun 2027 20:03:48.151   02 Jun 2027 20:05:31.306           103.155                Novosib          3223.594
       180   02 Jun 2027 20:12:49.793   02 Jun 2027 20:14:07.515            77.722                Sumatra          2428.812
       181   02 Jun 2027 20:22:59.242   02 Jun 2027 20:23:06.187             6.945                Sumatra           217.031
       182   02 Jun 2027 21:32:39.136   02 Jun 2027 21:32:46.243             7.107                Norilsk           222.094
       183   02 Jun 2027 21:33:44.745   02 Jun 2027 21:34:01.311            16.566                Irkutsk           517.688
       184   02 Jun 2027 21:34:10.911   02 Jun 2027 21:35:51.757           100.846                Novosib          3151.438
       185   02 Jun 2027 21:38:16.747   02 Jun 2027 21:39:27.632            70.885                Novosib          2215.156
       186   02 Jun 2027 21:41:25.345   02 Jun 2027 21:42:58.235            92.890                  Delhi          2902.813
       187   02 Jun 2027 21:43:38.472   02 Jun 2027 21:45:12.806            94.334                  Delhi          2947.938
       188   02 Jun 2027 23:05:44.246   02 Jun 2027 23:06:21.853            37.607               Magadan2          1175.219
       189   02 Jun 2027 23:08:10.589   02 Jun 2027 23:13:05.439           294.850              Murmansk2          9214.062
       190   02 Jun 2027 23:14:11.203   02 Jun 2027 23:17:38.883           207.680                 Moscow          6490.000
       191   03 Jun 2027 00:37:56.220   03 Jun 2027 00:38:50.980            54.760               Magadan1          1711.250
       192   03 Jun 2027 00:41:40.235   03 Jun 2027 00:41:59.506            19.271               Magadan1           602.219
       193   03 Jun 2027 00:43:58.755   03 Jun 2027 00:47:18.846           200.091              Murmansk1          6252.844
       194   03 Jun 2027 00:47:27.429   03 Jun 2027 00:48:22.701            55.272                 Moscow          1727.250
       195   03 Jun 2027 00:59:45.974   03 Jun 2027 00:59:52.551             6.577                 Moscow           205.531
       196   03 Jun 2027 01:11:25.334   03 Jun 2027 01:13:02.050            96.716               CapeTown          3022.375
       197   03 Jun 2027 02:07:50.980   03 Jun 2027 02:08:49.111            58.131                Anadyr2          1816.594
       198   03 Jun 2027 02:09:10.385   03 Jun 2027 02:09:14.932             4.547                Anadyr2           142.094
       199   03 Jun 2027 02:09:56.067   03 Jun 2027 02:11:06.685            70.618               Magadan1          2206.812
       200   03 Jun 2027 02:12:06.626   03 Jun 2027 02:12:26.647            20.021               Magadan2           625.656
       201   03 Jun 2027 02:14:55.700   03 Jun 2027 02:15:20.858            25.158               Magadan2           786.188
       202   03 Jun 2027 02:16:52.542   03 Jun 2027 02:16:59.494             6.952                Norilsk           217.250
       203   03 Jun 2027 02:17:47.224   03 Jun 2027 02:17:48.453             1.229               Magadan1            38.406
       204   03 Jun 2027 02:18:41.045   03 Jun 2027 02:19:01.978            20.933               Magadan2           654.156
       205   03 Jun 2027 02:19:56.870   03 Jun 2027 02:20:59.289            62.419              Murmansk1          1950.594
       206   03 Jun 2027 02:21:00.940   03 Jun 2027 02:21:23.652            22.712              Murmansk1           709.750
       207   03 Jun 2027 02:23:07.704   03 Jun 2027 02:24:06.183            58.479              Murmansk2          1827.469
       208   03 Jun 2027 02:28:10.349   03 Jun 2027 02:28:40.152            29.803                 Moscow           931.344
       209   03 Jun 2027 02:32:23.318   03 Jun 2027 02:32:29.184             5.866                 Moscow           183.312
       210   03 Jun 2027 02:34:35.345   03 Jun 2027 02:34:40.305             4.960                 Moscow           155.000
       211   03 Jun 2027 02:35:16.958   03 Jun 2027 02:35:26.587             9.629                 Moscow           300.906
       212   03 Jun 2027 02:48:16.988   03 Jun 2027 02:48:33.268            16.280               CapeTown           508.750
       213   03 Jun 2027 02:48:54.059   03 Jun 2027 02:49:28.972            34.913               CapeTown          1091.031
       214   03 Jun 2027 02:52:58.055   03 Jun 2027 02:53:19.144            21.089               CapeTown           659.031
       215   03 Jun 2027 03:45:20.040   03 Jun 2027 03:45:42.415            22.375                Anadyr2           699.219
       216   03 Jun 2027 03:48:37.292   03 Jun 2027 03:49:26.240            48.948                Anadyr1          1529.625
       217   03 Jun 2027 03:49:26.240   03 Jun 2027 03:54:18.455           292.215                Anadyr2          9131.719
       218   03 Jun 2027 03:55:20.242   03 Jun 2027 03:55:54.811            34.569                Anadyr1          1080.281
       219   03 Jun 2027 04:36:59.245   03 Jun 2027 04:37:13.761            14.516            RioGallegos           453.625
       220   03 Jun 2027 05:26:02.965   03 Jun 2027 05:26:40.187            37.222               Magadan2          1163.188
       221   03 Jun 2027 05:26:40.681   03 Jun 2027 05:27:00.055            19.374               Magadan2           605.437
       222   03 Jun 2027 05:27:05.370   03 Jun 2027 05:28:16.050            70.680                Irkutsk          2208.750
       223   03 Jun 2027 05:28:26.599   03 Jun 2027 05:28:44.224            17.625                Anadyr1           550.781
       224   03 Jun 2027 05:29:07.280   03 Jun 2027 05:30:56.728           109.448                Anadyr2          3420.250
       225   03 Jun 2027 05:31:49.151   03 Jun 2027 05:32:12.632            23.481               Magadan1           733.781
       226   03 Jun 2027 07:03:10.593   03 Jun 2027 07:03:20.500             9.907               Magadan2           309.594
       227   03 Jun 2027 07:03:20.500   03 Jun 2027 07:03:32.278            11.778               Magadan1           368.063
       228   03 Jun 2027 07:03:35.401   03 Jun 2027 07:04:03.998            28.597               Magadan1           893.656
       229   03 Jun 2027 07:04:08.189   03 Jun 2027 07:04:34.375            26.186               Magadan1           818.313
       230   03 Jun 2027 07:05:43.594   03 Jun 2027 07:06:07.733            24.139               Magadan2           754.344
       231   03 Jun 2027 07:06:07.733   03 Jun 2027 07:06:10.413             2.680               Magadan1            83.750
       232   03 Jun 2027 07:06:39.878   03 Jun 2027 07:07:00.067            20.189               Magadan1           630.906
       233   03 Jun 2027 07:07:38.210   03 Jun 2027 07:08:09.103            30.893                Norilsk           965.406
       234   03 Jun 2027 07:49:20.323   03 Jun 2027 07:49:55.479            35.156            RioGallegos          1098.625
       235   03 Jun 2027 08:23:52.926   03 Jun 2027 08:24:42.568            49.642                Sumatra          1551.312
       236   03 Jun 2027 08:40:42.764   03 Jun 2027 08:41:11.635            28.871                Irkutsk           902.219
       237   03 Jun 2027 08:41:21.726   03 Jun 2027 08:41:25.817             4.091                Irkutsk           127.844
       238   03 Jun 2027 08:41:36.305   03 Jun 2027 08:41:36.577             0.272                Irkutsk             8.500
       239   03 Jun 2027 08:42:14.696   03 Jun 2027 08:42:54.111            39.415                Irkutsk          1231.719
       240   03 Jun 2027 08:42:59.772   03 Jun 2027 08:43:23.616            23.844                Novosib           745.125
       241   03 Jun 2027 08:43:25.407   03 Jun 2027 08:43:36.078            10.671                Norilsk           333.469
       242   03 Jun 2027 08:43:47.336   03 Jun 2027 08:44:53.544            66.208                Norilsk          2069.000
       243   03 Jun 2027 09:57:06.212   03 Jun 2027 09:57:54.552            48.340                Sumatra          1510.625
       244   03 Jun 2027 09:59:54.968   03 Jun 2027 10:00:11.891            16.923                Sumatra           528.844
       245   03 Jun 2027 10:01:49.184   03 Jun 2027 10:02:34.488            45.304                  Delhi          1415.750
       246   03 Jun 2027 10:17:20.116   03 Jun 2027 10:18:19.180            59.064                Novosib          1845.750
       247   03 Jun 2027 10:18:52.725   03 Jun 2027 10:18:56.092             3.367                Novosib           105.219
       248   03 Jun 2027 10:18:56.529   03 Jun 2027 10:19:06.887            10.358                Novosib           323.687
       249   03 Jun 2027 10:19:23.245   03 Jun 2027 10:19:34.263            11.018                Norilsk           344.312
       250   03 Jun 2027 11:59:22.254   03 Jun 2027 11:59:34.544            12.290                Norilsk           384.063
       251   03 Jun 2027 13:01:13.352   03 Jun 2027 13:02:21.334            67.982               CapeTown          2124.437
       252   03 Jun 2027 13:06:06.891   03 Jun 2027 13:06:24.754            17.863               CapeTown           558.219
       253   03 Jun 2027 13:08:05.689   03 Jun 2027 13:09:39.457            93.768               CapeTown          2930.250
       254   03 Jun 2027 13:23:14.199   03 Jun 2027 13:23:43.323            29.124                 Moscow           910.125
       255   03 Jun 2027 13:26:30.250   03 Jun 2027 13:27:14.827            44.577              Murmansk2          1393.031
       256   03 Jun 2027 13:27:17.562   03 Jun 2027 13:28:16.263            58.701              Murmansk1          1834.406
       257   03 Jun 2027 13:29:56.254   03 Jun 2027 13:30:27.375            31.121              Murmansk1           972.531
       258   03 Jun 2027 13:31:13.665   03 Jun 2027 13:31:26.560            12.895              Murmansk2           402.969
       259   03 Jun 2027 13:33:08.011   03 Jun 2027 13:33:16.627             8.616              Murmansk2           269.250
       260   03 Jun 2027 13:33:25.450   03 Jun 2027 13:33:53.029            27.579              Murmansk2           861.844
       261   03 Jun 2027 13:35:05.754   03 Jun 2027 13:36:07.956            62.202              Murmansk2          1943.812
       262   03 Jun 2027 13:40:50.234   03 Jun 2027 13:44:08.280           198.046                Anadyr1          6188.938
       263   03 Jun 2027 13:48:08.107   03 Jun 2027 13:48:52.379            44.272                Anadyr2          1383.500
       264   03 Jun 2027 15:05:34.104   03 Jun 2027 15:05:34.798             0.694              Murmansk2            21.687
       265   03 Jun 2027 15:06:24.362   03 Jun 2027 15:07:44.618            80.256              Murmansk1          2508.000
       266   03 Jun 2027 15:10:16.695   03 Jun 2027 15:10:20.702             4.007              Murmansk1           125.219
       267   03 Jun 2027 15:10:35.907   03 Jun 2027 15:11:05.333            29.426              Murmansk2           919.562
       268   03 Jun 2027 15:16:16.668   03 Jun 2027 15:17:58.145           101.477                Anadyr1          3171.156
       269   03 Jun 2027 15:18:27.516   03 Jun 2027 15:18:48.252            20.736                Anadyr2           648.000
       270   03 Jun 2027 15:19:04.436   03 Jun 2027 15:19:26.385            21.949                Anadyr2           685.906
       271   03 Jun 2027 15:20:01.405   03 Jun 2027 15:23:21.769           200.364               Magadan2          6261.375
       272   03 Jun 2027 15:23:36.449   03 Jun 2027 15:24:41.695            65.246               Magadan1          2038.937
       273   03 Jun 2027 15:26:10.210   03 Jun 2027 15:26:40.919            30.709               Magadan1           959.656
       274   03 Jun 2027 16:52:10.341   03 Jun 2027 16:52:46.387            36.046                Anadyr2          1126.437
       275   03 Jun 2027 16:52:46.387   03 Jun 2027 16:53:24.913            38.526                Anadyr1          1203.937
       276   03 Jun 2027 16:54:34.593   03 Jun 2027 16:56:19.706           105.113               Magadan2          3284.781
       277   03 Jun 2027 16:57:35.391   03 Jun 2027 16:57:44.679             9.288               Magadan2           290.250
       278   03 Jun 2027 16:59:11.257   03 Jun 2027 17:00:13.736            62.479               Magadan2          1952.469
       279   03 Jun 2027 18:28:02.458   03 Jun 2027 18:29:37.461            95.003                Anadyr1          2968.844
       280   03 Jun 2027 18:29:47.445   03 Jun 2027 18:31:28.285           100.840                Anadyr2          3151.250
       281   03 Jun 2027 18:31:35.117   03 Jun 2027 18:33:08.267            93.150               Magadan1          2910.937
       282   03 Jun 2027 18:33:17.236   03 Jun 2027 18:34:18.037            60.801                Norilsk          1900.031
       283   03 Jun 2027 18:35:46.582   03 Jun 2027 18:36:36.032            49.450                Norilsk          1545.313
       284   03 Jun 2027 18:36:46.360   03 Jun 2027 18:38:58.116           131.756                Irkutsk          4117.375
       285   03 Jun 2027 18:39:50.159   03 Jun 2027 18:41:40.933           110.774                Irkutsk          3461.687
       286   03 Jun 2027 18:53:23.558   03 Jun 2027 18:54:07.771            44.213                Sumatra          1381.656
       287   03 Jun 2027 20:06:27.073   03 Jun 2027 20:07:47.167            80.094               Magadan2          2502.938
       288   03 Jun 2027 20:08:20.464   03 Jun 2027 20:08:52.402            31.938                Norilsk           998.063
       289   03 Jun 2027 20:09:56.137   03 Jun 2027 20:11:56.466           120.329                Irkutsk          3760.281
       290   03 Jun 2027 20:12:41.035   03 Jun 2027 20:14:30.884           109.849                Novosib          3432.781
       291   03 Jun 2027 20:15:41.526   03 Jun 2027 20:16:10.266            28.740                Novosib           898.125
       292   03 Jun 2027 20:17:35.454   03 Jun 2027 20:18:26.369            50.915                Novosib          1591.094
       293   03 Jun 2027 20:23:37.098   03 Jun 2027 20:23:44.732             7.634                Sumatra           238.563
       294   03 Jun 2027 20:24:21.203   03 Jun 2027 20:25:09.515            48.312                Sumatra          1509.750
       295   03 Jun 2027 21:42:29.753   03 Jun 2027 21:43:29.079            59.326               Magadan2          1853.937
       296   03 Jun 2027 21:45:46.464   03 Jun 2027 21:47:49.354           122.890                Novosib          3840.312
       297   03 Jun 2027 21:51:03.880   03 Jun 2027 21:51:26.975            23.095                Novosib           721.719
       298   03 Jun 2027 21:53:14.898   03 Jun 2027 21:56:36.342           201.444                  Delhi          6295.125
       299   03 Jun 2027 22:04:09.215   03 Jun 2027 22:04:33.325            24.110                  Delhi           753.438
       300   03 Jun 2027 23:17:27.956   03 Jun 2027 23:18:00.454            32.498               Magadan1          1015.563
       301   03 Jun 2027 23:18:32.537   03 Jun 2027 23:19:13.129            40.592               Magadan1          1268.500
       302   03 Jun 2027 23:19:18.022   03 Jun 2027 23:19:50.770            32.748               Magadan1          1023.375
       303   03 Jun 2027 23:20:09.275   03 Jun 2027 23:24:23.498           254.223              Murmansk2          7944.469
       304   03 Jun 2027 23:24:44.903   03 Jun 2027 23:26:14.329            89.426                 Moscow          2794.562
       305   03 Jun 2027 23:26:32.146   03 Jun 2027 23:27:55.366            83.220                 Moscow          2600.625
       306   03 Jun 2027 23:52:11.502   03 Jun 2027 23:53:25.694            74.192               CapeTown          2318.500
       307   03 Jun 2027 23:55:01.023   03 Jun 2027 23:56:14.425            73.402               CapeTown          2293.813
       308   04 Jun 2027 00:56:00.314   04 Jun 2027 00:56:14.135            13.821              Murmansk2           431.906
       309   04 Jun 2027 00:56:14.135   04 Jun 2027 00:57:25.920            71.785              Murmansk1          2243.281
       310   04 Jun 2027 00:58:13.718   04 Jun 2027 00:58:27.954            14.236                Novosib           444.875
       311   04 Jun 2027 00:58:48.277   04 Jun 2027 00:58:54.324             6.047              Murmansk2           188.969
       312   04 Jun 2027 00:59:16.437   04 Jun 2027 01:01:08.777           112.340                 Moscow          3510.625
       313   04 Jun 2027 01:23:15.118   04 Jun 2027 01:24:47.495            92.377               CapeTown          2886.781
       314   04 Jun 2027 02:19:50.699   04 Jun 2027 02:20:49.651            58.952                Anadyr1          1842.250
       315   04 Jun 2027 02:20:56.689   04 Jun 2027 02:21:12.977            16.288                Anadyr2           509.000
       316   04 Jun 2027 02:21:34.316   04 Jun 2027 02:21:43.266             8.950               Magadan2           279.687
       317   04 Jun 2027 02:21:43.266   04 Jun 2027 02:22:35.200            51.934               Magadan1          1622.938
       318   04 Jun 2027 02:23:55.550   04 Jun 2027 02:24:08.672            13.122               Magadan1           410.062
       319   04 Jun 2027 02:25:59.027   04 Jun 2027 02:26:10.461            11.434               Magadan1           357.312
       320   04 Jun 2027 02:27:25.771   04 Jun 2027 02:28:11.058            45.287               Magadan1          1415.219
       321   04 Jun 2027 02:31:58.225   04 Jun 2027 02:32:26.842            28.617              Murmansk2           894.281
       322   04 Jun 2027 02:33:18.669   04 Jun 2027 02:33:38.354            19.685              Murmansk1           615.156
       323   04 Jun 2027 02:34:19.790   04 Jun 2027 02:35:06.728            46.938              Murmansk1          1466.812
       324   04 Jun 2027 02:35:16.430   04 Jun 2027 02:35:59.821            43.391                 Moscow          1355.969
       325   04 Jun 2027 02:41:30.591   04 Jun 2027 02:41:41.723            11.132                 Moscow           347.875
       326   04 Jun 2027 02:43:58.020   04 Jun 2027 02:44:01.137             3.117                 Moscow            97.406
       327   04 Jun 2027 02:45:39.123   04 Jun 2027 02:46:28.796            49.673                 Moscow          1552.281
       328   04 Jun 2027 03:00:56.550   04 Jun 2027 03:01:07.530            10.980               CapeTown           343.125
       329   04 Jun 2027 03:01:08.832   04 Jun 2027 03:01:14.470             5.638               CapeTown           176.187
       330   04 Jun 2027 03:04:47.315   04 Jun 2027 03:05:20.081            32.766               CapeTown          1023.937
       331   04 Jun 2027 03:57:59.160   04 Jun 2027 03:58:08.279             9.119               Magadan2           284.969
       332   04 Jun 2027 03:58:30.759   04 Jun 2027 03:58:48.212            17.453               Magadan2           545.406
       333   04 Jun 2027 04:00:14.788   04 Jun 2027 04:01:15.388            60.600               Magadan1          1893.750
       334   04 Jun 2027 04:01:22.482   04 Jun 2027 04:04:30.263           187.781                Anadyr1          5868.156
       335   04 Jun 2027 04:04:36.417   04 Jun 2027 04:06:19.895           103.478                Anadyr1          3233.688
       336   04 Jun 2027 04:07:44.030   04 Jun 2027 04:07:57.162            13.132                Anadyr2           410.375
       337   04 Jun 2027 05:37:03.357   04 Jun 2027 05:37:19.281            15.924                Irkutsk           497.625
       338   04 Jun 2027 05:38:13.909   04 Jun 2027 05:38:36.207            22.298               Magadan2           696.813
       339   04 Jun 2027 05:38:38.628   04 Jun 2027 05:41:54.425           195.797               Magadan2          6118.656
       340   04 Jun 2027 05:41:57.267   04 Jun 2027 05:42:03.513             6.246               Magadan1           195.187
       341   04 Jun 2027 05:42:03.513   04 Jun 2027 05:43:51.846           108.333               Magadan2          3385.406
       342   04 Jun 2027 07:14:50.045   04 Jun 2027 07:15:05.082            15.037               Magadan2           469.906
       343   04 Jun 2027 07:15:05.082   04 Jun 2027 07:15:25.921            20.839               Magadan1           651.219
       344   04 Jun 2027 07:15:40.542   04 Jun 2027 07:16:05.532            24.990               Magadan1           780.937
       345   04 Jun 2027 07:16:05.532   04 Jun 2027 07:16:11.562             6.030               Magadan2           188.438
       346   04 Jun 2027 07:16:42.163   04 Jun 2027 07:17:41.339            59.176               Magadan2          1849.250
       347   04 Jun 2027 07:17:54.710   04 Jun 2027 07:18:10.342            15.632               Magadan2           488.500
       348   04 Jun 2027 07:18:54.442   04 Jun 2027 07:19:30.321            35.879                Irkutsk          1121.219
       349   04 Jun 2027 07:19:47.848   04 Jun 2027 07:19:57.485             9.637                Irkutsk           301.156
       350   04 Jun 2027 07:21:17.367   04 Jun 2027 07:21:31.839            14.472              Murmansk1           452.250
       351   04 Jun 2027 07:59:59.056   04 Jun 2027 08:00:14.847            15.791            RioGallegos           493.469
       352   04 Jun 2027 08:01:49.540   04 Jun 2027 08:02:14.654            25.114            RioGallegos           784.812
       353   04 Jun 2027 08:29:37.112   04 Jun 2027 08:30:03.065            25.953                Sumatra           811.031
       354   04 Jun 2027 08:32:46.648   04 Jun 2027 08:33:15.364            28.716                Sumatra           897.375
       355   04 Jun 2027 08:38:08.780   04 Jun 2027 08:39:01.650            52.870                Sumatra          1652.188
       356   04 Jun 2027 08:53:47.468   04 Jun 2027 08:54:14.472            27.004                Irkutsk           843.875
       357   04 Jun 2027 08:54:18.538   04 Jun 2027 08:55:26.657            68.119                Irkutsk          2128.719
       358   04 Jun 2027 08:55:37.988   04 Jun 2027 08:55:42.876             4.888                Norilsk           152.750
       359   04 Jun 2027 08:56:03.387   04 Jun 2027 08:56:55.170            51.783                Norilsk          1618.219
       360   04 Jun 2027 09:35:18.080   04 Jun 2027 09:35:29.189            11.109            RioGallegos           347.156
       361   04 Jun 2027 09:37:12.153   04 Jun 2027 09:37:16.198             4.045            RioGallegos           126.406
       362   04 Jun 2027 09:38:17.411   04 Jun 2027 09:38:26.958             9.547            RioGallegos           298.344
       363   04 Jun 2027 10:13:57.395   04 Jun 2027 10:15:38.664           101.269                  Delhi          3164.656
       364   04 Jun 2027 10:30:27.201   04 Jun 2027 10:30:28.657             1.456                Novosib            45.500
       365   04 Jun 2027 10:31:00.262   04 Jun 2027 10:31:08.401             8.139                Novosib           254.344
       366   04 Jun 2027 10:31:43.846   04 Jun 2027 10:31:55.332            11.486                Novosib           358.937
       367   04 Jun 2027 12:02:42.234   04 Jun 2027 12:03:15.337            33.103              Murmansk2          1034.469
       368   04 Jun 2027 12:05:49.677   04 Jun 2027 12:06:43.267            53.590                Norilsk          1674.687
       369   04 Jun 2027 12:07:31.921   04 Jun 2027 12:08:44.150            72.229                Norilsk          2257.156
       370   04 Jun 2027 12:08:45.773   04 Jun 2027 12:09:27.863            42.090                Norilsk          1315.313
       371   04 Jun 2027 12:10:48.330   04 Jun 2027 12:11:31.219            42.889                Norilsk          1340.281
       372   04 Jun 2027 13:13:13.926   04 Jun 2027 13:13:49.366            35.440               CapeTown          1107.500
       373   04 Jun 2027 13:15:09.024   04 Jun 2027 13:16:09.211            60.187               CapeTown          1880.844
       374   04 Jun 2027 13:16:45.916   04 Jun 2027 13:17:57.535            71.619               CapeTown          2238.094
       375   04 Jun 2027 13:18:45.426   04 Jun 2027 13:19:26.216            40.790               CapeTown          1274.688
       376   04 Jun 2027 13:38:47.035   04 Jun 2027 13:39:39.132            52.097              Murmansk2          1628.031
       377   04 Jun 2027 13:43:09.445   04 Jun 2027 13:43:21.358            11.913              Murmansk1           372.281
       378   04 Jun 2027 13:44:18.638   04 Jun 2027 13:44:51.436            32.798              Murmansk1          1024.937
       379   04 Jun 2027 13:47:59.139   04 Jun 2027 13:48:09.689            10.550              Murmansk1           329.687
       380   04 Jun 2027 13:48:31.019   04 Jun 2027 13:49:09.879            38.860              Murmansk1          1214.375
       381   04 Jun 2027 13:52:44.017   04 Jun 2027 13:55:11.120           147.103                Anadyr1          4596.969
       382   04 Jun 2027 13:55:38.694   04 Jun 2027 13:56:23.965            45.271                Anadyr2          1414.719
       383   04 Jun 2027 14:00:09.307   04 Jun 2027 14:02:18.553           129.246                Anadyr1          4038.937
       384   04 Jun 2027 15:22:18.650   04 Jun 2027 15:22:36.340            17.690              Murmansk1           552.813
       385   04 Jun 2027 15:24:23.831   04 Jun 2027 15:24:52.709            28.878              Murmansk1           902.438
       386   04 Jun 2027 15:28:17.122   04 Jun 2027 15:29:18.980            61.858                Anadyr1          1933.062
       387   04 Jun 2027 15:30:29.760   04 Jun 2027 15:30:44.657            14.897                Anadyr2           465.531
       388   04 Jun 2027 15:30:57.499   04 Jun 2027 15:31:19.420            21.921                Anadyr2           685.031
       389   04 Jun 2027 15:31:33.549   04 Jun 2027 15:32:26.957            53.408                Anadyr2          1669.000
       390   04 Jun 2027 15:33:24.315   04 Jun 2027 15:36:39.926           195.611               Magadan1          6112.844
       391   04 Jun 2027 17:04:11.694   04 Jun 2027 17:05:23.076            71.382                Anadyr2          2230.688
       392   04 Jun 2027 17:05:30.142   04 Jun 2027 17:05:47.621            17.479                Anadyr1           546.219
       393   04 Jun 2027 17:06:32.708   04 Jun 2027 17:06:40.008             7.300                Anadyr2           228.125
       394   04 Jun 2027 17:07:17.110   04 Jun 2027 17:08:40.398            83.288               Magadan1          2602.750
       395   04 Jun 2027 17:09:02.572   04 Jun 2027 17:09:14.151            11.579               Magadan1           361.844
       396   04 Jun 2027 17:09:37.200   04 Jun 2027 17:09:46.703             9.503               Magadan1           296.969
       397   04 Jun 2027 17:13:39.411   04 Jun 2027 17:14:06.258            26.847               Magadan1           838.969
       398   04 Jun 2027 17:14:18.885   04 Jun 2027 17:14:21.979             3.094               Magadan1            96.688
       399   04 Jun 2027 17:17:00.333   04 Jun 2027 17:17:56.540            56.207               Magadan1          1756.469
       400   04 Jun 2027 18:01:50.460   04 Jun 2027 18:03:27.891            97.431            RioGallegos          3044.719
       401   04 Jun 2027 18:40:02.197   04 Jun 2027 18:40:54.528            52.331                Anadyr2          1635.344
       402   04 Jun 2027 18:41:16.170   04 Jun 2027 18:41:48.431            32.261                Anadyr2          1008.156
       403   04 Jun 2027 18:42:17.311   04 Jun 2027 18:46:16.549           239.238                Norilsk          7476.188
       404   04 Jun 2027 18:47:32.124   04 Jun 2027 18:49:31.617           119.493                Irkutsk          3734.156
       405   04 Jun 2027 18:52:18.613   04 Jun 2027 18:53:42.415            83.802                Irkutsk          2618.812
       406   04 Jun 2027 19:03:10.360   04 Jun 2027 19:04:53.688           103.328                Sumatra          3229.000
       407   04 Jun 2027 19:07:00.579   04 Jun 2027 19:08:16.048            75.469                Sumatra          2358.406
       408   04 Jun 2027 20:21:53.665   04 Jun 2027 20:22:38.179            44.514                Irkutsk          1391.062
       409   04 Jun 2027 20:22:46.875   04 Jun 2027 20:23:17.956            31.081                Novosib           971.281
       410   04 Jun 2027 20:23:52.388   04 Jun 2027 20:23:57.000             4.612                Irkutsk           144.125
       411   04 Jun 2027 20:24:44.260   04 Jun 2027 20:25:06.557            22.297                Novosib           696.781
       412   04 Jun 2027 20:25:12.358   04 Jun 2027 20:27:32.212           139.854                Novosib          4370.438
       413   04 Jun 2027 20:35:41.717   04 Jun 2027 20:35:52.424            10.707                Sumatra           334.594
       414   04 Jun 2027 20:44:04.137   04 Jun 2027 20:44:33.319            29.182                Sumatra           911.938
       415   04 Jun 2027 21:54:30.247   04 Jun 2027 21:55:19.065            48.818               Magadan2          1525.562
       416   04 Jun 2027 21:56:11.598   04 Jun 2027 21:56:36.386            24.788                Norilsk           774.625
       417   04 Jun 2027 21:57:15.926   04 Jun 2027 22:01:11.876           235.950              Murmansk1          7373.438
       418   04 Jun 2027 22:05:08.477   04 Jun 2027 22:06:30.890            82.413                  Delhi          2575.406
       419   04 Jun 2027 22:14:40.459   04 Jun 2027 22:15:00.781            20.322                  Delhi           635.062
       420   04 Jun 2027 23:23:58.250   04 Jun 2027 23:25:13.441            75.191                Anadyr1          2349.719
       421   04 Jun 2027 23:29:07.358   04 Jun 2027 23:30:35.173            87.815               Magadan1          2744.219
       422   04 Jun 2027 23:31:17.133   04 Jun 2027 23:31:53.466            36.333               Magadan2          1135.406
       423   04 Jun 2027 23:32:08.685   04 Jun 2027 23:34:55.927           167.242              Murmansk1          5226.312
       424   04 Jun 2027 23:35:24.106   04 Jun 2027 23:37:00.328            96.222              Murmansk1          3006.937
       425   04 Jun 2027 23:37:01.960   04 Jun 2027 23:38:15.306            73.346                 Moscow          2292.063
       426   04 Jun 2027 23:38:49.344   04 Jun 2027 23:39:46.432            57.088                 Moscow          1784.000
       427   05 Jun 2027 00:02:55.308   05 Jun 2027 00:04:51.291           115.983               CapeTown          3624.469
       428   05 Jun 2027 01:04:36.467   05 Jun 2027 01:06:09.516            93.049               Magadan2          2907.781
       429   05 Jun 2027 01:09:21.038   05 Jun 2027 01:09:32.863            11.825              Murmansk2           369.531
       430   05 Jun 2027 01:10:17.872   05 Jun 2027 01:11:16.675            58.803              Murmansk1          1837.594
       431   05 Jun 2027 01:12:55.705   05 Jun 2027 01:13:03.289             7.584                 Moscow           237.000
       432   05 Jun 2027 01:14:29.883   05 Jun 2027 01:14:44.261            14.378                 Moscow           449.312
       433   05 Jun 2027 01:18:57.761   05 Jun 2027 01:19:30.674            32.913                 Moscow          1028.531
       434   05 Jun 2027 01:35:09.896   05 Jun 2027 01:35:43.610            33.714               CapeTown          1053.563
       435   05 Jun 2027 01:37:39.823   05 Jun 2027 01:37:58.008            18.185               CapeTown           568.281
       436   05 Jun 2027 01:39:11.691   05 Jun 2027 01:39:31.031            19.340               CapeTown           604.375
       437   05 Jun 2027 01:41:52.124   05 Jun 2027 01:42:24.989            32.865               CapeTown          1027.031
       438   05 Jun 2027 02:31:52.304   05 Jun 2027 02:33:03.108            70.804                Anadyr1          2212.625
       439   05 Jun 2027 02:33:10.121   05 Jun 2027 02:33:34.510            24.389                Anadyr2           762.156
       440   05 Jun 2027 02:33:45.576   05 Jun 2027 02:34:53.212            67.636               Magadan2          2113.625
       441   05 Jun 2027 02:35:05.138   05 Jun 2027 02:35:23.621            18.483               Magadan1           577.594
       442   05 Jun 2027 02:37:59.442   05 Jun 2027 02:38:12.094            12.652               Magadan1           395.375
       443   05 Jun 2027 02:40:39.293   05 Jun 2027 02:40:59.082            19.789                Norilsk           618.406
       444   05 Jun 2027 02:42:44.267   05 Jun 2027 02:42:53.995             9.728                Norilsk           304.000
       445   05 Jun 2027 02:43:59.422   05 Jun 2027 02:44:18.088            18.666              Murmansk1           583.312
       446   05 Jun 2027 02:44:34.881   05 Jun 2027 02:45:39.877            64.996              Murmansk1          2031.125
       447   05 Jun 2027 02:47:05.319   05 Jun 2027 02:47:19.460            14.141              Murmansk1           441.906
       448   05 Jun 2027 02:47:20.610   05 Jun 2027 02:48:05.596            44.986                 Moscow          1405.812
       449   05 Jun 2027 02:49:28.718   05 Jun 2027 02:49:34.984             6.266                 Moscow           195.813
       450   05 Jun 2027 02:50:19.142   05 Jun 2027 02:51:30.340            71.198                 Moscow          2224.937
       451   05 Jun 2027 03:13:50.038   05 Jun 2027 03:14:05.591            15.553               CapeTown           486.031
       452   05 Jun 2027 03:15:46.818   05 Jun 2027 03:17:36.728           109.910               CapeTown          3434.688
       453   05 Jun 2027 04:14:03.789   05 Jun 2027 04:14:58.093            54.304                Anadyr1          1697.000
       454   05 Jun 2027 04:15:16.780   05 Jun 2027 04:15:53.103            36.323               Magadan1          1135.094
       455   05 Jun 2027 04:15:53.103   05 Jun 2027 04:15:59.001             5.898               Magadan2           184.312
       456   05 Jun 2027 04:16:17.702   05 Jun 2027 04:18:41.272           143.570                Anadyr2          4486.562
       457   05 Jun 2027 04:58:48.285   05 Jun 2027 05:02:41.465           233.180            RioGallegos          7286.875
       458   05 Jun 2027 05:03:51.149   05 Jun 2027 05:04:16.244            25.095            RioGallegos           784.219
       459   05 Jun 2027 05:50:07.572   05 Jun 2027 05:52:06.185           118.613               Magadan2          3706.656
       460   05 Jun 2027 05:52:07.823   05 Jun 2027 05:52:12.492             4.669               Magadan1           145.906
       461   05 Jun 2027 05:52:12.492   05 Jun 2027 05:52:55.956            43.464               Magadan2          1358.250
       462   05 Jun 2027 05:53:02.150   05 Jun 2027 05:53:34.216            32.066                Novosib          1002.062
       463   05 Jun 2027 05:53:58.807   05 Jun 2027 05:55:54.374           115.567               Magadan2          3611.469
       464   05 Jun 2027 05:55:54.374   05 Jun 2027 05:56:08.200            13.826               Magadan1           432.062
       465   05 Jun 2027 05:56:12.807   05 Jun 2027 05:56:35.546            22.739                Novosib           710.594
       466   05 Jun 2027 07:27:00.074   05 Jun 2027 07:27:13.168            13.094               Magadan1           409.188
       467   05 Jun 2027 07:27:13.168   05 Jun 2027 07:28:04.182            51.014               Magadan2          1594.187
       468   05 Jun 2027 07:28:14.912   05 Jun 2027 07:28:52.714            37.802               Magadan2          1181.313
       469   05 Jun 2027 07:28:59.379   05 Jun 2027 07:29:38.061            38.682               Magadan2          1208.813
       470   05 Jun 2027 07:29:41.072   05 Jun 2027 07:29:56.920            15.848               Magadan1           495.250
       471   05 Jun 2027 07:30:40.403   05 Jun 2027 07:32:08.036            87.633                Irkutsk          2738.531
       472   05 Jun 2027 08:41:41.353   05 Jun 2027 08:43:02.874            81.521                Sumatra          2547.531
       473   05 Jun 2027 09:02:23.140   05 Jun 2027 09:03:27.306            64.166                Irkutsk          2005.187
       474   05 Jun 2027 09:05:41.242   05 Jun 2027 09:05:59.075            17.833                Irkutsk           557.281
       475   05 Jun 2027 09:06:13.984   05 Jun 2027 09:06:25.757            11.773                Irkutsk           367.906
       476   05 Jun 2027 09:07:31.879   05 Jun 2027 09:07:35.675             3.796                Irkutsk           118.625
       477   05 Jun 2027 09:08:14.211   05 Jun 2027 09:08:16.410             2.199                Novosib            68.719
       478   05 Jun 2027 09:49:02.751   05 Jun 2027 09:49:59.517            56.766            RioGallegos          1773.938
       479   05 Jun 2027 09:50:09.047   05 Jun 2027 09:50:36.099            27.052            RioGallegos           845.375
       480   05 Jun 2027 10:26:11.535   05 Jun 2027 10:27:31.962            80.427                  Delhi          2513.344
       481   05 Jun 2027 10:28:47.663   05 Jun 2027 10:29:14.326            26.663                  Delhi           833.219
       482   05 Jun 2027 10:41:02.131   05 Jun 2027 10:41:24.674            22.543                Norilsk           704.469
