uniorb/output/strategy_4/Drop/Drop_KinoSat_111708.txt

KinoSat_111708
-------------------------
    Access    *     Start Time (UTCG)     *     Stop Time (UTCG)  *   Duration (s)        *       Station  *  Data (Mbytes)
         1   01 Jun 2027 04:21:08.546   01 Jun 2027 04:22:20.287            71.741                Norilsk          2241.906
         2   01 Jun 2027 04:22:27.516   01 Jun 2027 04:22:37.954            10.438                Norilsk           326.188
         3   01 Jun 2027 04:22:42.073   01 Jun 2027 04:25:26.086           164.013              Murmansk1          5125.406
         4   01 Jun 2027 04:25:26.086   01 Jun 2027 04:25:41.597            15.511              Murmansk2           484.719
         5   01 Jun 2027 04:46:52.043   01 Jun 2027 04:47:54.017            61.974               CapeTown          1936.687
         6   01 Jun 2027 05:58:11.129   01 Jun 2027 05:58:50.997            39.868              Murmansk1          1245.875
         7   01 Jun 2027 05:59:00.090   01 Jun 2027 06:00:42.363           102.273                 Moscow          3196.031
         8   01 Jun 2027 07:22:04.552   01 Jun 2027 07:24:26.291           141.739                Anadyr2          4429.344
         9   01 Jun 2027 07:25:49.740   01 Jun 2027 07:26:15.974            26.234               Magadan1           819.812
        10   01 Jun 2027 08:57:53.774   01 Jun 2027 08:59:17.875            84.101                Anadyr1          2628.156
        11   01 Jun 2027 08:59:58.120   01 Jun 2027 09:00:52.042            53.922               Magadan1          1685.062
        12   01 Jun 2027 09:00:52.042   01 Jun 2027 09:02:13.308            81.266               Magadan2          2539.563
        13   01 Jun 2027 10:32:53.153   01 Jun 2027 10:37:30.150           276.997               Magadan2          8656.156
        14   01 Jun 2027 12:51:09.483   01 Jun 2027 12:52:29.936            80.453            RioGallegos          2514.156
        15   01 Jun 2027 13:26:44.097   01 Jun 2027 13:29:49.676           185.579                Sumatra          5799.344
        16   01 Jun 2027 13:41:54.926   01 Jun 2027 13:45:04.238           189.312                Irkutsk          5916.000
        17   01 Jun 2027 15:15:47.135   01 Jun 2027 15:18:11.650           144.515                  Delhi          4516.094
        18   01 Jun 2027 15:19:19.194   01 Jun 2027 15:23:11.426           232.232                Novosib          7257.250
        19   01 Jun 2027 17:13:34.195   01 Jun 2027 17:13:42.667             8.472                Anadyr2           264.750
        20   01 Jun 2027 17:14:27.083   01 Jun 2027 17:14:47.992            20.909                Anadyr2           653.406
        21   01 Jun 2027 17:16:09.667   01 Jun 2027 17:16:50.514            40.847                Anadyr1          1276.469
        22   01 Jun 2027 18:12:28.719   01 Jun 2027 18:13:22.593            53.874               CapeTown          1683.562
        23   01 Jun 2027 18:14:36.609   01 Jun 2027 18:15:09.741            33.132               CapeTown          1035.375
        24   01 Jun 2027 18:33:11.285   01 Jun 2027 18:37:19.636           248.351                 Moscow          7760.969
        25   01 Jun 2027 18:38:45.345   01 Jun 2027 18:39:26.227            40.882              Murmansk2          1277.563
        26   01 Jun 2027 18:39:58.527   01 Jun 2027 18:40:37.428            38.901              Murmansk1          1215.656
        27   01 Jun 2027 18:56:46.116   01 Jun 2027 18:57:25.720            39.604                Anadyr2          1237.625
        28   01 Jun 2027 19:44:02.117   01 Jun 2027 19:46:18.160           136.043               CapeTown          4251.344
        29   01 Jun 2027 19:48:47.136   01 Jun 2027 19:49:07.408            20.272               CapeTown           633.500
        30   01 Jun 2027 20:16:24.542   01 Jun 2027 20:18:48.551           144.009              Murmansk1          4500.281
        31   01 Jun 2027 20:24:37.800   01 Jun 2027 20:25:15.305            37.505               Magadan1          1172.031
        32   01 Jun 2027 20:25:42.397   01 Jun 2027 20:25:51.659             9.262               Magadan1           289.437
        33   01 Jun 2027 20:27:09.105   01 Jun 2027 20:27:54.438            45.333               Magadan2          1416.656
        34   01 Jun 2027 20:29:52.656   01 Jun 2027 20:29:54.768             2.112               Magadan1            66.000
        35   01 Jun 2027 20:30:25.042   01 Jun 2027 20:30:44.442            19.400               Magadan2           606.250
        36   01 Jun 2027 20:30:56.419   01 Jun 2027 20:31:16.983            20.564               Magadan2           642.625
        37   01 Jun 2027 20:33:06.923   01 Jun 2027 20:33:22.131            15.208               Magadan2           475.250
        38   01 Jun 2027 20:33:42.457   01 Jun 2027 20:33:47.074             4.617               Magadan2           144.281
        39   01 Jun 2027 20:34:04.508   01 Jun 2027 20:34:39.294            34.786               Magadan2          1087.062
        40   01 Jun 2027 21:58:01.741   01 Jun 2027 22:02:12.316           250.575                Anadyr2          7830.469
        41   01 Jun 2027 22:02:28.802   01 Jun 2027 22:03:59.158            90.356               Magadan1          2823.625
        42   01 Jun 2027 22:04:10.970   01 Jun 2027 22:04:32.916            21.946               Magadan1           685.813
        43   01 Jun 2027 22:05:12.053   01 Jun 2027 22:05:51.256            39.203               Magadan2          1225.094
        44   01 Jun 2027 22:07:17.447   01 Jun 2027 22:07:40.226            22.779               Magadan2           711.844
        45   01 Jun 2027 22:09:29.022   01 Jun 2027 22:09:59.832            30.810               Magadan1           962.812
        46   01 Jun 2027 22:10:37.313   01 Jun 2027 22:10:43.174             5.861               Magadan1           183.156
        47   01 Jun 2027 22:11:12.640   01 Jun 2027 22:11:20.297             7.657               Magadan1           239.281
        48   01 Jun 2027 22:11:20.297   01 Jun 2027 22:11:55.953            35.656               Magadan2          1114.250
        49   01 Jun 2027 22:52:29.515   01 Jun 2027 22:53:04.253            34.738            RioGallegos          1085.562
        50   01 Jun 2027 22:54:21.005   01 Jun 2027 22:54:35.043            14.038            RioGallegos           438.688
        51   01 Jun 2027 22:55:24.927   01 Jun 2027 22:55:52.134            27.207            RioGallegos           850.219
        52   01 Jun 2027 22:58:26.301   01 Jun 2027 22:58:43.327            17.026            RioGallegos           532.063
        53   01 Jun 2027 23:00:30.771   01 Jun 2027 23:01:02.377            31.606            RioGallegos           987.687
        54   01 Jun 2027 23:33:39.332   01 Jun 2027 23:34:46.682            67.350                Anadyr1          2104.687
        55   01 Jun 2027 23:35:30.064   01 Jun 2027 23:35:48.988            18.924                Anadyr2           591.375
        56   01 Jun 2027 23:35:50.577   01 Jun 2027 23:37:54.892           124.315                Norilsk          3884.844
        57   01 Jun 2027 23:37:58.833   01 Jun 2027 23:38:09.834            11.001               Magadan2           343.781
        58   01 Jun 2027 23:38:21.600   01 Jun 2027 23:38:31.465             9.865               Magadan1           308.281
        59   01 Jun 2027 23:38:59.589   01 Jun 2027 23:39:53.671            54.082               Magadan1          1690.063
        60   01 Jun 2027 23:40:35.406   01 Jun 2027 23:40:49.240            13.834                Irkutsk           432.313
        61   01 Jun 2027 23:42:05.276   01 Jun 2027 23:42:22.398            17.122                Novosib           535.062
        62   01 Jun 2027 23:42:59.640   01 Jun 2027 23:43:16.544            16.904                Novosib           528.250
        63   01 Jun 2027 23:44:27.983   01 Jun 2027 23:44:37.153             9.170                Novosib           286.563
        64   01 Jun 2027 23:44:41.433   01 Jun 2027 23:44:57.811            16.378                Irkutsk           511.813
        65   01 Jun 2027 23:46:24.769   01 Jun 2027 23:47:00.390            35.621                Irkutsk          1113.156
        66   01 Jun 2027 23:50:41.328   01 Jun 2027 23:50:59.092            17.764                Irkutsk           555.125
        67   01 Jun 2027 23:56:01.723   01 Jun 2027 23:56:27.508            25.785                Sumatra           805.781
        68   01 Jun 2027 23:57:18.624   01 Jun 2027 23:57:56.049            37.425                Sumatra          1169.531
        69   02 Jun 2027 00:01:16.278   02 Jun 2027 00:01:43.229            26.951                Sumatra           842.219
        70   02 Jun 2027 00:31:32.508   02 Jun 2027 00:31:38.252             5.744            RioGallegos           179.500
        71   02 Jun 2027 00:32:29.554   02 Jun 2027 00:32:37.928             8.374            RioGallegos           261.687
        72   02 Jun 2027 00:33:32.788   02 Jun 2027 00:33:42.030             9.242            RioGallegos           288.813
        73   02 Jun 2027 00:34:38.595   02 Jun 2027 00:35:24.265            45.670            RioGallegos          1427.187
        74   02 Jun 2027 00:37:55.038   02 Jun 2027 00:38:54.019            58.981            RioGallegos          1843.156
        75   02 Jun 2027 01:08:25.046   02 Jun 2027 01:08:58.371            33.325                Anadyr1          1041.406
        76   02 Jun 2027 01:08:59.865   02 Jun 2027 01:09:23.536            23.671                Anadyr1           739.719
        77   02 Jun 2027 01:10:03.998   02 Jun 2027 01:10:39.542            35.544                Anadyr1          1110.750
        78   02 Jun 2027 01:11:48.195   02 Jun 2027 01:13:31.634           103.439                Norilsk          3232.469
        79   02 Jun 2027 01:13:39.606   02 Jun 2027 01:14:04.052            24.446               Magadan1           763.937
        80   02 Jun 2027 01:15:40.865   02 Jun 2027 01:17:37.569           116.704                Irkutsk          3647.000
        81   02 Jun 2027 01:20:46.010   02 Jun 2027 01:21:03.989            17.979                Irkutsk           561.844
        82   02 Jun 2027 01:23:23.896   02 Jun 2027 01:24:08.434            44.538                Novosib          1391.813
        83   02 Jun 2027 01:28:55.651   02 Jun 2027 01:29:44.318            48.667                  Delhi          1520.844
        84   02 Jun 2027 01:31:13.563   02 Jun 2027 01:31:30.177            16.614                Sumatra           519.188
        85   02 Jun 2027 01:34:27.103   02 Jun 2027 01:36:02.679            95.576                Sumatra          2986.750
        86   02 Jun 2027 02:09:56.305   02 Jun 2027 02:10:33.335            37.030            RioGallegos          1157.187
        87   02 Jun 2027 02:13:33.466   02 Jun 2027 02:13:50.925            17.459            RioGallegos           545.594
        88   02 Jun 2027 02:14:26.651   02 Jun 2027 02:14:27.112             0.461            RioGallegos            14.406
        89   02 Jun 2027 02:44:24.804   02 Jun 2027 02:44:43.716            18.912                Anadyr1           591.000
        90   02 Jun 2027 02:47:48.182   02 Jun 2027 02:49:38.109           109.927                Norilsk          3435.219
        91   02 Jun 2027 02:50:08.869   02 Jun 2027 02:50:27.062            18.193              Murmansk2           568.531
        92   02 Jun 2027 02:51:05.386   02 Jun 2027 02:52:22.705            77.319              Murmansk2          2416.219
        93   02 Jun 2027 02:52:27.288   02 Jun 2027 02:53:04.426            37.138                Novosib          1160.563
        94   02 Jun 2027 02:53:15.442   02 Jun 2027 02:54:02.578            47.136                Irkutsk          1473.000
        95   02 Jun 2027 02:57:59.098   02 Jun 2027 02:58:34.857            35.759                Irkutsk          1117.469
        96   02 Jun 2027 02:59:38.248   02 Jun 2027 03:01:34.538           116.290                  Delhi          3634.062
        97   02 Jun 2027 04:33:18.424   02 Jun 2027 04:35:12.168           113.744                Novosib          3554.500
        98   02 Jun 2027 04:36:07.036   02 Jun 2027 04:38:50.638           163.602                 Moscow          5112.562
        99   02 Jun 2027 04:53:40.137   02 Jun 2027 04:55:58.022           137.885               CapeTown          4308.906
       100   02 Jun 2027 05:58:25.636   02 Jun 2027 05:58:51.984            26.348               Magadan1           823.375
       101   02 Jun 2027 07:32:30.395   02 Jun 2027 07:34:07.015            96.620               Magadan2          3019.375
       102   02 Jun 2027 07:34:27.581   02 Jun 2027 07:36:09.456           101.875               Magadan1          3183.594
       103   02 Jun 2027 09:10:07.384   02 Jun 2027 09:12:49.706           162.322                Anadyr1          5072.562
       104   02 Jun 2027 09:12:52.975   02 Jun 2027 09:14:13.387            80.412               Magadan1          2512.875
       105   02 Jun 2027 10:42:58.831   02 Jun 2027 10:43:27.100            28.269               Magadan2           883.406
       106   02 Jun 2027 10:43:30.038   02 Jun 2027 10:44:23.419            53.381               Magadan1          1668.156
       107   02 Jun 2027 10:44:23.419   02 Jun 2027 10:45:24.748            61.329               Magadan2          1916.531
       108   02 Jun 2027 10:45:57.225   02 Jun 2027 10:46:26.606            29.381               Magadan1           918.156
       109   02 Jun 2027 10:46:46.389   02 Jun 2027 10:49:18.763           152.374               Magadan2          4761.688
       110   02 Jun 2027 10:49:34.955   02 Jun 2027 10:50:02.646            27.691                Norilsk           865.344
       111   02 Jun 2027 11:24:40.433   02 Jun 2027 11:25:38.377            57.944            RioGallegos          1810.750
       112   02 Jun 2027 11:32:54.205   02 Jun 2027 11:33:08.216            14.011            RioGallegos           437.844
       113   02 Jun 2027 11:59:44.399   02 Jun 2027 12:00:25.334            40.935                Sumatra          1279.219
       114   02 Jun 2027 12:11:22.447   02 Jun 2027 12:12:15.557            53.110                  Delhi          1659.688
       115   02 Jun 2027 12:13:21.697   02 Jun 2027 12:14:19.129            57.432                Irkutsk          1794.750
       116   02 Jun 2027 12:17:03.883   02 Jun 2027 12:17:44.064            40.181                Irkutsk          1255.656
       117   02 Jun 2027 12:24:52.704   02 Jun 2027 12:25:08.156            15.452                Norilsk           482.875
       118   02 Jun 2027 12:27:39.130   02 Jun 2027 12:28:43.594            64.464                Norilsk          2014.500
       119   02 Jun 2027 13:03:17.488   02 Jun 2027 13:05:35.907           138.419            RioGallegos          4325.594
       120   02 Jun 2027 13:37:41.630   02 Jun 2027 13:40:22.645           161.015                Sumatra          5031.719
       121   02 Jun 2027 13:53:32.467   02 Jun 2027 13:57:06.423           213.956                Irkutsk          6686.125
       122   02 Jun 2027 15:24:24.717   02 Jun 2027 15:27:21.811           177.094                  Delhi          5534.188
       123   02 Jun 2027 15:31:58.297   02 Jun 2027 15:35:17.812           199.515                Novosib          6234.844
       124   02 Jun 2027 16:50:51.838   02 Jun 2027 16:51:03.655            11.817               CapeTown           369.281
       125   02 Jun 2027 17:04:51.225   02 Jun 2027 17:05:24.209            32.984                 Moscow          1030.750
       126   02 Jun 2027 17:07:13.135   02 Jun 2027 17:07:40.725            27.590                 Moscow           862.188
       127   02 Jun 2027 17:08:13.894   02 Jun 2027 17:08:50.919            37.025              Murmansk2          1157.031
       128   02 Jun 2027 17:09:34.856   02 Jun 2027 17:10:20.218            45.362              Murmansk1          1417.562
       129   02 Jun 2027 17:14:01.591   02 Jun 2027 17:14:38.595            37.004                 Moscow          1156.375
       130   02 Jun 2027 17:16:57.840   02 Jun 2027 17:17:05.365             7.525              Murmansk2           235.156
       131   02 Jun 2027 17:22:54.635   02 Jun 2027 17:24:01.776            67.141                Anadyr1          2098.156
       132   02 Jun 2027 17:24:48.298   02 Jun 2027 17:25:15.054            26.756                Anadyr2           836.125
       133   02 Jun 2027 17:25:58.548   02 Jun 2027 17:26:29.428            30.880                Anadyr1           965.000
       134   02 Jun 2027 18:17:35.676   02 Jun 2027 18:19:58.194           142.518               CapeTown          4453.688
       135   02 Jun 2027 18:46:57.053   02 Jun 2027 18:50:26.013           208.960              Murmansk2          6530.000
       136   02 Jun 2027 18:52:02.512   02 Jun 2027 18:52:04.924             2.412              Murmansk1            75.375
       137   02 Jun 2027 19:00:41.352   02 Jun 2027 19:01:01.930            20.578                Anadyr2           643.062
       138   02 Jun 2027 19:02:27.727   02 Jun 2027 19:02:54.649            26.922               Magadan2           841.313
       139   02 Jun 2027 19:03:17.466   02 Jun 2027 19:03:21.854             4.388               Magadan1           137.125
       140   02 Jun 2027 19:03:39.591   02 Jun 2027 19:04:21.210            41.619               Magadan1          1300.594
       141   02 Jun 2027 19:06:34.892   02 Jun 2027 19:07:08.456            33.564               Magadan1          1048.875
       142   02 Jun 2027 19:55:23.235   02 Jun 2027 19:55:47.961            24.726               CapeTown           772.687
       143   02 Jun 2027 19:58:02.260   02 Jun 2027 19:59:09.087            66.827               CapeTown          2088.344
       144   02 Jun 2027 20:34:08.175   02 Jun 2027 20:37:24.044           195.869                Anadyr1          6120.906
       145   02 Jun 2027 20:37:26.437   02 Jun 2027 20:38:47.007            80.570               Magadan1          2517.812
       146   02 Jun 2027 20:38:58.454   02 Jun 2027 20:39:08.724            10.270               Magadan1           320.937
       147   02 Jun 2027 20:39:35.084   02 Jun 2027 20:40:03.729            28.645               Magadan1           895.156
       148   02 Jun 2027 20:47:43.415   02 Jun 2027 20:47:55.814            12.399               Magadan1           387.469
       149   02 Jun 2027 22:10:02.583   02 Jun 2027 22:13:45.101           222.518                Anadyr1          6953.688
       150   02 Jun 2027 22:13:45.740   02 Jun 2027 22:15:54.183           128.443                Norilsk          4013.844
       151   02 Jun 2027 22:16:15.347   02 Jun 2027 22:16:57.358            42.011               Magadan2          1312.844
       152   02 Jun 2027 22:18:18.952   02 Jun 2027 22:18:24.545             5.593               Magadan2           174.781
       153   02 Jun 2027 22:18:26.528   02 Jun 2027 22:18:37.305            10.777               Magadan2           336.781
       154   02 Jun 2027 22:19:07.189   02 Jun 2027 22:19:23.461            16.272                Irkutsk           508.500
       155   02 Jun 2027 22:19:56.769   02 Jun 2027 22:21:01.714            64.945                Irkutsk          2029.531
       156   02 Jun 2027 23:04:19.427   02 Jun 2027 23:06:22.659           123.232            RioGallegos          3851.000
       157   02 Jun 2027 23:06:27.549   02 Jun 2027 23:07:30.778            63.229            RioGallegos          1975.906
       158   02 Jun 2027 23:45:35.872   02 Jun 2027 23:46:19.111            43.239                Anadyr1          1351.219
       159   02 Jun 2027 23:47:27.952   02 Jun 2027 23:47:48.402            20.450                Anadyr1           639.062
       160   02 Jun 2027 23:47:51.616   02 Jun 2027 23:49:05.966            74.350                Norilsk          2323.437
       161   02 Jun 2027 23:49:08.575   02 Jun 2027 23:49:16.702             8.127               Magadan2           253.969
       162   02 Jun 2027 23:49:29.962   02 Jun 2027 23:49:42.994            13.032               Magadan1           407.250
       163   02 Jun 2027 23:51:40.712   02 Jun 2027 23:52:14.308            33.596               Magadan1          1049.875
       164   02 Jun 2027 23:52:48.656   02 Jun 2027 23:52:59.902            11.246                Norilsk           351.437
       165   02 Jun 2027 23:53:03.881   02 Jun 2027 23:53:50.907            47.026               Magadan2          1469.562
       166   02 Jun 2027 23:54:46.559   02 Jun 2027 23:55:34.539            47.980                Irkutsk          1499.375
       167   02 Jun 2027 23:55:41.342   02 Jun 2027 23:56:04.425            23.083                Novosib           721.344
       168   02 Jun 2027 23:56:17.801   02 Jun 2027 23:57:09.638            51.837                Novosib          1619.906
       169   03 Jun 2027 00:05:40.322   03 Jun 2027 00:06:19.190            38.868                Sumatra          1214.625
       170   03 Jun 2027 00:13:35.921   03 Jun 2027 00:14:07.042            31.121                Sumatra           972.531
       171   03 Jun 2027 00:14:47.598   03 Jun 2027 00:15:11.133            23.535                Sumatra           735.469
       172   03 Jun 2027 00:15:40.366   03 Jun 2027 00:16:31.068            50.702                Sumatra          1584.438
       173   03 Jun 2027 00:46:30.714   03 Jun 2027 00:47:03.926            33.212            RioGallegos          1037.875
       174   03 Jun 2027 00:52:33.446   03 Jun 2027 00:52:33.745             0.299            RioGallegos             9.344
       175   03 Jun 2027 01:20:12.269   03 Jun 2027 01:20:49.943            37.674                Anadyr2          1177.312
       176   03 Jun 2027 01:20:58.289   03 Jun 2027 01:21:24.066            25.777                Anadyr1           805.531
       177   03 Jun 2027 01:22:05.340   03 Jun 2027 01:22:48.043            42.703                Anadyr2          1334.469
       178   03 Jun 2027 01:23:50.562   03 Jun 2027 01:25:33.390           102.828                Norilsk          3213.375
       179   03 Jun 2027 01:25:37.939   03 Jun 2027 01:26:06.647            28.708               Magadan2           897.125
       180   03 Jun 2027 01:27:37.112   03 Jun 2027 01:27:50.117            13.005               Magadan2           406.406
       181   03 Jun 2027 01:28:36.393   03 Jun 2027 01:29:37.758            61.365                Irkutsk          1917.656
       182   03 Jun 2027 01:29:50.007   03 Jun 2027 01:30:28.457            38.450                Novosib          1201.563
       183   03 Jun 2027 01:30:52.288   03 Jun 2027 01:31:20.683            28.395                Novosib           887.344
       184   03 Jun 2027 01:34:57.673   03 Jun 2027 01:35:51.170            53.497                Irkutsk          1671.781
       185   03 Jun 2027 01:41:07.463   03 Jun 2027 01:41:40.373            32.910                  Delhi          1028.437
       186   03 Jun 2027 01:44:17.343   03 Jun 2027 01:46:16.641           119.298                Sumatra          3728.063
       187   03 Jun 2027 02:16:47.001   03 Jun 2027 02:17:28.708            41.707            RioGallegos          1303.344
       188   03 Jun 2027 02:20:16.249   03 Jun 2027 02:20:32.287            16.038            RioGallegos           501.188
       189   03 Jun 2027 02:53:39.480   03 Jun 2027 02:53:43.779             4.299                Anadyr1           134.344
       190   03 Jun 2027 02:56:15.020   03 Jun 2027 02:56:27.662            12.642                Anadyr2           395.063
       191   03 Jun 2027 02:56:44.899   03 Jun 2027 02:56:53.297             8.398                Anadyr1           262.437
       192   03 Jun 2027 02:57:19.511   03 Jun 2027 02:57:48.023            28.512                Anadyr1           891.000
       193   03 Jun 2027 02:59:37.186   03 Jun 2027 03:00:00.180            22.994                Anadyr1           718.562
       194   03 Jun 2027 03:00:24.027   03 Jun 2027 03:00:40.884            16.857               Magadan2           526.781
       195   03 Jun 2027 03:04:48.165   03 Jun 2027 03:05:02.666            14.501                Norilsk           453.156
       196   03 Jun 2027 03:05:12.404   03 Jun 2027 03:05:31.780            19.376                Novosib           605.500
       197   03 Jun 2027 03:05:37.213   03 Jun 2027 03:07:24.013           106.800                Norilsk          3337.500
       198   03 Jun 2027 03:07:34.279   03 Jun 2027 03:08:09.562            35.283                Norilsk          1102.594
       199   03 Jun 2027 03:08:25.058   03 Jun 2027 03:08:50.256            25.198                Novosib           787.438
       200   03 Jun 2027 03:08:58.930   03 Jun 2027 03:10:16.165            77.235                Norilsk          2413.594
       201   03 Jun 2027 03:10:27.613   03 Jun 2027 03:11:08.757            41.144                Irkutsk          1285.750
       202   03 Jun 2027 03:11:28.078   03 Jun 2027 03:13:13.932           105.854                  Delhi          3307.937
       203   03 Jun 2027 04:45:50.309   03 Jun 2027 04:45:57.189             6.880              Murmansk2           215.000
       204   03 Jun 2027 04:46:23.569   03 Jun 2027 04:47:16.681            53.112                Novosib          1659.750
       205   03 Jun 2027 04:48:14.028   03 Jun 2027 04:48:42.468            28.440                 Moscow           888.750
       206   03 Jun 2027 04:49:14.481   03 Jun 2027 04:49:21.799             7.318                 Moscow           228.687
       207   03 Jun 2027 04:49:29.305   03 Jun 2027 04:50:37.567            68.262                 Moscow          2133.187
       208   03 Jun 2027 05:05:24.798   03 Jun 2027 05:07:15.006           110.208               CapeTown          3444.000
       209   03 Jun 2027 06:01:50.375   03 Jun 2027 06:05:09.150           198.775                Anadyr1          6211.719
       210   03 Jun 2027 06:08:55.362   03 Jun 2027 06:10:11.740            76.378                Anadyr2          2386.812
       211   03 Jun 2027 06:10:14.798   03 Jun 2027 06:12:06.224           111.426               Magadan2          3482.062
       212   03 Jun 2027 06:20:52.902   03 Jun 2027 06:22:04.479            71.577                 Moscow          2236.781
       213   03 Jun 2027 06:42:15.810   03 Jun 2027 06:42:59.525            43.715               CapeTown          1366.094
       214   03 Jun 2027 06:46:08.482   03 Jun 2027 06:47:21.388            72.906               CapeTown          2278.312
       215   03 Jun 2027 07:42:55.255   03 Jun 2027 07:43:26.567            31.312               Magadan2           978.500
       216   03 Jun 2027 07:43:56.821   03 Jun 2027 07:44:45.658            48.837                Anadyr1          1526.156
       217   03 Jun 2027 07:44:59.495   03 Jun 2027 07:46:06.350            66.855               Magadan2          2089.219
       218   03 Jun 2027 07:46:30.581   03 Jun 2027 07:46:42.711            12.130               Magadan1           379.062
       219   03 Jun 2027 07:46:52.290   03 Jun 2027 07:47:37.551            45.261                Anadyr2          1414.406
       220   03 Jun 2027 07:47:37.551   03 Jun 2027 07:48:17.124            39.573                Anadyr1          1236.656
       221   03 Jun 2027 09:17:46.222   03 Jun 2027 09:17:53.331             7.109               Magadan2           222.156
       222   03 Jun 2027 09:17:55.689   03 Jun 2027 09:18:48.400            52.711                Anadyr2          1647.219
       223   03 Jun 2027 09:19:21.005   03 Jun 2027 09:19:35.504            14.499               Magadan2           453.094
       224   03 Jun 2027 09:20:18.055   03 Jun 2027 09:20:58.469            40.414               Magadan2          1262.938
       225   03 Jun 2027 09:21:01.582   03 Jun 2027 09:22:28.999            87.417               Magadan2          2731.781
       226   03 Jun 2027 09:22:36.798   03 Jun 2027 09:22:41.516             4.718                Anadyr2           147.438
       227   03 Jun 2027 09:22:53.879   03 Jun 2027 09:23:24.636            30.757               Magadan1           961.156
       228   03 Jun 2027 09:23:33.616   03 Jun 2027 09:23:42.922             9.306                Anadyr1           290.813
       229   03 Jun 2027 09:23:50.305   03 Jun 2027 09:24:56.434            66.129               Magadan2          2066.531
       230   03 Jun 2027 09:25:33.574   03 Jun 2027 09:26:18.747            45.173                Norilsk          1411.656
       231   03 Jun 2027 10:01:42.587   03 Jun 2027 10:01:55.846            13.259            RioGallegos           414.344
       232   03 Jun 2027 10:03:47.148   03 Jun 2027 10:03:53.729             6.581            RioGallegos           205.656
       233   03 Jun 2027 10:05:27.489   03 Jun 2027 10:05:35.773             8.284            RioGallegos           258.875
       234   03 Jun 2027 10:53:23.784   03 Jun 2027 10:54:17.603            53.819               Magadan2          1681.844
       235   03 Jun 2027 10:57:42.479   03 Jun 2027 10:57:59.868            17.389                Irkutsk           543.406
       236   03 Jun 2027 10:58:01.420   03 Jun 2027 10:59:52.012           110.592               Magadan2          3456.000
       237   03 Jun 2027 10:59:59.528   03 Jun 2027 11:00:43.229            43.701                Irkutsk          1365.656
       238   03 Jun 2027 11:00:57.004   03 Jun 2027 11:01:12.358            15.354                Norilsk           479.813
       239   03 Jun 2027 11:01:28.932   03 Jun 2027 11:02:01.358            32.426                Irkutsk          1013.313
       240   03 Jun 2027 11:36:47.172   03 Jun 2027 11:37:49.534            62.362            RioGallegos          1948.813
       241   03 Jun 2027 12:11:37.712   03 Jun 2027 12:13:22.287           104.575                Sumatra          3267.969
       242   03 Jun 2027 12:25:36.083   03 Jun 2027 12:27:03.106            87.023                Irkutsk          2719.469
       243   03 Jun 2027 12:27:36.693   03 Jun 2027 12:27:52.126            15.433                Novosib           482.281
       244   03 Jun 2027 12:32:43.662   03 Jun 2027 12:33:04.415            20.753                Norilsk           648.531
       245   03 Jun 2027 12:40:56.584   03 Jun 2027 12:41:50.706            54.122                Norilsk          1691.313
       246   03 Jun 2027 13:16:51.302   03 Jun 2027 13:17:30.763            39.461            RioGallegos          1233.156
       247   03 Jun 2027 13:23:21.980   03 Jun 2027 13:23:51.405            29.425            RioGallegos           919.531
       248   03 Jun 2027 13:51:06.814   03 Jun 2027 13:54:58.667           231.853                Sumatra          7245.406
       249   03 Jun 2027 14:03:54.231   03 Jun 2027 14:04:34.522            40.291                Novosib          1259.094
       250   03 Jun 2027 14:07:04.338   03 Jun 2027 14:08:46.857           102.519                Irkutsk          3203.719
       251   03 Jun 2027 14:09:48.039   03 Jun 2027 14:10:42.108            54.069                Irkutsk          1689.656
       252   03 Jun 2027 15:40:14.260   03 Jun 2027 15:41:22.922            68.662                 Moscow          2145.687
       253   03 Jun 2027 15:41:54.790   03 Jun 2027 15:42:24.388            29.598                 Moscow           924.938
       254   03 Jun 2027 15:43:37.096   03 Jun 2027 15:44:39.282            62.186              Murmansk2          1943.312
       255   03 Jun 2027 15:46:14.298   03 Jun 2027 15:47:22.235            67.937                Novosib          2123.031
       256   03 Jun 2027 15:48:45.541   03 Jun 2027 15:49:32.530            46.989                Norilsk          1468.406
       257   03 Jun 2027 15:50:02.071   03 Jun 2027 15:50:51.773            49.702                Norilsk          1553.188
       258   03 Jun 2027 15:51:43.306   03 Jun 2027 15:52:32.440            49.134                Norilsk          1535.438
       259   03 Jun 2027 16:57:54.887   03 Jun 2027 16:58:33.566            38.679               CapeTown          1208.719
       260   03 Jun 2027 17:03:04.954   03 Jun 2027 17:03:14.920             9.966               CapeTown           311.438
       261   03 Jun 2027 17:17:12.899   03 Jun 2027 17:18:10.998            58.099                 Moscow          1815.594
       262   03 Jun 2027 17:20:28.951   03 Jun 2027 17:21:42.398            73.447              Murmansk2          2295.219
       263   03 Jun 2027 17:22:57.773   03 Jun 2027 17:24:33.698            95.925              Murmansk1          2997.656
       264   03 Jun 2027 17:34:46.819   03 Jun 2027 17:35:24.836            38.017                Anadyr1          1188.031
       265   03 Jun 2027 17:37:10.674   03 Jun 2027 17:37:45.157            34.483                Anadyr2          1077.594
       266   03 Jun 2027 18:29:38.415   03 Jun 2027 18:31:48.180           129.765               CapeTown          4055.156
       267   03 Jun 2027 18:59:31.268   03 Jun 2027 19:00:09.908            38.640              Murmansk2          1207.500
       268   03 Jun 2027 19:00:49.939   03 Jun 2027 19:03:57.070           187.131              Murmansk1          5847.844
       269   03 Jun 2027 19:05:44.219   03 Jun 2027 19:06:30.696            46.477              Murmansk2          1452.406
       270   03 Jun 2027 19:13:56.617   03 Jun 2027 19:14:25.050            28.433               Magadan1           888.531
       271   03 Jun 2027 19:15:00.523   03 Jun 2027 19:15:07.645             7.122               Magadan2           222.562
       272   03 Jun 2027 19:16:06.212   03 Jun 2027 19:16:10.230             4.018               Magadan1           125.562
       273   03 Jun 2027 19:16:49.710   03 Jun 2027 19:17:00.744            11.034               Magadan1           344.813
       274   03 Jun 2027 19:17:23.284   03 Jun 2027 19:18:13.489            50.205               Magadan2          1568.906
       275   03 Jun 2027 20:09:40.614   03 Jun 2027 20:10:45.815            65.201               CapeTown          2037.531
       276   03 Jun 2027 20:46:09.987   03 Jun 2027 20:50:13.701           243.714                Anadyr2          7616.063
       277   03 Jun 2027 20:50:15.365   03 Jun 2027 20:50:50.619            35.254               Magadan1          1101.688
       278   03 Jun 2027 20:51:14.072   03 Jun 2027 20:51:33.109            19.037               Magadan1           594.906
       279   03 Jun 2027 20:54:06.199   03 Jun 2027 20:54:21.618            15.419               Magadan2           481.844
       280   03 Jun 2027 20:59:13.804   03 Jun 2027 20:59:20.324             6.520               Magadan2           203.750
       281   03 Jun 2027 20:59:24.377   03 Jun 2027 20:59:35.444            11.067               Magadan2           345.844
       282   03 Jun 2027 22:22:03.108   03 Jun 2027 22:24:02.240           119.132                Anadyr2          3722.875
       283   03 Jun 2027 22:24:05.847   03 Jun 2027 22:25:44.618            98.771                Anadyr1          3086.594
       284   03 Jun 2027 22:25:47.660   03 Jun 2027 22:27:50.665           123.005                Norilsk          3843.906
       285   03 Jun 2027 22:27:53.567   03 Jun 2027 22:28:04.293            10.726               Magadan2           335.188
       286   03 Jun 2027 22:28:31.204   03 Jun 2027 22:29:31.884            60.680               Magadan1          1896.250
       287   03 Jun 2027 22:30:16.434   03 Jun 2027 22:31:14.776            58.342                Irkutsk          1823.188
       288   03 Jun 2027 22:31:47.805   03 Jun 2027 22:32:00.030            12.225                Irkutsk           382.031
       289   03 Jun 2027 22:32:14.228   03 Jun 2027 22:32:40.913            26.685                Irkutsk           833.906
       290   03 Jun 2027 22:47:22.885   03 Jun 2027 22:49:16.279           113.394                Sumatra          3543.562
       291   03 Jun 2027 23:24:22.909   03 Jun 2027 23:25:14.321            51.412            RioGallegos          1606.625
       292   03 Jun 2027 23:57:31.498   03 Jun 2027 23:59:26.443           114.945                Anadyr2          3592.031
       293   04 Jun 2027 00:00:07.622   04 Jun 2027 00:01:06.452            58.830                Norilsk          1838.437
       294   04 Jun 2027 00:01:25.068   04 Jun 2027 00:02:03.062            37.994               Magadan1          1187.312
       295   04 Jun 2027 00:02:56.133   04 Jun 2027 00:03:34.248            38.115               Magadan1          1191.094
       296   04 Jun 2027 00:03:54.830   04 Jun 2027 00:05:00.012            65.182                Irkutsk          2036.937
       297   04 Jun 2027 00:05:01.411   04 Jun 2027 00:06:38.906            97.495                Novosib          3046.719
       298   04 Jun 2027 00:11:15.690   04 Jun 2027 00:11:36.756            21.066                Novosib           658.312
       299   04 Jun 2027 00:17:36.537   04 Jun 2027 00:17:46.059             9.522                Sumatra           297.563
       300   04 Jun 2027 00:18:01.869   04 Jun 2027 00:18:40.906            39.037                Sumatra          1219.906
       301   04 Jun 2027 00:27:17.048   04 Jun 2027 00:27:26.738             9.690                Sumatra           302.813
       302   04 Jun 2027 00:51:49.244   04 Jun 2027 00:52:08.123            18.879            RioGallegos           589.969
       303   04 Jun 2027 00:52:28.609   04 Jun 2027 00:52:41.368            12.759            RioGallegos           398.719
       304   04 Jun 2027 00:54:53.875   04 Jun 2027 00:54:58.463             4.588            RioGallegos           143.375
       305   04 Jun 2027 00:56:54.716   04 Jun 2027 00:57:25.060            30.344            RioGallegos           948.250
       306   04 Jun 2027 01:01:22.344   04 Jun 2027 01:01:26.526             4.182            RioGallegos           130.688
       307   04 Jun 2027 01:02:16.514   04 Jun 2027 01:02:33.608            17.094            RioGallegos           534.187
       308   04 Jun 2027 01:03:19.946   04 Jun 2027 01:03:39.361            19.415            RioGallegos           606.719
       309   04 Jun 2027 01:31:58.209   04 Jun 2027 01:32:50.157            51.948                Anadyr1          1623.375
       310   04 Jun 2027 01:33:24.285   04 Jun 2027 01:34:06.426            42.141                Anadyr1          1316.906
       311   04 Jun 2027 01:34:34.320   04 Jun 2027 01:34:50.776            16.456                Anadyr2           514.250
       312   04 Jun 2027 01:35:52.920   04 Jun 2027 01:37:46.047           113.127                Norilsk          3535.219
       313   04 Jun 2027 01:39:43.347   04 Jun 2027 01:39:55.847            12.500              Murmansk1           390.625
       314   04 Jun 2027 01:40:31.300   04 Jun 2027 01:41:24.581            53.281                Novosib          1665.031
       315   04 Jun 2027 01:41:33.188   04 Jun 2027 01:41:34.723             1.535              Murmansk2            47.969
       316   04 Jun 2027 01:41:42.089   04 Jun 2027 01:41:59.108            17.019                Irkutsk           531.844
       317   04 Jun 2027 01:42:35.176   04 Jun 2027 01:43:23.857            48.681                Novosib          1521.281
       318   04 Jun 2027 01:44:56.184   04 Jun 2027 01:45:32.360            36.176                Irkutsk          1130.500
       319   04 Jun 2027 01:47:13.819   04 Jun 2027 01:48:04.013            50.194                  Delhi          1568.562
       320   04 Jun 2027 01:53:54.417   04 Jun 2027 01:54:00.149             5.732                  Delhi           179.125
       321   04 Jun 2027 01:55:12.515   04 Jun 2027 01:55:36.450            23.935                  Delhi           747.969
       322   04 Jun 2027 01:58:47.651   04 Jun 2027 02:00:04.405            76.754                Sumatra          2398.562
       323   04 Jun 2027 02:28:30.795   04 Jun 2027 02:29:36.072            65.277            RioGallegos          2039.906
       324   04 Jun 2027 02:31:35.715   04 Jun 2027 02:32:00.268            24.553            RioGallegos           767.281
       325   04 Jun 2027 02:36:59.874   04 Jun 2027 02:37:23.625            23.751            RioGallegos           742.219
       326   04 Jun 2027 03:19:17.694   04 Jun 2027 03:19:52.476            34.782                Irkutsk          1086.938
       327   04 Jun 2027 03:20:26.626   04 Jun 2027 03:21:27.264            60.638                Novosib          1894.938
       328   04 Jun 2027 03:21:36.353   04 Jun 2027 03:21:48.416            12.063                Novosib           376.969
       329   04 Jun 2027 03:22:10.297   04 Jun 2027 03:24:13.828           123.531                Irkutsk          3860.344
       330   04 Jun 2027 03:24:14.876   04 Jun 2027 03:24:40.520            25.644                Norilsk           801.375
       331   04 Jun 2027 03:24:46.475   04 Jun 2027 03:28:01.272           194.797                  Delhi          6087.406
       332   04 Jun 2027 03:31:17.225   04 Jun 2027 03:33:46.177           148.952                  Delhi          4654.750
       333   04 Jun 2027 04:57:15.653   04 Jun 2027 04:57:42.775            27.122                 Moscow           847.563
       334   04 Jun 2027 04:57:52.646   04 Jun 2027 04:57:56.755             4.109                Novosib           128.406
       335   04 Jun 2027 04:58:03.480   04 Jun 2027 04:59:21.697            78.217                Novosib          2444.281
       336   04 Jun 2027 05:01:26.602   04 Jun 2027 05:01:40.217            13.615                 Moscow           425.469
       337   04 Jun 2027 05:01:52.095   04 Jun 2027 05:02:06.733            14.638                 Moscow           457.438
       338   04 Jun 2027 05:02:34.327   04 Jun 2027 05:02:42.956             8.629                 Moscow           269.656
       339   04 Jun 2027 05:05:41.250   04 Jun 2027 05:06:02.801            21.551                 Moscow           673.469
       340   04 Jun 2027 05:17:14.739   04 Jun 2027 05:19:39.149           144.410               CapeTown          4512.812
       341   04 Jun 2027 06:20:10.399   04 Jun 2027 06:20:26.659            16.260                Anadyr2           508.125
       342   04 Jun 2027 06:20:26.659   04 Jun 2027 06:20:57.006            30.347                Anadyr1           948.344
       343   04 Jun 2027 06:21:24.723   04 Jun 2027 06:21:33.049             8.326               Magadan2           260.188
       344   04 Jun 2027 06:21:39.334   04 Jun 2027 06:21:44.269             4.935                Anadyr1           154.219
       345   04 Jun 2027 06:22:01.126   04 Jun 2027 06:22:16.236            15.110               Magadan1           472.187
       346   04 Jun 2027 06:22:31.308   04 Jun 2027 06:23:25.893            54.585                Anadyr2          1705.781
       347   04 Jun 2027 06:32:59.682   04 Jun 2027 06:33:28.860            29.178                 Moscow           911.813
       348   04 Jun 2027 06:54:55.761   04 Jun 2027 06:57:19.343           143.582               CapeTown          4486.938
       349   04 Jun 2027 07:54:38.888   04 Jun 2027 07:55:28.252            49.364               Magadan2          1542.625
       350   04 Jun 2027 07:56:10.189   04 Jun 2027 07:56:44.805            34.616                Anadyr1          1081.750
       351   04 Jun 2027 07:57:05.481   04 Jun 2027 07:57:47.731            42.250               Magadan2          1320.313
       352   04 Jun 2027 07:58:04.970   04 Jun 2027 07:58:24.853            19.883               Magadan2           621.344
       353   04 Jun 2027 07:58:33.441   04 Jun 2027 07:59:05.596            32.155               Magadan2          1004.844
       354   04 Jun 2027 07:59:07.635   04 Jun 2027 08:00:16.262            68.627               Magadan2          2144.594
       355   04 Jun 2027 08:43:40.412   04 Jun 2027 08:44:13.015            32.603            RioGallegos          1018.844
       356   04 Jun 2027 09:29:36.316   04 Jun 2027 09:30:35.134            58.818               Magadan1          1838.062
       357   04 Jun 2027 09:31:21.125   04 Jun 2027 09:32:29.851            68.726                Anadyr1          2147.687
       358   04 Jun 2027 09:32:36.793   04 Jun 2027 09:33:01.158            24.365               Magadan2           761.406
       359   04 Jun 2027 09:34:29.357   04 Jun 2027 09:35:27.023            57.666               Magadan1          1802.062
       360   04 Jun 2027 09:35:44.081   04 Jun 2027 09:35:53.472             9.391               Magadan2           293.469
       361   04 Jun 2027 09:36:12.550   04 Jun 2027 09:36:32.632            20.082                Anadyr2           627.562
       362   04 Jun 2027 09:37:02.493   04 Jun 2027 09:38:11.548            69.055               Magadan2          2157.969
       363   04 Jun 2027 10:51:58.253   04 Jun 2027 10:52:20.035            21.782                Sumatra           680.688
       364   04 Jun 2027 10:52:23.634   04 Jun 2027 10:52:57.883            34.249                Sumatra          1070.281
       365   04 Jun 2027 11:08:48.893   04 Jun 2027 11:09:16.228            27.335                Irkutsk           854.219
       366   04 Jun 2027 11:09:37.778   04 Jun 2027 11:10:10.754            32.976                Irkutsk          1030.500
       367   04 Jun 2027 11:10:15.930   04 Jun 2027 11:10:44.227            28.297               Magadan2           884.281
       368   04 Jun 2027 11:10:44.227   04 Jun 2027 11:12:03.561            79.334               Magadan1          2479.188
       369   04 Jun 2027 11:12:30.863   04 Jun 2027 11:12:57.711            26.848                Irkutsk           839.000
       370   04 Jun 2027 11:13:01.713   04 Jun 2027 11:13:43.308            41.595                Irkutsk          1299.844
       371   04 Jun 2027 11:13:52.957   04 Jun 2027 11:14:42.837            49.880                Norilsk          1558.750
       372   04 Jun 2027 11:49:54.992   04 Jun 2027 11:50:40.388            45.396            RioGallegos          1418.625
       373   04 Jun 2027 12:23:36.767   04 Jun 2027 12:26:03.972           147.205                Sumatra          4600.156
       374   04 Jun 2027 12:37:54.543   04 Jun 2027 12:38:26.741            32.198                Irkutsk          1006.187
       375   04 Jun 2027 12:39:43.018   04 Jun 2027 12:40:31.497            48.479                Novosib          1514.969
       376   04 Jun 2027 12:49:12.721   04 Jun 2027 12:49:31.948            19.227                Norilsk           600.844
       377   04 Jun 2027 13:29:14.999   04 Jun 2027 13:32:39.472           204.473            RioGallegos          6389.781
       378   04 Jun 2027 14:10:55.110   04 Jun 2027 14:12:24.098            88.988                  Delhi          2780.875
       379   04 Jun 2027 14:15:47.463   04 Jun 2027 14:15:53.309             5.846                Novosib           182.687
       380   04 Jun 2027 14:17:34.661   04 Jun 2027 14:19:49.743           135.082                Novosib          4221.313
       381   04 Jun 2027 14:27:13.109   04 Jun 2027 14:28:53.816           100.707                Norilsk          3147.094
       382   04 Jun 2027 15:52:12.933   04 Jun 2027 15:53:18.087            65.154                 Moscow          2036.062
       383   04 Jun 2027 15:54:20.897   04 Jun 2027 15:54:32.803            11.906                 Moscow           372.062
       384   04 Jun 2027 15:55:31.412   04 Jun 2027 15:56:03.310            31.898                 Moscow           996.812
       385   04 Jun 2027 15:56:42.051   04 Jun 2027 15:57:11.756            29.705              Murmansk1           928.281
       386   04 Jun 2027 15:59:46.020   04 Jun 2027 16:01:31.761           105.741                Norilsk          3304.406
       387   04 Jun 2027 16:02:36.597   04 Jun 2027 16:03:04.253            27.656                Norilsk           864.250
       388   04 Jun 2027 16:03:15.461   04 Jun 2027 16:04:59.027           103.566                Norilsk          3236.437
       389   04 Jun 2027 17:06:44.148   04 Jun 2027 17:07:14.388            30.240               CapeTown           945.000
       390   04 Jun 2027 17:29:38.957   04 Jun 2027 17:31:04.226            85.269                 Moscow          2664.656
       391   04 Jun 2027 17:32:46.040   04 Jun 2027 17:33:12.866            26.826              Murmansk2           838.312
       392   04 Jun 2027 17:34:10.527   04 Jun 2027 17:34:59.640            49.113              Murmansk1          1534.781
       393   04 Jun 2027 17:36:33.167   04 Jun 2027 17:36:54.510            21.343              Murmansk1           666.969
       394   04 Jun 2027 17:39:03.176   04 Jun 2027 17:39:37.390            34.214                 Moscow          1069.187
       395   04 Jun 2027 17:42:27.434   04 Jun 2027 17:42:33.856             6.422              Murmansk2           200.687
       396   04 Jun 2027 17:46:41.253   04 Jun 2027 17:47:36.420            55.167                Anadyr2          1723.969
       397   04 Jun 2027 17:50:28.822   04 Jun 2027 17:50:54.617            25.795                Anadyr1           806.094
       398   04 Jun 2027 17:51:34.858   04 Jun 2027 17:52:08.699            33.841                Anadyr1          1057.531
       399   04 Jun 2027 18:41:43.942   04 Jun 2027 18:43:00.587            76.645               CapeTown          2395.156
       400   04 Jun 2027 18:45:20.133   04 Jun 2027 18:45:50.795            30.662               CapeTown           958.188
       401   04 Jun 2027 19:12:08.757   04 Jun 2027 19:13:09.290            60.533              Murmansk1          1891.656
       402   04 Jun 2027 19:14:16.547   04 Jun 2027 19:17:00.214           163.667              Murmansk2          5114.594
       403   04 Jun 2027 19:17:27.412   04 Jun 2027 19:18:32.310            64.898              Murmansk1          2028.063
       404   04 Jun 2027 19:25:36.492   04 Jun 2027 19:26:13.904            37.412               Magadan2          1169.125
       405   04 Jun 2027 19:26:43.068   04 Jun 2027 19:27:17.758            34.690               Magadan1          1084.062
       406   04 Jun 2027 20:58:11.764   04 Jun 2027 20:59:48.624            96.860                Anadyr2          3026.875
       407   04 Jun 2027 21:00:07.394   04 Jun 2027 21:02:02.402           115.008                Anadyr1          3594.000
       408   04 Jun 2027 21:02:24.574   04 Jun 2027 21:05:53.710           209.136               Magadan1          6535.500
       409   04 Jun 2027 21:11:22.381   04 Jun 2027 21:11:30.286             7.905               Magadan2           247.031
       410   04 Jun 2027 21:55:37.694   04 Jun 2027 21:57:15.086            97.392            RioGallegos          3043.500
       411   04 Jun 2027 22:34:03.267   04 Jun 2027 22:36:56.324           173.057                Anadyr1          5408.031
       412   04 Jun 2027 22:37:17.670   04 Jun 2027 22:39:28.120           130.450               Magadan1          4076.562
       413   04 Jun 2027 22:39:28.120   04 Jun 2027 22:39:32.279             4.159               Magadan2           129.969
       414   04 Jun 2027 22:39:46.509   04 Jun 2027 22:40:06.543            20.034               Magadan1           626.062
       415   04 Jun 2027 22:41:28.314   04 Jun 2027 22:41:43.838            15.524                Irkutsk           485.125
       416   04 Jun 2027 22:42:26.652   04 Jun 2027 22:43:58.338            91.686                Irkutsk          2865.187
       417   04 Jun 2027 22:57:08.834   04 Jun 2027 22:58:27.972            79.138                Sumatra          2473.062
       418   04 Jun 2027 22:58:40.442   04 Jun 2027 22:58:46.922             6.480                Sumatra           202.500
       419   04 Jun 2027 22:59:10.040   04 Jun 2027 22:59:46.264            36.224                Sumatra          1132.000
       420   05 Jun 2027 00:09:26.122   05 Jun 2027 00:11:02.466            96.344                Anadyr2          3010.750
       421   05 Jun 2027 00:11:22.992   05 Jun 2027 00:12:11.711            48.719                Anadyr2          1522.469
       422   05 Jun 2027 00:12:15.318   05 Jun 2027 00:13:05.618            50.300                Norilsk          1571.875
       423   05 Jun 2027 00:13:16.623   05 Jun 2027 00:13:48.256            31.633               Magadan2           988.531
       424   05 Jun 2027 00:13:53.908   05 Jun 2027 00:13:58.149             4.241               Magadan1           132.531
       425   05 Jun 2027 00:14:05.490   05 Jun 2027 00:14:21.526            16.036               Magadan2           501.125
       426   05 Jun 2027 00:14:56.168   05 Jun 2027 00:15:07.221            11.053               Magadan1           345.406
       427   05 Jun 2027 00:15:27.816   05 Jun 2027 00:16:10.800            42.984               Magadan1          1343.250
       428   05 Jun 2027 00:16:43.999   05 Jun 2027 00:18:42.537           118.538                Novosib          3704.312
       429   05 Jun 2027 00:22:52.752   05 Jun 2027 00:24:25.803            93.051                Novosib          2907.844
       430   05 Jun 2027 00:34:26.121   05 Jun 2027 00:35:28.272            62.151                Sumatra          1942.219
       431   05 Jun 2027 01:07:41.484   05 Jun 2027 01:07:47.480             5.996            RioGallegos           187.375
       432   05 Jun 2027 01:09:01.661   05 Jun 2027 01:09:37.521            35.860            RioGallegos          1120.625
       433   05 Jun 2027 01:13:00.260   05 Jun 2027 01:13:31.081            30.821            RioGallegos           963.156
       434   05 Jun 2027 01:43:42.972   05 Jun 2027 01:44:04.321            21.349                Anadyr1           667.156
       435   05 Jun 2027 01:44:43.600   05 Jun 2027 01:44:56.729            13.129                Anadyr2           410.281
       436   05 Jun 2027 01:45:24.119   05 Jun 2027 01:45:49.478            25.359                Anadyr2           792.469
       437   05 Jun 2027 01:45:49.478   05 Jun 2027 01:46:05.929            16.451                Anadyr1           514.094
       438   05 Jun 2027 01:46:07.869   05 Jun 2027 01:46:17.961            10.092                Anadyr1           315.375
       439   05 Jun 2027 01:47:55.243   05 Jun 2027 01:49:37.395           102.152                Norilsk          3192.250
       440   05 Jun 2027 01:51:07.548   05 Jun 2027 01:51:54.227            46.679              Murmansk2          1458.719
       441   05 Jun 2027 01:52:32.012   05 Jun 2027 01:53:40.904            68.892                Irkutsk          2152.875
       442   05 Jun 2027 01:53:58.640   05 Jun 2027 01:54:06.994             8.354              Murmansk1           261.063
       443   05 Jun 2027 01:54:28.061   05 Jun 2027 01:54:53.243            25.182                Novosib           786.937
       444   05 Jun 2027 01:56:21.200   05 Jun 2027 01:57:36.111            74.911                Novosib          2340.969
       445   05 Jun 2027 02:05:59.763   05 Jun 2027 02:06:04.696             4.933                  Delhi           154.156
       446   05 Jun 2027 02:06:31.495   05 Jun 2027 02:06:48.790            17.295                  Delhi           540.469
       447   05 Jun 2027 02:40:45.023   05 Jun 2027 02:41:29.130            44.107            RioGallegos          1378.344
       448   05 Jun 2027 02:42:02.651   05 Jun 2027 02:44:45.944           163.293            RioGallegos          5102.906
       449   05 Jun 2027 03:33:17.732   05 Jun 2027 03:33:51.779            34.047                Novosib          1063.969
       450   05 Jun 2027 03:33:59.139   05 Jun 2027 03:35:28.100            88.961                Irkutsk          2780.031
       451   05 Jun 2027 03:35:35.092   05 Jun 2027 03:35:51.975            16.883                 Moscow           527.594
       452   05 Jun 2027 03:36:05.158   05 Jun 2027 03:38:34.213           149.055                Novosib          4657.969
       453   05 Jun 2027 03:38:37.549   05 Jun 2027 03:39:12.310            34.761                Novosib          1086.281
       454   05 Jun 2027 03:39:52.823   05 Jun 2027 03:42:40.686           167.863                  Delhi          5245.719
       455   05 Jun 2027 05:09:27.067   05 Jun 2027 05:11:27.231           120.164                Novosib          3755.125
       456   05 Jun 2027 05:13:36.755   05 Jun 2027 05:14:38.236            61.481                 Moscow          1921.281
       457   05 Jun 2027 05:29:09.759   05 Jun 2027 05:32:05.898           176.139               CapeTown          5504.344
       458   05 Jun 2027 06:32:15.507   05 Jun 2027 06:32:45.711            30.204                Anadyr1           943.875
       459   05 Jun 2027 06:32:48.178   05 Jun 2027 06:32:58.533            10.355                Anadyr1           323.594
       460   05 Jun 2027 06:33:38.238   05 Jun 2027 06:33:40.745             2.507               Magadan1            78.344
       461   05 Jun 2027 06:33:51.026   05 Jun 2027 06:34:30.722            39.696                Anadyr2          1240.500
       462   05 Jun 2027 06:35:29.310   05 Jun 2027 06:36:42.178            72.868                Anadyr1          2277.125
       463   05 Jun 2027 07:09:58.955   05 Jun 2027 07:12:20.502           141.547               CapeTown          4423.344
       464   05 Jun 2027 08:08:06.631   05 Jun 2027 08:08:35.931            29.300               Magadan2           915.625
       465   05 Jun 2027 08:08:43.212   05 Jun 2027 08:09:31.337            48.125                Anadyr1          1503.906
       466   05 Jun 2027 08:10:02.724   05 Jun 2027 08:10:09.012             6.288               Magadan1           196.500
       467   05 Jun 2027 08:10:09.012   05 Jun 2027 08:10:36.118            27.106               Magadan2           847.062
       468   05 Jun 2027 08:10:46.072   05 Jun 2027 08:11:06.456            20.384               Magadan2           637.000
       469   05 Jun 2027 08:12:16.081   05 Jun 2027 08:12:44.493            28.412                Anadyr1           887.875
       470   05 Jun 2027 08:13:47.996   05 Jun 2027 08:14:37.807            49.811                Anadyr1          1556.594
       471   05 Jun 2027 09:00:23.095   05 Jun 2027 09:00:44.129            21.034            RioGallegos           657.313
       472   05 Jun 2027 09:42:41.583   05 Jun 2027 09:43:03.177            21.594               Magadan2           674.813
       473   05 Jun 2027 09:43:03.177   05 Jun 2027 09:43:24.628            21.451               Magadan1           670.344
       474   05 Jun 2027 09:43:38.531   05 Jun 2027 09:44:13.936            35.405                Anadyr1          1106.406
       475   05 Jun 2027 09:45:03.212   05 Jun 2027 09:46:29.121            85.909               Magadan2          2684.656
       476   05 Jun 2027 09:47:02.392   05 Jun 2027 09:47:41.802            39.410                Irkutsk          1231.562
       477   05 Jun 2027 09:48:05.548   05 Jun 2027 09:48:14.805             9.257               Magadan1           289.281
       478   05 Jun 2027 09:48:22.615   05 Jun 2027 09:49:11.263            48.648               Magadan2          1520.250
       479   05 Jun 2027 09:49:26.631   05 Jun 2027 09:49:27.191             0.560                Norilsk            17.500
       480   05 Jun 2027 09:49:30.751   05 Jun 2027 09:49:40.450             9.699                Norilsk           303.094
       481   05 Jun 2027 09:49:45.627   05 Jun 2027 09:50:08.610            22.983                Norilsk           718.219
       482   05 Jun 2027 10:25:13.579   05 Jun 2027 10:25:35.729            22.150            RioGallegos           692.187
