uniorb/output/strategy_4/Drop/Drop_KinoSat_112008.txt

KinoSat_112008
-------------------------
    Access    *     Start Time (UTCG)     *     Stop Time (UTCG)  *   Duration (s)        *       Station  *  Data (Mbytes)
         1   01 Jun 2027 04:06:36.305   01 Jun 2027 04:10:21.616           225.311                Irkutsk          7040.969
         2   01 Jun 2027 04:10:27.471   01 Jun 2027 04:10:57.540            30.069              Murmansk1           939.656
         3   01 Jun 2027 04:11:26.337   01 Jun 2027 04:16:17.544           291.207                  Delhi          9100.219
         4   01 Jun 2027 05:45:10.669   01 Jun 2027 05:45:24.412            13.743              Murmansk2           429.469
         5   01 Jun 2027 05:45:30.936   01 Jun 2027 05:46:29.027            58.091                Norilsk          1815.344
         6   01 Jun 2027 05:46:36.279   01 Jun 2027 05:49:10.108           153.829              Murmansk2          4807.156
         7   01 Jun 2027 05:49:10.108   01 Jun 2027 05:50:10.677            60.569              Murmansk1          1892.781
         8   01 Jun 2027 05:50:12.439   01 Jun 2027 05:51:05.785            53.346                 Moscow          1667.062
         9   01 Jun 2027 07:22:07.356   01 Jun 2027 07:23:13.804            66.448                 Moscow          2076.500
        10   01 Jun 2027 07:23:32.117   01 Jun 2027 07:27:04.433           212.316                 Moscow          6634.875
        11   01 Jun 2027 07:27:05.239   01 Jun 2027 07:27:15.770            10.531                 Moscow           329.094
        12   01 Jun 2027 07:41:53.259   01 Jun 2027 07:47:09.462           316.203               CapeTown          9881.344
        13   01 Jun 2027 08:45:15.477   01 Jun 2027 08:47:35.088           139.611                Anadyr2          4362.844
        14   01 Jun 2027 10:17:14.365   01 Jun 2027 10:26:29.093           554.728                Anadyr1         17335.250
        15   01 Jun 2027 11:52:34.621   01 Jun 2027 11:58:35.011           360.390               Magadan1         11262.188
        16   01 Jun 2027 11:58:56.704   01 Jun 2027 12:01:45.907           169.203               Magadan2          5287.594
        17   01 Jun 2027 14:18:21.117   01 Jun 2027 14:21:29.915           188.798            RioGallegos          5899.937
        18   01 Jun 2027 14:49:45.586   01 Jun 2027 14:58:11.148           505.562                Sumatra         15798.812
        19   01 Jun 2027 15:05:17.197   01 Jun 2027 15:12:27.680           430.483                Irkutsk         13452.594
        20   01 Jun 2027 16:35:08.703   01 Jun 2027 16:42:04.809           416.106                  Delhi         13003.312
        21   01 Jun 2027 16:43:37.096   01 Jun 2027 16:49:45.094           367.998                Novosib         11499.938
        22   01 Jun 2027 19:58:12.951   01 Jun 2027 20:02:38.112           265.161                 Moscow          8286.281
        23   01 Jun 2027 20:02:57.108   01 Jun 2027 20:04:21.641            84.533              Murmansk1          2641.656
        24   01 Jun 2027 21:07:24.041   01 Jun 2027 21:15:24.173           480.132               CapeTown         15004.125
        25   01 Jun 2027 21:41:50.190   01 Jun 2027 21:42:25.992            35.802              Murmansk2          1118.812
        26   02 Jun 2027 02:56:01.386   02 Jun 2027 03:03:40.646           459.260                Sumatra         14351.875
        27   02 Jun 2027 04:20:37.633   02 Jun 2027 04:21:13.210            35.577                Irkutsk          1111.781
        28   02 Jun 2027 04:22:15.195   02 Jun 2027 04:24:19.275           124.080                Irkutsk          3877.500
        29   02 Jun 2027 04:26:42.594   02 Jun 2027 04:27:00.338            17.744                Novosib           554.500
        30   02 Jun 2027 05:58:20.963   02 Jun 2027 05:59:37.204            76.241                Novosib          2382.531
        31   02 Jun 2027 06:00:41.656   02 Jun 2027 06:01:26.303            44.647                 Moscow          1395.219
        32   02 Jun 2027 06:04:17.881   02 Jun 2027 06:06:08.474           110.593                 Moscow          3456.031
        33   02 Jun 2027 06:17:52.092   02 Jun 2027 06:27:15.848           563.756               CapeTown         17617.375
        34   02 Jun 2027 07:21:37.403   02 Jun 2027 07:23:44.580           127.177                Anadyr2          3974.281
        35   02 Jun 2027 07:33:27.642   02 Jun 2027 07:33:58.955            31.313                Norilsk           978.531
        36   02 Jun 2027 07:35:11.301   02 Jun 2027 07:35:33.330            22.029              Murmansk2           688.406
        37   02 Jun 2027 07:40:32.614   02 Jun 2027 07:41:26.116            53.502                 Moscow          1671.937
        38   02 Jun 2027 07:54:19.390   02 Jun 2027 07:55:58.361            98.971               CapeTown          3092.844
        39   02 Jun 2027 07:57:23.788   02 Jun 2027 08:04:20.243           416.455               CapeTown         13014.219
        40   02 Jun 2027 08:58:32.063   02 Jun 2027 09:02:58.388           266.325                Anadyr1          8322.656
        41   02 Jun 2027 10:32:48.370   02 Jun 2027 10:35:25.097           156.727               Magadan1          4897.719
        42   02 Jun 2027 10:35:47.625   02 Jun 2027 10:36:02.049            14.424               Magadan1           450.750
        43   02 Jun 2027 10:36:11.609   02 Jun 2027 10:36:27.386            15.777               Magadan2           493.031
        44   02 Jun 2027 10:36:27.386   02 Jun 2027 10:38:33.573           126.187               Magadan1          3943.344
        45   02 Jun 2027 12:04:21.748   02 Jun 2027 12:04:41.047            19.299                Irkutsk           603.094
        46   02 Jun 2027 12:05:18.095   02 Jun 2027 12:13:32.846           494.751               Magadan2         15460.969
        47   02 Jun 2027 13:53:41.162   02 Jun 2027 13:54:24.082            42.920                Norilsk          1341.250
        48   02 Jun 2027 14:28:00.719   02 Jun 2027 14:35:15.300           434.581            RioGallegos         13580.656
        49   02 Jun 2027 15:02:37.098   02 Jun 2027 15:09:02.279           385.181                Sumatra         12036.906
        50   02 Jun 2027 15:18:30.727   02 Jun 2027 15:23:46.095           315.368                Irkutsk          9855.250
        51   02 Jun 2027 16:48:57.559   02 Jun 2027 16:52:31.007           213.448                  Delhi          6670.250
        52   02 Jun 2027 16:57:05.075   02 Jun 2027 17:00:52.871           227.796                Novosib          7118.625
        53   02 Jun 2027 20:11:32.957   02 Jun 2027 20:14:26.546           173.589              Murmansk1          5424.656
        54   02 Jun 2027 20:14:54.095   02 Jun 2027 20:17:03.117           129.022              Murmansk1          4031.938
        55   02 Jun 2027 20:18:23.687   02 Jun 2027 20:19:42.411            78.724              Murmansk2          2460.125
        56   02 Jun 2027 21:20:08.206   02 Jun 2027 21:26:18.356           370.150               CapeTown         11567.188
        57   02 Jun 2027 23:34:23.413   02 Jun 2027 23:36:04.399           100.986                Anadyr2          3155.813
        58   02 Jun 2027 23:36:07.950   02 Jun 2027 23:36:53.254            45.304                Anadyr1          1415.750
        59   02 Jun 2027 23:36:59.504   02 Jun 2027 23:37:12.643            13.139                Anadyr1           410.594
        60   02 Jun 2027 23:37:14.720   02 Jun 2027 23:39:56.133           161.413               Magadan1          5044.156
        61   02 Jun 2027 23:42:47.550   02 Jun 2027 23:43:16.640            29.090                Irkutsk           909.063
        62   02 Jun 2027 23:44:27.719   02 Jun 2027 23:45:55.969            88.250                Irkutsk          2757.812
        63   03 Jun 2027 00:28:35.197   03 Jun 2027 00:30:37.764           122.567            RioGallegos          3830.219
        64   03 Jun 2027 00:32:07.562   03 Jun 2027 00:32:14.058             6.496            RioGallegos           203.000
        65   03 Jun 2027 00:33:22.771   03 Jun 2027 00:33:58.977            36.206            RioGallegos          1131.438
        66   03 Jun 2027 00:38:01.907   03 Jun 2027 00:38:04.343             2.436            RioGallegos            76.125
        67   03 Jun 2027 00:39:46.248   03 Jun 2027 00:40:07.275            21.027            RioGallegos           657.094
        68   03 Jun 2027 01:09:54.706   03 Jun 2027 01:10:16.715            22.009                Anadyr2           687.781
        69   03 Jun 2027 01:10:38.454   03 Jun 2027 01:10:48.214             9.760                Anadyr1           305.000
        70   03 Jun 2027 01:10:49.326   03 Jun 2027 01:11:23.256            33.930                Anadyr2          1060.312
        71   03 Jun 2027 01:11:49.129   03 Jun 2027 01:12:29.730            40.601                Anadyr2          1268.781
        72   03 Jun 2027 01:12:30.282   03 Jun 2027 01:14:14.403           104.121                Norilsk          3253.781
        73   03 Jun 2027 01:14:15.244   03 Jun 2027 01:15:49.173            93.929               Magadan1          2935.281
        74   03 Jun 2027 01:16:16.225   03 Jun 2027 01:17:35.520            79.295                Irkutsk          2477.969
        75   03 Jun 2027 01:20:26.077   03 Jun 2027 01:20:40.417            14.340                Novosib           448.125
        76   03 Jun 2027 01:22:45.202   03 Jun 2027 01:23:13.584            28.382                Irkutsk           886.938
        77   03 Jun 2027 01:29:57.874   03 Jun 2027 01:33:03.334           185.460                Sumatra          5795.625
        78   03 Jun 2027 02:12:59.833   03 Jun 2027 02:13:10.424            10.591            RioGallegos           330.969
        79   03 Jun 2027 02:13:44.840   03 Jun 2027 02:14:00.542            15.702            RioGallegos           490.688
        80   03 Jun 2027 02:16:18.876   03 Jun 2027 02:16:47.001            28.125            RioGallegos           878.906
        81   03 Jun 2027 02:45:27.482   03 Jun 2027 02:46:48.425            80.943                Anadyr2          2529.469
        82   03 Jun 2027 02:48:37.394   03 Jun 2027 02:49:01.776            24.382                Norilsk           761.937
        83   03 Jun 2027 02:52:01.669   03 Jun 2027 02:52:08.927             7.258                Norilsk           226.812
        84   03 Jun 2027 02:52:11.697   03 Jun 2027 02:54:13.272           121.575                Novosib          3799.219
        85   03 Jun 2027 02:54:20.003   03 Jun 2027 02:54:39.475            19.472                Irkutsk           608.500
        86   03 Jun 2027 02:56:31.438   03 Jun 2027 02:56:57.681            26.243                Irkutsk           820.094
        87   03 Jun 2027 02:58:19.278   03 Jun 2027 02:58:45.276            25.998                Irkutsk           812.438
        88   03 Jun 2027 03:00:19.113   03 Jun 2027 03:01:02.149            43.036                Irkutsk          1344.875
        89   03 Jun 2027 03:09:26.482   03 Jun 2027 03:14:09.950           283.468                Sumatra          8858.375
        90   03 Jun 2027 03:44:47.267   03 Jun 2027 03:45:15.912            28.645            RioGallegos           895.156
        91   03 Jun 2027 04:28:55.557   03 Jun 2027 04:29:28.160            32.603                Irkutsk          1018.844
        92   03 Jun 2027 04:30:20.761   03 Jun 2027 04:30:22.170             1.409                Irkutsk            44.031
        93   03 Jun 2027 04:31:25.017   03 Jun 2027 04:32:36.010            70.993                Irkutsk          2218.531
        94   03 Jun 2027 04:32:45.477   03 Jun 2027 04:34:11.848            86.371                Irkutsk          2699.094
        95   03 Jun 2027 04:34:28.932   03 Jun 2027 04:35:18.653            49.721                Novosib          1553.781
        96   03 Jun 2027 04:39:32.861   03 Jun 2027 04:44:19.120           286.259                  Delhi          8945.594
        97   03 Jun 2027 06:11:27.046   03 Jun 2027 06:11:33.346             6.300                 Moscow           196.875
        98   03 Jun 2027 06:12:02.396   03 Jun 2027 06:12:27.658            25.262              Murmansk2           789.438
        99   03 Jun 2027 06:12:46.537   03 Jun 2027 06:13:20.477            33.940                 Moscow          1060.625
       100   03 Jun 2027 06:16:23.356   03 Jun 2027 06:16:33.062             9.706                 Moscow           303.312
       101   03 Jun 2027 06:16:48.633   03 Jun 2027 06:17:11.891            23.258                 Moscow           726.813
       102   03 Jun 2027 06:29:39.424   03 Jun 2027 06:32:16.956           157.532               CapeTown          4922.875
       103   03 Jun 2027 07:32:32.675   03 Jun 2027 07:33:26.011            53.336                Anadyr1          1666.750
       104   03 Jun 2027 07:33:40.768   03 Jun 2027 07:34:03.930            23.162               Magadan1           723.812
       105   03 Jun 2027 07:34:13.655   03 Jun 2027 07:35:11.589            57.934                Anadyr2          1810.438
       106   03 Jun 2027 07:42:58.448   03 Jun 2027 07:43:45.686            47.238                 Moscow          1476.188
       107   03 Jun 2027 07:45:09.740   03 Jun 2027 07:45:25.518            15.778                Norilsk           493.062
       108   03 Jun 2027 07:47:39.412   03 Jun 2027 07:48:13.590            34.178                 Moscow          1068.062
       109   03 Jun 2027 07:52:55.304   03 Jun 2027 07:53:25.713            30.409                 Moscow           950.281
       110   03 Jun 2027 08:06:54.134   03 Jun 2027 08:13:25.845           391.711               CapeTown         12240.969
       111   03 Jun 2027 09:07:04.842   03 Jun 2027 09:07:50.058            45.216               Magadan2          1413.000
       112   03 Jun 2027 09:08:54.009   03 Jun 2027 09:09:03.270             9.261               Magadan1           289.406
       113   03 Jun 2027 09:09:40.305   03 Jun 2027 09:10:45.262            64.957               Magadan1          2029.906
       114   03 Jun 2027 09:10:45.262   03 Jun 2027 09:11:29.412            44.150               Magadan2          1379.688
       115   03 Jun 2027 09:11:36.533   03 Jun 2027 09:12:54.099            77.566               Magadan2          2423.937
       116   03 Jun 2027 09:54:21.723   03 Jun 2027 09:54:43.118            21.395            RioGallegos           668.594
       117   03 Jun 2027 10:42:17.276   03 Jun 2027 10:42:58.022            40.746               Magadan2          1273.313
       118   03 Jun 2027 10:43:11.380   03 Jun 2027 10:44:46.025            94.645               Magadan2          2957.656
       119   03 Jun 2027 10:45:19.500   03 Jun 2027 10:47:57.685           158.185               Magadan1          4943.281
       120   03 Jun 2027 10:48:21.614   03 Jun 2027 10:49:07.270            45.656               Magadan1          1426.750
       121   03 Jun 2027 10:49:57.541   03 Jun 2027 10:49:58.816             1.275                Norilsk            39.844
       122   03 Jun 2027 10:50:05.335   03 Jun 2027 10:50:12.914             7.579                Anadyr2           236.844
       123   03 Jun 2027 11:25:54.613   03 Jun 2027 11:26:34.194            39.581            RioGallegos          1236.906
       124   03 Jun 2027 11:34:02.015   03 Jun 2027 11:34:33.571            31.556            RioGallegos           986.125
       125   03 Jun 2027 12:05:45.174   03 Jun 2027 12:07:37.699           112.525                Sumatra          3516.406
       126   03 Jun 2027 12:13:49.806   03 Jun 2027 12:15:01.166            71.360                Irkutsk          2230.000
       127   03 Jun 2027 12:18:09.752   03 Jun 2027 12:25:14.414           424.662               Magadan1         13270.688
       128   03 Jun 2027 13:50:12.861   03 Jun 2027 13:52:35.802           142.941                Irkutsk          4466.906
       129   03 Jun 2027 14:40:58.317   03 Jun 2027 14:47:56.922           418.605            RioGallegos         13081.406
       130   03 Jun 2027 15:17:05.664   03 Jun 2027 15:18:27.534            81.870                Sumatra          2558.437
       131   03 Jun 2027 15:32:51.019   03 Jun 2027 15:34:01.046            70.027                Irkutsk          2188.344
       132   03 Jun 2027 17:11:43.323   03 Jun 2027 17:14:32.404           169.081                Norilsk          5283.781
       133   03 Jun 2027 17:16:43.193   03 Jun 2027 17:17:18.372            35.179                Norilsk          1099.344
       134   03 Jun 2027 18:26:44.061   03 Jun 2027 18:27:57.483            73.422               CapeTown          2294.437
       135   03 Jun 2027 18:41:45.163   03 Jun 2027 18:42:33.638            48.475                 Moscow          1514.844
       136   03 Jun 2027 18:44:57.116   03 Jun 2027 18:45:29.281            32.165              Murmansk2          1005.156
       137   03 Jun 2027 18:46:25.203   03 Jun 2027 18:47:00.365            35.162                 Moscow          1098.812
       138   03 Jun 2027 18:49:13.543   03 Jun 2027 18:49:29.620            16.077              Murmansk2           502.406
       139   03 Jun 2027 18:49:35.488   03 Jun 2027 18:51:19.837           104.349                 Moscow          3260.906
       140   03 Jun 2027 18:54:27.702   03 Jun 2027 18:54:39.091            11.389              Murmansk1           355.906
       141   03 Jun 2027 19:03:37.543   03 Jun 2027 19:04:18.900            41.357                Anadyr2          1292.406
       142   03 Jun 2027 19:54:01.121   03 Jun 2027 19:54:28.617            27.496               CapeTown           859.250
       143   03 Jun 2027 19:55:51.775   03 Jun 2027 19:56:00.082             8.307               CapeTown           259.594
       144   03 Jun 2027 19:57:05.982   03 Jun 2027 19:57:58.317            52.335               CapeTown          1635.469
       145   03 Jun 2027 20:01:41.222   03 Jun 2027 20:02:12.912            31.690               CapeTown           990.312
       146   03 Jun 2027 20:24:08.808   03 Jun 2027 20:32:40.049           511.241              Murmansk2         15976.281
       147   03 Jun 2027 21:33:29.169   03 Jun 2027 21:36:32.592           183.423               CapeTown          5731.969
       148   03 Jun 2027 22:12:52.364   03 Jun 2027 22:14:07.354            74.990               Magadan1          2343.438
       149   03 Jun 2027 22:16:12.402   03 Jun 2027 22:16:38.816            26.414               Magadan2           825.438
       150   03 Jun 2027 22:22:24.264   03 Jun 2027 22:23:16.567            52.303               Magadan1          1634.469
       151   03 Jun 2027 23:46:23.899   03 Jun 2027 23:50:13.983           230.084                Anadyr2          7190.125
       152   03 Jun 2027 23:50:15.944   03 Jun 2027 23:51:38.224            82.280               Magadan1          2571.250
       153   03 Jun 2027 23:51:54.917   03 Jun 2027 23:52:23.439            28.522               Magadan2           891.313
       154   03 Jun 2027 23:53:10.991   03 Jun 2027 23:53:59.948            48.957               Magadan2          1529.906
       155   03 Jun 2027 23:54:02.971   03 Jun 2027 23:54:23.076            20.105                Irkutsk           628.281
       156   03 Jun 2027 23:55:16.593   03 Jun 2027 23:55:51.326            34.733                Irkutsk          1085.406
       157   03 Jun 2027 23:56:21.842   03 Jun 2027 23:56:49.225            27.383                Irkutsk           855.719
       158   03 Jun 2027 23:56:50.970   03 Jun 2027 23:56:58.309             7.339                Irkutsk           229.344
       159   03 Jun 2027 23:59:05.909   03 Jun 2027 23:59:21.934            16.025                Irkutsk           500.781
       160   04 Jun 2027 00:10:19.049   04 Jun 2027 00:11:26.236            67.187                Sumatra          2099.594
       161   04 Jun 2027 00:11:49.615   04 Jun 2027 00:12:58.968            69.353                Sumatra          2167.281
       162   04 Jun 2027 00:40:29.011   04 Jun 2027 00:41:07.179            38.168            RioGallegos          1192.750
       163   04 Jun 2027 00:42:12.515   04 Jun 2027 00:42:37.920            25.405            RioGallegos           793.906
       164   04 Jun 2027 00:47:57.747   04 Jun 2027 00:48:12.244            14.497            RioGallegos           453.031
       165   04 Jun 2027 00:49:57.429   04 Jun 2027 00:50:32.511            35.082            RioGallegos          1096.313
       166   04 Jun 2027 01:21:49.973   04 Jun 2027 01:23:19.573            89.600                Anadyr1          2800.000
       167   04 Jun 2027 01:24:13.558   04 Jun 2027 01:24:14.169             0.611                Norilsk            19.094
       168   04 Jun 2027 01:24:21.998   04 Jun 2027 01:25:28.950            66.952                Norilsk          2092.250
       169   04 Jun 2027 01:25:46.517   04 Jun 2027 01:26:36.802            50.285               Magadan1          1571.406
       170   04 Jun 2027 01:27:17.006   04 Jun 2027 01:28:03.001            45.995               Magadan1          1437.344
       171   04 Jun 2027 01:28:13.729   04 Jun 2027 01:29:41.078            87.349                Irkutsk          2729.656
       172   04 Jun 2027 01:30:03.449   04 Jun 2027 01:30:10.975             7.526                Irkutsk           235.188
       173   04 Jun 2027 01:31:19.510   04 Jun 2027 01:31:24.772             5.262                Novosib           164.437
       174   04 Jun 2027 01:32:57.395   04 Jun 2027 01:33:25.101            27.706                Novosib           865.812
       175   04 Jun 2027 01:35:13.771   04 Jun 2027 01:35:55.545            41.774                Irkutsk          1305.438
       176   04 Jun 2027 01:41:57.021   04 Jun 2027 01:44:16.772           139.751                Sumatra          4367.219
       177   04 Jun 2027 02:19:15.723   04 Jun 2027 02:19:55.768            40.045            RioGallegos          1251.406
       178   04 Jun 2027 02:22:32.226   04 Jun 2027 02:22:38.951             6.725            RioGallegos           210.156
       179   04 Jun 2027 02:24:21.124   04 Jun 2027 02:25:04.257            43.133            RioGallegos          1347.906
       180   04 Jun 2027 02:58:38.916   04 Jun 2027 02:58:50.690            11.774                Anadyr1           367.938
       181   04 Jun 2027 03:00:55.537   04 Jun 2027 03:01:09.888            14.351               Magadan1           448.469
       182   04 Jun 2027 03:02:03.970   04 Jun 2027 03:02:25.262            21.292               Magadan1           665.375
       183   04 Jun 2027 03:03:53.080   04 Jun 2027 03:04:20.360            27.280               Magadan1           852.500
       184   04 Jun 2027 03:04:32.788   04 Jun 2027 03:06:37.775           124.987               Magadan1          3905.844
       185   04 Jun 2027 03:06:58.849   04 Jun 2027 03:07:10.629            11.780               Magadan1           368.125
       186   04 Jun 2027 03:07:30.334   04 Jun 2027 03:08:14.932            44.598                Norilsk          1393.687
       187   04 Jun 2027 03:08:34.709   04 Jun 2027 03:09:07.292            32.583                Irkutsk          1018.219
       188   04 Jun 2027 03:09:36.145   04 Jun 2027 03:11:18.958           102.813                Irkutsk          3212.906
       189   04 Jun 2027 03:11:30.526   04 Jun 2027 03:13:57.649           147.123                  Delhi          4597.594
       190   04 Jun 2027 03:52:58.604   04 Jun 2027 03:57:39.440           280.836            RioGallegos          8776.125
       191   04 Jun 2027 04:44:27.740   04 Jun 2027 04:44:51.251            23.511                 Moscow           734.719
       192   04 Jun 2027 04:44:55.926   04 Jun 2027 04:48:11.353           195.427                Irkutsk          6107.094
       193   04 Jun 2027 04:48:22.640   04 Jun 2027 04:54:17.055           354.415                  Delhi         11075.469
       194   04 Jun 2027 06:21:12.446   04 Jun 2027 06:21:13.234             0.788                Norilsk            24.625
       195   04 Jun 2027 06:21:25.498   04 Jun 2027 06:21:26.986             1.488                Norilsk            46.500
       196   04 Jun 2027 06:22:07.953   04 Jun 2027 06:22:09.101             1.148                Norilsk            35.875
       197   04 Jun 2027 06:22:19.019   04 Jun 2027 06:22:43.850            24.831                Novosib           775.969
       198   04 Jun 2027 06:23:07.111   04 Jun 2027 06:23:40.086            32.975                Norilsk          1030.469
       199   04 Jun 2027 06:23:55.047   04 Jun 2027 06:24:19.051            24.004              Murmansk2           750.125
       200   04 Jun 2027 06:24:23.059   04 Jun 2027 06:24:44.627            21.568                 Moscow           674.000
       201   04 Jun 2027 06:24:48.423   04 Jun 2027 06:25:23.541            35.118                 Moscow          1097.438
       202   04 Jun 2027 06:28:28.294   04 Jun 2027 06:29:16.886            48.592                 Moscow          1518.500
       203   04 Jun 2027 06:41:31.947   04 Jun 2027 06:42:38.424            66.477               CapeTown          2077.406
       204   04 Jun 2027 06:44:39.473   04 Jun 2027 06:44:48.917             9.444               CapeTown           295.125
       205   04 Jun 2027 07:44:49.210   04 Jun 2027 07:45:06.982            17.772                Anadyr1           555.375
       206   04 Jun 2027 07:45:26.699   04 Jun 2027 07:46:25.150            58.451                Anadyr2          1826.594
       207   04 Jun 2027 07:59:06.531   04 Jun 2027 07:59:29.327            22.796              Murmansk1           712.375
       208   04 Jun 2027 07:59:29.774   04 Jun 2027 08:00:20.863            51.089                 Moscow          1596.531
       209   04 Jun 2027 08:19:40.368   04 Jun 2027 08:20:32.927            52.559               CapeTown          1642.469
       210   04 Jun 2027 08:25:56.679   04 Jun 2027 08:28:24.216           147.537               CapeTown          4610.531
       211   04 Jun 2027 09:19:04.673   04 Jun 2027 09:20:10.044            65.371               Magadan2          2042.844
       212   04 Jun 2027 09:20:27.013   04 Jun 2027 09:20:42.844            15.831               Magadan2           494.719
       213   04 Jun 2027 09:21:05.069   04 Jun 2027 09:21:48.727            43.658               Magadan1          1364.312
       214   04 Jun 2027 09:22:23.443   04 Jun 2027 09:22:43.246            19.803               Magadan1           618.844
       215   04 Jun 2027 09:23:20.271   04 Jun 2027 09:23:27.084             6.813               Magadan2           212.906
       216   04 Jun 2027 09:24:53.569   04 Jun 2027 09:25:07.198            13.629                Anadyr1           425.906
       217   04 Jun 2027 09:26:04.200   04 Jun 2027 09:26:14.829            10.629               Magadan2           332.156
       218   04 Jun 2027 10:05:32.954   04 Jun 2027 10:05:54.112            21.158            RioGallegos           661.187
       219   04 Jun 2027 10:06:11.817   04 Jun 2027 10:06:14.294             2.477            RioGallegos            77.406
       220   04 Jun 2027 10:07:38.757   04 Jun 2027 10:07:46.500             7.743            RioGallegos           241.969
       221   04 Jun 2027 10:08:07.322   04 Jun 2027 10:08:07.914             0.592            RioGallegos            18.500
       222   04 Jun 2027 10:55:24.201   04 Jun 2027 10:56:00.424            36.223               Magadan1          1131.969
       223   04 Jun 2027 10:56:00.424   04 Jun 2027 11:00:23.668           263.244               Magadan2          8226.375
       224   04 Jun 2027 11:01:12.083   04 Jun 2027 11:01:31.928            19.845                Norilsk           620.156
       225   04 Jun 2027 11:01:35.390   04 Jun 2027 11:01:54.242            18.852                Irkutsk           589.125
       226   04 Jun 2027 11:01:56.619   04 Jun 2027 11:02:04.959             8.340                Norilsk           260.625
       227   04 Jun 2027 11:03:22.956   04 Jun 2027 11:03:38.303            15.347                Norilsk           479.594
       228   04 Jun 2027 11:37:40.117   04 Jun 2027 11:38:09.770            29.653            RioGallegos           926.656
       229   04 Jun 2027 11:39:14.741   04 Jun 2027 11:39:57.251            42.510            RioGallegos          1328.438
       230   04 Jun 2027 12:15:29.337   04 Jun 2027 12:17:07.319            97.982                Sumatra          3061.938
       231   04 Jun 2027 12:25:42.562   04 Jun 2027 12:27:36.608           114.046                Irkutsk          3563.937
       232   04 Jun 2027 12:31:13.732   04 Jun 2027 12:36:46.536           332.804               Magadan2         10400.125
       233   04 Jun 2027 13:51:06.091   04 Jun 2027 13:52:22.445            76.354                Sumatra          2386.062
       234   04 Jun 2027 14:02:25.446   04 Jun 2027 14:03:00.454            35.008                Irkutsk          1094.000
       235   04 Jun 2027 14:05:07.903   04 Jun 2027 14:06:38.303            90.400                Irkutsk          2825.000
       236   04 Jun 2027 14:54:16.790   04 Jun 2027 14:59:10.170           293.380            RioGallegos          9168.125
       237   04 Jun 2027 15:40:20.332   04 Jun 2027 15:41:15.411            55.079                Novosib          1721.219
       238   04 Jun 2027 15:44:20.974   04 Jun 2027 15:44:54.810            33.836                Norilsk          1057.375
       239   04 Jun 2027 15:47:59.277   04 Jun 2027 15:51:25.478           206.201                Novosib          6443.781
       240   04 Jun 2027 17:21:29.885   04 Jun 2027 17:21:34.989             5.104              Murmansk1           159.500
       241   04 Jun 2027 17:24:27.552   04 Jun 2027 17:28:08.329           220.777                Norilsk          6899.281
       242   04 Jun 2027 17:29:41.319   04 Jun 2027 17:30:40.354            59.035                Norilsk          1844.844
       243   04 Jun 2027 18:54:13.695   04 Jun 2027 18:55:38.088            84.393                 Moscow          2637.281
       244   04 Jun 2027 18:57:15.343   04 Jun 2027 18:58:42.119            86.776              Murmansk1          2711.750
       245   04 Jun 2027 18:59:28.124   04 Jun 2027 18:59:45.019            16.895                 Moscow           527.969
       246   04 Jun 2027 19:01:21.463   04 Jun 2027 19:01:36.813            15.350              Murmansk1           479.687
       247   04 Jun 2027 19:01:50.875   04 Jun 2027 19:02:46.956            56.081              Murmansk1          1752.531
       248   04 Jun 2027 19:07:04.199   04 Jun 2027 19:07:05.488             1.289              Murmansk2            40.281
       249   04 Jun 2027 20:06:08.258   04 Jun 2027 20:08:57.254           168.996               CapeTown          5281.125
       250   04 Jun 2027 20:14:20.623   04 Jun 2027 20:15:18.005            57.382               CapeTown          1793.187
       251   04 Jun 2027 20:36:48.116   04 Jun 2027 20:38:47.204           119.088              Murmansk2          3721.500
       252   04 Jun 2027 20:39:12.935   04 Jun 2027 20:42:41.004           208.069              Murmansk1          6502.156
       253   04 Jun 2027 20:42:55.125   04 Jun 2027 20:44:36.750           101.625              Murmansk2          3175.781
       254   04 Jun 2027 22:22:33.096   04 Jun 2027 22:24:28.888           115.792                Anadyr2          3618.500
       255   04 Jun 2027 22:24:51.844   04 Jun 2027 22:26:19.239            87.395               Magadan2          2731.094
       256   04 Jun 2027 22:26:19.239   04 Jun 2027 22:26:56.037            36.798               Magadan1          1149.937
       257   04 Jun 2027 22:27:19.329   04 Jun 2027 22:27:42.197            22.868               Magadan1           714.625
       258   04 Jun 2027 22:32:42.145   04 Jun 2027 22:32:55.153            13.008               Magadan2           406.500
       259   04 Jun 2027 22:33:23.045   04 Jun 2027 22:34:11.365            48.320               Magadan2          1510.000
       260   04 Jun 2027 23:19:08.671   04 Jun 2027 23:21:26.789           138.118            RioGallegos          4316.187
       261   04 Jun 2027 23:58:23.992   04 Jun 2027 23:59:56.186            92.194                Anadyr2          2881.062
       262   04 Jun 2027 23:59:57.131   05 Jun 2027 00:00:37.526            40.395                Anadyr1          1262.344
       263   05 Jun 2027 00:00:46.368   05 Jun 2027 00:02:34.138           107.770               Magadan2          3367.812
       264   05 Jun 2027 00:02:58.969   05 Jun 2027 00:03:49.544            50.575               Magadan2          1580.469
       265   05 Jun 2027 00:04:18.322   05 Jun 2027 00:04:29.000            10.678               Magadan1           333.687
       266   05 Jun 2027 00:05:35.106   05 Jun 2027 00:06:20.028            44.922                Irkutsk          1403.812
       267   05 Jun 2027 00:07:26.017   05 Jun 2027 00:07:45.571            19.554                Irkutsk           611.062
       268   05 Jun 2027 00:08:05.210   05 Jun 2027 00:08:46.286            41.076                Irkutsk          1283.625
       269   05 Jun 2027 00:20:52.276   05 Jun 2027 00:22:54.620           122.344                Sumatra          3823.250
       270   05 Jun 2027 00:23:11.731   05 Jun 2027 00:23:51.050            39.319                Sumatra          1228.719
       271   05 Jun 2027 00:54:15.691   05 Jun 2027 00:54:17.265             1.574            RioGallegos            49.188
       272   05 Jun 2027 00:54:19.213   05 Jun 2027 00:54:25.052             5.839            RioGallegos           182.469
       273   05 Jun 2027 00:54:58.285   05 Jun 2027 00:55:11.097            12.812            RioGallegos           400.375
       274   05 Jun 2027 00:56:24.540   05 Jun 2027 00:57:14.154            49.614            RioGallegos          1550.437
       275   05 Jun 2027 01:03:43.736   05 Jun 2027 01:03:53.117             9.381            RioGallegos           293.156
       276   05 Jun 2027 01:33:44.178   05 Jun 2027 01:34:20.853            36.675                Anadyr2          1146.094
       277   05 Jun 2027 01:35:14.480   05 Jun 2027 01:35:49.752            35.272                Anadyr2          1102.250
       278   05 Jun 2027 01:35:49.752   05 Jun 2027 01:35:58.814             9.062                Anadyr1           283.188
       279   05 Jun 2027 01:36:15.525   05 Jun 2027 01:38:19.119           123.594                Norilsk          3862.312
       280   05 Jun 2027 01:38:36.537   05 Jun 2027 01:40:00.260            83.723               Magadan2          2616.344
       281   05 Jun 2027 01:40:12.501   05 Jun 2027 01:41:34.166            81.665                Irkutsk          2552.031
       282   05 Jun 2027 01:46:52.226   05 Jun 2027 01:49:11.136           138.910                Novosib          4340.938
       283   05 Jun 2027 01:57:04.157   05 Jun 2027 01:58:34.336            90.179                Sumatra          2818.094
       284   05 Jun 2027 02:28:15.923   05 Jun 2027 02:30:01.253           105.330            RioGallegos          3291.562
       285   05 Jun 2027 03:16:22.525   05 Jun 2027 03:18:24.200           121.675               Magadan1          3802.344
       286   05 Jun 2027 03:20:12.241   05 Jun 2027 03:21:38.600            86.359                Irkutsk          2698.719
       287   05 Jun 2027 03:22:18.115   05 Jun 2027 03:23:32.262            74.147                Irkutsk          2317.094
       288   05 Jun 2027 03:24:19.283   05 Jun 2027 03:26:19.883           120.600                  Delhi          3768.750
       289   05 Jun 2027 03:29:01.182   05 Jun 2027 03:30:25.728            84.546                  Delhi          2642.063
       290   05 Jun 2027 04:05:14.616   05 Jun 2027 04:05:44.137            29.521            RioGallegos           922.531
       291   05 Jun 2027 04:06:54.321   05 Jun 2027 04:10:14.119           199.798            RioGallegos          6243.688
       292   05 Jun 2027 04:56:05.917   05 Jun 2027 04:59:21.761           195.844                Irkutsk          6120.125
       293   05 Jun 2027 05:00:16.560   05 Jun 2027 05:00:20.050             3.490                Novosib           109.063
       294   05 Jun 2027 05:00:55.968   05 Jun 2027 05:09:03.255           487.287                  Delhi         15227.719
       295   05 Jun 2027 06:33:24.647   05 Jun 2027 06:34:02.267            37.620                Norilsk          1175.625
       296   05 Jun 2027 06:34:21.081   05 Jun 2027 06:34:48.822            27.741                Novosib           866.906
       297   05 Jun 2027 06:35:26.443   05 Jun 2027 06:35:37.383            10.940                 Moscow           341.875
       298   05 Jun 2027 06:35:46.767   05 Jun 2027 06:36:47.393            60.626                 Moscow          1894.563
       299   05 Jun 2027 06:40:32.731   05 Jun 2027 06:41:21.584            48.853                 Moscow          1526.656
       300   05 Jun 2027 06:53:29.535   05 Jun 2027 06:54:28.673            59.138               CapeTown          1848.062
       301   05 Jun 2027 06:57:29.031   05 Jun 2027 06:57:31.312             2.281               CapeTown            71.281
       302   05 Jun 2027 07:56:43.722   05 Jun 2027 07:57:29.317            45.595                Anadyr1          1424.844
       303   05 Jun 2027 07:57:45.683   05 Jun 2027 07:58:39.022            53.339                Anadyr2          1666.844
       304   05 Jun 2027 08:01:19.235   05 Jun 2027 08:02:37.732            78.497                Anadyr2          2453.031
       305   05 Jun 2027 08:39:16.496   05 Jun 2027 08:39:36.623            20.127               CapeTown           628.969
       306   05 Jun 2027 09:32:37.674   05 Jun 2027 09:33:11.809            34.135                Anadyr1          1066.719
       307   05 Jun 2027 09:33:40.464   05 Jun 2027 09:34:51.595            71.131                Anadyr1          2222.844
       308   05 Jun 2027 09:34:56.747   05 Jun 2027 09:35:27.171            30.424               Magadan2           950.750
       309   05 Jun 2027 09:36:48.140   05 Jun 2027 09:37:30.990            42.850                Anadyr2          1339.063
       310   05 Jun 2027 09:38:45.353   05 Jun 2027 09:38:58.240            12.887                Anadyr1           402.719
       311   05 Jun 2027 10:20:08.395   05 Jun 2027 10:20:40.604            32.209            RioGallegos          1006.531
       312   05 Jun 2027 11:07:34.721   05 Jun 2027 11:08:32.443            57.722               Magadan2          1803.813
       313   05 Jun 2027 11:08:32.443   05 Jun 2027 11:12:03.088           210.645               Magadan1          6582.656
       314   05 Jun 2027 11:12:37.560   05 Jun 2027 11:13:08.359            30.799                Irkutsk           962.469
       315   05 Jun 2027 11:13:19.689   05 Jun 2027 11:14:04.145            44.456                Irkutsk          1389.250
       316   05 Jun 2027 11:14:12.714   05 Jun 2027 11:14:39.803            27.089                Norilsk           846.531
       317   05 Jun 2027 11:49:28.883   05 Jun 2027 11:50:37.868            68.985            RioGallegos          2155.781
       318   05 Jun 2027 12:26:22.618   05 Jun 2027 12:28:17.948           115.330                Sumatra          3604.063
       319   05 Jun 2027 12:37:38.449   05 Jun 2027 12:39:00.870            82.421                Irkutsk          2575.656
       320   05 Jun 2027 12:39:50.752   05 Jun 2027 12:40:18.115            27.363                Irkutsk           855.094
       321   05 Jun 2027 12:44:44.454   05 Jun 2027 12:47:54.920           190.466               Magadan1          5952.063
       322   05 Jun 2027 13:28:29.658   05 Jun 2027 13:30:35.038           125.380            RioGallegos          3918.125
       323   05 Jun 2027 14:00:06.534   05 Jun 2027 14:00:12.160             5.626                Sumatra           175.812
       324   05 Jun 2027 14:03:00.767   05 Jun 2027 14:04:48.523           107.756                Sumatra          3367.375
       325   05 Jun 2027 14:14:50.895   05 Jun 2027 14:16:00.552            69.657                Irkutsk          2176.781
       326   05 Jun 2027 14:19:49.402   05 Jun 2027 14:20:14.258            24.856                Irkutsk           776.750
       327   05 Jun 2027 14:22:37.152   05 Jun 2027 14:24:30.461           113.309                Irkutsk          3540.906
       328   05 Jun 2027 15:44:41.771   05 Jun 2027 15:45:57.861            76.090                  Delhi          2377.812
       329   05 Jun 2027 15:49:56.447   05 Jun 2027 15:52:03.011           126.564                  Delhi          3955.125
       330   05 Jun 2027 15:52:49.942   05 Jun 2027 15:54:23.918            93.976                Novosib          2936.750
       331   05 Jun 2027 15:57:11.723   05 Jun 2027 15:58:25.164            73.441                Novosib          2295.031
       332   05 Jun 2027 16:01:43.532   05 Jun 2027 16:02:21.014            37.482                Norilsk          1171.312
       333   05 Jun 2027 17:28:54.026   05 Jun 2027 17:29:55.401            61.375                 Moscow          1917.969
       334   05 Jun 2027 17:31:54.178   05 Jun 2027 17:32:10.682            16.504                 Moscow           515.750
       335   05 Jun 2027 17:33:02.825   05 Jun 2027 17:33:37.116            34.291              Murmansk2          1071.594
       336   05 Jun 2027 17:34:13.854   05 Jun 2027 17:34:29.625            15.771              Murmansk1           492.844
       337   05 Jun 2027 17:37:16.620   05 Jun 2027 17:42:10.488           293.868                Norilsk          9183.375
       338   05 Jun 2027 19:06:47.599   05 Jun 2027 19:09:11.884           144.285                 Moscow          4508.906
       339   05 Jun 2027 19:09:35.733   05 Jun 2027 19:09:57.976            22.243              Murmansk2           695.094
       340   05 Jun 2027 19:10:29.652   05 Jun 2027 19:11:22.981            53.329              Murmansk1          1666.531
       341   05 Jun 2027 19:12:34.019   05 Jun 2027 19:12:39.656             5.637                 Moscow           176.156
       342   05 Jun 2027 19:14:29.305   05 Jun 2027 19:14:42.706            13.401              Murmansk1           418.781
       343   05 Jun 2027 20:18:18.474   05 Jun 2027 20:20:43.277           144.803               CapeTown          4525.094
       344   05 Jun 2027 20:26:29.079   05 Jun 2027 20:28:03.211            94.132               CapeTown          2941.625
       345   05 Jun 2027 20:49:31.461   05 Jun 2027 20:56:31.530           420.069              Murmansk1         13127.156
       346   05 Jun 2027 22:34:34.912   05 Jun 2027 22:35:35.163            60.251                Anadyr1          1882.844
       347   05 Jun 2027 22:35:50.719   05 Jun 2027 22:37:39.077           108.358                Anadyr1          3386.187
       348   05 Jun 2027 22:37:57.195   05 Jun 2027 22:38:40.017            42.822               Magadan2          1338.187
       349   05 Jun 2027 22:39:37.192   05 Jun 2027 22:39:54.575            17.383               Magadan1           543.219
       350   05 Jun 2027 22:40:08.170   05 Jun 2027 22:40:17.874             9.704               Magadan1           303.250
       351   05 Jun 2027 22:40:37.148   05 Jun 2027 22:41:09.803            32.655               Magadan2          1020.469
       352   05 Jun 2027 22:41:48.090   05 Jun 2027 22:42:08.293            20.203               Magadan2           631.344
       353   05 Jun 2027 22:42:08.293   05 Jun 2027 22:42:29.950            21.657               Magadan1           676.781
       354   05 Jun 2027 23:30:18.611   05 Jun 2027 23:33:09.246           170.635            RioGallegos          5332.344
       355   05 Jun 2027 23:35:49.886   05 Jun 2027 23:36:30.397            40.511            RioGallegos          1265.969
       356   06 Jun 2027 00:10:23.624   06 Jun 2027 00:11:50.587            86.963                Anadyr1          2717.594
       357   06 Jun 2027 00:11:58.473   06 Jun 2027 00:12:04.321             5.848                Anadyr2           182.750
       358   06 Jun 2027 00:12:28.122   06 Jun 2027 00:14:03.190            95.068                Norilsk          2970.875
       359   06 Jun 2027 00:14:28.494   06 Jun 2027 00:14:50.287            21.793               Magadan1           681.031
       360   06 Jun 2027 00:16:14.240   06 Jun 2027 00:16:47.962            33.722               Magadan2          1053.812
       361   06 Jun 2027 00:17:15.650   06 Jun 2027 00:19:25.782           130.132                Irkutsk          4066.625
       362   06 Jun 2027 00:23:31.397   06 Jun 2027 00:24:50.790            79.393                Irkutsk          2481.031
       363   06 Jun 2027 00:31:58.105   06 Jun 2027 00:33:45.071           106.966                Sumatra          3342.688
       364   06 Jun 2027 01:08:45.835   06 Jun 2027 01:09:15.629            29.794            RioGallegos           931.062
       365   06 Jun 2027 01:15:16.127   06 Jun 2027 01:15:20.940             4.813            RioGallegos           150.406
       366   06 Jun 2027 01:15:57.852   06 Jun 2027 01:16:41.493            43.641            RioGallegos          1363.781
       367   06 Jun 2027 01:45:37.227   06 Jun 2027 01:45:41.895             4.668                Anadyr2           145.875
       368   06 Jun 2027 01:46:05.384   06 Jun 2027 01:46:28.890            23.506                Anadyr2           734.562
       369   06 Jun 2027 01:46:54.365   06 Jun 2027 01:47:07.491            13.126                Anadyr1           410.188
       370   06 Jun 2027 01:47:22.217   06 Jun 2027 01:47:49.495            27.278                Anadyr2           852.437
       371   06 Jun 2027 01:48:17.682   06 Jun 2027 01:49:55.648            97.966                Norilsk          3061.438
       372   06 Jun 2027 01:50:14.608   06 Jun 2027 01:50:21.432             6.824                Norilsk           213.250
       373   06 Jun 2027 01:50:35.545   06 Jun 2027 01:50:37.158             1.613               Magadan1            50.406
       374   06 Jun 2027 01:51:52.945   06 Jun 2027 01:52:13.983            21.038               Magadan2           657.438
       375   06 Jun 2027 01:52:46.030   06 Jun 2027 01:55:00.857           134.827                Novosib          4213.344
       376   06 Jun 2027 01:57:20.765   06 Jun 2027 01:58:03.150            42.385                Novosib          1324.531
       377   06 Jun 2027 01:59:46.735   06 Jun 2027 02:00:03.917            17.182                Irkutsk           536.938
       378   06 Jun 2027 02:04:37.633   06 Jun 2027 02:05:08.545            30.912                  Delhi           966.000
       379   06 Jun 2027 02:06:12.740   06 Jun 2027 02:06:44.658            31.918                Sumatra           997.437
       380   06 Jun 2027 02:08:55.873   06 Jun 2027 02:11:05.391           129.518                Sumatra          4047.437
       381   06 Jun 2027 02:41:44.453   06 Jun 2027 02:41:59.692            15.239            RioGallegos           476.219
       382   06 Jun 2027 02:42:55.869   06 Jun 2027 02:43:14.054            18.185            RioGallegos           568.281
       383   06 Jun 2027 02:45:55.584   06 Jun 2027 02:46:02.242             6.658            RioGallegos           208.062
       384   06 Jun 2027 02:47:21.545   06 Jun 2027 02:47:48.508            26.963            RioGallegos           842.594
       385   06 Jun 2027 02:51:02.171   06 Jun 2027 02:52:16.706            74.535            RioGallegos          2329.219
       386   06 Jun 2027 03:28:29.204   06 Jun 2027 03:30:05.342            96.138               Magadan2          3004.313
       387   06 Jun 2027 03:32:06.610   06 Jun 2027 03:32:59.011            52.401                Norilsk          1637.531
       388   06 Jun 2027 03:33:56.968   06 Jun 2027 03:35:16.280            79.312                Novosib          2478.500
       389   06 Jun 2027 03:35:26.166   06 Jun 2027 03:38:28.005           181.839                  Delhi          5682.469
       390   06 Jun 2027 03:38:38.906   06 Jun 2027 03:39:46.026            67.120                  Delhi          2097.500
       391   06 Jun 2027 04:18:04.238   06 Jun 2027 04:23:55.600           351.362            RioGallegos         10980.062
       392   06 Jun 2027 05:06:01.264   06 Jun 2027 05:07:42.372           101.108                Irkutsk          3159.625
       393   06 Jun 2027 05:08:53.279   06 Jun 2027 05:10:21.665            88.386                Irkutsk          2762.062
       394   06 Jun 2027 05:11:35.466   06 Jun 2027 05:11:39.622             4.156                 Moscow           129.875
       395   06 Jun 2027 05:11:46.261   06 Jun 2027 05:12:28.654            42.393                Novosib          1324.781
       396   06 Jun 2027 05:13:18.432   06 Jun 2027 05:13:31.489            13.057                 Moscow           408.031
       397   06 Jun 2027 05:13:44.829   06 Jun 2027 05:19:54.824           369.995                  Delhi         11562.344
       398   06 Jun 2027 06:44:46.149   06 Jun 2027 06:44:52.773             6.624                 Moscow           207.000
       399   06 Jun 2027 06:45:15.385   06 Jun 2027 06:45:21.729             6.344                Norilsk           198.250
       400   06 Jun 2027 06:46:01.563   06 Jun 2027 06:46:22.594            21.031                Novosib           657.219
       401   06 Jun 2027 06:46:47.011   06 Jun 2027 06:47:18.636            31.625              Murmansk1           988.281
       402   06 Jun 2027 06:47:32.413   06 Jun 2027 06:47:43.382            10.969                 Moscow           342.781
       403   06 Jun 2027 06:47:52.311   06 Jun 2027 06:48:25.683            33.372              Murmansk2          1042.875
       404   06 Jun 2027 06:52:36.684   06 Jun 2027 06:53:26.791            50.107                 Moscow          1565.844
       405   06 Jun 2027 07:05:32.197   06 Jun 2027 07:06:14.546            42.349               CapeTown          1323.406
       406   06 Jun 2027 07:08:43.862   06 Jun 2027 07:09:54.662            70.800               CapeTown          2212.500
       407   06 Jun 2027 08:08:36.093   06 Jun 2027 08:09:30.708            54.615                Anadyr2          1706.719
       408   06 Jun 2027 08:09:53.774   06 Jun 2027 08:09:58.623             4.849               Magadan1           151.531
       409   06 Jun 2027 08:10:18.780   06 Jun 2027 08:10:55.368            36.588                Anadyr1          1143.375
       410   06 Jun 2027 08:10:55.368   06 Jun 2027 08:11:08.461            13.093                Anadyr2           409.156
       411   06 Jun 2027 08:11:58.684   06 Jun 2027 08:13:19.866            81.182                Anadyr2          2536.938
       412   06 Jun 2027 09:44:47.832   06 Jun 2027 09:48:40.500           232.668                Anadyr1          7270.875
       413   06 Jun 2027 11:16:53.842   06 Jun 2027 11:17:18.741            24.899               Magadan1           778.094
       414   06 Jun 2027 11:18:29.802   06 Jun 2027 11:20:14.934           105.132               Magadan2          3285.375
       415   06 Jun 2027 11:20:29.943   06 Jun 2027 11:22:20.562           110.619               Magadan1          3456.844
       416   06 Jun 2027 11:22:33.118   06 Jun 2027 11:23:26.552            53.434                Irkutsk          1669.812
       417   06 Jun 2027 11:23:35.230   06 Jun 2027 11:23:55.852            20.622                Norilsk           644.438
       418   06 Jun 2027 11:24:19.843   06 Jun 2027 11:25:06.081            46.238                Norilsk          1444.938
       419   06 Jun 2027 11:25:14.045   06 Jun 2027 11:26:12.609            58.564               Magadan1          1830.125
       420   06 Jun 2027 11:26:12.609   06 Jun 2027 11:26:24.982            12.373               Magadan2           386.656
       421   06 Jun 2027 12:01:20.897   06 Jun 2027 12:02:38.236            77.339            RioGallegos          2416.844
       422   06 Jun 2027 12:37:37.497   06 Jun 2027 12:38:08.944            31.447                Sumatra           982.719
       423   06 Jun 2027 12:41:08.195   06 Jun 2027 12:42:29.959            81.764                Sumatra          2555.125
       424   06 Jun 2027 12:49:37.515   06 Jun 2027 12:50:59.052            81.537                Irkutsk          2548.031
       425   06 Jun 2027 12:51:32.450   06 Jun 2027 12:52:48.565            76.115                Irkutsk          2378.594
       426   06 Jun 2027 13:38:01.591   06 Jun 2027 13:38:39.655            38.064            RioGallegos          1189.500
       427   06 Jun 2027 13:39:44.443   06 Jun 2027 13:40:07.722            23.279            RioGallegos           727.469
       428   06 Jun 2027 14:12:20.612   06 Jun 2027 14:17:25.526           304.914                Sumatra          9528.563
       429   06 Jun 2027 14:27:21.751   06 Jun 2027 14:31:31.481           249.730                Irkutsk          7804.062
       430   06 Jun 2027 14:36:01.556   06 Jun 2027 14:37:24.840            83.284                Irkutsk          2602.625
       431   06 Jun 2027 15:58:50.295   06 Jun 2027 16:02:52.434           242.139                  Delhi          7566.844
       432   06 Jun 2027 16:05:41.085   06 Jun 2027 16:08:12.184           151.099                Novosib          4721.844
       433   06 Jun 2027 16:10:40.668   06 Jun 2027 16:11:22.510            41.842                Novosib          1307.562
       434   06 Jun 2027 17:50:12.587   06 Jun 2027 17:54:20.929           248.342                Norilsk          7760.688
       435   06 Jun 2027 19:19:27.943   06 Jun 2027 19:25:50.548           382.605                 Moscow         11956.406
       436   06 Jun 2027 20:30:32.193   06 Jun 2027 20:30:48.273            16.080               CapeTown           502.500
       437   06 Jun 2027 20:32:21.417   06 Jun 2027 20:34:09.815           108.398               CapeTown          3387.438
       438   06 Jun 2027 20:38:44.736   06 Jun 2027 20:40:20.205            95.469               CapeTown          2983.406
       439   06 Jun 2027 21:02:19.800   06 Jun 2027 21:08:23.418           363.618              Murmansk2         11363.063
       440   06 Jun 2027 22:46:36.600   06 Jun 2027 22:47:34.987            58.387                Anadyr1          1824.594
       441   06 Jun 2027 22:47:52.097   06 Jun 2027 22:48:28.599            36.502                Anadyr1          1140.687
       442   06 Jun 2027 22:48:52.633   06 Jun 2027 22:49:54.180            61.547               Magadan1          1923.344
       443   06 Jun 2027 22:49:54.180   06 Jun 2027 22:50:18.745            24.565               Magadan2           767.656
       444   06 Jun 2027 22:50:25.796   06 Jun 2027 22:50:42.622            16.826               Magadan2           525.813
       445   06 Jun 2027 22:51:08.929   06 Jun 2027 22:52:04.086            55.157               Magadan1          1723.656
       446   06 Jun 2027 22:53:48.394   06 Jun 2027 22:54:12.303            23.909               Magadan1           747.156
       447   06 Jun 2027 22:54:12.303   06 Jun 2027 22:54:34.349            22.046               Magadan2           688.937
       448   06 Jun 2027 22:55:33.257   06 Jun 2027 22:55:56.671            23.414               Magadan2           731.687
       449   06 Jun 2027 23:41:48.244   06 Jun 2027 23:44:56.332           188.088            RioGallegos          5877.750
       450   06 Jun 2027 23:47:55.063   06 Jun 2027 23:48:24.343            29.280            RioGallegos           915.000
       451   07 Jun 2027 00:22:22.725   07 Jun 2027 00:23:53.148            90.423                Anadyr1          2825.719
       452   07 Jun 2027 00:23:59.771   07 Jun 2027 00:24:02.117             2.346                Anadyr1            73.312
       453   07 Jun 2027 00:24:27.102   07 Jun 2027 00:26:04.952            97.850                Norilsk          3057.812
       454   07 Jun 2027 00:27:22.113   07 Jun 2027 00:27:54.783            32.670               Magadan2          1020.937
       455   07 Jun 2027 00:27:59.590   07 Jun 2027 00:28:05.975             6.385                Norilsk           199.531
       456   07 Jun 2027 00:28:16.722   07 Jun 2027 00:28:24.035             7.313               Magadan2           228.531
       457   07 Jun 2027 00:28:24.035   07 Jun 2027 00:28:34.037            10.002               Magadan1           312.563
       458   07 Jun 2027 00:29:01.477   07 Jun 2027 00:30:17.716            76.239                Irkutsk          2382.469
       459   07 Jun 2027 00:30:59.722   07 Jun 2027 00:33:29.081           149.359                Irkutsk          4667.469
       460   07 Jun 2027 00:43:20.052   07 Jun 2027 00:43:52.104            32.052                Sumatra          1001.625
       461   07 Jun 2027 00:48:58.319   07 Jun 2027 00:49:52.949            54.630                Sumatra          1707.188
       462   07 Jun 2027 01:16:20.674   07 Jun 2027 01:16:40.856            20.182            RioGallegos           630.687
       463   07 Jun 2027 01:19:26.289   07 Jun 2027 01:20:13.179            46.890            RioGallegos          1465.313
       464   07 Jun 2027 01:28:48.663   07 Jun 2027 01:28:59.159            10.496            RioGallegos           328.000
       465   07 Jun 2027 01:57:29.039   07 Jun 2027 01:57:48.871            19.832                Anadyr2           619.750
       466   07 Jun 2027 01:57:52.308   07 Jun 2027 01:58:03.240            10.932                Anadyr2           341.625
       467   07 Jun 2027 01:58:25.392   07 Jun 2027 01:58:57.868            32.476                Anadyr1          1014.875
       468   07 Jun 2027 01:59:48.742   07 Jun 2027 02:00:24.087            35.345                Anadyr1          1104.531
       469   07 Jun 2027 02:01:00.615   07 Jun 2027 02:02:38.428            97.813               Magadan1          3056.656
       470   07 Jun 2027 02:04:13.239   07 Jun 2027 02:07:06.181           172.942                Irkutsk          5404.437
       471   07 Jun 2027 02:12:25.907   07 Jun 2027 02:13:29.767            63.860                Irkutsk          1995.625
       472   07 Jun 2027 02:18:30.290   07 Jun 2027 02:20:36.634           126.344                Sumatra          3948.250
       473   07 Jun 2027 02:23:17.026   07 Jun 2027 02:23:49.818            32.792                Sumatra          1024.750
       474   07 Jun 2027 02:53:18.983   07 Jun 2027 02:53:30.866            11.883            RioGallegos           371.344
       475   07 Jun 2027 02:54:41.051   07 Jun 2027 02:54:56.237            15.186            RioGallegos           474.563
       476   07 Jun 2027 02:57:38.712   07 Jun 2027 02:59:14.776            96.064            RioGallegos          3002.000
       477   07 Jun 2027 03:40:32.123   07 Jun 2027 03:40:33.044             0.921               Magadan1            28.781
       478   07 Jun 2027 03:41:03.586   07 Jun 2027 03:41:33.222            29.636               Magadan1           926.125
       479   07 Jun 2027 03:44:07.924   07 Jun 2027 03:44:55.053            47.129                Norilsk          1472.781
       480   07 Jun 2027 03:45:27.423   07 Jun 2027 03:49:39.048           251.625                Novosib          7863.281
       481   07 Jun 2027 03:49:39.281   07 Jun 2027 03:51:32.620           113.339                  Delhi          3541.844
       482   07 Jun 2027 03:51:57.391   07 Jun 2027 03:53:01.101            63.710                Novosib          1990.938
