uniorb/output/strategy_4/Drop/Drop_KinoSat_111906.txt

KinoSat_111906
-------------------------
    Access    *     Start Time (UTCG)     *     Stop Time (UTCG)  *   Duration (s)        *       Station  *  Data (Mbytes)
         1   01 Jun 2027 04:31:39.969   01 Jun 2027 04:32:07.166            27.197                 Moscow           849.906
         2   01 Jun 2027 04:32:11.206   01 Jun 2027 04:32:43.507            32.301                Norilsk          1009.406
         3   01 Jun 2027 04:32:45.339   01 Jun 2027 04:34:08.098            82.759              Murmansk1          2586.219
         4   01 Jun 2027 04:34:08.098   01 Jun 2027 04:34:47.298            39.200              Murmansk2          1225.000
         5   01 Jun 2027 04:35:00.999   01 Jun 2027 04:35:06.428             5.429              Murmansk2           169.656
         6   01 Jun 2027 04:35:26.008   01 Jun 2027 04:35:53.877            27.869                Norilsk           870.906
         7   01 Jun 2027 04:36:00.988   01 Jun 2027 04:40:49.094           288.106                  Delhi          9003.312
         8   01 Jun 2027 06:10:05.663   01 Jun 2027 06:10:41.058            35.395                Novosib          1106.094
         9   01 Jun 2027 06:10:41.527   01 Jun 2027 06:11:18.486            36.959              Murmansk1          1154.969
        10   01 Jun 2027 06:11:30.213   01 Jun 2027 06:16:11.793           281.580                 Moscow          8799.375
        11   01 Jun 2027 06:28:29.021   01 Jun 2027 06:29:21.495            52.474               CapeTown          1639.812
        12   01 Jun 2027 06:32:18.737   01 Jun 2027 06:32:34.169            15.432               CapeTown           482.250
        13   01 Jun 2027 07:33:06.069   01 Jun 2027 07:33:42.946            36.877               Magadan1          1152.406
        14   01 Jun 2027 07:33:59.792   01 Jun 2027 07:34:13.553            13.761                Anadyr2           430.031
        15   01 Jun 2027 07:34:13.553   01 Jun 2027 07:34:34.810            21.257                Anadyr1           664.281
        16   01 Jun 2027 07:36:11.801   01 Jun 2027 07:37:28.246            76.445                Anadyr2          2388.906
        17   01 Jun 2027 07:37:34.909   01 Jun 2027 07:38:09.367            34.458                Anadyr2          1076.812
        18   01 Jun 2027 08:07:55.483   01 Jun 2027 08:11:52.391           236.908               CapeTown          7403.375
        19   01 Jun 2027 09:10:07.132   01 Jun 2027 09:13:57.384           230.252                Anadyr2          7195.375
        20   01 Jun 2027 09:23:37.121   01 Jun 2027 09:23:37.352             0.231                 Moscow             7.219
        21   01 Jun 2027 10:42:34.793   01 Jun 2027 10:48:11.727           336.934               Magadan2         10529.188
        22   01 Jun 2027 11:24:26.939   01 Jun 2027 11:25:25.378            58.439            RioGallegos          1826.219
        23   01 Jun 2027 12:03:36.916   01 Jun 2027 12:04:02.674            25.758                Sumatra           804.937
        24   01 Jun 2027 12:12:37.528   01 Jun 2027 12:15:13.893           156.365                Irkutsk          4886.406
        25   01 Jun 2027 12:17:33.001   01 Jun 2027 12:18:18.865            45.864                Norilsk          1433.250
        26   01 Jun 2027 12:19:44.182   01 Jun 2027 12:20:53.829            69.647                Irkutsk          2176.469
        27   01 Jun 2027 12:21:20.054   01 Jun 2027 12:22:26.999            66.945                Norilsk          2092.031
        28   01 Jun 2027 13:03:10.987   01 Jun 2027 13:05:58.750           167.763            RioGallegos          5242.594
        29   01 Jun 2027 13:06:42.492   01 Jun 2027 13:06:42.861             0.369            RioGallegos            11.531
        30   01 Jun 2027 13:10:33.731   01 Jun 2027 13:12:41.606           127.875            RioGallegos          3996.094
        31   01 Jun 2027 13:37:58.921   01 Jun 2027 13:39:45.644           106.723                Sumatra          3335.094
        32   01 Jun 2027 13:40:39.444   01 Jun 2027 13:41:02.887            23.443                Sumatra           732.594
        33   01 Jun 2027 13:43:07.429   01 Jun 2027 13:47:23.959           256.530                Sumatra          8016.563
        34   01 Jun 2027 13:54:44.019   01 Jun 2027 13:57:17.092           153.073                Irkutsk          4783.531
        35   01 Jun 2027 13:57:30.161   01 Jun 2027 13:59:53.218           143.057                Irkutsk          4470.531
        36   01 Jun 2027 15:24:54.474   01 Jun 2027 15:26:56.977           122.503                  Delhi          3828.219
        37   01 Jun 2027 15:27:54.106   01 Jun 2027 15:29:15.340            81.234                Novosib          2538.562
        38   01 Jun 2027 15:29:38.748   01 Jun 2027 15:31:24.893           106.145                  Delhi          3317.031
        39   01 Jun 2027 15:34:41.835   01 Jun 2027 15:37:06.919           145.084                Novosib          4533.875
        40   01 Jun 2027 17:12:35.565   01 Jun 2027 17:17:50.632           315.067                Norilsk          9845.844
        41   01 Jun 2027 18:47:27.608   01 Jun 2027 18:47:38.609            11.001                 Moscow           343.781
        42   01 Jun 2027 18:51:35.518   01 Jun 2027 18:51:36.956             1.438                 Moscow            44.937
        43   01 Jun 2027 19:53:19.543   01 Jun 2027 19:55:40.268           140.725               CapeTown          4397.656
        44   01 Jun 2027 19:57:40.038   01 Jun 2027 19:58:25.543            45.505               CapeTown          1422.031
        45   01 Jun 2027 20:00:21.108   01 Jun 2027 20:03:00.746           159.638               CapeTown          4988.687
        46   01 Jun 2027 20:24:37.734   01 Jun 2027 20:31:29.620           411.886              Murmansk1         12871.438
        47   01 Jun 2027 22:11:47.925   01 Jun 2027 22:12:35.712            47.787                Anadyr1          1493.344
        48   01 Jun 2027 22:13:03.180   01 Jun 2027 22:13:53.767            50.587               Magadan2          1580.844
        49   01 Jun 2027 22:14:37.497   01 Jun 2027 22:14:55.483            17.986               Magadan2           562.062
        50   01 Jun 2027 22:15:58.531   01 Jun 2027 22:16:00.535             2.004               Magadan2            62.625
        51   01 Jun 2027 22:16:05.009   01 Jun 2027 22:16:11.948             6.939               Magadan2           216.844
        52   01 Jun 2027 22:16:47.897   01 Jun 2027 22:17:34.708            46.811               Magadan2          1462.844
        53   01 Jun 2027 22:20:48.476   01 Jun 2027 22:20:56.998             8.522               Magadan1           266.312
        54   01 Jun 2027 23:05:13.190   01 Jun 2027 23:07:20.112           126.922            RioGallegos          3966.313
        55   01 Jun 2027 23:07:56.049   01 Jun 2027 23:08:04.321             8.272            RioGallegos           258.500
        56   01 Jun 2027 23:10:17.998   01 Jun 2027 23:10:42.496            24.498            RioGallegos           765.563
        57   01 Jun 2027 23:45:22.807   01 Jun 2027 23:46:41.372            78.565                Anadyr2          2455.156
        58   01 Jun 2027 23:46:45.067   01 Jun 2027 23:47:08.008            22.941                Anadyr1           716.906
        59   01 Jun 2027 23:47:27.595   01 Jun 2027 23:48:59.122            91.527                Norilsk          2860.219
        60   01 Jun 2027 23:49:19.406   01 Jun 2027 23:49:47.970            28.564               Magadan2           892.625
        61   01 Jun 2027 23:50:38.062   01 Jun 2027 23:51:30.021            51.959               Magadan1          1623.719
        62   01 Jun 2027 23:52:12.960   01 Jun 2027 23:54:15.564           122.604                Irkutsk          3831.375
        63   02 Jun 2027 00:06:51.326   02 Jun 2027 00:08:40.158           108.832                Sumatra          3401.000
        64   02 Jun 2027 00:11:57.037   02 Jun 2027 00:12:45.977            48.940                Sumatra          1529.375
        65   02 Jun 2027 00:45:03.391   02 Jun 2027 00:45:09.840             6.449            RioGallegos           201.531
        66   02 Jun 2027 00:45:58.458   02 Jun 2027 00:46:24.247            25.789            RioGallegos           805.906
        67   02 Jun 2027 01:20:35.323   02 Jun 2027 01:20:46.734            11.411                Anadyr1           356.594
        68   02 Jun 2027 01:20:46.734   02 Jun 2027 01:21:42.861            56.127                Anadyr2          1753.969
        69   02 Jun 2027 01:22:47.075   02 Jun 2027 01:23:22.505            35.430                Anadyr1          1107.187
        70   02 Jun 2027 01:23:35.586   02 Jun 2027 01:25:11.964            96.378                Norilsk          3011.813
        71   02 Jun 2027 01:25:13.025   02 Jun 2027 01:26:44.029            91.004               Magadan2          2843.875
        72   02 Jun 2027 01:27:11.868   02 Jun 2027 01:28:21.563            69.695                Irkutsk          2177.969
        73   02 Jun 2027 01:30:08.771   02 Jun 2027 01:30:32.294            23.523                Novosib           735.094
        74   02 Jun 2027 01:34:18.730   02 Jun 2027 01:34:38.456            19.726                Irkutsk           616.438
        75   02 Jun 2027 01:36:00.760   02 Jun 2027 01:36:21.377            20.617                Irkutsk           644.281
        76   02 Jun 2027 01:38:37.680   02 Jun 2027 01:39:19.248            41.568                  Delhi          1299.000
        77   02 Jun 2027 01:41:14.186   02 Jun 2027 01:43:53.575           159.389                Sumatra          4980.906
        78   02 Jun 2027 02:17:53.400   02 Jun 2027 02:18:03.224             9.824            RioGallegos           307.000
        79   02 Jun 2027 02:55:31.216   02 Jun 2027 02:56:18.851            47.635                Anadyr1          1488.594
        80   02 Jun 2027 02:58:13.478   02 Jun 2027 02:58:21.098             7.620                Anadyr2           238.125
        81   02 Jun 2027 02:59:18.721   02 Jun 2027 03:00:23.434            64.713                Norilsk          2022.281
        82   02 Jun 2027 03:03:21.191   02 Jun 2027 03:03:33.309            12.118               Magadan1           378.688
        83   02 Jun 2027 03:03:39.478   02 Jun 2027 03:04:52.448            72.970               Magadan2          2280.313
        84   02 Jun 2027 03:05:17.236   02 Jun 2027 03:05:28.813            11.577                Irkutsk           361.781
        85   02 Jun 2027 03:05:46.391   02 Jun 2027 03:05:55.703             9.312                Norilsk           291.000
        86   02 Jun 2027 03:05:55.777   02 Jun 2027 03:06:23.726            27.949                Novosib           873.406
        87   02 Jun 2027 03:06:40.545   02 Jun 2027 03:06:57.881            17.336                Novosib           541.750
        88   02 Jun 2027 03:06:59.212   02 Jun 2027 03:07:16.393            17.181                Norilsk           536.906
        89   02 Jun 2027 03:07:18.081   02 Jun 2027 03:07:36.341            18.260              Murmansk2           570.625
        90   02 Jun 2027 03:07:51.752   02 Jun 2027 03:08:07.468            15.716                Norilsk           491.125
        91   02 Jun 2027 03:08:07.615   02 Jun 2027 03:08:56.347            48.732                Irkutsk          1522.875
        92   02 Jun 2027 03:09:11.273   02 Jun 2027 03:09:25.035            13.762                Norilsk           430.062
        93   02 Jun 2027 03:09:54.784   02 Jun 2027 03:12:14.750           139.966                Norilsk          4373.938
        94   02 Jun 2027 03:12:37.989   02 Jun 2027 03:13:36.726            58.737                Irkutsk          1835.531
        95   02 Jun 2027 03:13:37.921   02 Jun 2027 03:14:27.357            49.436                  Delhi          1544.875
        96   02 Jun 2027 03:15:49.339   02 Jun 2027 03:16:00.169            10.830                Novosib           338.437
        97   02 Jun 2027 03:17:11.111   02 Jun 2027 03:19:11.574           120.463                  Delhi          3764.469
        98   02 Jun 2027 03:52:37.200   02 Jun 2027 03:57:46.822           309.622            RioGallegos          9675.687
        99   02 Jun 2027 04:43:27.059   02 Jun 2027 04:44:45.031            77.972                Norilsk          2436.625
       100   02 Jun 2027 04:44:47.979   02 Jun 2027 04:45:11.657            23.678                Irkutsk           739.938
       101   02 Jun 2027 04:45:52.096   02 Jun 2027 04:48:54.374           182.278                Novosib          5696.188
       102   02 Jun 2027 04:51:56.083   02 Jun 2027 04:53:16.415            80.332                  Delhi          2510.375
       103   02 Jun 2027 06:20:58.424   02 Jun 2027 06:21:28.916            30.492                Novosib           952.875
       104   02 Jun 2027 06:23:48.253   02 Jun 2027 06:24:23.651            35.398                 Moscow          1106.188
       105   02 Jun 2027 06:28:06.073   02 Jun 2027 06:28:16.894            10.821                 Moscow           338.156
       106   02 Jun 2027 06:40:32.396   02 Jun 2027 06:43:50.622           198.226               CapeTown          6194.562
       107   02 Jun 2027 06:44:40.516   02 Jun 2027 06:44:51.276            10.760               CapeTown           336.250
       108   02 Jun 2027 07:37:19.376   02 Jun 2027 07:39:37.986           138.610                Anadyr1          4331.562
       109   02 Jun 2027 07:39:59.324   02 Jun 2027 07:40:23.590            24.266               Magadan1           758.313
       110   02 Jun 2027 07:44:04.222   02 Jun 2027 07:44:20.905            16.683               Magadan1           521.344
       111   02 Jun 2027 07:44:26.299   02 Jun 2027 07:46:15.486           109.187                Anadyr1          3412.094
       112   02 Jun 2027 07:48:12.388   02 Jun 2027 07:49:30.442            78.054                Anadyr2          2439.187
       113   02 Jun 2027 08:21:56.304   02 Jun 2027 08:24:44.184           167.880               CapeTown          5246.250
       114   02 Jun 2027 09:20:03.849   02 Jun 2027 09:22:56.023           172.174                Anadyr1          5380.438
       115   02 Jun 2027 10:55:23.427   02 Jun 2027 10:57:05.158           101.731               Magadan2          3179.094
       116   02 Jun 2027 10:57:34.219   02 Jun 2027 11:00:17.734           163.515               Magadan1          5109.844
       117   02 Jun 2027 11:00:48.495   02 Jun 2027 11:01:08.920            20.425                Novosib           638.281
       118   02 Jun 2027 11:01:11.262   02 Jun 2027 11:01:23.581            12.319               Magadan1           384.969
       119   02 Jun 2027 11:01:27.803   02 Jun 2027 11:02:22.043            54.240                Norilsk          1695.000
       120   02 Jun 2027 11:36:19.398   02 Jun 2027 11:37:30.839            71.441            RioGallegos          2232.531
       121   02 Jun 2027 12:12:31.678   02 Jun 2027 12:12:49.027            17.349                Sumatra           542.156
       122   02 Jun 2027 12:15:59.243   02 Jun 2027 12:16:36.405            37.162                Sumatra          1161.313
       123   02 Jun 2027 12:24:37.035   02 Jun 2027 12:27:37.445           180.410                Irkutsk          5637.813
       124   02 Jun 2027 13:13:04.374   02 Jun 2027 13:13:31.308            26.934            RioGallegos           841.688
       125   02 Jun 2027 13:14:38.533   02 Jun 2027 13:15:06.226            27.693            RioGallegos           865.406
       126   02 Jun 2027 13:21:31.500   02 Jun 2027 13:22:59.073            87.573            RioGallegos          2736.656
       127   02 Jun 2027 13:47:22.528   02 Jun 2027 13:49:46.622           144.094                Sumatra          4502.938
       128   02 Jun 2027 14:02:26.103   02 Jun 2027 14:04:15.155           109.052                Irkutsk          3407.875
       129   02 Jun 2027 14:05:57.761   02 Jun 2027 14:06:15.063            17.302                Norilsk           540.688
       130   02 Jun 2027 14:06:25.739   02 Jun 2027 14:07:16.948            51.209                Irkutsk          1600.281
       131   02 Jun 2027 14:08:03.988   02 Jun 2027 14:08:39.714            35.726                Irkutsk          1116.438
       132   02 Jun 2027 15:32:10.724   02 Jun 2027 15:35:37.528           206.804                  Delhi          6462.625
       133   02 Jun 2027 15:36:23.554   02 Jun 2027 15:37:51.410            87.856                  Delhi          2745.500
       134   02 Jun 2027 15:39:52.461   02 Jun 2027 15:42:12.336           139.875                  Delhi          4371.094
       135   02 Jun 2027 15:54:12.883   02 Jun 2027 15:54:25.738            12.855                Norilsk           401.719
       136   02 Jun 2027 17:15:43.463   02 Jun 2027 17:16:44.617            61.154                 Moscow          1911.063
       137   02 Jun 2027 17:18:54.435   02 Jun 2027 17:19:31.175            36.740                 Moscow          1148.125
       138   02 Jun 2027 17:19:51.712   02 Jun 2027 17:22:03.469           131.757              Murmansk2          4117.406
       139   02 Jun 2027 17:25:21.313   02 Jun 2027 17:28:03.081           161.768                Norilsk          5055.250
       140   02 Jun 2027 17:28:15.191   02 Jun 2027 17:29:15.355            60.164                Norilsk          1880.125
       141   02 Jun 2027 18:54:33.812   02 Jun 2027 18:59:08.252           274.440                 Moscow          8576.250
       142   02 Jun 2027 20:05:33.752   02 Jun 2027 20:07:19.867           106.115               CapeTown          3316.094
       143   02 Jun 2027 20:08:58.125   02 Jun 2027 20:10:17.674            79.549               CapeTown          2485.906
       144   02 Jun 2027 20:37:26.921   02 Jun 2027 20:41:46.340           259.419              Murmansk2          8106.844
       145   02 Jun 2027 20:42:11.034   02 Jun 2027 20:43:20.874            69.840              Murmansk1          2182.500
       146   02 Jun 2027 22:21:36.150   02 Jun 2027 22:26:26.972           290.822                Anadyr1          9088.187
       147   02 Jun 2027 22:27:04.570   02 Jun 2027 22:29:25.131           140.561               Magadan2          4392.531
       148   02 Jun 2027 22:33:45.193   02 Jun 2027 22:34:10.762            25.569               Magadan1           799.031
       149   02 Jun 2027 23:16:44.437   02 Jun 2027 23:19:02.103           137.666            RioGallegos          4302.062
       150   02 Jun 2027 23:21:23.667   02 Jun 2027 23:21:51.149            27.482            RioGallegos           858.812
       151   02 Jun 2027 23:22:47.601   02 Jun 2027 23:23:17.199            29.598            RioGallegos           924.938
       152   02 Jun 2027 23:57:21.782   02 Jun 2027 23:58:34.690            72.908                Anadyr1          2278.375
       153   02 Jun 2027 23:58:41.817   02 Jun 2027 23:58:59.778            17.961                Anadyr2           561.281
       154   02 Jun 2027 23:59:26.652   03 Jun 2027 00:01:54.764           148.112                Norilsk          4628.500
       155   03 Jun 2027 00:03:07.972   03 Jun 2027 00:03:17.611             9.639               Magadan2           301.219
       156   03 Jun 2027 00:03:52.417   03 Jun 2027 00:04:09.098            16.681               Magadan2           521.281
       157   03 Jun 2027 00:04:23.162   03 Jun 2027 00:05:08.370            45.208                Irkutsk          1412.750
       158   03 Jun 2027 00:06:12.418   03 Jun 2027 00:07:26.293            73.875                Irkutsk          2308.594
       159   03 Jun 2027 00:18:15.024   03 Jun 2027 00:21:12.042           177.018                Sumatra          5531.813
       160   03 Jun 2027 01:00:03.063   03 Jun 2027 01:00:54.098            51.035            RioGallegos          1594.844
       161   03 Jun 2027 01:32:26.926   03 Jun 2027 01:32:40.366            13.440                Anadyr1           420.000
       162   03 Jun 2027 01:32:43.380   03 Jun 2027 01:33:40.338            56.958                Anadyr2          1779.937
       163   03 Jun 2027 01:34:22.041   03 Jun 2027 01:34:30.713             8.672                Anadyr1           271.000
       164   03 Jun 2027 01:34:51.157   03 Jun 2027 01:35:14.629            23.472                Anadyr2           733.500
       165   03 Jun 2027 01:35:25.080   03 Jun 2027 01:37:06.582           101.502                Norilsk          3171.938
       166   03 Jun 2027 01:38:18.212   03 Jun 2027 01:39:00.755            42.543               Magadan2          1329.469
       167   03 Jun 2027 01:39:12.819   03 Jun 2027 01:40:42.366            89.547                Irkutsk          2798.344
       168   03 Jun 2027 01:41:59.637   03 Jun 2027 01:42:19.445            19.808                Irkutsk           619.000
       169   03 Jun 2027 01:44:53.698   03 Jun 2027 01:45:11.301            17.603                Novosib           550.094
       170   03 Jun 2027 01:46:15.196   03 Jun 2027 01:48:03.642           108.446                Irkutsk          3388.938
       171   03 Jun 2027 01:53:32.720   03 Jun 2027 01:55:24.740           112.020                Sumatra          3500.625
       172   03 Jun 2027 02:28:12.906   03 Jun 2027 02:29:10.723            57.817            RioGallegos          1806.781
       173   03 Jun 2027 03:15:23.778   03 Jun 2027 03:15:55.593            31.815               Magadan1           994.219
       174   03 Jun 2027 03:16:08.113   03 Jun 2027 03:16:28.647            20.534               Magadan2           641.688
       175   03 Jun 2027 03:19:14.181   03 Jun 2027 03:21:02.901           108.720                Novosib          3397.500
       176   03 Jun 2027 03:21:24.452   03 Jun 2027 03:22:05.185            40.733                Novosib          1272.906
       177   03 Jun 2027 03:22:07.125   03 Jun 2027 03:25:29.067           201.942                Novosib          6310.687
       178   03 Jun 2027 03:25:36.579   03 Jun 2027 03:26:19.297            42.718                  Delhi          1334.937
       179   03 Jun 2027 03:28:08.658   03 Jun 2027 03:31:19.452           190.794                  Delhi          5962.313
       180   03 Jun 2027 04:05:06.029   03 Jun 2027 04:09:48.573           282.544            RioGallegos          8829.500
       181   03 Jun 2027 04:53:56.109   03 Jun 2027 04:54:55.932            59.823                Novosib          1869.469
       182   03 Jun 2027 04:55:05.395   03 Jun 2027 04:55:33.395            28.000                Irkutsk           875.000
       183   03 Jun 2027 04:58:12.980   03 Jun 2027 04:59:30.481            77.501                Novosib          2421.906
       184   03 Jun 2027 04:59:44.924   03 Jun 2027 05:01:00.637            75.713                Novosib          2366.031
       185   03 Jun 2027 05:02:52.867   03 Jun 2027 05:04:19.236            86.369                  Delhi          2699.031
       186   03 Jun 2027 06:35:08.914   03 Jun 2027 06:35:13.932             5.018              Murmansk2           156.812
       187   03 Jun 2027 06:35:26.575   03 Jun 2027 06:36:08.519            41.944              Murmansk2          1310.750
       188   03 Jun 2027 06:52:41.038   03 Jun 2027 06:52:47.805             6.767               CapeTown           211.469
       189   03 Jun 2027 06:55:05.786   03 Jun 2027 06:57:15.087           129.301               CapeTown          4040.656
       190   03 Jun 2027 07:55:39.721   03 Jun 2027 07:56:02.640            22.919               Magadan1           716.219
       191   03 Jun 2027 07:56:07.115   03 Jun 2027 07:56:42.466            35.351               Magadan1          1104.719
       192   03 Jun 2027 07:57:36.590   03 Jun 2027 07:57:55.342            18.752                Anadyr1           586.000
       193   03 Jun 2027 07:58:06.516   03 Jun 2027 07:58:17.367            10.851                Anadyr2           339.094
       194   03 Jun 2027 07:59:08.258   03 Jun 2027 08:00:12.564            64.306                Anadyr2          2009.562
       195   03 Jun 2027 09:26:12.839   03 Jun 2027 09:27:12.975            60.136               Magadan2          1879.250
       196   03 Jun 2027 09:32:03.582   03 Jun 2027 09:32:54.124            50.542               Magadan1          1579.437
       197   03 Jun 2027 09:33:19.869   03 Jun 2027 09:33:23.766             3.897               Magadan2           121.781
       198   03 Jun 2027 09:33:39.565   03 Jun 2027 09:34:16.118            36.553                Anadyr1          1142.281
       199   03 Jun 2027 09:34:35.235   03 Jun 2027 09:35:46.169            70.934               Magadan1          2216.687
       200   03 Jun 2027 10:20:13.199   03 Jun 2027 10:20:27.099            13.900            RioGallegos           434.375
       201   03 Jun 2027 11:02:49.834   03 Jun 2027 11:03:23.934            34.100               Magadan2          1065.625
       202   03 Jun 2027 11:07:16.458   03 Jun 2027 11:09:38.345           141.887               Magadan1          4433.969
       203   03 Jun 2027 11:10:20.034   03 Jun 2027 11:10:40.241            20.207               Magadan2           631.469
       204   03 Jun 2027 11:10:40.241   03 Jun 2027 11:12:49.903           129.662               Magadan1          4051.938
       205   03 Jun 2027 11:13:08.337   03 Jun 2027 11:13:18.030             9.693               Magadan1           302.906
       206   03 Jun 2027 11:13:25.853   03 Jun 2027 11:14:28.548            62.695                Norilsk          1959.219
       207   03 Jun 2027 11:48:15.103   03 Jun 2027 11:49:30.060            74.957            RioGallegos          2342.406
       208   03 Jun 2027 12:24:00.912   03 Jun 2027 12:25:05.389            64.477                Sumatra          2014.906
       209   03 Jun 2027 12:36:39.802   03 Jun 2027 12:37:48.468            68.666                Irkutsk          2145.813
       210   03 Jun 2027 12:39:56.699   03 Jun 2027 12:40:06.119             9.420                Irkutsk           294.375
       211   03 Jun 2027 12:41:20.896   03 Jun 2027 12:41:48.567            27.671                Novosib           864.719
       212   03 Jun 2027 12:45:26.210   03 Jun 2027 12:46:27.780            61.570                Norilsk          1924.063
       213   03 Jun 2027 13:25:30.813   03 Jun 2027 13:26:33.751            62.938            RioGallegos          1966.812
       214   03 Jun 2027 13:30:17.336   03 Jun 2027 13:30:30.599            13.263            RioGallegos           414.469
       215   03 Jun 2027 13:32:53.359   03 Jun 2027 13:35:29.985           156.626            RioGallegos          4894.562
       216   03 Jun 2027 13:59:44.972   03 Jun 2027 14:03:46.058           241.086                Sumatra          7533.937
       217   03 Jun 2027 14:17:59.909   03 Jun 2027 14:19:44.321           104.412                Irkutsk          3262.875
       218   03 Jun 2027 15:44:46.477   03 Jun 2027 15:49:32.875           286.398                  Delhi          8949.937
       219   03 Jun 2027 15:53:13.113   03 Jun 2027 15:55:17.585           124.472                Novosib          3889.750
       220   03 Jun 2027 17:30:54.357   03 Jun 2027 17:32:08.922            74.565                 Moscow          2330.156
       221   03 Jun 2027 17:32:33.551   03 Jun 2027 17:34:07.710            94.159              Murmansk2          2942.469
       222   03 Jun 2027 17:38:33.811   03 Jun 2027 17:41:09.757           155.946                Norilsk          4873.313
       223   03 Jun 2027 18:42:17.958   03 Jun 2027 18:42:45.159            27.201               CapeTown           850.031
       224   03 Jun 2027 18:47:15.312   03 Jun 2027 18:47:47.716            32.404               CapeTown          1012.625
       225   03 Jun 2027 19:07:23.821   03 Jun 2027 19:11:44.398           260.577                 Moscow          8143.031
       226   03 Jun 2027 19:19:35.711   03 Jun 2027 19:19:59.814            24.103              Murmansk1           753.219
       227   03 Jun 2027 20:17:52.326   03 Jun 2027 20:19:45.101           112.775               CapeTown          3524.219
       228   03 Jun 2027 20:20:36.222   03 Jun 2027 20:21:30.455            54.233               CapeTown          1694.781
       229   03 Jun 2027 20:25:19.302   03 Jun 2027 20:27:28.458           129.156               CapeTown          4036.125
       230   03 Jun 2027 20:50:23.509   03 Jun 2027 20:55:06.826           283.317              Murmansk1          8853.656
       231   03 Jun 2027 22:33:37.624   03 Jun 2027 22:37:27.239           229.615                Anadyr1          7175.469
       232   03 Jun 2027 22:37:29.425   03 Jun 2027 22:38:50.033            80.608                Norilsk          2519.000
       233   03 Jun 2027 22:39:04.139   03 Jun 2027 22:39:47.920            43.781               Magadan1          1368.156
       234   03 Jun 2027 22:39:47.920   03 Jun 2027 22:39:50.548             2.628               Magadan2            82.125
       235   03 Jun 2027 22:40:05.791   03 Jun 2027 22:40:31.853            26.062               Magadan2           814.438
       236   03 Jun 2027 22:41:34.466   03 Jun 2027 22:41:35.246             0.780               Magadan2            24.375
       237   03 Jun 2027 23:28:24.357   03 Jun 2027 23:30:56.832           152.475            RioGallegos          4764.844
       238   03 Jun 2027 23:33:35.096   03 Jun 2027 23:33:50.616            15.520            RioGallegos           485.000
       239   04 Jun 2027 00:09:20.147   04 Jun 2027 00:11:36.899           136.752                Anadyr2          4273.500
       240   04 Jun 2027 00:11:55.094   04 Jun 2027 00:14:45.736           170.642               Magadan2          5332.562
       241   04 Jun 2027 00:14:47.715   04 Jun 2027 00:15:20.572            32.857               Magadan2          1026.781
       242   04 Jun 2027 00:15:49.234   04 Jun 2027 00:16:23.147            33.913                Irkutsk          1059.781
       243   04 Jun 2027 00:17:08.671   04 Jun 2027 00:17:50.079            41.408                Irkutsk          1294.000
       244   04 Jun 2027 00:26:06.450   04 Jun 2027 00:26:43.884            37.434                Irkutsk          1169.812
       245   04 Jun 2027 00:29:49.009   04 Jun 2027 00:31:18.669            89.660                Sumatra          2801.875
       246   04 Jun 2027 00:36:19.977   04 Jun 2027 00:36:25.073             5.096                Sumatra           159.250
       247   04 Jun 2027 00:39:51.817   04 Jun 2027 00:41:30.592            98.775                Sumatra          3086.719
       248   04 Jun 2027 01:12:54.878   04 Jun 2027 01:13:17.025            22.147            RioGallegos           692.094
       249   04 Jun 2027 01:44:17.226   04 Jun 2027 01:46:04.930           107.704                Anadyr2          3365.750
       250   04 Jun 2027 01:46:22.354   04 Jun 2027 01:46:36.574            14.220                Anadyr2           444.375
       251   04 Jun 2027 01:47:22.156   04 Jun 2027 01:48:51.305            89.149                Norilsk          2785.906
       252   04 Jun 2027 01:49:08.986   04 Jun 2027 01:49:16.286             7.300                Norilsk           228.125
       253   04 Jun 2027 01:51:14.646   04 Jun 2027 01:54:32.100           197.454                Irkutsk          6170.437
       254   04 Jun 2027 02:03:32.106   04 Jun 2027 02:03:47.039            14.933                  Delhi           466.656
       255   04 Jun 2027 02:05:06.318   04 Jun 2027 02:06:14.683            68.365                  Delhi          2136.406
       256   04 Jun 2027 02:07:14.902   04 Jun 2027 02:11:01.059           226.157                Sumatra          7067.406
       257   04 Jun 2027 03:27:49.477   04 Jun 2027 03:27:58.073             8.596               Magadan2           268.625
       258   04 Jun 2027 03:30:29.823   04 Jun 2027 03:31:05.620            35.797                Irkutsk          1118.656
       259   04 Jun 2027 03:31:21.235   04 Jun 2027 03:32:45.977            84.742                Irkutsk          2648.187
       260   04 Jun 2027 03:32:49.415   04 Jun 2027 03:34:12.111            82.696                Norilsk          2584.250
       261   04 Jun 2027 03:34:22.856   04 Jun 2027 03:37:22.491           179.635                Irkutsk          5613.594
       262   04 Jun 2027 04:17:56.663   04 Jun 2027 04:20:25.238           148.575            RioGallegos          4642.969
       263   04 Jun 2027 05:09:00.237   04 Jun 2027 05:09:30.074            29.837                Novosib           932.406
       264   04 Jun 2027 05:10:08.640   04 Jun 2027 05:12:41.983           153.343                Novosib          4791.969
       265   04 Jun 2027 05:14:10.812   04 Jun 2027 05:14:30.072            19.260                 Moscow           601.875
       266   04 Jun 2027 05:16:07.298   04 Jun 2027 05:16:10.774             3.476                 Moscow           108.625
       267   04 Jun 2027 05:29:45.375   04 Jun 2027 05:30:32.361            46.986               CapeTown          1468.312
       268   04 Jun 2027 05:33:25.956   04 Jun 2027 05:34:48.537            82.581               CapeTown          2580.656
       269   04 Jun 2027 06:47:05.114   04 Jun 2027 06:47:14.301             9.187              Murmansk1           287.094
       270   04 Jun 2027 06:51:45.322   04 Jun 2027 06:52:18.162            32.840                 Moscow          1026.250
       271   04 Jun 2027 07:04:55.338   04 Jun 2027 07:05:48.307            52.969               CapeTown          1655.281
       272   04 Jun 2027 07:07:34.820   04 Jun 2027 07:09:46.934           132.114               CapeTown          4128.563
       273   04 Jun 2027 08:07:37.665   04 Jun 2027 08:07:46.369             8.704               Magadan1           272.000
       274   04 Jun 2027 08:08:09.835   04 Jun 2027 08:08:25.114            15.279               Magadan2           477.469
       275   04 Jun 2027 08:08:28.164   04 Jun 2027 08:09:51.418            83.254                Anadyr1          2601.687
       276   04 Jun 2027 08:10:19.152   04 Jun 2027 08:11:08.166            49.014                Anadyr1          1531.688
       277   04 Jun 2027 08:12:12.235   04 Jun 2027 08:13:15.546            63.311                Anadyr1          1978.469
       278   04 Jun 2027 09:44:03.480   04 Jun 2027 09:45:11.973            68.493               Magadan2          2140.406
       279   04 Jun 2027 09:45:31.457   04 Jun 2027 09:45:44.366            12.909               Magadan1           403.406
       280   04 Jun 2027 09:45:56.469   04 Jun 2027 09:46:43.436            46.967               Magadan2          1467.719
       281   04 Jun 2027 09:47:20.517   04 Jun 2027 09:47:44.185            23.668               Magadan2           739.625
       282   04 Jun 2027 10:26:09.456   04 Jun 2027 10:27:05.026            55.570            RioGallegos          1736.563
       283   04 Jun 2027 11:15:23.017   04 Jun 2027 11:15:30.315             7.298               Magadan2           228.062
       284   04 Jun 2027 11:19:03.632   04 Jun 2027 11:20:57.886           114.254               Magadan2          3570.438
       285   04 Jun 2027 11:21:35.136   04 Jun 2027 11:22:24.748            49.612               Magadan2          1550.375
       286   04 Jun 2027 11:22:24.748   04 Jun 2027 11:23:32.786            68.038               Magadan1          2126.187
       287   04 Jun 2027 11:23:41.611   04 Jun 2027 11:24:11.792            30.181                Irkutsk           943.156
       288   04 Jun 2027 11:24:25.505   04 Jun 2027 11:25:10.455            44.950               Magadan1          1404.688
       289   04 Jun 2027 11:25:17.504   04 Jun 2027 11:25:27.127             9.623                Irkutsk           300.719
       290   04 Jun 2027 12:00:14.094   04 Jun 2027 12:01:28.046            73.952            RioGallegos          2311.000
       291   04 Jun 2027 12:11:09.225   04 Jun 2027 12:13:07.455           118.230            RioGallegos          3694.688
       292   04 Jun 2027 12:48:45.936   04 Jun 2027 12:51:57.204           191.268                Irkutsk          5977.125
       293   04 Jun 2027 13:38:03.003   04 Jun 2027 13:40:03.924           120.921            RioGallegos          3778.781
       294   04 Jun 2027 13:41:57.575   04 Jun 2027 13:42:53.174            55.599            RioGallegos          1737.469
       295   04 Jun 2027 14:12:16.931   04 Jun 2027 14:13:00.040            43.109                Sumatra          1347.156
       296   04 Jun 2027 14:14:40.101   04 Jun 2027 14:17:10.257           150.156                Sumatra          4692.375
       297   04 Jun 2027 14:27:51.081   04 Jun 2027 14:31:20.934           209.853                Irkutsk          6557.906
       298   04 Jun 2027 14:32:56.486   04 Jun 2027 14:34:53.617           117.131                Irkutsk          3660.344
       299   04 Jun 2027 15:58:13.370   04 Jun 2027 16:02:01.263           227.893                  Delhi          7121.656
       300   04 Jun 2027 16:09:16.989   04 Jun 2027 16:09:56.774            39.785                Norilsk          1243.281
       301   04 Jun 2027 16:10:19.772   04 Jun 2027 16:12:51.619           151.847                Novosib          4745.219
       302   04 Jun 2027 17:46:06.569   04 Jun 2027 17:46:30.499            23.930              Murmansk1           747.812
       303   04 Jun 2027 17:59:10.960   04 Jun 2027 17:59:22.194            11.234                Anadyr1           351.062
       304   04 Jun 2027 18:01:02.046   04 Jun 2027 18:01:10.729             8.683                Anadyr2           271.344
       305   04 Jun 2027 18:01:20.236   04 Jun 2027 18:01:34.054            13.818                Anadyr2           431.812
       306   04 Jun 2027 18:53:13.417   04 Jun 2027 18:55:38.126           144.709               CapeTown          4522.156
       307   04 Jun 2027 19:20:26.660   04 Jun 2027 19:24:27.539           240.879                 Moscow          7527.469
       308   04 Jun 2027 19:26:24.043   04 Jun 2027 19:27:51.763            87.720              Murmansk2          2741.250
       309   04 Jun 2027 20:30:16.710   04 Jun 2027 20:35:20.957           304.247               CapeTown          9507.719
       310   04 Jun 2027 21:03:33.903   04 Jun 2027 21:06:41.048           187.145              Murmansk1          5848.281
       311   04 Jun 2027 21:15:28.521   04 Jun 2027 21:15:55.038            26.517               Magadan1           828.656
       312   04 Jun 2027 21:20:01.795   04 Jun 2027 21:20:19.016            17.221               Magadan1           538.156
       313   04 Jun 2027 22:45:38.883   04 Jun 2027 22:49:27.752           228.869                Anadyr2          7152.156
       314   04 Jun 2027 22:49:27.937   04 Jun 2027 22:53:02.734           214.797               Magadan1          6712.406
       315   04 Jun 2027 22:58:50.089   04 Jun 2027 22:59:18.338            28.249               Magadan1           882.781
       316   04 Jun 2027 23:00:09.303   04 Jun 2027 23:00:27.634            18.331               Magadan2           572.844
       317   04 Jun 2027 23:40:09.712   04 Jun 2027 23:42:15.946           126.234            RioGallegos          3944.812
       318   04 Jun 2027 23:43:01.646   04 Jun 2027 23:43:35.120            33.474            RioGallegos          1046.062
       319   04 Jun 2027 23:44:50.447   04 Jun 2027 23:44:59.328             8.881            RioGallegos           277.531
       320   04 Jun 2027 23:45:48.784   04 Jun 2027 23:46:22.212            33.428            RioGallegos          1044.625
       321   05 Jun 2027 00:21:17.802   05 Jun 2027 00:22:17.683            59.881                Anadyr1          1871.281
       322   05 Jun 2027 00:23:27.103   05 Jun 2027 00:25:03.794            96.691                Norilsk          3021.594
       323   05 Jun 2027 00:25:24.137   05 Jun 2027 00:26:49.249            85.112               Magadan1          2659.750
       324   05 Jun 2027 00:27:41.786   05 Jun 2027 00:29:09.896            88.110                Irkutsk          2753.437
       325   05 Jun 2027 00:29:57.023   05 Jun 2027 00:31:02.042            65.019                Novosib          2031.844
       326   05 Jun 2027 00:32:07.029   05 Jun 2027 00:34:04.810           117.781                Novosib          3680.656
       327   05 Jun 2027 00:47:44.023   05 Jun 2027 00:47:51.446             7.423                Sumatra           231.969
       328   05 Jun 2027 00:53:39.282   05 Jun 2027 00:53:45.955             6.673                Sumatra           208.531
       329   05 Jun 2027 01:15:36.040   05 Jun 2027 01:15:51.079            15.039            RioGallegos           469.969
       330   05 Jun 2027 01:17:27.161   05 Jun 2027 01:17:48.694            21.533            RioGallegos           672.906
       331   05 Jun 2027 01:19:07.499   05 Jun 2027 01:19:14.402             6.903            RioGallegos           215.719
       332   05 Jun 2027 01:19:52.889   05 Jun 2027 01:20:10.726            17.837            RioGallegos           557.406
       333   05 Jun 2027 01:23:09.612   05 Jun 2027 01:24:01.576            51.964            RioGallegos          1623.875
       334   05 Jun 2027 01:56:06.190   05 Jun 2027 01:56:38.042            31.852                Anadyr2           995.375
       335   05 Jun 2027 01:56:50.337   05 Jun 2027 01:57:09.999            19.662                Anadyr2           614.437
       336   05 Jun 2027 01:57:24.569   05 Jun 2027 01:57:40.776            16.207                Anadyr1           506.469
       337   05 Jun 2027 01:59:24.587   05 Jun 2027 02:01:18.289           113.702                Norilsk          3553.187
       338   05 Jun 2027 02:01:36.825   05 Jun 2027 02:01:47.634            10.809               Magadan2           337.781
       339   05 Jun 2027 02:03:17.306   05 Jun 2027 02:06:30.132           192.826                Irkutsk          6025.813
       340   05 Jun 2027 02:17:24.482   05 Jun 2027 02:17:50.242            25.760                  Delhi           805.000
       341   05 Jun 2027 02:18:37.679   05 Jun 2027 02:23:21.398           283.719                Sumatra          8866.219
       342   05 Jun 2027 03:42:56.956   05 Jun 2027 03:43:42.764            45.808                 Moscow          1431.500
       343   05 Jun 2027 03:44:09.969   05 Jun 2027 03:49:15.247           305.278                Irkutsk          9539.937
       344   05 Jun 2027 03:49:16.385   05 Jun 2027 03:52:04.769           168.384                  Delhi          5262.000
       345   05 Jun 2027 03:55:18.636   05 Jun 2027 03:58:36.227           197.591                  Delhi          6174.719
       346   05 Jun 2027 05:20:07.023   05 Jun 2027 05:20:17.559            10.536              Murmansk2           329.250
       347   05 Jun 2027 05:20:30.339   05 Jun 2027 05:21:40.910            70.571                 Moscow          2205.344
       348   05 Jun 2027 05:21:51.975   05 Jun 2027 05:22:12.050            20.075                 Moscow           627.344
       349   05 Jun 2027 05:22:15.529   05 Jun 2027 05:24:54.269           158.740                Novosib          4960.625
       350   05 Jun 2027 05:25:19.114   05 Jun 2027 05:26:15.237            56.123                 Moscow          1753.844
       351   05 Jun 2027 05:26:28.106   05 Jun 2027 05:27:33.409            65.303                 Moscow          2040.719
       352   05 Jun 2027 05:41:22.691   05 Jun 2027 05:42:18.786            56.095               CapeTown          1752.969
       353   05 Jun 2027 06:45:07.748   05 Jun 2027 06:45:07.905             0.157                Anadyr2             4.906
       354   05 Jun 2027 06:45:07.905   05 Jun 2027 06:46:17.146            69.241                Anadyr1          2163.781
       355   05 Jun 2027 06:59:01.924   05 Jun 2027 06:59:06.713             4.789              Murmansk2           149.656
       356   05 Jun 2027 07:00:46.263   05 Jun 2027 07:01:39.518            53.255                 Moscow          1664.219
       357   05 Jun 2027 07:17:15.931   05 Jun 2027 07:18:23.357            67.426               CapeTown          2107.062
       358   05 Jun 2027 07:19:25.482   05 Jun 2027 07:22:27.072           181.590               CapeTown          5674.688
       359   05 Jun 2027 08:19:58.256   05 Jun 2027 08:20:12.355            14.099               Magadan2           440.594
       360   05 Jun 2027 08:20:28.570   05 Jun 2027 08:21:45.898            77.328                Anadyr2          2416.500
       361   05 Jun 2027 08:21:53.150   05 Jun 2027 08:21:56.364             3.214               Magadan1           100.438
       362   05 Jun 2027 08:22:20.808   05 Jun 2027 08:22:52.809            32.001                Anadyr2          1000.031
       363   05 Jun 2027 08:22:54.420   05 Jun 2027 08:22:56.419             1.999               Magadan2            62.469
       364   05 Jun 2027 08:23:33.246   05 Jun 2027 08:24:11.280            38.034                Anadyr2          1188.563
       365   05 Jun 2027 09:08:50.539   05 Jun 2027 09:08:57.206             6.667            RioGallegos           208.344
       366   05 Jun 2027 09:09:26.572   05 Jun 2027 09:10:10.067            43.495            RioGallegos          1359.219
       367   05 Jun 2027 09:55:38.848   05 Jun 2027 09:56:12.582            33.734                Irkutsk          1054.187
       368   05 Jun 2027 09:57:01.314   05 Jun 2027 09:58:08.618            67.304               Magadan2          2103.250
       369   05 Jun 2027 09:58:15.120   05 Jun 2027 09:58:54.436            39.316               Magadan1          1228.625
       370   05 Jun 2027 09:59:41.154   05 Jun 2027 09:59:57.538            16.384               Magadan2           512.000
       371   05 Jun 2027 10:37:45.525   05 Jun 2027 10:38:10.400            24.875            RioGallegos           777.344
       372   05 Jun 2027 10:39:14.256   05 Jun 2027 10:39:59.762            45.506            RioGallegos          1422.062
       373   05 Jun 2027 11:28:01.564   05 Jun 2027 11:30:45.633           164.069               Magadan2          5127.156
       374   05 Jun 2027 11:30:45.633   05 Jun 2027 11:30:46.491             0.858               Magadan1            26.812
       375   05 Jun 2027 11:32:03.506   05 Jun 2027 11:33:05.156            61.650                Novosib          1926.563
       376   05 Jun 2027 11:33:30.559   05 Jun 2027 11:37:00.157           209.598               Magadan2          6549.937
       377   05 Jun 2027 11:37:20.741   05 Jun 2027 11:37:53.358            32.617                Norilsk          1019.281
       378   05 Jun 2027 12:12:16.443   05 Jun 2027 12:13:24.591            68.148            RioGallegos          2129.625
       379   05 Jun 2027 12:20:00.222   05 Jun 2027 12:20:51.816            51.594            RioGallegos          1612.312
       380   05 Jun 2027 12:47:24.523   05 Jun 2027 12:48:11.847            47.324                Sumatra          1478.875
       381   05 Jun 2027 13:00:55.599   05 Jun 2027 13:03:56.695           181.096                Irkutsk          5659.250
       382   05 Jun 2027 13:50:42.141   05 Jun 2027 13:55:20.890           278.749            RioGallegos          8710.906
       383   05 Jun 2027 14:25:02.781   05 Jun 2027 14:29:34.720           271.939                Sumatra          8498.094
       384   05 Jun 2027 14:40:49.761   05 Jun 2027 14:42:57.693           127.932                Irkutsk          3997.875
       385   05 Jun 2027 14:44:44.108   05 Jun 2027 14:44:57.464            13.356                Irkutsk           417.375
       386   05 Jun 2027 16:10:45.255   05 Jun 2027 16:15:04.767           259.512                  Delhi          8109.750
       387   05 Jun 2027 16:19:12.013   05 Jun 2027 16:24:52.520           340.507                Novosib         10640.844
       388   05 Jun 2027 19:05:12.674   05 Jun 2027 19:07:59.023           166.349               CapeTown          5198.406
       389   05 Jun 2027 19:33:55.750   05 Jun 2027 19:37:20.008           204.258                 Moscow          6383.062
       390   05 Jun 2027 19:37:35.771   05 Jun 2027 19:40:08.645           152.874              Murmansk2          4777.312
       391   05 Jun 2027 20:42:49.745   05 Jun 2027 20:47:40.792           291.047               CapeTown          9095.219
       392   05 Jun 2027 20:49:43.929   05 Jun 2027 20:50:27.999            44.070               CapeTown          1377.188
       393   05 Jun 2027 21:26:20.933   05 Jun 2027 21:26:52.086            31.153               Magadan1           973.531
       394   05 Jun 2027 21:28:10.237   05 Jun 2027 21:28:42.577            32.340               Magadan1          1010.625
       395   05 Jun 2027 22:57:39.897   05 Jun 2027 23:01:27.884           227.987                Anadyr2          7124.594
       396   05 Jun 2027 23:01:44.159   05 Jun 2027 23:05:28.565           224.406               Magadan2          7012.687
       397   05 Jun 2027 23:07:18.639   05 Jun 2027 23:08:47.281            88.642                Irkutsk          2770.062
       398   05 Jun 2027 23:51:58.871   05 Jun 2027 23:53:47.484           108.613            RioGallegos          3394.156
       399   05 Jun 2027 23:54:11.892   05 Jun 2027 23:55:07.358            55.466            RioGallegos          1733.312
       400   05 Jun 2027 23:57:41.869   05 Jun 2027 23:57:56.625            14.756            RioGallegos           461.125
       401   06 Jun 2027 00:33:14.668   06 Jun 2027 00:34:03.377            48.709                Anadyr2          1522.156
       402   06 Jun 2027 00:34:24.244   06 Jun 2027 00:34:41.934            17.690                Anadyr2           552.813
       403   06 Jun 2027 00:35:16.120   06 Jun 2027 00:35:46.796            30.676                Anadyr2           958.625
       404   06 Jun 2027 00:36:00.805   06 Jun 2027 00:37:19.849            79.044                Norilsk          2470.125
       405   06 Jun 2027 00:37:45.440   06 Jun 2027 00:39:28.367           102.927               Magadan2          3216.469
       406   06 Jun 2027 00:39:36.433   06 Jun 2027 00:40:45.957            69.524                Irkutsk          2172.625
       407   06 Jun 2027 00:41:11.442   06 Jun 2027 00:42:14.036            62.594                Novosib          1956.063
       408   06 Jun 2027 00:50:19.305   06 Jun 2027 00:50:48.492            29.187                Irkutsk           912.094
       409   06 Jun 2027 00:53:19.648   06 Jun 2027 00:56:12.435           172.787                Sumatra          5399.594
       410   06 Jun 2027 01:36:04.514   06 Jun 2027 01:36:16.996            12.482            RioGallegos           390.063
       411   06 Jun 2027 01:36:59.325   06 Jun 2027 01:37:27.865            28.540            RioGallegos           891.875
       412   06 Jun 2027 02:07:53.822   06 Jun 2027 02:08:51.691            57.869                Anadyr2          1808.406
       413   06 Jun 2027 02:09:08.778   06 Jun 2027 02:09:40.011            31.233                Anadyr2           976.031
       414   06 Jun 2027 02:11:27.046   06 Jun 2027 02:12:27.836            60.790                Norilsk          1899.687
       415   06 Jun 2027 02:12:41.576   06 Jun 2027 02:12:46.782             5.206                Norilsk           162.688
       416   06 Jun 2027 02:12:51.790   06 Jun 2027 02:13:20.157            28.367                Norilsk           886.469
       417   06 Jun 2027 02:15:20.763   06 Jun 2027 02:18:16.374           175.611                Irkutsk          5487.844
       418   06 Jun 2027 02:23:38.426   06 Jun 2027 02:23:52.939            14.513                  Delhi           453.531
       419   06 Jun 2027 02:29:36.260   06 Jun 2027 02:29:52.505            16.245                  Delhi           507.656
       420   06 Jun 2027 02:30:14.633   06 Jun 2027 02:30:17.434             2.801                  Delhi            87.531
       421   06 Jun 2027 02:31:33.944   06 Jun 2027 02:35:50.563           256.619                Sumatra          8019.344
       422   06 Jun 2027 03:07:20.669   06 Jun 2027 03:08:03.876            43.207            RioGallegos          1350.219
       423   06 Jun 2027 03:12:20.833   06 Jun 2027 03:12:40.313            19.480            RioGallegos           608.750
       424   06 Jun 2027 03:55:16.634   06 Jun 2027 04:00:40.959           324.325                Irkutsk         10135.156
       425   06 Jun 2027 04:02:53.570   06 Jun 2027 04:03:06.601            13.031                Novosib           407.219
       426   06 Jun 2027 04:04:43.335   06 Jun 2027 04:07:10.085           146.750                  Delhi          4585.937
       427   06 Jun 2027 05:32:52.173   06 Jun 2027 05:33:02.073             9.900                Norilsk           309.375
       428   06 Jun 2027 05:34:21.710   06 Jun 2027 05:36:44.603           142.893                Novosib          4465.406
       429   06 Jun 2027 05:36:56.691   06 Jun 2027 05:37:08.626            11.935                 Moscow           372.969
       430   06 Jun 2027 05:38:27.153   06 Jun 2027 05:39:01.169            34.016                 Moscow          1063.000
       431   06 Jun 2027 05:41:07.132   06 Jun 2027 05:41:28.392            21.260                 Moscow           664.375
       432   06 Jun 2027 05:53:05.848   06 Jun 2027 05:54:57.258           111.410               CapeTown          3481.563
       433   06 Jun 2027 06:56:37.582   06 Jun 2027 06:56:47.114             9.532                Anadyr2           297.875
       434   06 Jun 2027 06:56:47.114   06 Jun 2027 06:57:14.877            27.763                Anadyr1           867.594
       435   06 Jun 2027 06:57:37.878   06 Jun 2027 06:57:41.195             3.317               Magadan1           103.656
       436   06 Jun 2027 06:57:51.135   06 Jun 2027 06:58:00.532             9.397               Magadan2           293.656
       437   06 Jun 2027 06:58:17.636   06 Jun 2027 06:58:25.885             8.249                Anadyr2           257.781
       438   06 Jun 2027 06:59:01.717   06 Jun 2027 06:59:37.174            35.457                Anadyr1          1108.031
       439   06 Jun 2027 07:08:50.948   06 Jun 2027 07:09:00.644             9.696                Norilsk           303.000
       440   06 Jun 2027 07:12:06.197   06 Jun 2027 07:12:44.749            38.552                 Moscow          1204.750
       441   06 Jun 2027 07:29:43.861   06 Jun 2027 07:31:11.839            87.978               CapeTown          2749.312
       442   06 Jun 2027 07:34:19.349   06 Jun 2027 07:34:42.796            23.447               CapeTown           732.719
       443   06 Jun 2027 08:30:24.777   06 Jun 2027 08:31:08.290            43.513               Magadan1          1359.781
       444   06 Jun 2027 08:31:11.115   06 Jun 2027 08:31:20.070             8.955               Magadan1           279.844
       445   06 Jun 2027 08:31:21.980   06 Jun 2027 08:32:28.503            66.523                Anadyr2          2078.844
       446   06 Jun 2027 08:32:44.795   06 Jun 2027 08:33:52.658            67.863               Magadan1          2120.719
       447   06 Jun 2027 08:33:59.521   06 Jun 2027 08:34:49.961            50.440               Magadan1          1576.250
       448   06 Jun 2027 08:34:56.254   06 Jun 2027 08:35:33.547            37.293               Magadan2          1165.406
       449   06 Jun 2027 08:37:29.148   06 Jun 2027 08:37:57.806            28.658               Magadan1           895.562
       450   06 Jun 2027 08:43:32.482   06 Jun 2027 08:44:35.350            62.868                 Moscow          1964.625
       451   06 Jun 2027 10:05:20.508   06 Jun 2027 10:05:30.816            10.308                Anadyr2           322.125
       452   06 Jun 2027 10:05:34.120   06 Jun 2027 10:05:51.696            17.576               Magadan1           549.250
       453   06 Jun 2027 10:06:33.510   06 Jun 2027 10:07:42.560            69.050                Anadyr1          2157.813
       454   06 Jun 2027 10:08:01.134   06 Jun 2027 10:08:46.716            45.582               Magadan1          1424.437
       455   06 Jun 2027 10:08:46.716   06 Jun 2027 10:09:59.168            72.452               Magadan2          2264.125
       456   06 Jun 2027 10:10:01.318   06 Jun 2027 10:11:02.201            60.883                Anadyr1          1902.594
       457   06 Jun 2027 10:11:18.465   06 Jun 2027 10:11:36.832            18.367               Magadan2           573.969
       458   06 Jun 2027 10:11:36.832   06 Jun 2027 10:13:50.570           133.738               Magadan1          4179.312
       459   06 Jun 2027 11:40:46.716   06 Jun 2027 11:40:55.116             8.400               Magadan1           262.500
       460   06 Jun 2027 11:42:18.673   06 Jun 2027 11:47:17.023           298.350               Magadan2          9323.437
       461   06 Jun 2027 11:47:45.203   06 Jun 2027 11:48:25.678            40.475                Irkutsk          1264.844
       462   06 Jun 2027 11:48:29.400   06 Jun 2027 11:48:56.457            27.057                Irkutsk           845.531
       463   06 Jun 2027 11:49:20.820   06 Jun 2027 11:49:46.088            25.268                Norilsk           789.625
       464   06 Jun 2027 12:24:22.254   06 Jun 2027 12:24:46.403            24.149            RioGallegos           754.656
       465   06 Jun 2027 12:25:19.443   06 Jun 2027 12:27:33.975           134.532            RioGallegos          4204.125
       466   06 Jun 2027 12:59:58.509   06 Jun 2027 13:02:18.688           140.179                Sumatra          4380.594
       467   06 Jun 2027 13:15:37.851   06 Jun 2027 13:16:18.766            40.915                Novosib          1278.594
       468   06 Jun 2027 13:22:56.605   06 Jun 2027 13:25:27.028           150.423                Irkutsk          4700.719
       469   06 Jun 2027 14:03:30.256   06 Jun 2027 14:07:34.734           244.478            RioGallegos          7639.938
       470   06 Jun 2027 14:38:14.756   06 Jun 2027 14:42:09.438           234.682                Sumatra          7333.813
       471   06 Jun 2027 14:54:10.174   06 Jun 2027 14:58:48.778           278.604                Irkutsk          8706.375
       472   06 Jun 2027 16:25:07.094   06 Jun 2027 16:26:59.431           112.337                  Delhi          3510.531
       473   06 Jun 2027 16:32:52.763   06 Jun 2027 16:35:48.196           175.433                Novosib          5482.281
       474   06 Jun 2027 16:39:46.695   06 Jun 2027 16:40:06.079            19.384                Norilsk           605.750
       475   06 Jun 2027 18:10:40.402   06 Jun 2027 18:11:04.123            23.721              Murmansk1           741.281
       476   06 Jun 2027 18:16:03.475   06 Jun 2027 18:17:13.933            70.458              Murmansk1          2201.813
       477   06 Jun 2027 18:30:41.737   06 Jun 2027 18:31:11.295            29.558                Anadyr2           923.688
       478   06 Jun 2027 19:17:14.762   06 Jun 2027 19:19:56.049           161.287               CapeTown          5040.219
       479   06 Jun 2027 19:46:58.406   06 Jun 2027 19:47:50.269            51.863              Murmansk1          1620.719
       480   06 Jun 2027 19:49:36.551   06 Jun 2027 19:52:22.512           165.961              Murmansk2          5186.281
       481   06 Jun 2027 19:53:32.272   06 Jun 2027 19:54:24.072            51.800              Murmansk1          1618.750
       482   06 Jun 2027 20:01:40.096   06 Jun 2027 20:02:11.680            31.584               Magadan1           987.000
