uniorb/output/strategy_4/Drop/Drop_KinoSat_111502.txt

KinoSat_111502
-------------------------
    Access    *     Start Time (UTCG)     *     Stop Time (UTCG)  *   Duration (s)        *       Station  *  Data (Mbytes)
         1   01 Jun 2027 03:50:30.260   01 Jun 2027 03:51:28.686            58.426                Norilsk          1825.813
         2   01 Jun 2027 03:51:51.442   01 Jun 2027 03:51:55.760             4.318                Norilsk           134.937
         3   01 Jun 2027 03:51:59.529   01 Jun 2027 03:52:32.163            32.634              Murmansk2          1019.812
         4   01 Jun 2027 03:52:37.137   01 Jun 2027 03:53:21.835            44.698                Novosib          1396.812
         5   01 Jun 2027 03:53:25.628   01 Jun 2027 03:55:12.502           106.874              Murmansk2          3339.812
         6   01 Jun 2027 03:55:56.187   01 Jun 2027 03:58:54.191           178.004                 Moscow          5562.625
         7   01 Jun 2027 04:10:37.699   01 Jun 2027 04:17:01.097           383.398               CapeTown         11981.187
         8   01 Jun 2027 04:18:42.455   01 Jun 2027 04:20:01.511            79.056               CapeTown          2470.500
         9   01 Jun 2027 05:13:59.083   01 Jun 2027 05:14:31.492            32.409                Anadyr1          1012.781
        10   01 Jun 2027 05:15:44.298   01 Jun 2027 05:16:04.857            20.559                Anadyr1           642.469
        11   01 Jun 2027 05:26:05.204   01 Jun 2027 05:26:50.903            45.699              Murmansk2          1428.094
        12   01 Jun 2027 05:27:11.355   01 Jun 2027 05:27:29.187            17.832              Murmansk2           557.250
        13   01 Jun 2027 05:28:01.717   01 Jun 2027 05:28:03.373             1.656              Murmansk1            51.750
        14   01 Jun 2027 05:28:03.373   01 Jun 2027 05:28:36.817            33.444              Murmansk2          1045.125
        15   01 Jun 2027 05:29:25.874   01 Jun 2027 05:29:41.158            15.284              Murmansk1           477.625
        16   01 Jun 2027 05:29:44.935   01 Jun 2027 05:30:28.346            43.411              Murmansk1          1356.594
        17   01 Jun 2027 06:48:58.403   01 Jun 2027 06:49:12.117            13.714               Magadan2           428.563
        18   01 Jun 2027 06:49:36.121   01 Jun 2027 06:49:38.368             2.247               Magadan2            70.219
        19   01 Jun 2027 06:49:38.368   01 Jun 2027 06:51:38.676           120.308               Magadan1          3759.625
        20   01 Jun 2027 06:51:49.504   01 Jun 2027 06:53:51.607           122.103                Norilsk          3815.719
        21   01 Jun 2027 06:54:02.667   01 Jun 2027 06:54:19.374            16.707                Anadyr1           522.094
        22   01 Jun 2027 08:25:23.490   01 Jun 2027 08:30:09.460           285.970               Magadan2          8936.563
        23   01 Jun 2027 09:59:50.202   01 Jun 2027 10:01:41.989           111.787               Magadan1          3493.344
        24   01 Jun 2027 10:02:54.588   01 Jun 2027 10:05:27.155           152.567               Magadan1          4767.719
        25   01 Jun 2027 10:05:27.155   01 Jun 2027 10:06:16.694            49.539               Magadan2          1548.094
        26   01 Jun 2027 10:06:32.615   01 Jun 2027 10:07:05.267            32.652                Irkutsk          1020.375
        27   01 Jun 2027 11:39:59.288   01 Jun 2027 11:40:05.844             6.556              Murmansk2           204.875
        28   01 Jun 2027 11:40:13.484   01 Jun 2027 11:42:21.442           127.958                Norilsk          3998.688
        29   01 Jun 2027 11:42:30.331   01 Jun 2027 11:43:04.678            34.347                Norilsk          1073.344
        30   01 Jun 2027 11:45:21.654   01 Jun 2027 11:46:00.678            39.024                Norilsk          1219.500
        31   01 Jun 2027 11:49:26.354   01 Jun 2027 11:49:40.647            14.293              Murmansk2           446.656
        32   01 Jun 2027 11:50:09.888   01 Jun 2027 11:50:19.592             9.704              Murmansk2           303.250
        33   01 Jun 2027 12:20:47.716   01 Jun 2027 12:22:24.497            96.781            RioGallegos          3024.406
        34   01 Jun 2027 12:24:59.329   01 Jun 2027 12:26:00.898            61.569            RioGallegos          1924.031
        35   01 Jun 2027 12:55:22.606   01 Jun 2027 12:57:28.085           125.479                Sumatra          3921.219
        36   01 Jun 2027 12:59:41.937   01 Jun 2027 12:59:48.498             6.561                Sumatra           205.031
        37   01 Jun 2027 13:08:21.098   01 Jun 2027 13:09:15.182            54.084                Novosib          1690.125
        38   01 Jun 2027 13:09:47.081   01 Jun 2027 13:10:49.025            61.944                Novosib          1935.750
        39   01 Jun 2027 13:11:19.220   01 Jun 2027 13:13:20.966           121.746                Irkutsk          3804.563
        40   01 Jun 2027 13:14:04.516   01 Jun 2027 13:15:05.973            61.457                Irkutsk          1920.531
        41   01 Jun 2027 13:20:18.747   01 Jun 2027 13:20:42.462            23.715                Norilsk           741.094
        42   01 Jun 2027 14:41:45.799   01 Jun 2027 14:44:01.396           135.597                  Delhi          4237.406
        43   01 Jun 2027 14:45:00.676   01 Jun 2027 14:45:12.106            11.430                  Delhi           357.187
        44   01 Jun 2027 14:46:28.194   01 Jun 2027 14:47:25.907            57.713                 Moscow          1803.531
        45   01 Jun 2027 14:48:33.742   01 Jun 2027 14:49:00.643            26.901                 Moscow           840.656
        46   01 Jun 2027 14:49:55.160   01 Jun 2027 14:53:02.751           187.591                Novosib          5862.219
        47   01 Jun 2027 14:55:55.621   01 Jun 2027 14:56:13.455            17.834                Norilsk           557.312
        48   01 Jun 2027 14:56:48.088   01 Jun 2027 14:57:11.814            23.726                Norilsk           741.437
        49   01 Jun 2027 14:58:34.237   01 Jun 2027 14:59:51.566            77.329                Norilsk          2416.531
        50   01 Jun 2027 16:00:34.720   01 Jun 2027 16:03:15.091           160.371               CapeTown          5011.594
        51   01 Jun 2027 16:22:47.445   01 Jun 2027 16:23:22.818            35.373                 Moscow          1105.406
        52   01 Jun 2027 16:25:27.143   01 Jun 2027 16:25:46.111            18.968              Murmansk2           592.750
        53   01 Jun 2027 16:25:56.525   01 Jun 2027 16:27:36.275            99.750              Murmansk1          3117.188
        54   01 Jun 2027 16:34:23.253   01 Jun 2027 16:34:24.864             1.611              Murmansk2            50.344
        55   01 Jun 2027 16:35:13.998   01 Jun 2027 16:35:31.610            17.612              Murmansk1           550.375
        56   01 Jun 2027 16:37:06.427   01 Jun 2027 16:37:38.212            31.785              Murmansk1           993.281
        57   01 Jun 2027 16:39:57.073   01 Jun 2027 16:40:56.021            58.948                Anadyr1          1842.125
        58   01 Jun 2027 16:41:54.309   01 Jun 2027 16:42:17.724            23.415                Anadyr2           731.719
        59   01 Jun 2027 16:42:57.780   01 Jun 2027 16:43:20.064            22.284                Anadyr1           696.375
        60   01 Jun 2027 16:44:38.353   01 Jun 2027 16:45:03.997            25.644                Anadyr2           801.375
        61   01 Jun 2027 16:46:46.634   01 Jun 2027 16:47:02.970            16.336                Anadyr2           510.500
        62   01 Jun 2027 17:34:42.536   01 Jun 2027 17:37:05.281           142.745               CapeTown          4460.781
        63   01 Jun 2027 18:04:20.020   01 Jun 2027 18:04:49.829            29.809              Murmansk2           931.531
        64   01 Jun 2027 18:05:23.309   01 Jun 2027 18:09:47.052           263.743              Murmansk1          8241.969
        65   01 Jun 2027 18:18:04.346   01 Jun 2027 18:18:18.008            13.662                Anadyr1           426.938
        66   01 Jun 2027 18:18:51.220   01 Jun 2027 18:19:03.923            12.703                Anadyr1           396.969
        67   01 Jun 2027 18:19:17.472   01 Jun 2027 18:20:07.634            50.162               Magadan1          1567.562
        68   01 Jun 2027 18:23:57.172   01 Jun 2027 18:24:28.674            31.502               Magadan2           984.437
        69   01 Jun 2027 19:12:52.195   01 Jun 2027 19:13:46.872            54.677               CapeTown          1708.656
        70   01 Jun 2027 19:14:39.358   01 Jun 2027 19:17:31.866           172.508               CapeTown          5390.875
        71   01 Jun 2027 19:51:14.901   01 Jun 2027 19:52:43.214            88.313                Anadyr2          2759.781
        72   01 Jun 2027 19:53:40.000   01 Jun 2027 19:55:24.519           104.519               Magadan1          3266.219
        73   01 Jun 2027 19:55:53.532   01 Jun 2027 19:55:55.723             2.191               Magadan1            68.469
        74   01 Jun 2027 19:56:01.359   01 Jun 2027 19:56:33.608            32.249                Anadyr1          1007.781
        75   01 Jun 2027 19:58:41.464   01 Jun 2027 19:59:12.719            31.255               Magadan1           976.719
        76   01 Jun 2027 20:04:16.359   01 Jun 2027 20:04:59.807            43.448               Magadan1          1357.750
        77   01 Jun 2027 21:27:08.454   01 Jun 2027 21:30:49.162           220.708                Anadyr1          6897.125
        78   01 Jun 2027 21:30:50.366   01 Jun 2027 21:34:35.957           225.591                Norilsk          7049.719
        79   01 Jun 2027 21:35:36.324   01 Jun 2027 21:35:59.216            22.892                Irkutsk           715.375
        80   01 Jun 2027 21:36:23.667   01 Jun 2027 21:36:46.883            23.216                Irkutsk           725.500
        81   01 Jun 2027 21:37:55.448   01 Jun 2027 21:37:56.402             0.954                Irkutsk            29.813
        82   01 Jun 2027 21:40:04.293   01 Jun 2027 21:40:27.969            23.676                Irkutsk           739.875
        83   01 Jun 2027 22:21:21.641   01 Jun 2027 22:22:34.415            72.774            RioGallegos          2274.187
        84   01 Jun 2027 22:23:38.655   01 Jun 2027 22:24:27.437            48.782            RioGallegos          1524.438
        85   01 Jun 2027 22:26:50.919   01 Jun 2027 22:27:29.342            38.423            RioGallegos          1200.719
        86   01 Jun 2027 22:30:31.707   01 Jun 2027 22:30:50.680            18.973            RioGallegos           592.906
        87   01 Jun 2027 23:02:39.130   01 Jun 2027 23:04:42.429           123.299                Anadyr1          3853.094
        88   01 Jun 2027 23:04:58.589   01 Jun 2027 23:05:01.833             3.244                Norilsk           101.375
        89   01 Jun 2027 23:05:28.254   01 Jun 2027 23:05:45.558            17.304                Anadyr1           540.750
        90   01 Jun 2027 23:05:49.788   01 Jun 2027 23:06:43.057            53.269                Norilsk          1664.656
        91   01 Jun 2027 23:07:01.464   01 Jun 2027 23:08:20.214            78.750               Magadan2          2460.938
        92   01 Jun 2027 23:09:02.411   01 Jun 2027 23:10:03.932            61.521                Irkutsk          1922.531
        93   01 Jun 2027 23:10:19.474   01 Jun 2027 23:11:04.005            44.531                Novosib          1391.594
        94   01 Jun 2027 23:12:58.435   01 Jun 2027 23:13:20.797            22.362                Novosib           698.813
        95   01 Jun 2027 23:16:58.117   01 Jun 2027 23:17:06.894             8.777                Novosib           274.281
        96   01 Jun 2027 23:22:43.608   01 Jun 2027 23:24:12.407            88.799                Sumatra          2774.969
        97   01 Jun 2027 23:30:53.167   01 Jun 2027 23:31:13.198            20.031                Sumatra           625.969
        98   01 Jun 2027 23:32:35.183   01 Jun 2027 23:32:55.334            20.151                Sumatra           629.719
        99   01 Jun 2027 23:56:53.406   01 Jun 2027 23:57:17.206            23.800            RioGallegos           743.750
       100   01 Jun 2027 23:57:55.421   01 Jun 2027 23:57:57.829             2.408            RioGallegos            75.250
       101   01 Jun 2027 23:59:00.220   01 Jun 2027 23:59:00.808             0.588            RioGallegos            18.375
       102   02 Jun 2027 00:00:06.526   02 Jun 2027 00:00:13.176             6.650            RioGallegos           207.812
       103   02 Jun 2027 00:02:43.318   02 Jun 2027 00:02:49.260             5.942            RioGallegos           185.688
       104   02 Jun 2027 00:03:13.990   02 Jun 2027 00:03:16.320             2.330            RioGallegos            72.812
       105   02 Jun 2027 00:03:21.897   02 Jun 2027 00:03:30.598             8.701            RioGallegos           271.906
       106   02 Jun 2027 00:04:53.140   02 Jun 2027 00:06:00.886            67.746            RioGallegos          2117.063
       107   02 Jun 2027 00:37:10.637   02 Jun 2027 00:37:23.027            12.390                Anadyr1           387.188
       108   02 Jun 2027 00:38:07.428   02 Jun 2027 00:38:54.281            46.853                Anadyr2          1464.156
       109   02 Jun 2027 00:38:54.281   02 Jun 2027 00:39:26.574            32.293                Anadyr1          1009.156
       110   02 Jun 2027 00:40:57.735   02 Jun 2027 00:42:59.877           122.142                Norilsk          3816.937
       111   02 Jun 2027 00:44:15.818   02 Jun 2027 00:44:56.190            40.372               Magadan2          1261.625
       112   02 Jun 2027 00:45:21.857   02 Jun 2027 00:46:52.769            90.912                Irkutsk          2841.000
       113   02 Jun 2027 00:46:56.947   02 Jun 2027 00:48:12.817            75.870                Novosib          2370.937
       114   02 Jun 2027 00:52:24.337   02 Jun 2027 00:53:11.719            47.382                  Delhi          1480.688
       115   02 Jun 2027 00:55:52.425   02 Jun 2027 00:55:59.693             7.268                  Delhi           227.125
       116   02 Jun 2027 00:56:55.864   02 Jun 2027 00:58:36.374           100.510                  Delhi          3140.937
       117   02 Jun 2027 01:02:11.700   02 Jun 2027 01:02:40.528            28.828                Sumatra           900.875
       118   02 Jun 2027 01:05:45.785   02 Jun 2027 01:06:11.091            25.306                Sumatra           790.813
       119   02 Jun 2027 01:34:06.139   02 Jun 2027 01:35:06.970            60.831            RioGallegos          1900.969
       120   02 Jun 2027 01:40:13.767   02 Jun 2027 01:40:47.690            33.923            RioGallegos          1060.094
       121   02 Jun 2027 02:12:55.375   02 Jun 2027 02:13:23.827            28.452                Anadyr1           889.125
       122   02 Jun 2027 02:15:58.310   02 Jun 2027 02:16:10.705            12.395                Anadyr1           387.344
       123   02 Jun 2027 02:16:47.915   02 Jun 2027 02:17:51.115            63.200               Magadan2          1975.000
       124   02 Jun 2027 02:17:54.583   02 Jun 2027 02:18:05.661            11.078               Magadan2           346.188
       125   02 Jun 2027 02:19:13.225   02 Jun 2027 02:20:52.595            99.370              Murmansk1          3105.313
       126   02 Jun 2027 02:20:56.148   02 Jun 2027 02:21:41.749            45.601                Novosib          1425.031
       127   02 Jun 2027 02:24:06.267   02 Jun 2027 02:24:39.002            32.735                Irkutsk          1022.969
       128   02 Jun 2027 02:28:47.615   02 Jun 2027 02:29:24.417            36.802                Irkutsk          1150.063
       129   02 Jun 2027 02:32:57.851   02 Jun 2027 02:33:17.048            19.197                  Delhi           599.906
       130   02 Jun 2027 02:35:55.649   02 Jun 2027 02:36:34.325            38.676                  Delhi          1208.625
       131   02 Jun 2027 04:02:57.929   02 Jun 2027 04:05:48.878           170.949                Novosib          5342.156
       132   02 Jun 2027 04:05:52.003   02 Jun 2027 04:07:26.600            94.597              Murmansk2          2956.156
       133   02 Jun 2027 04:09:03.971   02 Jun 2027 04:11:04.550           120.579                 Moscow          3768.094
       134   02 Jun 2027 05:25:38.024   02 Jun 2027 05:25:47.291             9.267               Magadan1           289.594
       135   02 Jun 2027 05:25:47.291   02 Jun 2027 05:26:53.033            65.742               Magadan2          2054.438
       136   02 Jun 2027 05:27:08.154   02 Jun 2027 05:28:05.021            56.867               Magadan2          1777.094
       137   02 Jun 2027 05:28:06.544   02 Jun 2027 05:28:30.746            24.202                Anadyr2           756.312
       138   02 Jun 2027 05:29:45.766   02 Jun 2027 05:30:08.184            22.418                Anadyr1           700.562
       139   02 Jun 2027 07:02:45.751   02 Jun 2027 07:07:43.807           298.056                Anadyr1          9314.250
       140   02 Jun 2027 08:36:37.621   02 Jun 2027 08:41:53.642           316.021                Anadyr2          9875.656
       141   02 Jun 2027 10:13:41.757   02 Jun 2027 10:16:19.560           157.803               Magadan1          4931.344
       142   02 Jun 2027 10:16:56.651   02 Jun 2027 10:17:05.065             8.414                Irkutsk           262.938
       143   02 Jun 2027 10:17:20.298   02 Jun 2027 10:17:48.455            28.157                Novosib           879.906
       144   02 Jun 2027 10:17:52.402   02 Jun 2027 10:17:59.268             6.866                Irkutsk           214.562
       145   02 Jun 2027 10:18:17.564   02 Jun 2027 10:18:18.918             1.354                Norilsk            42.313
       146   02 Jun 2027 10:18:22.909   02 Jun 2027 10:19:02.896            39.987                Irkutsk          1249.594
       147   02 Jun 2027 10:19:17.583   02 Jun 2027 10:19:26.514             8.931                Novosib           279.094
       148   02 Jun 2027 10:53:57.712   02 Jun 2027 10:54:34.570            36.858            RioGallegos          1151.813
       149   02 Jun 2027 10:55:15.633   02 Jun 2027 10:55:39.209            23.576            RioGallegos           736.750
       150   02 Jun 2027 10:57:51.730   02 Jun 2027 10:58:05.165            13.435            RioGallegos           419.844
       151   02 Jun 2027 11:28:42.367   02 Jun 2027 11:29:38.008            55.641                Sumatra          1738.781
       152   02 Jun 2027 11:41:52.425   02 Jun 2027 11:42:26.400            33.975                  Delhi          1061.719
       153   02 Jun 2027 11:49:52.478   02 Jun 2027 11:49:59.375             6.897                Novosib           215.531
       154   02 Jun 2027 11:50:07.234   02 Jun 2027 11:51:18.114            70.880                Irkutsk          2215.000
       155   02 Jun 2027 11:52:02.954   02 Jun 2027 11:52:36.221            33.267                Irkutsk          1039.594
       156   02 Jun 2027 11:52:52.345   02 Jun 2027 11:52:52.550             0.205                Novosib             6.406
       157   02 Jun 2027 11:53:00.087   02 Jun 2027 11:54:15.882            75.795                Norilsk          2368.594
       158   02 Jun 2027 11:54:21.333   02 Jun 2027 11:54:31.046             9.713                Norilsk           303.531
       159   02 Jun 2027 11:54:31.723   02 Jun 2027 11:54:42.493            10.770                Novosib           336.562
       160   02 Jun 2027 11:54:46.630   02 Jun 2027 11:54:51.851             5.221                Irkutsk           163.156
       161   02 Jun 2027 11:54:53.864   02 Jun 2027 11:55:02.737             8.873                Norilsk           277.281
       162   02 Jun 2027 11:55:26.485   02 Jun 2027 11:56:06.558            40.073                Norilsk          1252.281
       163   02 Jun 2027 12:33:45.387   02 Jun 2027 12:34:39.929            54.542            RioGallegos          1704.438
       164   02 Jun 2027 12:37:55.201   02 Jun 2027 12:38:15.411            20.210            RioGallegos           631.563
       165   02 Jun 2027 13:09:49.918   02 Jun 2027 13:11:13.288            83.370                Sumatra          2605.313
       166   02 Jun 2027 13:16:02.917   02 Jun 2027 13:17:14.996            72.079                  Delhi          2252.469
       167   02 Jun 2027 13:21:53.969   02 Jun 2027 13:22:45.615            51.646                Novosib          1613.938
       168   02 Jun 2027 13:23:47.506   02 Jun 2027 13:25:03.866            76.360                Novosib          2386.250
       169   02 Jun 2027 13:25:49.438   02 Jun 2027 13:25:51.332             1.894                Norilsk            59.187
       170   02 Jun 2027 13:25:54.768   02 Jun 2027 13:26:27.622            32.854                Irkutsk          1026.687
       171   02 Jun 2027 13:26:30.398   02 Jun 2027 13:27:24.888            54.490                Norilsk          1702.813
       172   02 Jun 2027 13:35:16.116   02 Jun 2027 13:35:34.997            18.881                Norilsk           590.031
       173   02 Jun 2027 13:37:36.595   02 Jun 2027 13:37:43.174             6.579              Murmansk1           205.594
       174   02 Jun 2027 14:57:19.023   02 Jun 2027 15:01:04.531           225.508                 Moscow          7047.125
       175   02 Jun 2027 15:02:01.165   02 Jun 2027 15:03:01.503            60.338              Murmansk2          1885.563
       176   02 Jun 2027 15:04:05.376   02 Jun 2027 15:04:19.751            14.375              Murmansk1           449.219
       177   02 Jun 2027 15:04:30.798   02 Jun 2027 15:06:28.156           117.358                Norilsk          3667.437
       178   02 Jun 2027 15:08:30.300   02 Jun 2027 15:08:46.131            15.831                Norilsk           494.719
       179   02 Jun 2027 15:09:02.526   02 Jun 2027 15:09:26.850            24.324                Norilsk           760.125
       180   02 Jun 2027 16:12:02.795   02 Jun 2027 16:15:00.156           177.361               CapeTown          5542.531
       181   02 Jun 2027 16:36:34.051   02 Jun 2027 16:37:16.078            42.027                 Moscow          1313.344
       182   02 Jun 2027 16:37:57.346   02 Jun 2027 16:38:18.714            21.368              Murmansk1           667.750
       183   02 Jun 2027 16:41:41.132   02 Jun 2027 16:41:47.146             6.014              Murmansk2           187.937
       184   02 Jun 2027 16:42:07.945   02 Jun 2027 16:42:09.378             1.433              Murmansk1            44.781
       185   02 Jun 2027 16:44:02.361   02 Jun 2027 16:44:39.938            37.577              Murmansk2          1174.281
       186   02 Jun 2027 16:51:50.291   02 Jun 2027 16:53:09.858            79.567                Anadyr2          2486.469
       187   02 Jun 2027 16:53:55.510   02 Jun 2027 16:54:26.661            31.151                Anadyr2           973.469
       188   02 Jun 2027 16:54:26.661   02 Jun 2027 16:54:47.324            20.663                Anadyr1           645.719
       189   02 Jun 2027 16:58:35.816   02 Jun 2027 16:59:00.752            24.936                Anadyr1           779.250
       190   02 Jun 2027 17:00:37.322   02 Jun 2027 17:00:47.490            10.168                Anadyr1           317.750
       191   02 Jun 2027 17:00:47.490   02 Jun 2027 17:01:07.829            20.339                Anadyr2           635.594
       192   02 Jun 2027 17:46:46.503   02 Jun 2027 17:47:12.124            25.621               CapeTown           800.656
       193   02 Jun 2027 17:48:49.581   02 Jun 2027 17:48:57.803             8.222               CapeTown           256.938
       194   02 Jun 2027 17:55:01.613   02 Jun 2027 17:55:10.734             9.121               CapeTown           285.031
       195   02 Jun 2027 17:55:45.571   02 Jun 2027 17:56:26.010            40.439               CapeTown          1263.719
       196   02 Jun 2027 18:16:55.753   02 Jun 2027 18:17:44.474            48.721              Murmansk1          1522.531
       197   02 Jun 2027 18:18:04.520   02 Jun 2027 18:19:23.428            78.908              Murmansk2          2465.875
       198   02 Jun 2027 18:19:29.337   02 Jun 2027 18:20:01.705            32.368              Murmansk2          1011.500
       199   02 Jun 2027 18:21:07.139   02 Jun 2027 18:21:46.860            39.721              Murmansk1          1241.281
       200   02 Jun 2027 18:21:46.860   02 Jun 2027 18:22:14.617            27.757              Murmansk2           867.406
       201   02 Jun 2027 18:23:26.177   02 Jun 2027 18:23:52.991            26.814              Murmansk1           837.938
       202   02 Jun 2027 18:30:07.537   02 Jun 2027 18:30:11.777             4.240                Anadyr1           132.500
       203   02 Jun 2027 18:30:52.459   02 Jun 2027 18:31:30.705            38.246               Magadan2          1195.187
       204   02 Jun 2027 18:32:02.969   02 Jun 2027 18:32:35.302            32.333               Magadan1          1010.406
       205   02 Jun 2027 18:33:27.542   02 Jun 2027 18:34:01.164            33.622               Magadan1          1050.688
       206   02 Jun 2027 19:26:10.622   02 Jun 2027 19:26:43.523            32.901               CapeTown          1028.156
       207   02 Jun 2027 19:28:46.420   02 Jun 2027 19:29:21.489            35.069               CapeTown          1095.906
       208   02 Jun 2027 20:03:16.587   02 Jun 2027 20:04:56.353            99.766                Anadyr2          3117.688
       209   02 Jun 2027 20:05:21.128   02 Jun 2027 20:07:45.216           144.088                Anadyr1          4502.750
       210   02 Jun 2027 20:07:53.159   02 Jun 2027 20:09:49.112           115.953               Magadan1          3623.531
       211   02 Jun 2027 20:13:35.773   02 Jun 2027 20:13:44.112             8.339               Magadan2           260.594
       212   02 Jun 2027 20:13:55.771   02 Jun 2027 20:14:02.294             6.523               Magadan2           203.844
       213   02 Jun 2027 20:14:11.854   02 Jun 2027 20:14:43.957            32.103               Magadan2          1003.219
       214   02 Jun 2027 21:39:08.700   02 Jun 2027 21:42:48.338           219.638                Anadyr2          6863.687
       215   02 Jun 2027 21:42:55.096   02 Jun 2027 21:45:02.839           127.743               Magadan2          3991.969
       216   02 Jun 2027 21:45:02.839   02 Jun 2027 21:45:34.644            31.805               Magadan1           993.906
       217   02 Jun 2027 21:46:02.779   02 Jun 2027 21:46:50.395            47.616               Magadan1          1488.000
       218   02 Jun 2027 21:46:50.720   02 Jun 2027 21:47:22.049            31.329                Irkutsk           979.031
       219   02 Jun 2027 21:48:05.526   02 Jun 2027 21:48:49.036            43.510                Irkutsk          1359.688
       220   02 Jun 2027 21:52:01.867   02 Jun 2027 21:52:35.387            33.520                Irkutsk          1047.500
       221   02 Jun 2027 22:03:04.931   02 Jun 2027 22:04:11.313            66.382                Sumatra          2074.438
       222   02 Jun 2027 22:33:18.364   02 Jun 2027 22:33:28.961            10.597            RioGallegos           331.156
       223   02 Jun 2027 22:40:36.071   02 Jun 2027 22:41:07.579            31.508            RioGallegos           984.625
       224   02 Jun 2027 22:41:45.595   02 Jun 2027 22:42:33.845            48.250            RioGallegos          1507.813
       225   02 Jun 2027 23:14:34.175   02 Jun 2027 23:15:07.480            33.305                Anadyr1          1040.781
       226   02 Jun 2027 23:15:33.149   02 Jun 2027 23:16:43.483            70.334                Anadyr1          2197.938
       227   02 Jun 2027 23:17:00.021   02 Jun 2027 23:17:04.060             4.039                Norilsk           126.219
       228   02 Jun 2027 23:17:20.919   02 Jun 2027 23:18:45.138            84.219                Norilsk          2631.844
       229   02 Jun 2027 23:18:50.617   02 Jun 2027 23:19:57.487            66.870               Magadan2          2089.687
       230   02 Jun 2027 23:21:58.592   02 Jun 2027 23:22:42.111            43.519                Novosib          1359.969
       231   02 Jun 2027 23:24:13.850   02 Jun 2027 23:24:43.915            30.065                Novosib           939.531
       232   02 Jun 2027 23:27:54.190   02 Jun 2027 23:28:07.392            13.202                Novosib           412.562
       233   02 Jun 2027 23:34:42.527   02 Jun 2027 23:35:10.115            27.588                Sumatra           862.125
       234   02 Jun 2027 23:37:31.249   02 Jun 2027 23:37:52.089            20.840                Sumatra           651.250
       235   02 Jun 2027 23:38:57.417   02 Jun 2027 23:39:16.549            19.132                Sumatra           597.875
       236   02 Jun 2027 23:43:38.451   02 Jun 2027 23:44:07.560            29.109                Sumatra           909.656
       237   03 Jun 2027 00:10:19.668   03 Jun 2027 00:10:59.956            40.288            RioGallegos          1259.000
       238   03 Jun 2027 00:16:05.352   03 Jun 2027 00:16:46.365            41.013            RioGallegos          1281.656
       239   03 Jun 2027 00:48:55.945   03 Jun 2027 00:50:03.373            67.428                Anadyr1          2107.125
       240   03 Jun 2027 00:50:56.462   03 Jun 2027 00:51:09.348            12.886                Anadyr2           402.687
       241   03 Jun 2027 00:52:59.969   03 Jun 2027 00:53:01.403             1.434                Norilsk            44.813
       242   03 Jun 2027 00:53:33.968   03 Jun 2027 00:53:39.281             5.313                Norilsk           166.031
       243   03 Jun 2027 00:53:39.756   03 Jun 2027 00:55:02.137            82.381                Norilsk          2574.406
       244   03 Jun 2027 00:55:41.199   03 Jun 2027 00:55:45.288             4.089               Magadan1           127.781
       245   03 Jun 2027 00:56:08.606   03 Jun 2027 00:56:45.873            37.267                Norilsk          1164.594
       246   03 Jun 2027 00:56:50.929   03 Jun 2027 00:59:19.928           148.999                Novosib          4656.219
       247   03 Jun 2027 01:03:50.926   03 Jun 2027 01:04:02.774            11.848                Novosib           370.250
       248   03 Jun 2027 01:04:09.398   03 Jun 2027 01:04:52.467            43.069                Novosib          1345.906
       249   03 Jun 2027 01:06:18.860   03 Jun 2027 01:06:56.831            37.971                  Delhi          1186.594
       250   03 Jun 2027 01:16:08.255   03 Jun 2027 01:16:41.461            33.206                  Delhi          1037.688
       251   03 Jun 2027 01:45:42.587   03 Jun 2027 01:46:11.493            28.906            RioGallegos           903.313
       252   03 Jun 2027 01:47:13.392   03 Jun 2027 01:48:13.652            60.260            RioGallegos          1883.125
       253   03 Jun 2027 01:52:29.895   03 Jun 2027 01:52:53.341            23.446            RioGallegos           732.688
       254   03 Jun 2027 02:22:40.211   03 Jun 2027 02:23:01.725            21.514                Anadyr2           672.312
       255   03 Jun 2027 02:23:58.709   03 Jun 2027 02:24:10.701            11.992                Anadyr2           374.750
       256   03 Jun 2027 02:24:42.189   03 Jun 2027 02:24:56.576            14.387                Anadyr2           449.594
       257   03 Jun 2027 02:25:16.148   03 Jun 2027 02:25:38.624            22.476                Anadyr1           702.375
       258   03 Jun 2027 02:28:29.521   03 Jun 2027 02:28:53.736            24.215               Magadan1           756.719
       259   03 Jun 2027 02:28:53.736   03 Jun 2027 02:29:25.302            31.566               Magadan2           986.437
       260   03 Jun 2027 02:30:02.787   03 Jun 2027 02:30:07.952             5.165               Magadan2           161.406
       261   03 Jun 2027 02:30:26.857   03 Jun 2027 02:31:02.815            35.958                Norilsk          1123.687
       262   03 Jun 2027 02:31:12.714   03 Jun 2027 02:32:51.827            99.113              Murmansk2          3097.281
       263   03 Jun 2027 02:32:53.683   03 Jun 2027 02:33:30.540            36.857              Murmansk1          1151.781
       264   03 Jun 2027 02:37:15.708   03 Jun 2027 02:38:05.947            50.239                Novosib          1569.969
       265   03 Jun 2027 02:45:10.223   03 Jun 2027 02:46:26.545            76.322                  Delhi          2385.063
       266   03 Jun 2027 03:56:44.995   03 Jun 2027 03:56:51.057             6.062                Anadyr1           189.438
       267   03 Jun 2027 04:14:49.647   03 Jun 2027 04:16:38.901           109.254                Novosib          3414.188
       268   03 Jun 2027 04:17:04.095   03 Jun 2027 04:19:38.779           154.684              Murmansk1          4833.875
       269   03 Jun 2027 04:43:07.799   03 Jun 2027 04:43:49.293            41.494               CapeTown          1296.687
       270   03 Jun 2027 04:44:38.047   03 Jun 2027 04:46:43.135           125.088               CapeTown          3909.000
       271   03 Jun 2027 05:37:54.421   03 Jun 2027 05:41:18.826           204.405                Anadyr2          6387.656
       272   03 Jun 2027 05:41:25.704   03 Jun 2027 05:41:32.751             7.047               Magadan2           220.219
       273   03 Jun 2027 05:42:45.681   03 Jun 2027 05:43:08.861            23.180                Anadyr1           724.375
       274   03 Jun 2027 05:43:29.954   03 Jun 2027 05:43:53.247            23.293                Anadyr1           727.906
       275   03 Jun 2027 07:13:28.053   03 Jun 2027 07:14:14.633            46.580                Anadyr1          1455.625
       276   03 Jun 2027 07:14:40.670   03 Jun 2027 07:16:02.560            81.890                Anadyr2          2559.063
       277   03 Jun 2027 07:16:12.479   03 Jun 2027 07:16:16.291             3.812               Magadan2           119.125
       278   03 Jun 2027 07:16:16.291   03 Jun 2027 07:17:23.732            67.441               Magadan1          2107.531
       279   03 Jun 2027 07:17:31.642   03 Jun 2027 07:17:53.129            21.487                Anadyr2           671.469
       280   03 Jun 2027 08:45:53.439   03 Jun 2027 08:46:36.691            43.252               Magadan1          1351.625
       281   03 Jun 2027 08:47:52.857   03 Jun 2027 08:48:10.705            17.848               Magadan2           557.750
       282   03 Jun 2027 08:49:17.609   03 Jun 2027 08:49:27.221             9.612               Magadan2           300.375
       283   03 Jun 2027 08:49:51.352   03 Jun 2027 08:50:23.928            32.576               Magadan1          1018.000
       284   03 Jun 2027 08:51:38.139   03 Jun 2027 08:52:29.452            51.313               Magadan2          1603.531
       285   03 Jun 2027 08:52:43.777   03 Jun 2027 08:52:53.734             9.957                Anadyr1           311.156
       286   03 Jun 2027 08:52:54.549   03 Jun 2027 08:53:12.134            17.585                Norilsk           549.531
       287   03 Jun 2027 08:53:18.029   03 Jun 2027 08:53:29.996            11.967                Norilsk           373.969
       288   03 Jun 2027 08:53:43.504   03 Jun 2027 08:54:22.534            39.030               Magadan1          1219.688
       289   03 Jun 2027 08:54:22.534   03 Jun 2027 08:54:48.739            26.205               Magadan2           818.906
       290   03 Jun 2027 08:55:19.850   03 Jun 2027 08:55:26.762             6.912                Norilsk           216.000
       291   03 Jun 2027 09:30:25.336   03 Jun 2027 09:30:51.987            26.651            RioGallegos           832.844
       292   03 Jun 2027 09:32:37.361   03 Jun 2027 09:33:02.432            25.071            RioGallegos           783.469
       293   03 Jun 2027 09:34:44.408   03 Jun 2027 09:34:50.761             6.353            RioGallegos           198.531
       294   03 Jun 2027 09:38:54.603   03 Jun 2027 09:39:50.440            55.837            RioGallegos          1744.906
       295   03 Jun 2027 10:08:15.349   03 Jun 2027 10:09:36.611            81.262                Sumatra          2539.437
       296   03 Jun 2027 10:25:40.824   03 Jun 2027 10:26:40.886            60.062               Magadan2          1876.938
       297   03 Jun 2027 10:26:46.265   03 Jun 2027 10:27:22.739            36.474                Irkutsk          1139.813
       298   03 Jun 2027 10:27:47.759   03 Jun 2027 10:27:58.619            10.860                Irkutsk           339.375
       299   03 Jun 2027 10:28:17.018   03 Jun 2027 10:28:22.795             5.777                Norilsk           180.531
       300   03 Jun 2027 10:29:04.717   03 Jun 2027 10:29:05.544             0.827                Irkutsk            25.844
       301   03 Jun 2027 10:29:12.786   03 Jun 2027 10:29:27.887            15.101                Novosib           471.906
       302   03 Jun 2027 10:30:02.785   03 Jun 2027 10:30:35.891            33.106                Novosib          1034.563
       303   03 Jun 2027 10:30:42.602   03 Jun 2027 10:30:54.934            12.332                Novosib           385.375
       304   03 Jun 2027 10:31:12.845   03 Jun 2027 10:32:05.804            52.959                Novosib          1654.969
       305   03 Jun 2027 11:06:09.921   03 Jun 2027 11:06:25.713            15.792            RioGallegos           493.500
       306   03 Jun 2027 11:09:00.069   03 Jun 2027 11:09:33.681            33.612            RioGallegos          1050.375
       307   03 Jun 2027 11:40:44.106   03 Jun 2027 11:42:37.501           113.395                Sumatra          3543.594
       308   03 Jun 2027 12:47:04.365   03 Jun 2027 12:48:57.538           113.173            RioGallegos          3536.656
       309   03 Jun 2027 13:33:06.128   03 Jun 2027 13:34:40.753            94.625                Novosib          2957.031
       310   03 Jun 2027 13:35:04.341   03 Jun 2027 13:35:45.329            40.988                Novosib          1280.875
       311   03 Jun 2027 13:37:03.586   03 Jun 2027 13:38:02.246            58.660                Novosib          1833.125
       312   03 Jun 2027 13:39:39.537   03 Jun 2027 13:40:41.039            61.502                Novosib          1921.937
       313   03 Jun 2027 13:46:22.431   03 Jun 2027 13:46:43.707            21.276                Norilsk           664.875
       314   03 Jun 2027 15:09:19.058   03 Jun 2027 15:12:31.526           192.468                 Moscow          6014.625
       315   03 Jun 2027 15:12:47.589   03 Jun 2027 15:14:03.073            75.484              Murmansk2          2358.875
       316   03 Jun 2027 15:17:15.058   03 Jun 2027 15:20:11.663           176.605                Norilsk          5518.906
       317   03 Jun 2027 15:21:54.535   03 Jun 2027 15:22:20.929            26.394                Norilsk           824.813
       318   03 Jun 2027 16:26:49.697   03 Jun 2027 16:27:06.011            16.314               CapeTown           509.813
       319   03 Jun 2027 16:27:43.253   03 Jun 2027 16:28:20.840            37.587               CapeTown          1174.594
       320   03 Jun 2027 16:33:05.911   03 Jun 2027 16:33:32.112            26.201               CapeTown           818.781
       321   03 Jun 2027 16:46:59.537   03 Jun 2027 16:47:42.620            43.083                 Moscow          1346.344
       322   03 Jun 2027 16:50:01.161   03 Jun 2027 16:51:22.103            80.942              Murmansk2          2529.437
       323   03 Jun 2027 16:56:04.420   03 Jun 2027 16:57:19.133            74.713              Murmansk2          2334.781
       324   03 Jun 2027 17:03:45.441   03 Jun 2027 17:04:57.554            72.113                Anadyr2          2253.531
       325   03 Jun 2027 17:10:11.614   03 Jun 2027 17:10:37.172            25.558                Anadyr2           798.687
       326   03 Jun 2027 17:12:23.955   03 Jun 2027 17:12:31.936             7.981                Anadyr1           249.406
       327   03 Jun 2027 17:12:53.750   03 Jun 2027 17:13:08.504            14.754                Anadyr1           461.062
       328   03 Jun 2027 17:59:53.185   03 Jun 2027 18:00:53.660            60.475               CapeTown          1889.844
       329   03 Jun 2027 18:09:29.345   03 Jun 2027 18:10:06.132            36.787               CapeTown          1149.594
       330   03 Jun 2027 18:29:34.984   03 Jun 2027 18:33:45.944           250.960              Murmansk2          7842.500
       331   03 Jun 2027 18:34:17.426   03 Jun 2027 18:35:09.979            52.553              Murmansk1          1642.281
       332   03 Jun 2027 18:43:26.332   03 Jun 2027 18:43:31.076             4.744               Magadan1           148.250
       333   03 Jun 2027 18:44:44.042   03 Jun 2027 18:45:13.542            29.500               Magadan1           921.875
       334   03 Jun 2027 18:48:01.884   03 Jun 2027 18:48:33.937            32.053               Magadan2          1001.656
       335   03 Jun 2027 20:15:18.233   03 Jun 2027 20:19:03.264           225.031                Anadyr2          7032.219
       336   03 Jun 2027 20:19:25.509   03 Jun 2027 20:21:20.557           115.048               Magadan2          3595.250
       337   03 Jun 2027 20:21:20.557   03 Jun 2027 20:21:56.034            35.477               Magadan1          1108.656
       338   03 Jun 2027 20:24:04.151   03 Jun 2027 20:24:32.141            27.990               Magadan1           874.687
       339   03 Jun 2027 20:25:40.438   03 Jun 2027 20:25:54.011            13.573               Magadan2           424.156
       340   03 Jun 2027 20:26:21.540   03 Jun 2027 20:27:30.341            68.801               Magadan2          2150.031
       341   03 Jun 2027 21:11:57.917   03 Jun 2027 21:13:58.428           120.511            RioGallegos          3765.969
       342   03 Jun 2027 21:51:08.547   03 Jun 2027 21:52:29.454            80.907                Anadyr2          2528.344
       343   03 Jun 2027 21:52:31.300   03 Jun 2027 21:52:37.093             5.793                Anadyr2           181.031
       344   03 Jun 2027 21:52:49.926   03 Jun 2027 21:53:21.463            31.537                Anadyr2           985.531
       345   03 Jun 2027 21:53:31.426   03 Jun 2027 21:54:56.360            84.934               Magadan1          2654.188
       346   03 Jun 2027 21:54:56.360   03 Jun 2027 21:55:20.931            24.571               Magadan2           767.844
       347   03 Jun 2027 21:55:42.390   03 Jun 2027 21:55:46.224             3.834                Norilsk           119.813
       348   03 Jun 2027 21:55:54.875   03 Jun 2027 21:56:43.474            48.599                Norilsk          1518.719
       349   03 Jun 2027 21:58:22.269   03 Jun 2027 21:58:50.215            27.946                Irkutsk           873.312
       350   03 Jun 2027 21:59:58.659   03 Jun 2027 22:00:13.931            15.272                Irkutsk           477.250
       351   03 Jun 2027 22:01:28.593   03 Jun 2027 22:01:55.132            26.539                Irkutsk           829.344
       352   03 Jun 2027 22:04:03.882   03 Jun 2027 22:05:04.312            60.430                Irkutsk          1888.438
       353   03 Jun 2027 22:13:38.305   03 Jun 2027 22:15:24.640           106.335                Sumatra          3322.969
       354   03 Jun 2027 23:26:28.177   03 Jun 2027 23:27:14.542            46.365                Anadyr2          1448.906
       355   03 Jun 2027 23:27:18.955   03 Jun 2027 23:28:32.501            73.546                Anadyr2          2298.313
       356   03 Jun 2027 23:29:09.363   03 Jun 2027 23:29:18.108             8.745                Anadyr2           273.281
       357   03 Jun 2027 23:29:34.191   03 Jun 2027 23:29:50.286            16.095                Anadyr2           502.969
       358   03 Jun 2027 23:29:57.550   03 Jun 2027 23:31:29.195            91.645               Magadan2          2863.906
       359   03 Jun 2027 23:33:43.543   03 Jun 2027 23:34:40.286            56.743                Novosib          1773.219
       360   03 Jun 2027 23:36:03.181   03 Jun 2027 23:37:02.939            59.758                Novosib          1867.438
       361   03 Jun 2027 23:42:32.340   03 Jun 2027 23:42:59.839            27.499                Novosib           859.344
       362   03 Jun 2027 23:44:29.580   03 Jun 2027 23:45:37.010            67.430                  Delhi          2107.187
       363   03 Jun 2027 23:55:29.260   03 Jun 2027 23:55:36.461             7.201                Sumatra           225.031
       364   03 Jun 2027 23:56:49.117   03 Jun 2027 23:58:36.676           107.559                Sumatra          3361.219
       365   04 Jun 2027 01:00:40.133   04 Jun 2027 01:01:02.324            22.191                Anadyr2           693.469
       366   04 Jun 2027 01:01:39.782   04 Jun 2027 01:02:25.269            45.487                Anadyr1          1421.469
       367   04 Jun 2027 01:02:53.032   04 Jun 2027 01:03:04.072            11.040                Anadyr2           345.000
       368   04 Jun 2027 01:05:02.159   04 Jun 2027 01:05:02.575             0.416                Norilsk            13.000
       369   04 Jun 2027 01:05:39.276   04 Jun 2027 01:06:27.880            48.604               Magadan1          1518.875
       370   04 Jun 2027 01:06:27.959   04 Jun 2027 01:07:16.739            48.780               Magadan2          1524.375
       371   04 Jun 2027 01:07:44.093   04 Jun 2027 01:08:56.549            72.456               Magadan1          2264.250
       372   04 Jun 2027 01:09:02.116   04 Jun 2027 01:09:09.919             7.803                Irkutsk           243.844
       373   04 Jun 2027 01:09:38.534   04 Jun 2027 01:09:48.260             9.726              Murmansk1           303.938
       374   04 Jun 2027 01:09:57.483   04 Jun 2027 01:12:02.944           125.461                Novosib          3920.656
       375   04 Jun 2027 01:18:38.249   04 Jun 2027 01:19:02.891            24.642                  Delhi           770.063
       376   04 Jun 2027 01:22:13.308   04 Jun 2027 01:23:02.200            48.892                  Delhi          1527.875
       377   04 Jun 2027 01:57:58.025   04 Jun 2027 01:59:22.404            84.379            RioGallegos          2636.844
       378   04 Jun 2027 02:00:32.826   04 Jun 2027 02:00:39.899             7.073            RioGallegos           221.031
       379   04 Jun 2027 02:00:58.271   04 Jun 2027 02:02:34.705            96.434            RioGallegos          3013.562
       380   04 Jun 2027 02:40:06.666   04 Jun 2027 02:40:55.680            49.014               Magadan2          1531.688
       381   04 Jun 2027 02:40:58.445   04 Jun 2027 02:41:01.823             3.378                Norilsk           105.562
       382   04 Jun 2027 02:41:23.726   04 Jun 2027 02:41:56.571            32.845               Magadan2          1026.406
       383   04 Jun 2027 02:43:12.825   04 Jun 2027 02:44:40.177            87.352              Murmansk1          2729.750
       384   04 Jun 2027 02:44:40.177   04 Jun 2027 02:44:53.322            13.145              Murmansk2           410.781
       385   04 Jun 2027 02:44:55.003   04 Jun 2027 02:45:56.350            61.347                Novosib          1917.094
       386   04 Jun 2027 02:51:02.748   04 Jun 2027 02:51:35.963            33.215                Irkutsk          1037.969
       387   04 Jun 2027 02:53:39.844   04 Jun 2027 02:53:59.511            19.667                  Delhi           614.594
       388   04 Jun 2027 02:58:47.177   04 Jun 2027 02:59:16.911            29.734                  Delhi           929.187
       389   04 Jun 2027 02:59:46.703   04 Jun 2027 03:00:00.927            14.224                  Delhi           444.500
       390   04 Jun 2027 04:26:36.865   04 Jun 2027 04:27:03.443            26.578                Norilsk           830.563
       391   04 Jun 2027 04:27:10.888   04 Jun 2027 04:28:18.941            68.053                Norilsk          2126.656
       392   04 Jun 2027 04:28:43.943   04 Jun 2027 04:30:38.671           114.728              Murmansk2          3585.250
       393   04 Jun 2027 04:30:38.671   04 Jun 2027 04:31:35.480            56.809              Murmansk1          1775.281
       394   04 Jun 2027 05:50:03.488   04 Jun 2027 05:51:42.622            99.134                Anadyr2          3097.937
       395   04 Jun 2027 05:51:50.491   04 Jun 2027 05:52:15.034            24.543               Magadan1           766.969
       396   04 Jun 2027 05:53:01.786   04 Jun 2027 05:54:42.710           100.924                Anadyr2          3153.875
       397   04 Jun 2027 07:27:17.995   04 Jun 2027 07:27:41.450            23.455               Magadan2           732.969
       398   04 Jun 2027 07:27:46.585   04 Jun 2027 07:28:12.436            25.851               Magadan1           807.844
       399   04 Jun 2027 07:28:12.436   04 Jun 2027 07:29:23.890            71.454               Magadan2          2232.937
       400   04 Jun 2027 09:00:21.991   04 Jun 2027 09:00:31.146             9.155               Magadan2           286.094
       401   04 Jun 2027 09:01:03.358   04 Jun 2027 09:01:53.619            50.261               Magadan1          1570.656
       402   04 Jun 2027 09:02:06.934   04 Jun 2027 09:03:19.413            72.479                Anadyr2          2264.969
       403   04 Jun 2027 09:03:37.412   04 Jun 2027 09:04:23.431            46.019               Magadan1          1438.094
       404   04 Jun 2027 09:04:35.125   04 Jun 2027 09:05:32.394            57.269               Magadan2          1789.656
       405   04 Jun 2027 09:05:40.871   04 Jun 2027 09:05:46.555             5.684                Anadyr1           177.625
       406   04 Jun 2027 09:05:46.555   04 Jun 2027 09:05:50.495             3.940                Anadyr2           123.125
       407   04 Jun 2027 09:06:05.539   04 Jun 2027 09:06:58.989            53.450              Murmansk1          1670.312
       408   04 Jun 2027 09:07:06.281   04 Jun 2027 09:07:08.910             2.629              Murmansk1            82.156
       409   04 Jun 2027 09:42:14.031   04 Jun 2027 09:43:20.277            66.246            RioGallegos          2070.188
       410   04 Jun 2027 09:53:21.653   04 Jun 2027 09:53:34.553            12.900            RioGallegos           403.125
       411   04 Jun 2027 10:19:08.614   04 Jun 2027 10:20:54.214           105.600                Sumatra          3300.000
       412   04 Jun 2027 10:37:33.904   04 Jun 2027 10:37:39.053             5.149               Magadan1           160.906
       413   04 Jun 2027 10:37:39.053   04 Jun 2027 10:38:24.051            44.998               Magadan2          1406.188
       414   04 Jun 2027 10:38:24.051   04 Jun 2027 10:39:31.575            67.524               Magadan1          2110.125
       415   04 Jun 2027 10:39:53.069   04 Jun 2027 10:39:56.889             3.820                Irkutsk           119.375
       416   04 Jun 2027 10:40:29.568   04 Jun 2027 10:40:35.028             5.460               Magadan1           170.625
       417   04 Jun 2027 10:40:44.628   04 Jun 2027 10:41:09.728            25.100                Norilsk           784.375
       418   04 Jun 2027 10:41:13.310   04 Jun 2027 10:41:52.630            39.320                Irkutsk          1228.750
       419   04 Jun 2027 10:42:14.552   04 Jun 2027 10:42:35.362            20.810                Novosib           650.313
       420   04 Jun 2027 10:42:36.875   04 Jun 2027 10:43:13.785            36.910                Irkutsk          1153.438
       421   04 Jun 2027 11:18:56.143   04 Jun 2027 11:19:23.920            27.777            RioGallegos           868.031
       422   04 Jun 2027 11:19:55.955   04 Jun 2027 11:20:56.945            60.990            RioGallegos          1905.937
       423   04 Jun 2027 11:53:04.965   04 Jun 2027 11:55:05.634           120.669                Sumatra          3770.906
       424   04 Jun 2027 12:20:08.998   04 Jun 2027 12:20:24.373            15.375                Norilsk           480.469
       425   04 Jun 2027 13:37:26.897   04 Jun 2027 13:38:12.792            45.895                  Delhi          1434.219
       426   04 Jun 2027 13:38:26.847   04 Jun 2027 13:39:03.004            36.157                  Delhi          1129.906
       427   04 Jun 2027 13:39:42.231   04 Jun 2027 13:41:59.566           137.335                  Delhi          4291.719
       428   04 Jun 2027 13:45:35.540   04 Jun 2027 13:46:26.294            50.754                Novosib          1586.063
       429   04 Jun 2027 13:47:46.026   04 Jun 2027 13:49:02.410            76.384                Novosib          2387.000
       430   04 Jun 2027 13:49:31.220   04 Jun 2027 13:50:07.121            35.901                Norilsk          1121.906
       431   04 Jun 2027 13:51:28.123   04 Jun 2027 13:52:02.801            34.678                Norilsk          1083.687
       432   04 Jun 2027 13:54:16.755   04 Jun 2027 13:54:17.470             0.715                Norilsk            22.344
       433   04 Jun 2027 13:56:24.969   04 Jun 2027 13:57:45.389            80.420                Norilsk          2513.125
       434   04 Jun 2027 15:21:22.016   04 Jun 2027 15:23:37.851           135.835                 Moscow          4244.844
       435   04 Jun 2027 15:24:20.581   04 Jun 2027 15:24:39.286            18.705                 Moscow           584.531
       436   04 Jun 2027 15:24:52.709   04 Jun 2027 15:26:04.949            72.240              Murmansk1          2257.500
       437   04 Jun 2027 15:30:04.298   04 Jun 2027 15:32:09.102           124.804                Norilsk          3900.125
       438   04 Jun 2027 15:33:02.839   04 Jun 2027 15:34:21.806            78.967                Norilsk          2467.719
       439   04 Jun 2027 16:38:42.946   04 Jun 2027 16:39:25.207            42.261               CapeTown          1320.656
       440   04 Jun 2027 16:46:38.340   04 Jun 2027 16:46:46.139             7.799               CapeTown           243.719
       441   04 Jun 2027 16:59:33.245   04 Jun 2027 17:00:01.246            28.001                 Moscow           875.031
       442   04 Jun 2027 17:00:40.602   04 Jun 2027 17:01:02.008            21.406                 Moscow           668.937
       443   04 Jun 2027 17:02:31.328   04 Jun 2027 17:03:05.765            34.437                 Moscow          1076.156
       444   04 Jun 2027 17:03:08.943   04 Jun 2027 17:04:07.384            58.441              Murmansk1          1826.281
       445   04 Jun 2027 17:09:58.559   04 Jun 2027 17:10:24.914            26.355              Murmansk1           823.594
       446   04 Jun 2027 17:15:42.023   04 Jun 2027 17:17:57.493           135.470                Anadyr1          4233.437
       447   04 Jun 2027 18:11:31.442   04 Jun 2027 18:11:58.653            27.211               CapeTown           850.344
       448   04 Jun 2027 18:13:28.745   04 Jun 2027 18:15:20.337           111.592               CapeTown          3487.250
       449   04 Jun 2027 18:42:18.297   04 Jun 2027 18:45:44.078           205.781              Murmansk1          6430.656
       450   04 Jun 2027 18:45:44.078   04 Jun 2027 18:46:26.488            42.410              Murmansk2          1325.313
       451   04 Jun 2027 18:54:59.843   04 Jun 2027 18:55:06.657             6.814               Magadan1           212.938
       452   04 Jun 2027 18:55:28.936   04 Jun 2027 18:55:50.458            21.522               Magadan1           672.563
       453   04 Jun 2027 18:56:49.102   04 Jun 2027 18:57:46.700            57.598               Magadan1          1799.937
       454   04 Jun 2027 20:27:19.797   04 Jun 2027 20:29:24.646           124.849                Anadyr1          3901.531
       455   04 Jun 2027 20:29:37.484   04 Jun 2027 20:32:20.752           163.268               Magadan1          5102.125
       456   04 Jun 2027 20:32:39.496   04 Jun 2027 20:32:50.142            10.646               Magadan2           332.688
       457   04 Jun 2027 20:32:59.222   04 Jun 2027 20:33:34.522            35.300               Magadan2          1103.125
       458   04 Jun 2027 20:33:37.628   04 Jun 2027 20:33:45.980             8.352               Magadan1           261.000
       459   04 Jun 2027 20:34:15.788   04 Jun 2027 20:34:59.431            43.643               Magadan2          1363.844
       460   04 Jun 2027 20:36:37.925   04 Jun 2027 20:36:51.920            13.995               Magadan2           437.344
       461   04 Jun 2027 20:38:53.775   04 Jun 2027 20:39:07.985            14.210               Magadan2           444.063
       462   04 Jun 2027 21:23:06.404   04 Jun 2027 21:25:49.376           162.972            RioGallegos          5092.875
       463   04 Jun 2027 21:28:08.191   04 Jun 2027 21:28:31.943            23.752            RioGallegos           742.250
       464   04 Jun 2027 22:03:07.943   04 Jun 2027 22:05:31.111           143.168                Anadyr1          4474.000
       465   04 Jun 2027 22:05:32.761   04 Jun 2027 22:06:09.304            36.543                Norilsk          1141.969
       466   04 Jun 2027 22:06:39.518   04 Jun 2027 22:06:44.969             5.451                Anadyr1           170.344
       467   04 Jun 2027 22:06:48.452   04 Jun 2027 22:07:08.339            19.887                Norilsk           621.469
       468   04 Jun 2027 22:07:33.941   04 Jun 2027 22:08:10.660            36.719                Norilsk          1147.469
       469   04 Jun 2027 22:08:12.157   04 Jun 2027 22:08:29.270            17.113                Norilsk           534.781
       470   04 Jun 2027 22:10:02.358   04 Jun 2027 22:10:47.693            45.335                Irkutsk          1416.719
       471   04 Jun 2027 22:12:23.139   04 Jun 2027 22:12:52.761            29.622                Irkutsk           925.688
       472   04 Jun 2027 22:24:44.037   04 Jun 2027 22:26:16.118            92.081                Sumatra          2877.531
       473   04 Jun 2027 22:28:45.282   04 Jun 2027 22:29:09.434            24.152                Sumatra           754.750
       474   04 Jun 2027 22:31:04.818   04 Jun 2027 22:32:10.925            66.107                Sumatra          2065.844
       475   04 Jun 2027 23:38:21.040   04 Jun 2027 23:38:52.538            31.498                Anadyr1           984.313
       476   04 Jun 2027 23:40:33.491   04 Jun 2027 23:40:45.935            12.444                Anadyr1           388.875
       477   04 Jun 2027 23:41:03.590   04 Jun 2027 23:42:49.290           105.700                Norilsk          3303.125
       478   04 Jun 2027 23:42:57.153   04 Jun 2027 23:44:36.313            99.160               Magadan2          3098.750
       479   04 Jun 2027 23:44:57.725   04 Jun 2027 23:46:00.164            62.439                Irkutsk          1951.219
       480   04 Jun 2027 23:46:22.524   04 Jun 2027 23:47:34.166            71.642                Novosib          2238.812
       481   04 Jun 2027 23:54:58.375   04 Jun 2027 23:57:02.192           123.817                  Delhi          3869.281
       482   05 Jun 2027 00:40:50.281   05 Jun 2027 00:40:53.430             3.149            RioGallegos            98.406
