uniorb/output/strategy_4/Drop/Drop_KinoSat_111401.txt

KinoSat_111401
-------------------------
    Access    *     Start Time (UTCG)     *     Stop Time (UTCG)  *   Duration (s)        *       Station  *  Data (Mbytes)
         1   01 Jun 2027 04:04:57.183   01 Jun 2027 04:05:45.563            48.380                Novosib          1511.875
         2   01 Jun 2027 04:05:59.554   01 Jun 2027 04:08:24.765           145.211              Murmansk1          4537.844
         3   01 Jun 2027 04:08:37.026   01 Jun 2027 04:09:11.214            34.188                 Moscow          1068.375
         4   01 Jun 2027 04:09:45.160   01 Jun 2027 04:10:02.988            17.828                 Moscow           557.125
         5   01 Jun 2027 05:27:22.158   01 Jun 2027 05:27:48.740            26.582               Magadan2           830.688
         6   01 Jun 2027 05:28:24.151   01 Jun 2027 05:31:29.999           185.848                Anadyr1          5807.750
         7   01 Jun 2027 05:31:32.511   01 Jun 2027 05:32:44.561            72.050               Magadan2          2251.563
         8   01 Jun 2027 07:04:19.687   01 Jun 2027 07:06:34.804           135.117                Anadyr1          4222.406
         9   01 Jun 2027 07:06:34.804   01 Jun 2027 07:08:30.301           115.497                Anadyr2          3609.281
        10   01 Jun 2027 07:12:33.829   01 Jun 2027 07:12:41.298             7.469                 Moscow           233.406
        11   01 Jun 2027 08:37:43.015   01 Jun 2027 08:39:47.646           124.631               Magadan1          3894.719
        12   01 Jun 2027 08:39:47.646   01 Jun 2027 08:42:50.857           183.211               Magadan2          5725.344
        13   01 Jun 2027 08:42:58.779   01 Jun 2027 08:43:31.105            32.326                Anadyr2          1010.187
        14   01 Jun 2027 08:43:41.774   01 Jun 2027 08:44:53.295            71.521                Novosib          2235.031
        15   01 Jun 2027 10:15:06.322   01 Jun 2027 10:16:59.064           112.742               Magadan2          3523.188
        16   01 Jun 2027 10:16:59.064   01 Jun 2027 10:17:37.753            38.689               Magadan1          1209.031
        17   01 Jun 2027 10:18:44.290   01 Jun 2027 10:19:28.129            43.839                Norilsk          1369.969
        18   01 Jun 2027 10:19:35.321   01 Jun 2027 10:20:26.081            50.760                Novosib          1586.250
        19   01 Jun 2027 10:20:26.584   01 Jun 2027 10:20:30.158             3.574                Irkutsk           111.687
        20   01 Jun 2027 10:20:40.846   01 Jun 2027 10:21:20.604            39.758              Murmansk1          1242.437
        21   01 Jun 2027 10:55:43.665   01 Jun 2027 10:58:11.664           147.999            RioGallegos          4624.969
        22   01 Jun 2027 11:30:08.135   01 Jun 2027 11:32:20.435           132.300                Sumatra          4134.375
        23   01 Jun 2027 11:51:30.938   01 Jun 2027 11:52:27.163            56.225                Irkutsk          1757.031
        24   01 Jun 2027 11:52:28.606   01 Jun 2027 11:53:36.328            67.722                Irkutsk          2116.312
        25   01 Jun 2027 11:54:25.541   01 Jun 2027 11:55:37.420            71.879                 Moscow          2246.219
        26   01 Jun 2027 11:55:44.075   01 Jun 2027 11:56:36.312            52.237                 Moscow          1632.406
        27   01 Jun 2027 11:56:38.168   01 Jun 2027 11:57:43.359            65.191              Murmansk2          2037.219
        28   01 Jun 2027 11:57:52.107   01 Jun 2027 11:57:58.384             6.277                Novosib           196.156
        29   01 Jun 2027 13:14:44.713   01 Jun 2027 13:15:29.342            44.629                  Delhi          1394.656
        30   01 Jun 2027 13:16:50.530   01 Jun 2027 13:19:14.526           143.996                  Delhi          4499.875
        31   01 Jun 2027 13:22:02.415   01 Jun 2027 13:23:09.022            66.607                  Delhi          2081.469
        32   01 Jun 2027 13:23:36.097   01 Jun 2027 13:23:59.297            23.200                Novosib           725.000
        33   01 Jun 2027 13:24:20.208   01 Jun 2027 13:24:38.947            18.739                  Delhi           585.594
        34   01 Jun 2027 13:25:15.130   01 Jun 2027 13:25:52.162            37.032                  Delhi          1157.250
        35   01 Jun 2027 13:25:54.337   01 Jun 2027 13:26:08.041            13.704                  Delhi           428.250
        36   01 Jun 2027 13:26:18.444   01 Jun 2027 13:27:17.513            59.069                Novosib          1845.906
        37   01 Jun 2027 13:27:49.115   01 Jun 2027 13:28:52.176            63.061                Norilsk          1970.656
        38   01 Jun 2027 13:30:11.171   01 Jun 2027 13:32:12.368           121.197                Novosib          3787.406
        39   01 Jun 2027 13:35:43.594   01 Jun 2027 13:37:24.437           100.843                Norilsk          3151.344
        40   01 Jun 2027 13:38:15.409   01 Jun 2027 13:38:32.659            17.250              Murmansk2           539.063
        41   01 Jun 2027 14:58:37.860   01 Jun 2027 15:01:48.375           190.515                 Moscow          5953.594
        42   01 Jun 2027 15:01:54.652   01 Jun 2027 15:02:39.685            45.033                 Moscow          1407.281
        43   01 Jun 2027 15:04:09.273   01 Jun 2027 15:04:59.032            49.759              Murmansk1          1554.969
        44   01 Jun 2027 15:06:27.396   01 Jun 2027 15:07:14.467            47.071              Murmansk2          1470.969
        45   01 Jun 2027 15:07:26.377   01 Jun 2027 15:10:57.973           211.596                Norilsk          6612.375
        46   01 Jun 2027 15:11:32.279   01 Jun 2027 15:11:40.067             7.788                Norilsk           243.375
        47   01 Jun 2027 15:11:49.235   01 Jun 2027 15:12:02.059            12.824                Norilsk           400.750
        48   01 Jun 2027 16:15:58.603   01 Jun 2027 16:16:34.515            35.912               CapeTown          1122.250
        49   01 Jun 2027 16:18:18.451   01 Jun 2027 16:19:32.119            73.668               CapeTown          2302.125
        50   01 Jun 2027 16:20:06.191   01 Jun 2027 16:22:02.248           116.057               CapeTown          3626.781
        51   01 Jun 2027 16:42:25.706   01 Jun 2027 16:42:31.196             5.490                 Moscow           171.563
        52   01 Jun 2027 16:42:47.809   01 Jun 2027 16:43:17.781            29.972                 Moscow           936.625
        53   01 Jun 2027 16:45:06.461   01 Jun 2027 16:45:28.468            22.007              Murmansk1           687.719
        54   01 Jun 2027 16:46:17.487   01 Jun 2027 16:46:34.941            17.454              Murmansk2           545.437
        55   01 Jun 2027 16:47:13.924   01 Jun 2027 16:47:51.345            37.421              Murmansk1          1169.406
        56   01 Jun 2027 16:49:15.488   01 Jun 2027 16:49:40.065            24.577              Murmansk2           768.031
        57   01 Jun 2027 16:52:57.228   01 Jun 2027 16:53:32.587            35.359                Anadyr1          1104.969
        58   01 Jun 2027 16:53:44.755   01 Jun 2027 16:54:07.171            22.416                Anadyr2           700.500
        59   01 Jun 2027 16:54:56.474   01 Jun 2027 16:55:30.878            34.404                Anadyr2          1075.125
        60   01 Jun 2027 16:57:23.755   01 Jun 2027 16:57:37.747            13.992                Anadyr1           437.250
        61   01 Jun 2027 16:58:14.370   01 Jun 2027 16:58:34.678            20.308                Anadyr2           634.625
        62   01 Jun 2027 16:58:34.678   01 Jun 2027 16:59:19.192            44.514                Anadyr1          1391.062
        63   01 Jun 2027 17:01:39.911   01 Jun 2027 17:01:58.034            18.123                Anadyr2           566.344
        64   01 Jun 2027 17:03:04.671   01 Jun 2027 17:03:26.217            21.546                Anadyr1           673.312
        65   01 Jun 2027 17:56:34.758   01 Jun 2027 17:56:55.687            20.929               CapeTown           654.031
        66   01 Jun 2027 17:57:44.109   01 Jun 2027 17:58:04.592            20.483               CapeTown           640.094
        67   01 Jun 2027 17:59:04.584   01 Jun 2027 17:59:28.161            23.577               CapeTown           736.781
        68   01 Jun 2027 18:19:39.379   01 Jun 2027 18:24:58.153           318.774              Murmansk1          9961.687
        69   01 Jun 2027 18:33:33.675   01 Jun 2027 18:34:05.279            31.604               Magadan2           987.625
        70   01 Jun 2027 18:39:49.316   01 Jun 2027 18:40:49.060            59.744               Magadan1          1867.000
        71   01 Jun 2027 20:04:35.193   01 Jun 2027 20:07:32.940           177.747                Anadyr2          5554.594
        72   01 Jun 2027 20:07:56.035   01 Jun 2027 20:11:05.451           189.416               Magadan1          5919.250
        73   01 Jun 2027 20:12:22.687   01 Jun 2027 20:13:26.197            63.510               Magadan1          1984.687
        74   01 Jun 2027 21:00:17.831   01 Jun 2027 21:02:43.193           145.362            RioGallegos          4542.563
        75   01 Jun 2027 21:05:40.364   01 Jun 2027 21:06:20.250            39.886            RioGallegos          1246.437
        76   01 Jun 2027 21:06:54.725   01 Jun 2027 21:07:11.561            16.836            RioGallegos           526.125
        77   01 Jun 2027 21:40:22.924   01 Jun 2027 21:42:35.793           132.869                Anadyr2          4152.156
        78   01 Jun 2027 21:42:49.517   01 Jun 2027 21:44:23.534            94.017               Magadan1          2938.031
        79   01 Jun 2027 21:45:32.283   01 Jun 2027 21:45:50.006            17.723                Norilsk           553.844
        80   01 Jun 2027 21:47:15.998   01 Jun 2027 21:48:08.649            52.651                Irkutsk          1645.344
        81   01 Jun 2027 21:50:15.820   01 Jun 2027 21:50:30.376            14.556                Irkutsk           454.875
        82   01 Jun 2027 21:52:39.917   01 Jun 2027 21:53:16.576            36.659                Irkutsk          1145.594
        83   01 Jun 2027 22:01:54.259   01 Jun 2027 22:02:44.662            50.403                Sumatra          1575.094
        84   01 Jun 2027 22:06:17.999   01 Jun 2027 22:06:29.063            11.064                Sumatra           345.750
        85   01 Jun 2027 22:07:41.437   01 Jun 2027 22:08:23.484            42.047                Sumatra          1313.969
        86   01 Jun 2027 22:10:46.064   01 Jun 2027 22:10:58.422            12.358                Sumatra           386.187
        87   01 Jun 2027 22:45:04.293   01 Jun 2027 22:45:22.750            18.457            RioGallegos           576.781
        88   01 Jun 2027 22:45:46.463   01 Jun 2027 22:46:22.979            36.516            RioGallegos          1141.125
        89   01 Jun 2027 23:15:35.105   01 Jun 2027 23:16:09.965            34.860                Anadyr1          1089.375
        90   01 Jun 2027 23:16:25.856   01 Jun 2027 23:16:40.488            14.632                Anadyr1           457.250
        91   01 Jun 2027 23:16:48.203   01 Jun 2027 23:18:06.553            78.350                Anadyr2          2448.437
        92   01 Jun 2027 23:18:19.257   01 Jun 2027 23:20:11.243           111.986                Norilsk          3499.562
        93   01 Jun 2027 23:20:11.313   01 Jun 2027 23:20:58.557            47.244               Magadan1          1476.375
        94   01 Jun 2027 23:21:48.856   01 Jun 2027 23:22:12.621            23.765               Magadan1           742.656
        95   01 Jun 2027 23:22:46.811   01 Jun 2027 23:25:29.659           162.848                Novosib          5089.000
        96   01 Jun 2027 23:32:06.869   01 Jun 2027 23:32:24.883            18.014                  Delhi           562.937
        97   01 Jun 2027 23:35:14.723   01 Jun 2027 23:35:17.973             3.250                  Delhi           101.562
        98   01 Jun 2027 23:36:49.422   01 Jun 2027 23:37:22.890            33.468                  Delhi          1045.875
        99   02 Jun 2027 00:12:49.310   02 Jun 2027 00:12:55.195             5.885            RioGallegos           183.906
       100   02 Jun 2027 00:13:32.556   02 Jun 2027 00:13:52.319            19.763            RioGallegos           617.594
       101   02 Jun 2027 00:15:56.309   02 Jun 2027 00:16:07.741            11.432            RioGallegos           357.250
       102   02 Jun 2027 00:17:45.624   02 Jun 2027 00:17:56.137            10.513            RioGallegos           328.531
       103   02 Jun 2027 00:18:25.494   02 Jun 2027 00:18:39.024            13.530            RioGallegos           422.812
       104   02 Jun 2027 00:20:58.852   02 Jun 2027 00:21:25.698            26.846            RioGallegos           838.938
       105   02 Jun 2027 00:49:36.303   02 Jun 2027 00:49:52.774            16.471                Anadyr2           514.719
       106   02 Jun 2027 00:50:13.109   02 Jun 2027 00:50:52.806            39.697                Anadyr2          1240.531
       107   02 Jun 2027 00:51:52.421   02 Jun 2027 00:53:12.270            79.849                Anadyr1          2495.281
       108   02 Jun 2027 00:54:19.829   02 Jun 2027 00:56:23.590           123.761                Norilsk          3867.531
       109   02 Jun 2027 00:57:06.150   02 Jun 2027 00:58:27.069            80.919              Murmansk2          2528.719
       110   02 Jun 2027 00:58:31.025   02 Jun 2027 00:58:44.450            13.425                Irkutsk           419.531
       111   02 Jun 2027 00:58:58.837   02 Jun 2027 00:59:39.466            40.629              Murmansk1          1269.656
       112   02 Jun 2027 01:00:15.394   02 Jun 2027 01:00:16.954             1.560                Irkutsk            48.750
       113   02 Jun 2027 01:01:24.551   02 Jun 2027 01:01:50.798            26.247                Novosib           820.219
       114   02 Jun 2027 01:03:09.110   02 Jun 2027 01:03:11.088             1.978              Murmansk1            61.812
       115   02 Jun 2027 01:05:26.748   02 Jun 2027 01:05:51.619            24.871                  Delhi           777.219
       116   02 Jun 2027 01:08:23.394   02 Jun 2027 01:08:33.962            10.568                  Delhi           330.250
       117   02 Jun 2027 01:08:54.564   02 Jun 2027 01:09:37.337            42.773                  Delhi          1336.656
       118   02 Jun 2027 01:47:34.827   02 Jun 2027 01:49:10.986            96.159            RioGallegos          3004.969
       119   02 Jun 2027 01:49:27.358   02 Jun 2027 01:49:59.819            32.461            RioGallegos          1014.406
       120   02 Jun 2027 01:50:26.346   02 Jun 2027 01:51:15.120            48.774            RioGallegos          1524.187
       121   02 Jun 2027 02:22:53.176   02 Jun 2027 02:22:57.693             4.517                Anadyr2           141.156
       122   02 Jun 2027 02:23:15.306   02 Jun 2027 02:23:19.549             4.243                Anadyr1           132.594
       123   02 Jun 2027 02:23:50.482   02 Jun 2027 02:24:29.662            39.180                Anadyr1          1224.375
       124   02 Jun 2027 02:28:51.228   02 Jun 2027 02:29:41.522            50.294               Magadan2          1571.688
       125   02 Jun 2027 02:30:14.386   02 Jun 2027 02:30:30.433            16.047                Norilsk           501.469
       126   02 Jun 2027 02:31:58.091   02 Jun 2027 02:32:22.915            24.824                Norilsk           775.750
       127   02 Jun 2027 02:32:29.003   02 Jun 2027 02:34:17.244           108.241              Murmansk1          3382.531
       128   02 Jun 2027 02:34:57.574   02 Jun 2027 02:35:40.509            42.935                Novosib          1341.719
       129   02 Jun 2027 02:36:29.730   02 Jun 2027 02:37:02.262            32.532                Irkutsk          1016.625
       130   02 Jun 2027 02:40:02.721   02 Jun 2027 02:40:18.916            16.195                Irkutsk           506.094
       131   02 Jun 2027 02:43:49.667   02 Jun 2027 02:44:38.138            48.471                  Delhi          1514.719
       132   02 Jun 2027 02:45:30.398   02 Jun 2027 02:45:52.973            22.575                  Delhi           705.469
       133   02 Jun 2027 04:16:16.251   02 Jun 2027 04:17:22.085            65.834                Norilsk          2057.313
       134   02 Jun 2027 04:17:36.412   02 Jun 2027 04:20:34.056           177.644              Murmansk2          5551.375
       135   02 Jun 2027 04:20:34.056   02 Jun 2027 04:21:13.735            39.679              Murmansk1          1239.969
       136   02 Jun 2027 04:21:14.146   02 Jun 2027 04:22:59.603           105.457                 Moscow          3295.531
       137   02 Jun 2027 05:39:27.706   02 Jun 2027 05:39:41.929            14.223               Magadan1           444.469
       138   02 Jun 2027 05:39:43.553   02 Jun 2027 05:41:05.000            81.447                Anadyr2          2545.219
       139   02 Jun 2027 05:41:27.249   02 Jun 2027 05:42:54.456            87.207                Anadyr2          2725.219
       140   02 Jun 2027 05:42:54.456   02 Jun 2027 05:43:31.677            37.221                Anadyr1          1163.156
       141   02 Jun 2027 05:43:57.876   02 Jun 2027 05:44:48.608            50.732                Anadyr1          1585.375
       142   02 Jun 2027 07:18:03.627   02 Jun 2027 07:18:27.124            23.497                Anadyr2           734.281
       143   02 Jun 2027 07:18:41.546   02 Jun 2027 07:19:25.558            44.012               Magadan1          1375.375
       144   02 Jun 2027 07:19:45.848   02 Jun 2027 07:20:32.689            46.841               Magadan1          1463.781
       145   02 Jun 2027 08:51:17.415   02 Jun 2027 08:51:54.959            37.544               Magadan2          1173.250
       146   02 Jun 2027 08:52:09.422   02 Jun 2027 08:54:01.110           111.688                Anadyr1          3490.250
       147   02 Jun 2027 08:55:04.439   02 Jun 2027 08:56:23.683            79.244               Magadan2          2476.375
       148   02 Jun 2027 09:34:56.871   02 Jun 2027 09:35:59.990            63.119            RioGallegos          1972.469
       149   02 Jun 2027 09:38:09.803   02 Jun 2027 09:38:14.904             5.101            RioGallegos           159.406
       150   02 Jun 2027 10:07:34.347   02 Jun 2027 10:10:16.695           162.348                Sumatra          5073.375
       151   02 Jun 2027 10:27:47.399   02 Jun 2027 10:27:51.150             3.751                Irkutsk           117.219
       152   02 Jun 2027 10:28:23.539   02 Jun 2027 10:28:46.059            22.520                Irkutsk           703.750
       153   02 Jun 2027 10:29:25.547   02 Jun 2027 10:29:32.293             6.746                Norilsk           210.812
       154   02 Jun 2027 10:29:37.337   02 Jun 2027 10:30:18.198            40.861                Irkutsk          1276.906
       155   02 Jun 2027 10:30:39.754   02 Jun 2027 10:30:43.076             3.322                Irkutsk           103.812
       156   02 Jun 2027 10:30:56.815   02 Jun 2027 10:30:56.825             0.010                Norilsk             0.312
       157   02 Jun 2027 10:31:31.175   02 Jun 2027 10:31:33.292             2.117                Novosib            66.156
       158   02 Jun 2027 10:31:36.704   02 Jun 2027 10:31:58.752            22.048                Irkutsk           689.000
       159   02 Jun 2027 10:32:00.951   02 Jun 2027 10:32:26.420            25.469                Novosib           795.906
       160   02 Jun 2027 11:10:06.669   02 Jun 2027 11:10:32.046            25.377            RioGallegos           793.031
       161   02 Jun 2027 11:12:30.006   02 Jun 2027 11:12:57.142            27.136            RioGallegos           848.000
       162   02 Jun 2027 11:42:22.543   02 Jun 2027 11:42:55.515            32.972                Sumatra          1030.375
       163   02 Jun 2027 11:44:47.946   02 Jun 2027 11:46:06.867            78.921                Sumatra          2466.281
       164   02 Jun 2027 12:08:15.992   02 Jun 2027 12:08:31.375            15.383                Novosib           480.719
       165   02 Jun 2027 12:08:52.170   02 Jun 2027 12:09:58.518            66.348                Novosib          2073.375
       166   02 Jun 2027 13:27:10.555   02 Jun 2027 13:28:10.370            59.815                  Delhi          1869.219
       167   02 Jun 2027 13:28:39.836   02 Jun 2027 13:29:34.286            54.450                  Delhi          1701.563
       168   02 Jun 2027 13:32:11.883   02 Jun 2027 13:32:35.975            24.092                  Delhi           752.875
       169   02 Jun 2027 13:35:29.632   02 Jun 2027 13:35:57.202            27.570                 Moscow           861.562
       170   02 Jun 2027 13:36:22.843   02 Jun 2027 13:36:30.124             7.281                 Moscow           227.531
       171   02 Jun 2027 13:36:36.751   02 Jun 2027 13:37:36.463            59.712                Novosib          1866.000
       172   02 Jun 2027 13:38:16.003   02 Jun 2027 13:38:43.531            27.528                Novosib           860.250
       173   02 Jun 2027 13:39:16.394   02 Jun 2027 13:39:50.266            33.872                Norilsk          1058.500
       174   02 Jun 2027 13:42:23.341   02 Jun 2027 13:43:32.820            69.479                Norilsk          2171.219
       175   02 Jun 2027 15:10:44.165   02 Jun 2027 15:13:54.788           190.623                 Moscow          5956.969
       176   02 Jun 2027 15:14:15.686   02 Jun 2027 15:15:44.763            89.077              Murmansk1          2783.656
       177   02 Jun 2027 15:18:22.923   02 Jun 2027 15:18:49.194            26.271              Murmansk2           820.969
       178   02 Jun 2027 15:20:24.104   02 Jun 2027 15:23:28.892           184.788                Norilsk          5774.625
       179   02 Jun 2027 16:28:44.895   02 Jun 2027 16:30:07.085            82.190               CapeTown          2568.438
       180   02 Jun 2027 16:49:33.977   02 Jun 2027 16:50:48.679            74.702                 Moscow          2334.438
       181   02 Jun 2027 16:53:58.844   02 Jun 2027 16:54:27.325            28.481                 Moscow           890.031
       182   02 Jun 2027 16:55:56.411   02 Jun 2027 16:57:06.609            70.198              Murmansk1          2193.687
       183   02 Jun 2027 17:04:54.961   02 Jun 2027 17:05:58.980            64.019                Anadyr1          2000.594
       184   02 Jun 2027 17:08:11.551   02 Jun 2027 17:08:34.727            23.176                Anadyr1           724.250
       185   02 Jun 2027 17:09:36.044   02 Jun 2027 17:10:01.257            25.213                Anadyr2           787.906
       186   02 Jun 2027 17:12:07.579   02 Jun 2027 17:13:06.202            58.623                Anadyr1          1831.969
       187   02 Jun 2027 18:04:27.872   02 Jun 2027 18:04:50.477            22.605               CapeTown           706.406
       188   02 Jun 2027 18:07:47.933   02 Jun 2027 18:08:01.210            13.277               CapeTown           414.906
       189   02 Jun 2027 18:10:34.990   02 Jun 2027 18:10:55.562            20.572               CapeTown           642.875
       190   02 Jun 2027 18:32:28.512   02 Jun 2027 18:37:08.577           280.065              Murmansk1          8752.031
       191   02 Jun 2027 18:43:28.743   02 Jun 2027 18:44:27.464            58.721               Magadan2          1835.031
       192   02 Jun 2027 18:46:07.934   02 Jun 2027 18:46:22.013            14.079               Magadan2           439.969
       193   02 Jun 2027 18:50:15.501   02 Jun 2027 18:50:21.369             5.868               Magadan1           183.375
       194   02 Jun 2027 18:51:22.837   02 Jun 2027 18:51:56.322            33.485               Magadan1          1046.406
       195   02 Jun 2027 20:16:36.565   02 Jun 2027 20:20:20.861           224.296                Anadyr2          7009.250
       196   02 Jun 2027 20:20:27.071   02 Jun 2027 20:23:04.805           157.734               Magadan2          4929.188
       197   02 Jun 2027 20:23:26.473   02 Jun 2027 20:23:40.650            14.177               Magadan2           443.031
       198   02 Jun 2027 20:24:01.097   02 Jun 2027 20:25:08.877            67.780               Magadan2          2118.125
       199   02 Jun 2027 21:11:48.048   02 Jun 2027 21:13:36.720           108.672            RioGallegos          3396.000
       200   02 Jun 2027 21:13:45.870   02 Jun 2027 21:13:59.061            13.191            RioGallegos           412.219
       201   02 Jun 2027 21:17:32.232   02 Jun 2027 21:18:13.412            41.180            RioGallegos          1286.875
       202   02 Jun 2027 21:52:21.670   02 Jun 2027 21:52:49.386            27.716                Anadyr1           866.125
       203   02 Jun 2027 21:54:29.284   02 Jun 2027 21:57:34.571           185.287                Norilsk          5790.219
       204   02 Jun 2027 21:57:59.747   02 Jun 2027 21:58:11.295            11.548                Norilsk           360.875
       205   02 Jun 2027 21:59:01.846   02 Jun 2027 22:00:07.573            65.727                Irkutsk          2053.969
       206   02 Jun 2027 22:05:18.457   02 Jun 2027 22:05:57.424            38.967                Irkutsk          1217.719
       207   02 Jun 2027 22:13:17.439   02 Jun 2027 22:16:09.478           172.039                Sumatra          5376.219
       208   02 Jun 2027 23:27:26.567   02 Jun 2027 23:28:37.985            71.418                Anadyr1          2231.812
       209   02 Jun 2027 23:29:50.582   02 Jun 2027 23:30:10.546            19.964                Anadyr1           623.875
       210   02 Jun 2027 23:30:21.244   02 Jun 2027 23:32:09.976           108.732                Norilsk          3397.875
       211   02 Jun 2027 23:34:13.676   02 Jun 2027 23:35:35.545            81.869                Irkutsk          2558.406
       212   02 Jun 2027 23:35:35.866   02 Jun 2027 23:35:50.972            15.106                Novosib           472.062
       213   02 Jun 2027 23:39:16.297   02 Jun 2027 23:40:14.797            58.500                Novosib          1828.125
       214   02 Jun 2027 23:43:19.053   02 Jun 2027 23:44:06.770            47.717                  Delhi          1491.156
       215   02 Jun 2027 23:45:06.306   02 Jun 2027 23:45:58.428            52.122                  Delhi          1628.813
       216   02 Jun 2027 23:47:30.680   02 Jun 2027 23:49:14.338           103.658                  Delhi          3239.312
       217   03 Jun 2027 01:02:14.022   03 Jun 2027 01:02:54.122            40.100                Anadyr1          1253.125
       218   03 Jun 2027 01:03:38.499   03 Jun 2027 01:04:00.489            21.990                Anadyr2           687.187
       219   03 Jun 2027 01:06:21.792   03 Jun 2027 01:06:31.939            10.147                Norilsk           317.094
       220   03 Jun 2027 01:06:41.674   03 Jun 2027 01:07:05.845            24.171                Norilsk           755.344
       221   03 Jun 2027 01:07:37.743   03 Jun 2027 01:08:25.900            48.157                Norilsk          1504.906
       222   03 Jun 2027 01:08:41.419   03 Jun 2027 01:09:32.010            50.591               Magadan1          1580.969
       223   03 Jun 2027 01:09:48.524   03 Jun 2027 01:11:40.940           112.416              Murmansk2          3513.000
       224   03 Jun 2027 01:13:31.672   03 Jun 2027 01:13:53.782            22.110                Irkutsk           690.938
       225   03 Jun 2027 01:14:14.548   03 Jun 2027 01:14:47.093            32.545                Novosib          1017.031
       226   03 Jun 2027 01:17:29.650   03 Jun 2027 01:17:41.977            12.327                  Delhi           385.219
       227   03 Jun 2027 01:19:36.621   03 Jun 2027 01:20:37.612            60.991                  Delhi          1905.969
       228   03 Jun 2027 01:28:23.008   03 Jun 2027 01:29:17.879            54.871                  Delhi          1714.719
       229   03 Jun 2027 02:00:01.984   03 Jun 2027 02:00:54.529            52.545            RioGallegos          1642.031
       230   03 Jun 2027 02:03:01.637   03 Jun 2027 02:03:13.775            12.138            RioGallegos           379.313
       231   03 Jun 2027 02:04:41.002   03 Jun 2027 02:04:55.174            14.172            RioGallegos           442.875
       232   03 Jun 2027 02:34:35.910   03 Jun 2027 02:34:47.696            11.786                Anadyr2           368.313
       233   03 Jun 2027 02:35:00.919   03 Jun 2027 02:35:49.243            48.324                Anadyr1          1510.125
       234   03 Jun 2027 02:40:21.765   03 Jun 2027 02:42:21.640           119.875               Magadan1          3746.094
       235   03 Jun 2027 02:44:29.963   03 Jun 2027 02:44:38.683             8.720              Murmansk2           272.500
       236   03 Jun 2027 02:44:43.177   03 Jun 2027 02:45:59.169            75.992              Murmansk2          2374.750
       237   03 Jun 2027 02:46:21.069   03 Jun 2027 02:46:21.928             0.859                Novosib            26.844
       238   03 Jun 2027 02:47:18.273   03 Jun 2027 02:47:38.043            19.770                Novosib           617.813
       239   03 Jun 2027 02:47:51.510   03 Jun 2027 02:48:13.926            22.416                Novosib           700.500
       240   03 Jun 2027 02:49:54.682   03 Jun 2027 02:50:36.816            42.134                Irkutsk          1316.687
       241   03 Jun 2027 02:57:35.530   03 Jun 2027 02:59:35.198           119.668                  Delhi          3739.625
       242   03 Jun 2027 04:29:21.460   03 Jun 2027 04:30:03.453            41.993              Murmansk2          1312.281
       243   03 Jun 2027 04:30:17.959   03 Jun 2027 04:31:14.642            56.683              Murmansk2          1771.344
       244   03 Jun 2027 04:31:14.642   03 Jun 2027 04:31:51.183            36.541              Murmansk1          1141.906
       245   03 Jun 2027 04:32:46.981   03 Jun 2027 04:33:19.886            32.905              Murmansk1          1028.281
       246   03 Jun 2027 05:51:18.431   03 Jun 2027 05:54:16.961           178.530               Magadan1          5579.063
       247   03 Jun 2027 07:28:43.114   03 Jun 2027 07:29:14.231            31.117                Anadyr1           972.406
       248   03 Jun 2027 07:29:17.219   03 Jun 2027 07:30:07.633            50.414                Anadyr2          1575.437
       249   03 Jun 2027 07:30:07.633   03 Jun 2027 07:30:16.407             8.774                Anadyr1           274.188
       250   03 Jun 2027 07:30:40.256   03 Jun 2027 07:31:04.519            24.263               Magadan1           758.219
       251   03 Jun 2027 09:01:58.711   03 Jun 2027 09:02:11.797            13.086               Magadan2           408.938
       252   03 Jun 2027 09:02:57.747   03 Jun 2027 09:03:01.794             4.047               Magadan1           126.469
       253   03 Jun 2027 09:03:18.927   03 Jun 2027 09:04:05.025            46.098               Magadan1          1440.562
       254   03 Jun 2027 09:04:48.232   03 Jun 2027 09:05:06.300            18.068               Magadan2           564.625
       255   03 Jun 2027 09:05:16.251   03 Jun 2027 09:05:43.667            27.416               Magadan1           856.750
       256   03 Jun 2027 09:05:43.667   03 Jun 2027 09:07:04.842            81.175               Magadan2          2536.719
       257   03 Jun 2027 09:07:50.058   03 Jun 2027 09:08:17.873            27.815               Magadan1           869.219
       258   03 Jun 2027 09:11:31.817   03 Jun 2027 09:11:32.468             0.651                Norilsk            20.344
       259   03 Jun 2027 09:43:15.915   03 Jun 2027 09:44:24.404            68.489            RioGallegos          2140.281
       260   03 Jun 2027 09:45:26.541   03 Jun 2027 09:45:32.980             6.439            RioGallegos           201.219
       261   03 Jun 2027 10:19:03.078   03 Jun 2027 10:20:08.221            65.143                Sumatra          2035.719
       262   03 Jun 2027 10:40:48.563   03 Jun 2027 10:40:59.024            10.461                Irkutsk           326.906
       263   03 Jun 2027 10:41:19.147   03 Jun 2027 10:41:56.976            37.829                Irkutsk          1182.156
       264   03 Jun 2027 10:42:02.121   03 Jun 2027 10:42:26.762            24.641                Norilsk           770.031
       265   03 Jun 2027 10:42:45.430   03 Jun 2027 10:43:29.577            44.147                Irkutsk          1379.594
       266   03 Jun 2027 10:43:40.431   03 Jun 2027 10:43:59.973            19.542                Norilsk           610.688
       267   03 Jun 2027 10:44:03.125   03 Jun 2027 10:44:38.501            35.376                Novosib          1105.500
       268   03 Jun 2027 11:20:30.801   03 Jun 2027 11:21:17.306            46.505            RioGallegos          1453.281
       269   03 Jun 2027 11:25:13.842   03 Jun 2027 11:25:38.498            24.656            RioGallegos           770.500
       270   03 Jun 2027 11:54:44.280   03 Jun 2027 11:55:17.616            33.336                Sumatra          1041.750
       271   03 Jun 2027 11:58:49.664   03 Jun 2027 11:59:03.002            13.338                Sumatra           416.813
       272   03 Jun 2027 12:09:15.246   03 Jun 2027 12:10:15.260            60.014                Novosib          1875.438
       273   03 Jun 2027 12:10:42.501   03 Jun 2027 12:10:52.839            10.338                Novosib           323.063
       274   03 Jun 2027 12:12:24.438   03 Jun 2027 12:12:25.547             1.109                Novosib            34.656
       275   03 Jun 2027 12:12:47.642   03 Jun 2027 12:13:49.806            62.164                Irkutsk          1942.625
       276   03 Jun 2027 13:39:45.605   03 Jun 2027 13:42:39.471           173.866                  Delhi          5433.313
       277   03 Jun 2027 13:43:29.619   03 Jun 2027 13:44:49.293            79.674                  Delhi          2489.813
       278   03 Jun 2027 13:48:12.935   03 Jun 2027 13:48:15.185             2.250                Novosib            70.313
       279   03 Jun 2027 13:49:19.992   03 Jun 2027 13:50:12.301            52.309                Novosib          1634.656
       280   03 Jun 2027 13:50:42.586   03 Jun 2027 13:51:06.153            23.567              Murmansk1           736.469
       281   03 Jun 2027 13:51:45.543   03 Jun 2027 13:52:00.055            14.512                Norilsk           453.500
       282   03 Jun 2027 13:52:28.322   03 Jun 2027 13:53:35.627            67.305                Novosib          2103.281
       283   03 Jun 2027 14:00:02.161   03 Jun 2027 14:01:25.666            83.505                Norilsk          2609.531
       284   03 Jun 2027 15:22:53.638   03 Jun 2027 15:24:46.432           112.794                 Moscow          3524.813
       285   03 Jun 2027 15:26:24.384   03 Jun 2027 15:27:26.929            62.545              Murmansk2          1954.531
       286   03 Jun 2027 15:27:47.343   03 Jun 2027 15:29:28.325           100.982              Murmansk2          3155.687
       287   03 Jun 2027 15:33:38.371   03 Jun 2027 15:35:26.839           108.468                Norilsk          3389.625
       288   03 Jun 2027 15:43:11.741   03 Jun 2027 15:43:13.686             1.945                Anadyr2            60.781
       289   03 Jun 2027 15:43:30.658   03 Jun 2027 15:43:40.329             9.671                Anadyr2           302.219
       290   03 Jun 2027 15:43:54.406   03 Jun 2027 15:45:15.662            81.256                Anadyr2          2539.250
       291   03 Jun 2027 17:02:23.528   03 Jun 2027 17:02:58.725            35.197                 Moscow          1099.906
       292   03 Jun 2027 17:04:27.009   03 Jun 2027 17:05:40.335            73.326              Murmansk1          2291.437
       293   03 Jun 2027 17:07:32.510   03 Jun 2027 17:07:58.489            25.979              Murmansk1           811.844
       294   03 Jun 2027 17:12:45.121   03 Jun 2027 17:13:21.922            36.801              Murmansk2          1150.031
       295   03 Jun 2027 17:16:53.544   03 Jun 2027 17:17:49.558            56.014                Anadyr1          1750.438
       296   03 Jun 2027 17:18:27.213   03 Jun 2027 17:18:41.822            14.609                Anadyr1           456.531
       297   03 Jun 2027 17:20:11.404   03 Jun 2027 17:20:55.302            43.898                Anadyr1          1371.812
       298   03 Jun 2027 17:27:44.985   03 Jun 2027 17:27:53.834             8.849                Anadyr2           276.531
       299   03 Jun 2027 18:12:51.238   03 Jun 2027 18:12:57.550             6.312               CapeTown           197.250
       300   03 Jun 2027 18:13:47.264   03 Jun 2027 18:13:55.519             8.255               CapeTown           257.969
       301   03 Jun 2027 18:14:37.020   03 Jun 2027 18:16:04.642            87.622               CapeTown          2738.188
       302   03 Jun 2027 18:45:25.244   03 Jun 2027 18:49:39.164           253.920              Murmansk1          7935.000
       303   03 Jun 2027 18:55:22.188   03 Jun 2027 18:56:13.158            50.970               Magadan2          1592.812
       304   03 Jun 2027 18:57:38.051   03 Jun 2027 18:58:10.614            32.563               Magadan1          1017.594
       305   03 Jun 2027 19:05:36.964   03 Jun 2027 19:05:38.522             1.558               Magadan2            48.687
       306   03 Jun 2027 19:05:58.257   03 Jun 2027 19:06:11.013            12.756               Magadan2           398.625
       307   03 Jun 2027 20:28:37.784   03 Jun 2027 20:32:36.107           238.323                Anadyr1          7447.594
       308   03 Jun 2027 20:32:37.845   03 Jun 2027 20:35:12.249           154.404               Magadan2          4825.125
       309   03 Jun 2027 20:36:21.710   03 Jun 2027 20:36:42.257            20.547               Magadan2           642.094
       310   03 Jun 2027 20:41:33.025   03 Jun 2027 20:41:56.446            23.421               Magadan2           731.906
       311   03 Jun 2027 20:43:42.147   03 Jun 2027 20:43:48.788             6.641               Magadan2           207.531
       312   03 Jun 2027 21:23:27.249   03 Jun 2027 21:25:43.554           136.305            RioGallegos          4259.531
       313   03 Jun 2027 21:26:09.615   03 Jun 2027 21:26:12.804             3.189            RioGallegos            99.656
       314   03 Jun 2027 21:27:57.449   03 Jun 2027 21:28:26.622            29.173            RioGallegos           911.656
       315   03 Jun 2027 21:29:37.702   03 Jun 2027 21:29:55.302            17.600            RioGallegos           550.000
       316   03 Jun 2027 22:04:19.810   03 Jun 2027 22:04:51.854            32.044                Anadyr2          1001.375
       317   03 Jun 2027 22:06:28.782   03 Jun 2027 22:08:39.560           130.778                Norilsk          4086.812
       318   03 Jun 2027 22:09:17.287   03 Jun 2027 22:10:05.238            47.951               Magadan1          1498.469
       319   03 Jun 2027 22:10:51.287   03 Jun 2027 22:11:56.902            65.615                Irkutsk          2050.469
       320   03 Jun 2027 22:13:24.251   03 Jun 2027 22:14:09.229            44.978                Irkutsk          1405.562
       321   03 Jun 2027 22:19:45.824   03 Jun 2027 22:20:19.212            33.388                Irkutsk          1043.375
       322   03 Jun 2027 22:24:50.927   03 Jun 2027 22:26:16.052            85.125                Sumatra          2660.156
       323   03 Jun 2027 22:36:06.776   03 Jun 2027 22:36:30.643            23.867                Sumatra           745.844
       324   03 Jun 2027 23:39:16.755   03 Jun 2027 23:40:20.107            63.352                Anadyr2          1979.750
       325   03 Jun 2027 23:40:29.237   03 Jun 2027 23:40:42.131            12.894                Anadyr1           402.938
       326   03 Jun 2027 23:41:35.708   03 Jun 2027 23:42:00.661            24.953                Anadyr1           779.781
       327   03 Jun 2027 23:42:23.337   03 Jun 2027 23:42:45.537            22.200                Norilsk           693.750
       328   03 Jun 2027 23:43:02.169   03 Jun 2027 23:44:40.030            97.861               Magadan1          3058.156
       329   03 Jun 2027 23:46:03.391   03 Jun 2027 23:46:55.631            52.240               Magadan2          1632.500
       330   03 Jun 2027 23:46:58.276   03 Jun 2027 23:47:36.540            38.264                Irkutsk          1195.750
       331   03 Jun 2027 23:48:12.684   03 Jun 2027 23:49:14.846            62.162                Novosib          1942.563
       332   03 Jun 2027 23:52:31.463   03 Jun 2027 23:52:35.889             4.426                Novosib           138.313
       333   03 Jun 2027 23:53:27.947   03 Jun 2027 23:54:51.537            83.590                Novosib          2612.187
       334   03 Jun 2027 23:54:57.221   03 Jun 2027 23:55:21.867            24.646                  Delhi           770.187
       335   03 Jun 2027 23:59:56.478   04 Jun 2027 00:01:09.622            73.144                  Delhi          2285.750
       336   04 Jun 2027 00:43:23.053   04 Jun 2027 00:44:12.092            49.039            RioGallegos          1532.469
       337   04 Jun 2027 01:13:00.281   04 Jun 2027 01:13:12.992            12.711                Anadyr2           397.219
       338   04 Jun 2027 01:14:14.712   04 Jun 2027 01:14:55.466            40.754                Anadyr1          1273.562
       339   04 Jun 2027 01:15:25.853   04 Jun 2027 01:15:55.435            29.582                Anadyr2           924.437
       340   04 Jun 2027 01:18:23.629   04 Jun 2027 01:18:34.011            10.382                Norilsk           324.438
       341   04 Jun 2027 01:18:47.318   04 Jun 2027 01:20:09.913            82.595               Magadan2          2581.094
       342   04 Jun 2027 01:20:26.554   04 Jun 2027 01:20:28.177             1.623                Norilsk            50.719
       343   04 Jun 2027 01:20:32.391   04 Jun 2027 01:20:58.442            26.051               Magadan1           814.094
       344   04 Jun 2027 01:21:46.238   04 Jun 2027 01:22:24.195            37.957              Murmansk1          1186.156
       345   04 Jun 2027 01:22:29.680   04 Jun 2027 01:23:42.786            73.106              Murmansk2          2284.562
       346   04 Jun 2027 01:25:41.007   04 Jun 2027 01:26:11.453            30.446                Irkutsk           951.438
       347   04 Jun 2027 01:26:51.953   04 Jun 2027 01:26:59.671             7.718                 Moscow           241.187
       348   04 Jun 2027 01:27:53.381   04 Jun 2027 01:28:57.243            63.862                 Moscow          1995.687
       349   04 Jun 2027 01:37:47.097   04 Jun 2027 01:37:57.058             9.961                  Delhi           311.281
       350   04 Jun 2027 01:38:57.200   04 Jun 2027 01:39:17.792            20.592                  Delhi           643.500
       351   04 Jun 2027 01:41:13.931   04 Jun 2027 01:41:31.854            17.923                  Delhi           560.094
       352   04 Jun 2027 02:12:47.401   04 Jun 2027 02:14:27.895           100.494            RioGallegos          3140.437
       353   04 Jun 2027 02:46:19.462   04 Jun 2027 02:46:49.360            29.898                Anadyr2           934.312
       354   04 Jun 2027 02:47:53.268   04 Jun 2027 02:48:41.385            48.117                Anadyr2          1503.656
       355   04 Jun 2027 02:51:50.634   04 Jun 2027 02:52:57.988            67.354               Magadan1          2104.812
       356   04 Jun 2027 02:54:35.930   04 Jun 2027 02:55:06.751            30.821                Norilsk           963.156
       357   04 Jun 2027 02:56:31.221   04 Jun 2027 02:57:29.709            58.488              Murmansk2          1827.750
       358   04 Jun 2027 02:58:23.195   04 Jun 2027 02:58:30.583             7.388              Murmansk2           230.875
       359   04 Jun 2027 02:59:14.525   04 Jun 2027 03:00:02.282            47.757                Novosib          1492.406
       360   04 Jun 2027 03:00:44.340   04 Jun 2027 03:00:53.601             9.261              Murmansk1           289.406
       361   04 Jun 2027 03:00:55.650   04 Jun 2027 03:01:33.350            37.700                 Moscow          1178.125
       362   04 Jun 2027 03:01:49.270   04 Jun 2027 03:02:37.183            47.913                Norilsk          1497.281
       363   04 Jun 2027 03:02:47.265   04 Jun 2027 03:03:38.637            51.372              Murmansk1          1605.375
       364   04 Jun 2027 03:03:42.742   04 Jun 2027 03:03:46.166             3.424              Murmansk2           107.000
       365   04 Jun 2027 03:03:51.481   04 Jun 2027 03:04:42.775            51.294                Norilsk          1602.937
       366   04 Jun 2027 03:05:12.984   04 Jun 2027 03:06:36.363            83.379                Norilsk          2605.594
       367   04 Jun 2027 03:06:49.701   04 Jun 2027 03:07:51.113            61.412              Murmansk1          1919.125
       368   04 Jun 2027 03:07:51.113   04 Jun 2027 03:07:56.752             5.639              Murmansk2           176.219
       369   04 Jun 2027 03:24:46.966   04 Jun 2027 03:25:30.571            43.605               CapeTown          1362.656
       370   04 Jun 2027 04:20:35.265   04 Jun 2027 04:22:06.747            91.482                Anadyr2          2858.813
       371   04 Jun 2027 04:41:30.350   04 Jun 2027 04:42:05.331            34.981              Murmansk1          1093.156
       372   04 Jun 2027 04:42:30.074   04 Jun 2027 04:43:25.762            55.688                 Moscow          1740.250
       373   04 Jun 2027 05:56:40.146   04 Jun 2027 05:57:15.588            35.442               Magadan1          1107.562
       374   04 Jun 2027 06:03:15.145   04 Jun 2027 06:03:35.150            20.005               Magadan2           625.156
       375   04 Jun 2027 06:03:50.353   04 Jun 2027 06:04:56.631            66.278               Magadan2          2071.187
       376   04 Jun 2027 06:05:00.906   04 Jun 2027 06:06:05.907            65.001               Magadan2          2031.281
       377   04 Jun 2027 07:38:58.017   04 Jun 2027 07:39:20.340            22.323               Magadan1           697.594
       378   04 Jun 2027 07:39:43.053   04 Jun 2027 07:40:12.021            28.968                Anadyr1           905.250
       379   04 Jun 2027 07:40:12.021   04 Jun 2027 07:40:16.979             4.958                Anadyr2           154.937
       380   04 Jun 2027 07:40:35.085   04 Jun 2027 07:40:47.636            12.551               Magadan1           392.219
       381   04 Jun 2027 07:40:58.424   04 Jun 2027 07:41:15.777            17.353                Anadyr2           542.281
       382   04 Jun 2027 07:41:32.145   04 Jun 2027 07:42:00.966            28.821                Anadyr2           900.656
       383   04 Jun 2027 07:42:13.704   04 Jun 2027 07:43:29.355            75.651                Anadyr1          2364.094
       384   04 Jun 2027 09:13:59.223   04 Jun 2027 09:15:20.040            80.817               Magadan1          2525.531
       385   04 Jun 2027 09:15:45.142   04 Jun 2027 09:16:17.993            32.851               Magadan2          1026.594
       386   04 Jun 2027 09:16:44.477   04 Jun 2027 09:17:08.848            24.371               Magadan2           761.594
       387   04 Jun 2027 09:17:45.646   04 Jun 2027 09:19:04.673            79.027               Magadan2          2469.594
       388   04 Jun 2027 09:19:10.181   04 Jun 2027 09:19:14.335             4.154                Irkutsk           129.813
       389   04 Jun 2027 09:19:16.855   04 Jun 2027 09:19:28.483            11.628                Novosib           363.375
       390   04 Jun 2027 09:20:00.783   04 Jun 2027 09:20:27.830            27.047                Irkutsk           845.219
       391   04 Jun 2027 09:55:14.639   04 Jun 2027 09:56:22.325            67.686            RioGallegos          2115.188
       392   04 Jun 2027 10:30:40.759   04 Jun 2027 10:31:13.904            33.145                Sumatra          1035.781
       393   04 Jun 2027 10:31:55.367   04 Jun 2027 10:32:25.678            30.311                Sumatra           947.219
       394   04 Jun 2027 10:47:01.212   04 Jun 2027 10:47:19.819            18.607                  Delhi           581.469
       395   04 Jun 2027 10:51:56.879   04 Jun 2027 10:51:57.283             0.404                Novosib            12.625
       396   04 Jun 2027 10:52:11.099   04 Jun 2027 10:52:25.154            14.055                Irkutsk           439.219
       397   04 Jun 2027 10:52:45.804   04 Jun 2027 10:52:47.864             2.060                Novosib            64.375
       398   04 Jun 2027 10:52:55.278   04 Jun 2027 10:54:06.766            71.488                Novosib          2234.000
       399   04 Jun 2027 10:54:12.953   04 Jun 2027 10:55:09.491            56.538                Novosib          1766.813
       400   04 Jun 2027 10:55:19.674   04 Jun 2027 10:55:28.811             9.137                Novosib           285.531
       401   04 Jun 2027 10:55:33.226   04 Jun 2027 10:55:42.358             9.132                Norilsk           285.375
       402   04 Jun 2027 10:55:49.635   04 Jun 2027 10:56:08.939            19.304                Norilsk           603.250
       403   04 Jun 2027 11:33:02.531   04 Jun 2027 11:33:50.251            47.720            RioGallegos          1491.250
       404   04 Jun 2027 11:37:40.117   04 Jun 2027 11:38:09.770            29.653            RioGallegos           926.656
       405   04 Jun 2027 12:07:15.313   04 Jun 2027 12:07:25.813            10.500                Sumatra           328.125
       406   04 Jun 2027 12:08:01.813   04 Jun 2027 12:08:03.356             1.543                Sumatra            48.219
       407   04 Jun 2027 12:09:48.628   04 Jun 2027 12:10:41.877            53.249                Sumatra          1664.031
       408   04 Jun 2027 12:21:17.562   04 Jun 2027 12:22:22.218            64.656                  Delhi          2020.500
       409   04 Jun 2027 12:22:33.894   04 Jun 2027 12:22:46.018            12.124                Novosib           378.875
       410   04 Jun 2027 12:24:23.933   04 Jun 2027 12:25:26.855            62.922                Novosib          1966.313
       411   04 Jun 2027 12:35:30.243   04 Jun 2027 12:35:49.318            19.075                Norilsk           596.094
       412   04 Jun 2027 13:52:33.263   04 Jun 2027 13:55:23.526           170.263                  Delhi          5320.719
       413   04 Jun 2027 13:59:57.381   04 Jun 2027 14:00:42.403            45.022                 Moscow          1406.938
       414   04 Jun 2027 14:01:04.695   04 Jun 2027 14:03:02.797           118.102                Novosib          3690.688
       415   04 Jun 2027 14:03:30.171   04 Jun 2027 14:03:47.821            17.650              Murmansk2           551.562
       416   04 Jun 2027 14:04:17.257   04 Jun 2027 14:04:44.874            27.617                Norilsk           863.031
       417   04 Jun 2027 14:05:27.178   04 Jun 2027 14:05:42.773            15.595                Novosib           487.344
       418   04 Jun 2027 14:06:36.676   04 Jun 2027 14:07:10.640            33.964                Norilsk          1061.375
       419   04 Jun 2027 14:08:00.969   04 Jun 2027 14:09:25.193            84.224                Norilsk          2632.000
       420   04 Jun 2027 15:15:58.367   04 Jun 2027 15:17:30.789            92.422               CapeTown          2888.187
       421   04 Jun 2027 15:35:06.451   04 Jun 2027 15:35:55.064            48.613                 Moscow          1519.156
       422   04 Jun 2027 15:38:34.879   04 Jun 2027 15:39:28.404            53.525              Murmansk1          1672.656
       423   04 Jun 2027 15:39:49.043   04 Jun 2027 15:40:16.485            27.442              Murmansk2           857.562
       424   04 Jun 2027 15:47:08.392   04 Jun 2027 15:47:16.983             8.591              Murmansk2           268.469
       425   04 Jun 2027 15:50:58.492   04 Jun 2027 15:51:06.421             7.929              Murmansk1           247.781
       426   04 Jun 2027 15:53:49.743   04 Jun 2027 15:55:33.277           103.534                Anadyr1          3235.437
       427   04 Jun 2027 15:55:55.732   04 Jun 2027 15:56:07.607            11.875                Anadyr1           371.094
       428   04 Jun 2027 15:59:05.782   04 Jun 2027 15:59:46.931            41.149                Anadyr2          1285.906
       429   04 Jun 2027 16:00:19.832   04 Jun 2027 16:00:36.887            17.055                Anadyr2           532.969
       430   04 Jun 2027 16:49:04.244   04 Jun 2027 16:50:34.759            90.515               CapeTown          2828.594
       431   04 Jun 2027 17:16:33.673   04 Jun 2027 17:17:57.540            83.867                 Moscow          2620.844
       432   04 Jun 2027 17:20:02.139   04 Jun 2027 17:21:04.989            62.850              Murmansk2          1964.062
       433   04 Jun 2027 17:28:52.808   04 Jun 2027 17:29:38.863            46.055                Anadyr2          1439.219
       434   04 Jun 2027 17:29:44.166   04 Jun 2027 17:30:08.311            24.145                Anadyr2           754.531
       435   04 Jun 2027 17:30:47.939   04 Jun 2027 17:30:49.843             1.904                Anadyr2            59.500
       436   04 Jun 2027 17:31:09.788   04 Jun 2027 17:31:12.788             3.000                Anadyr2            93.750
       437   04 Jun 2027 17:31:17.933   04 Jun 2027 17:31:46.689            28.756                Anadyr2           898.625
       438   04 Jun 2027 18:25:14.753   04 Jun 2027 18:26:23.404            68.651               CapeTown          2145.344
       439   04 Jun 2027 18:31:25.938   04 Jun 2027 18:31:54.572            28.634               CapeTown           894.812
       440   04 Jun 2027 18:58:36.537   04 Jun 2027 19:01:36.813           180.276              Murmansk2          5633.625
       441   04 Jun 2027 19:04:43.580   04 Jun 2027 19:06:31.020           107.440                Anadyr1          3357.500
       442   04 Jun 2027 19:07:24.616   04 Jun 2027 19:07:51.443            26.827               Magadan2           838.344
       443   04 Jun 2027 19:08:34.264   04 Jun 2027 19:09:09.427            35.163               Magadan2          1098.844
       444   04 Jun 2027 19:10:13.300   04 Jun 2027 19:10:37.227            23.927               Magadan1           747.719
       445   04 Jun 2027 19:13:16.815   04 Jun 2027 19:13:18.607             1.792               Magadan1            56.000
       446   04 Jun 2027 20:40:38.793   04 Jun 2027 20:42:46.426           127.633                Anadyr2          3988.531
       447   04 Jun 2027 20:42:55.377   04 Jun 2027 20:47:19.613           264.236               Magadan2          8257.375
       448   04 Jun 2027 20:51:32.925   04 Jun 2027 20:52:01.799            28.874               Magadan1           902.312
       449   04 Jun 2027 21:35:12.025   04 Jun 2027 21:38:22.156           190.131            RioGallegos          5941.594
       450   04 Jun 2027 22:16:17.251   04 Jun 2027 22:16:52.861            35.610                Anadyr1          1112.812
       451   04 Jun 2027 22:18:28.956   04 Jun 2027 22:20:44.246           135.290                Norilsk          4227.812
       452   04 Jun 2027 22:20:53.925   04 Jun 2027 22:21:37.406            43.481               Magadan1          1358.781
       453   04 Jun 2027 22:22:43.414   04 Jun 2027 22:23:25.503            42.089                Irkutsk          1315.281
       454   04 Jun 2027 22:24:07.840   04 Jun 2027 22:24:25.992            18.152                Irkutsk           567.250
       455   04 Jun 2027 22:25:05.033   04 Jun 2027 22:25:58.178            53.145                Novosib          1660.781
       456   04 Jun 2027 22:26:30.413   04 Jun 2027 22:27:45.312            74.899                Novosib          2340.594
       457   04 Jun 2027 22:38:37.299   04 Jun 2027 22:39:55.824            78.525                Sumatra          2453.906
       458   04 Jun 2027 23:51:05.634   04 Jun 2027 23:52:18.244            72.610                Anadyr1          2269.063
       459   04 Jun 2027 23:53:02.137   04 Jun 2027 23:53:22.038            19.901                Anadyr1           621.906
       460   04 Jun 2027 23:54:10.804   04 Jun 2027 23:54:15.961             5.157                Anadyr2           161.156
       461   04 Jun 2027 23:54:25.490   04 Jun 2027 23:54:44.213            18.723                Norilsk           585.094
       462   04 Jun 2027 23:55:04.660   04 Jun 2027 23:56:19.145            74.485               Magadan2          2327.656
       463   04 Jun 2027 23:56:30.105   04 Jun 2027 23:56:47.305            17.200               Magadan1           537.500
       464   04 Jun 2027 23:57:45.411   04 Jun 2027 23:57:51.233             5.822               Magadan2           181.937
       465   04 Jun 2027 23:58:11.761   04 Jun 2027 23:58:12.507             0.746                Norilsk            23.313
       466   04 Jun 2027 23:58:17.496   04 Jun 2027 23:59:18.846            61.350                Irkutsk          1917.187
       467   04 Jun 2027 23:59:21.485   04 Jun 2027 23:59:24.644             3.159               Magadan1            98.719
       468   04 Jun 2027 23:59:25.552   05 Jun 2027 00:00:25.583            60.031                Irkutsk          1875.969
       469   05 Jun 2027 00:00:41.520   05 Jun 2027 00:01:03.928            22.408                Novosib           700.250
       470   05 Jun 2027 00:05:35.851   05 Jun 2027 00:05:58.186            22.335                Novosib           697.969
       471   05 Jun 2027 00:06:22.924   05 Jun 2027 00:06:43.357            20.433                  Delhi           638.531
       472   05 Jun 2027 00:06:45.268   05 Jun 2027 00:07:10.473            25.205                  Delhi           787.656
       473   05 Jun 2027 00:07:37.445   05 Jun 2027 00:08:39.224            61.779                  Delhi          1930.594
       474   05 Jun 2027 00:16:44.975   05 Jun 2027 00:16:48.142             3.167                  Delhi            98.969
       475   05 Jun 2027 00:17:06.409   05 Jun 2027 00:17:36.184            29.775                  Delhi           930.469
       476   05 Jun 2027 00:50:07.842   05 Jun 2027 00:50:10.919             3.077            RioGallegos            96.156
       477   05 Jun 2027 00:50:25.437   05 Jun 2027 00:50:36.177            10.740            RioGallegos           335.625
       478   05 Jun 2027 00:51:39.709   05 Jun 2027 00:52:24.512            44.803            RioGallegos          1400.094
       479   05 Jun 2027 00:56:24.540   05 Jun 2027 00:57:14.154            49.614            RioGallegos          1550.437
       480   05 Jun 2027 01:25:44.153   05 Jun 2027 01:26:15.124            30.971                Anadyr2           967.844
       481   05 Jun 2027 01:26:56.796   05 Jun 2027 01:27:14.523            17.727                Anadyr2           553.969
       482   05 Jun 2027 01:27:33.380   05 Jun 2027 01:27:47.511            14.131                Anadyr2           441.594
