uniorb/output/strategy_4/Drop/Drop_KinoSat_112002.txt

KinoSat_112002
-------------------------
    Access    *     Start Time (UTCG)     *     Stop Time (UTCG)  *   Duration (s)        *       Station  *  Data (Mbytes)
         1   01 Jun 2027 03:26:55.288   01 Jun 2027 03:27:38.878            43.590               Magadan2          1362.188
         2   01 Jun 2027 03:27:50.323   01 Jun 2027 03:29:35.371           105.048                Irkutsk          3282.750
         3   01 Jun 2027 03:30:36.608   01 Jun 2027 03:32:42.347           125.739                Novosib          3929.344
         4   01 Jun 2027 03:32:51.201   01 Jun 2027 03:36:03.576           192.375                  Delhi          6011.719
         5   01 Jun 2027 03:36:14.764   01 Jun 2027 03:37:09.537            54.773                Irkutsk          1711.656
         6   01 Jun 2027 03:39:44.460   01 Jun 2027 03:41:16.455            91.995                  Delhi          2874.844
         7   01 Jun 2027 04:15:13.507   01 Jun 2027 04:15:41.218            27.711            RioGallegos           865.969
         8   01 Jun 2027 04:16:24.692   01 Jun 2027 04:19:14.903           170.211            RioGallegos          5319.094
         9   01 Jun 2027 05:05:14.206   01 Jun 2027 05:05:56.761            42.555                Irkutsk          1329.844
        10   01 Jun 2027 05:06:20.684   01 Jun 2027 05:06:31.271            10.587                Norilsk           330.844
        11   01 Jun 2027 05:06:38.330   01 Jun 2027 05:07:46.528            68.198                Irkutsk          2131.188
        12   01 Jun 2027 05:07:49.406   01 Jun 2027 05:07:58.655             9.249                Norilsk           289.031
        13   01 Jun 2027 05:08:02.084   01 Jun 2027 05:08:21.116            19.032                 Moscow           594.750
        14   01 Jun 2027 05:08:31.653   01 Jun 2027 05:11:18.015           166.362                Novosib          5198.812
        15   01 Jun 2027 05:11:54.914   01 Jun 2027 05:17:40.084           345.170                  Delhi         10786.563
        16   01 Jun 2027 06:43:46.745   01 Jun 2027 06:44:20.584            33.839                 Moscow          1057.469
        17   01 Jun 2027 06:44:32.049   01 Jun 2027 06:44:50.196            18.147                Norilsk           567.094
        18   01 Jun 2027 06:44:58.322   01 Jun 2027 06:47:37.307           158.985                 Moscow          4968.281
        19   01 Jun 2027 06:48:13.587   01 Jun 2027 06:48:35.936            22.349              Murmansk1           698.406
        20   01 Jun 2027 06:48:38.296   01 Jun 2027 06:49:32.694            54.398                 Moscow          1699.938
        21   01 Jun 2027 07:02:56.277   01 Jun 2027 07:04:13.878            77.601               CapeTown          2425.031
        22   01 Jun 2027 07:06:09.182   01 Jun 2027 07:07:15.206            66.024               CapeTown          2063.250
        23   01 Jun 2027 08:06:55.769   01 Jun 2027 08:07:37.688            41.919                Anadyr1          1309.969
        24   01 Jun 2027 08:07:55.694   01 Jun 2027 08:09:05.572            69.878               Magadan2          2183.687
        25   01 Jun 2027 08:09:15.236   01 Jun 2027 08:09:22.046             6.810                Anadyr2           212.813
        26   01 Jun 2027 08:10:45.291   01 Jun 2027 08:12:07.964            82.673                Anadyr1          2583.531
        27   01 Jun 2027 08:12:07.964   01 Jun 2027 08:12:35.055            27.091                Anadyr2           846.594
        28   01 Jun 2027 08:43:20.632   01 Jun 2027 08:48:04.909           284.277               CapeTown          8883.656
        29   01 Jun 2027 09:39:59.763   01 Jun 2027 09:41:09.120            69.357                Anadyr1          2167.406
        30   01 Jun 2027 09:42:32.443   01 Jun 2027 09:47:15.939           283.496                Anadyr1          8859.250
        31   01 Jun 2027 11:17:45.204   01 Jun 2027 11:19:23.426            98.222               Magadan2          3069.438
        32   01 Jun 2027 11:19:57.988   01 Jun 2027 11:22:37.743           159.755                Anadyr1          4992.344
        33   01 Jun 2027 11:23:23.992   01 Jun 2027 11:23:51.341            27.349               Magadan1           854.656
        34   01 Jun 2027 13:35:21.060   01 Jun 2027 13:37:23.787           122.727            RioGallegos          3835.219
        35   01 Jun 2027 13:37:34.298   01 Jun 2027 13:42:42.948           308.650            RioGallegos          9645.312
        36   01 Jun 2027 13:46:01.558   01 Jun 2027 13:46:11.332             9.774            RioGallegos           305.438
        37   01 Jun 2027 14:12:18.178   01 Jun 2027 14:19:30.495           432.317                Sumatra         13509.906
        38   01 Jun 2027 14:25:45.194   01 Jun 2027 14:34:40.249           535.055                Irkutsk         16720.469
        39   01 Jun 2027 15:56:19.502   01 Jun 2027 16:00:01.732           222.230                  Delhi          6944.687
        40   01 Jun 2027 16:03:08.834   01 Jun 2027 16:05:02.229           113.395                Novosib          3543.594
        41   01 Jun 2027 16:06:23.348   01 Jun 2027 16:08:13.970           110.622                Novosib          3456.938
        42   01 Jun 2027 19:16:42.153   01 Jun 2027 19:18:56.495           134.342                 Moscow          4198.188
        43   01 Jun 2027 19:19:34.755   01 Jun 2027 19:22:55.752           200.997                 Moscow          6281.156
        44   01 Jun 2027 19:28:47.170   01 Jun 2027 19:29:25.461            38.291              Murmansk1          1196.594
        45   01 Jun 2027 20:34:12.203   01 Jun 2027 20:36:08.771           116.568               CapeTown          3642.750
        46   01 Jun 2027 20:59:32.079   01 Jun 2027 21:00:38.807            66.728              Murmansk1          2085.250
        47   01 Jun 2027 21:01:13.947   01 Jun 2027 21:05:51.150           277.203              Murmansk2          8662.594
        48   02 Jun 2027 01:57:44.622   02 Jun 2027 01:57:45.290             0.668                Norilsk            20.875
        49   02 Jun 2027 01:58:25.059   02 Jun 2027 01:59:14.010            48.951               Magadan1          1529.719
        50   02 Jun 2027 01:59:17.689   02 Jun 2027 01:59:43.591            25.902                Norilsk           809.438
        51   02 Jun 2027 02:00:56.674   02 Jun 2027 02:01:06.050             9.376               Magadan1           293.000
        52   02 Jun 2027 02:01:38.179   02 Jun 2027 02:03:30.387           112.208                Irkutsk          3506.500
        53   02 Jun 2027 02:04:41.666   02 Jun 2027 02:04:55.309            13.643                Irkutsk           426.344
        54   02 Jun 2027 02:06:21.611   02 Jun 2027 02:06:34.543            12.932                Novosib           404.125
        55   02 Jun 2027 02:08:53.216   02 Jun 2027 02:09:49.044            55.828                Irkutsk          1744.625
        56   02 Jun 2027 02:13:34.604   02 Jun 2027 02:14:08.272            33.668                  Delhi          1052.125
        57   02 Jun 2027 02:15:50.354   02 Jun 2027 02:17:22.506            92.152                Sumatra          2879.750
        58   02 Jun 2027 02:20:53.010   02 Jun 2027 02:21:02.336             9.326                Sumatra           291.437
        59   02 Jun 2027 02:49:51.119   02 Jun 2027 02:50:55.145            64.026            RioGallegos          2000.812
        60   02 Jun 2027 02:52:09.769   02 Jun 2027 02:52:37.906            28.137            RioGallegos           879.281
        61   02 Jun 2027 02:55:21.433   02 Jun 2027 02:56:46.535            85.102            RioGallegos          2659.438
        62   02 Jun 2027 03:38:00.405   02 Jun 2027 03:38:31.115            30.710               Magadan1           959.687
        63   02 Jun 2027 03:38:57.097   02 Jun 2027 03:39:06.556             9.459               Magadan1           295.594
        64   02 Jun 2027 03:39:31.020   02 Jun 2027 03:41:07.135            96.115                Irkutsk          3003.594
        65   02 Jun 2027 03:41:33.157   02 Jun 2027 03:42:22.568            49.411                Norilsk          1544.094
        66   02 Jun 2027 03:43:52.169   02 Jun 2027 03:48:47.641           295.472                Irkutsk          9233.500
        67   02 Jun 2027 03:49:21.752   02 Jun 2027 03:49:55.782            34.030                Novosib          1063.437
        68   02 Jun 2027 03:51:30.629   02 Jun 2027 03:53:39.787           129.158                  Delhi          4036.187
        69   02 Jun 2027 03:54:16.179   02 Jun 2027 03:56:05.907           109.728                  Delhi          3429.000
        70   02 Jun 2027 04:27:19.534   02 Jun 2027 04:32:39.255           319.721            RioGallegos          9991.281
        71   02 Jun 2027 05:18:22.137   02 Jun 2027 05:18:47.458            25.321                Irkutsk           791.281
        72   02 Jun 2027 05:19:42.225   02 Jun 2027 05:22:59.806           197.581                Novosib          6174.406
        73   02 Jun 2027 05:24:10.542   02 Jun 2027 05:28:03.063           232.521                  Delhi          7266.281
        74   02 Jun 2027 06:57:42.475   02 Jun 2027 06:58:40.483            58.008              Murmansk1          1812.750
        75   02 Jun 2027 07:01:40.228   02 Jun 2027 07:02:56.794            76.566                 Moscow          2392.687
        76   02 Jun 2027 08:20:07.928   02 Jun 2027 08:24:37.900           269.972                Anadyr2          8436.625
        77   02 Jun 2027 08:33:49.672   02 Jun 2027 08:34:15.707            26.035                 Moscow           813.594
        78   02 Jun 2027 09:55:25.209   02 Jun 2027 09:55:52.420            27.211               Magadan2           850.344
        79   02 Jun 2027 09:55:57.404   02 Jun 2027 09:56:58.593            61.189               Magadan1          1912.156
        80   02 Jun 2027 09:58:19.534   02 Jun 2027 09:59:16.463            56.929               Magadan2          1779.031
        81   02 Jun 2027 10:37:53.511   02 Jun 2027 10:37:56.441             2.930            RioGallegos            91.563
        82   02 Jun 2027 10:42:13.907   02 Jun 2027 10:43:02.772            48.865            RioGallegos          1527.031
        83   02 Jun 2027 11:26:11.165   02 Jun 2027 11:26:16.246             5.081               Magadan2           158.781
        84   02 Jun 2027 11:26:30.539   02 Jun 2027 11:28:34.467           123.928               Magadan2          3872.750
        85   02 Jun 2027 11:29:31.657   02 Jun 2027 11:35:02.288           330.631               Magadan1         10332.219
        86   02 Jun 2027 11:35:56.967   02 Jun 2027 11:35:57.867             0.900                Norilsk            28.125
        87   02 Jun 2027 12:10:42.312   02 Jun 2027 12:12:53.872           131.560            RioGallegos          4111.250
        88   02 Jun 2027 12:46:37.782   02 Jun 2027 12:47:33.053            55.271                Sumatra          1727.219
        89   02 Jun 2027 12:59:04.179   02 Jun 2027 13:00:39.760            95.581                Irkutsk          2986.906
        90   02 Jun 2027 13:01:47.167   02 Jun 2027 13:02:35.708            48.541                Irkutsk          1516.906
        91   02 Jun 2027 13:03:57.887   02 Jun 2027 13:05:05.515            67.628                Norilsk          2113.375
        92   02 Jun 2027 13:12:43.471   02 Jun 2027 13:13:08.799            25.328                Norilsk           791.500
        93   02 Jun 2027 13:47:45.468   02 Jun 2027 13:48:50.619            65.151            RioGallegos          2035.969
        94   02 Jun 2027 13:52:52.217   02 Jun 2027 13:53:06.299            14.082            RioGallegos           440.062
        95   02 Jun 2027 13:55:40.510   02 Jun 2027 13:57:42.766           122.256            RioGallegos          3820.500
        96   02 Jun 2027 14:22:00.974   02 Jun 2027 14:27:29.199           328.225                Sumatra         10257.031
        97   02 Jun 2027 14:37:14.045   02 Jun 2027 14:43:17.966           363.921                Irkutsk         11372.531
        98   02 Jun 2027 16:10:27.184   02 Jun 2027 16:13:17.288           170.104                  Delhi          5315.750
        99   02 Jun 2027 16:15:20.800   02 Jun 2027 16:21:42.063           381.263                Novosib         11914.469
       100   02 Jun 2027 18:00:26.998   02 Jun 2027 18:02:06.207            99.209                Norilsk          3100.281
       101   02 Jun 2027 18:02:54.600   02 Jun 2027 18:03:19.248            24.648                Norilsk           770.250
       102   02 Jun 2027 19:29:28.404   02 Jun 2027 19:36:33.375           424.971                 Moscow         13280.344
       103   02 Jun 2027 20:40:10.359   02 Jun 2027 20:41:24.930            74.571               CapeTown          2330.344
       104   02 Jun 2027 20:44:08.574   02 Jun 2027 20:45:13.335            64.761               CapeTown          2023.781
       105   02 Jun 2027 21:12:25.272   02 Jun 2027 21:17:39.747           314.475              Murmansk1          9827.344
       106   02 Jun 2027 22:56:03.024   02 Jun 2027 22:57:20.273            77.249                Anadyr2          2414.031
       107   02 Jun 2027 22:57:32.802   02 Jun 2027 22:57:53.711            20.909                Anadyr2           653.406
       108   02 Jun 2027 22:58:18.696   02 Jun 2027 23:00:03.635           104.939               Magadan2          3279.344
       109   02 Jun 2027 23:01:34.623   02 Jun 2027 23:01:49.554            14.931               Magadan1           466.594
       110   02 Jun 2027 23:02:02.876   02 Jun 2027 23:02:22.522            19.646               Magadan1           613.937
       111   02 Jun 2027 23:02:58.066   02 Jun 2027 23:03:28.527            30.461               Magadan2           951.906
       112   02 Jun 2027 23:04:12.314   02 Jun 2027 23:04:58.651            46.337               Magadan2          1448.031
       113   02 Jun 2027 23:50:57.212   02 Jun 2027 23:54:14.290           197.078            RioGallegos          6158.688
       114   02 Jun 2027 23:57:26.112   02 Jun 2027 23:57:46.564            20.452            RioGallegos           639.125
       115   02 Jun 2027 23:58:15.945   02 Jun 2027 23:58:51.269            35.324            RioGallegos          1103.875
       116   03 Jun 2027 00:31:46.940   03 Jun 2027 00:32:57.286            70.346                Anadyr1          2198.312
       117   03 Jun 2027 00:33:52.151   03 Jun 2027 00:35:50.038           117.887                Norilsk          3683.969
       118   03 Jun 2027 00:37:04.334   03 Jun 2027 00:37:25.664            21.330               Magadan1           666.563
       119   03 Jun 2027 00:37:45.774   03 Jun 2027 00:38:03.357            17.583               Magadan2           549.469
       120   03 Jun 2027 00:38:18.621   03 Jun 2027 00:39:43.647            85.026                Irkutsk          2657.062
       121   03 Jun 2027 00:40:43.730   03 Jun 2027 00:41:52.639            68.909                Irkutsk          2153.406
       122   03 Jun 2027 00:48:39.558   03 Jun 2027 00:49:10.508            30.950                Irkutsk           967.187
       123   03 Jun 2027 00:52:24.150   03 Jun 2027 00:53:50.774            86.624                Sumatra          2707.000
       124   03 Jun 2027 00:58:32.702   03 Jun 2027 00:59:07.917            35.215                Sumatra          1100.469
       125   03 Jun 2027 01:02:25.970   03 Jun 2027 01:03:40.920            74.950                Sumatra          2342.188
       126   03 Jun 2027 01:33:36.299   03 Jun 2027 01:34:21.454            45.155            RioGallegos          1411.094
       127   03 Jun 2027 02:06:47.386   03 Jun 2027 02:07:01.542            14.156                Anadyr2           442.375
       128   03 Jun 2027 02:07:49.019   03 Jun 2027 02:08:14.649            25.630                Anadyr1           800.938
       129   03 Jun 2027 02:09:10.385   03 Jun 2027 02:09:14.932             4.547                Anadyr1           142.094
       130   03 Jun 2027 02:09:14.932   03 Jun 2027 02:09:35.130            20.198                Anadyr2           631.188
       131   03 Jun 2027 02:09:47.006   03 Jun 2027 02:11:09.113            82.107                Norilsk          2565.844
       132   03 Jun 2027 02:13:05.734   03 Jun 2027 02:13:06.776             1.042                Norilsk            32.562
       133   03 Jun 2027 02:13:07.369   03 Jun 2027 02:13:44.374            37.005                Norilsk          1156.406
       134   03 Jun 2027 02:13:48.728   03 Jun 2027 02:15:57.765           129.037                Irkutsk          4032.406
       135   03 Jun 2027 02:22:20.709   03 Jun 2027 02:22:58.002            37.293                  Delhi          1165.406
       136   03 Jun 2027 02:26:01.992   03 Jun 2027 02:26:09.981             7.989                  Delhi           249.656
       137   03 Jun 2027 02:26:57.247   03 Jun 2027 02:27:29.313            32.066                  Delhi          1002.063
       138   03 Jun 2027 02:28:13.713   03 Jun 2027 02:29:50.994            97.281                Sumatra          3040.031
       139   03 Jun 2027 02:32:04.974   03 Jun 2027 02:34:02.989           118.015                Sumatra          3687.969
       140   03 Jun 2027 03:09:09.403   03 Jun 2027 03:09:43.078            33.675            RioGallegos          1052.344
       141   03 Jun 2027 03:49:59.493   03 Jun 2027 03:50:35.271            35.778               Magadan2          1118.063
       142   03 Jun 2027 03:52:43.111   03 Jun 2027 03:56:50.949           247.838                Irkutsk          7744.937
       143   03 Jun 2027 03:57:19.859   03 Jun 2027 03:58:45.685            85.826                Norilsk          2682.062
       144   03 Jun 2027 04:00:10.905   03 Jun 2027 04:01:17.973            67.068                Novosib          2095.875
       145   03 Jun 2027 04:39:58.175   03 Jun 2027 04:43:28.849           210.674            RioGallegos          6583.562
       146   03 Jun 2027 05:30:28.232   03 Jun 2027 05:30:50.579            22.347                Norilsk           698.344
       147   03 Jun 2027 05:31:14.527   03 Jun 2027 05:31:53.030            38.503                Norilsk          1203.219
       148   03 Jun 2027 05:32:11.250   03 Jun 2027 05:35:29.608           198.358                Novosib          6198.687
       149   03 Jun 2027 07:06:49.266   03 Jun 2027 07:07:06.776            17.510                 Moscow           547.187
       150   03 Jun 2027 07:07:16.439   03 Jun 2027 07:07:38.210            21.771                Norilsk           680.344
       151   03 Jun 2027 07:09:01.031   03 Jun 2027 07:09:05.794             4.763              Murmansk1           148.844
       152   03 Jun 2027 07:09:18.084   03 Jun 2027 07:09:29.719            11.635              Murmansk1           363.594
       153   03 Jun 2027 07:11:05.056   03 Jun 2027 07:11:05.372             0.316                 Moscow             9.875
       154   03 Jun 2027 07:13:46.954   03 Jun 2027 07:14:09.581            22.627                 Moscow           707.094
       155   03 Jun 2027 07:15:02.988   03 Jun 2027 07:15:52.225            49.237                 Moscow          1538.656
       156   03 Jun 2027 07:27:14.843   03 Jun 2027 07:27:31.320            16.477               CapeTown           514.906
       157   03 Jun 2027 07:28:42.135   03 Jun 2027 07:30:03.457            81.322               CapeTown          2541.313
       158   03 Jun 2027 07:36:07.941   03 Jun 2027 07:37:02.772            54.831               CapeTown          1713.469
       159   03 Jun 2027 08:30:18.024   03 Jun 2027 08:30:38.826            20.802               Magadan1           650.063
       160   03 Jun 2027 08:30:57.915   03 Jun 2027 08:31:38.412            40.497                Anadyr2          1265.531
       161   03 Jun 2027 08:31:51.968   03 Jun 2027 08:32:28.732            36.764                Anadyr2          1148.875
       162   03 Jun 2027 08:32:41.946   03 Jun 2027 08:33:40.664            58.718                Anadyr1          1834.937
       163   03 Jun 2027 08:34:45.475   03 Jun 2027 08:35:53.946            68.471                Anadyr2          2139.719
       164   03 Jun 2027 10:06:33.507   03 Jun 2027 10:07:49.921            76.414               Magadan1          2387.937
       165   03 Jun 2027 10:08:01.750   03 Jun 2027 10:08:12.275            10.525               Magadan1           328.906
       166   03 Jun 2027 10:09:05.736   03 Jun 2027 10:09:36.969            31.233               Magadan1           976.031
       167   03 Jun 2027 10:10:17.813   03 Jun 2027 10:11:00.991            43.178               Magadan2          1349.313
       168   03 Jun 2027 10:53:49.734   03 Jun 2027 10:54:51.309            61.575            RioGallegos          1924.219
       169   03 Jun 2027 11:38:11.070   03 Jun 2027 11:39:06.794            55.724               Magadan2          1741.375
       170   03 Jun 2027 11:41:15.697   03 Jun 2027 11:41:38.109            22.412               Magadan1           700.375
       171   03 Jun 2027 11:42:59.937   03 Jun 2027 11:44:10.176            70.239                Irkutsk          2194.969
       172   03 Jun 2027 11:44:29.785   03 Jun 2027 11:46:55.133           145.348               Magadan1          4542.125
       173   03 Jun 2027 11:47:12.467   03 Jun 2027 11:47:16.290             3.823                Norilsk           119.469
       174   03 Jun 2027 11:47:22.128   03 Jun 2027 11:47:25.541             3.413                Norilsk           106.656
       175   03 Jun 2027 11:47:37.495   03 Jun 2027 11:47:39.862             2.367               Magadan2            73.969
       176   03 Jun 2027 11:47:45.747   03 Jun 2027 11:47:50.499             4.752                Irkutsk           148.500
       177   03 Jun 2027 11:48:09.459   03 Jun 2027 11:48:52.404            42.945                Norilsk          1342.031
       178   03 Jun 2027 12:22:40.013   03 Jun 2027 12:24:01.663            81.650            RioGallegos          2551.562
       179   03 Jun 2027 12:58:12.681   03 Jun 2027 13:00:00.212           107.531                Sumatra          3360.344
       180   03 Jun 2027 13:11:08.985   03 Jun 2027 13:12:18.020            69.035                Irkutsk          2157.344
       181   03 Jun 2027 13:14:23.055   03 Jun 2027 13:15:28.477            65.422                Irkutsk          2044.438
       182   03 Jun 2027 13:18:46.971   03 Jun 2027 13:20:08.353            81.382                Irkutsk          2543.187
       183   03 Jun 2027 14:00:15.292   03 Jun 2027 14:01:20.299            65.007            RioGallegos          2031.469
       184   03 Jun 2027 14:04:34.357   03 Jun 2027 14:05:56.197            81.840            RioGallegos          2557.500
       185   03 Jun 2027 14:09:47.189   03 Jun 2027 14:10:17.551            30.362            RioGallegos           948.813
       186   03 Jun 2027 14:34:28.870   03 Jun 2027 14:40:48.592           379.722                Sumatra         11866.312
       187   03 Jun 2027 14:49:57.124   03 Jun 2027 14:56:44.412           407.288                Irkutsk         12727.750
       188   03 Jun 2027 16:21:17.378   03 Jun 2027 16:28:45.115           447.737                  Delhi         13991.781
       189   03 Jun 2027 16:29:17.332   03 Jun 2027 16:35:37.103           379.771                Novosib         11867.844
       190   03 Jun 2027 19:42:25.368   03 Jun 2027 19:49:11.535           406.167                 Moscow         12692.719
       191   03 Jun 2027 20:54:19.562   03 Jun 2027 20:54:46.870            27.308               CapeTown           853.375
       192   03 Jun 2027 20:54:46.952   03 Jun 2027 20:58:06.444           199.492               CapeTown          6234.125
       193   03 Jun 2027 21:25:28.590   03 Jun 2027 21:29:20.314           231.724              Murmansk1          7241.375
       194   03 Jun 2027 23:10:20.143   03 Jun 2027 23:10:40.273            20.130               Magadan2           629.063
       195   03 Jun 2027 23:11:20.938   03 Jun 2027 23:11:35.044            14.106                Norilsk           440.812
       196   03 Jun 2027 23:13:01.794   03 Jun 2027 23:13:39.417            37.623               Magadan1          1175.719
       197   03 Jun 2027 23:14:34.971   03 Jun 2027 23:14:57.755            22.784               Magadan1           712.000
       198   03 Jun 2027 23:20:28.509   03 Jun 2027 23:21:02.817            34.308               Magadan2          1072.125
       199   03 Jun 2027 23:23:00.214   03 Jun 2027 23:23:15.597            15.383               Magadan2           480.719
       200   04 Jun 2027 00:02:40.723   04 Jun 2027 00:05:36.556           175.833            RioGallegos          5494.781
       201   04 Jun 2027 00:07:26.352   04 Jun 2027 00:07:35.415             9.063            RioGallegos           283.219
       202   04 Jun 2027 00:08:17.061   04 Jun 2027 00:08:31.950            14.889            RioGallegos           465.281
       203   04 Jun 2027 00:09:43.556   04 Jun 2027 00:09:50.214             6.658            RioGallegos           208.063
       204   04 Jun 2027 00:11:21.097   04 Jun 2027 00:11:23.155             2.058            RioGallegos            64.313
       205   04 Jun 2027 00:43:44.925   04 Jun 2027 00:44:59.777            74.852                Anadyr1          2339.125
       206   04 Jun 2027 00:45:09.765   04 Jun 2027 00:46:08.687            58.922                Anadyr1          1841.312
       207   04 Jun 2027 00:46:23.056   04 Jun 2027 00:48:03.712           100.656               Magadan1          3145.500
       208   04 Jun 2027 00:48:43.620   04 Jun 2027 00:48:54.361            10.741               Magadan2           335.656
       209   04 Jun 2027 00:49:24.450   04 Jun 2027 00:49:48.011            23.561               Magadan2           736.281
       210   04 Jun 2027 00:50:06.039   04 Jun 2027 00:50:10.655             4.616               Magadan2           144.250
       211   04 Jun 2027 00:50:39.325   04 Jun 2027 00:50:52.787            13.462               Magadan1           420.688
       212   04 Jun 2027 00:50:56.003   04 Jun 2027 00:51:44.779            48.776                Irkutsk          1524.250
       213   04 Jun 2027 00:52:53.219   04 Jun 2027 00:53:23.366            30.147                Novosib           942.094
       214   04 Jun 2027 00:54:28.441   04 Jun 2027 00:55:17.433            48.992                Novosib          1531.000
       215   04 Jun 2027 01:04:03.157   04 Jun 2027 01:06:11.619           128.462                Sumatra          4014.437
       216   04 Jun 2027 01:11:24.871   04 Jun 2027 01:13:25.877           121.006                Sumatra          3781.437
       217   04 Jun 2027 02:19:06.460   04 Jun 2027 02:19:56.123            49.663                Anadyr2          1551.969
       218   04 Jun 2027 02:21:12.977   04 Jun 2027 02:21:18.643             5.666                Anadyr2           177.062
       219   04 Jun 2027 02:21:49.454   04 Jun 2027 02:23:02.861            73.407                Norilsk          2293.969
       220   04 Jun 2027 02:25:01.290   04 Jun 2027 02:25:46.831            45.541                Norilsk          1423.156
       221   04 Jun 2027 02:25:54.214   04 Jun 2027 02:27:58.109           123.895                Novosib          3871.719
       222   04 Jun 2027 02:29:56.081   04 Jun 2027 02:31:05.409            69.328                Irkutsk          2166.500
       223   04 Jun 2027 02:40:46.913   04 Jun 2027 02:48:06.118           439.205                Sumatra         13725.156
       224   04 Jun 2027 04:02:58.949   04 Jun 2027 04:04:21.924            82.975                Irkutsk          2592.969
       225   04 Jun 2027 04:05:46.552   04 Jun 2027 04:06:09.023            22.471              Murmansk2           702.219
       226   04 Jun 2027 04:06:35.362   04 Jun 2027 04:11:53.507           318.145                Irkutsk          9942.031
       227   04 Jun 2027 04:12:17.481   04 Jun 2027 04:13:33.809            76.328                Novosib          2385.250
       228   04 Jun 2027 04:16:46.268   04 Jun 2027 04:18:57.101           130.833                  Delhi          4088.531
       229   04 Jun 2027 05:42:51.089   04 Jun 2027 05:43:14.188            23.099                Norilsk           721.844
       230   04 Jun 2027 05:43:19.341   04 Jun 2027 05:43:52.903            33.562                Norilsk          1048.812
       231   04 Jun 2027 05:44:05.846   04 Jun 2027 05:47:51.556           225.710                Novosib          7053.437
       232   04 Jun 2027 05:49:52.565   04 Jun 2027 05:50:01.304             8.739                 Moscow           273.094
       233   04 Jun 2027 05:50:15.767   04 Jun 2027 05:50:48.129            32.362                 Moscow          1011.313
       234   04 Jun 2027 06:03:56.911   04 Jun 2027 06:05:16.420            79.509               CapeTown          2484.656
       235   04 Jun 2027 06:05:51.524   04 Jun 2027 06:07:09.923            78.399               CapeTown          2449.969
       236   04 Jun 2027 07:18:14.636   04 Jun 2027 07:18:48.646            34.010                 Moscow          1062.813
       237   04 Jun 2027 07:20:57.074   04 Jun 2027 07:21:17.309            20.235              Murmansk1           632.344
       238   04 Jun 2027 07:21:31.839   04 Jun 2027 07:22:28.733            56.894              Murmansk1          1777.937
       239   04 Jun 2027 07:39:32.874   04 Jun 2027 07:41:55.661           142.787               CapeTown          4462.094
       240   04 Jun 2027 07:47:18.633   04 Jun 2027 07:49:26.144           127.511               CapeTown          3984.719
       241   04 Jun 2027 08:42:37.417   04 Jun 2027 08:42:41.457             4.040               Magadan1           126.250
       242   04 Jun 2027 08:42:58.491   04 Jun 2027 08:44:23.556            85.065                Anadyr1          2658.281
       243   04 Jun 2027 08:44:29.632   04 Jun 2027 08:45:20.385            50.753               Magadan2          1586.031
       244   04 Jun 2027 08:46:44.734   04 Jun 2027 08:47:42.423            57.689                Anadyr1          1802.781
       245   04 Jun 2027 10:18:32.994   04 Jun 2027 10:19:39.811            66.817               Magadan2          2088.031
       246   04 Jun 2027 10:20:35.710   04 Jun 2027 10:20:44.413             8.703               Magadan1           271.969
       247   04 Jun 2027 10:21:15.631   04 Jun 2027 10:22:15.096            59.465               Magadan2          1858.281
       248   04 Jun 2027 11:01:36.542   04 Jun 2027 11:01:52.566            16.024            RioGallegos           500.750
       249   04 Jun 2027 11:53:14.084   04 Jun 2027 11:53:22.017             7.933               Magadan1           247.906
       250   04 Jun 2027 11:53:51.025   04 Jun 2027 11:59:30.810           339.785               Magadan1         10618.281
       251   04 Jun 2027 11:59:58.551   04 Jun 2027 12:00:23.764            25.213                Norilsk           787.906
       252   04 Jun 2027 12:02:04.150   04 Jun 2027 12:02:11.632             7.482                Norilsk           233.813
       253   04 Jun 2027 12:03:06.884   04 Jun 2027 12:03:13.255             6.371                Norilsk           199.094
       254   04 Jun 2027 12:03:39.916   04 Jun 2027 12:04:37.216            57.300                Norilsk          1790.625
       255   04 Jun 2027 12:36:09.969   04 Jun 2027 12:37:58.923           108.954            RioGallegos          3404.813
       256   04 Jun 2027 13:09:55.408   04 Jun 2027 13:10:46.996            51.588                Sumatra          1612.125
       257   04 Jun 2027 13:13:51.051   04 Jun 2027 13:16:01.508           130.457                Sumatra          4076.781
       258   04 Jun 2027 13:25:02.186   04 Jun 2027 13:25:42.420            40.234                Novosib          1257.313
       259   04 Jun 2027 13:27:46.540   04 Jun 2027 13:27:49.951             3.411                Irkutsk           106.594
       260   04 Jun 2027 13:30:08.346   04 Jun 2027 13:32:38.343           149.997                Irkutsk          4687.406
       261   04 Jun 2027 14:12:51.525   04 Jun 2027 14:19:00.354           368.829            RioGallegos         11525.906
       262   04 Jun 2027 14:47:55.396   04 Jun 2027 14:56:02.997           487.601                Sumatra         15237.531
       263   04 Jun 2027 15:03:01.868   04 Jun 2027 15:10:15.877           434.009                Irkutsk         13562.781
       264   04 Jun 2027 16:32:39.692   04 Jun 2027 16:39:57.886           438.194                  Delhi         13693.563
       265   04 Jun 2027 16:41:08.944   04 Jun 2027 16:47:34.044           385.100                Novosib         12034.375
       266   04 Jun 2027 19:55:40.739   04 Jun 2027 20:00:30.721           289.982                 Moscow          9061.937
       267   04 Jun 2027 20:00:40.527   04 Jun 2027 20:01:58.273            77.746              Murmansk1          2429.563
       268   04 Jun 2027 21:05:23.580   04 Jun 2027 21:13:16.271           472.691               CapeTown         14771.594
       269   04 Jun 2027 21:39:01.225   04 Jun 2027 21:40:33.620            92.395              Murmansk1          2887.344
       270   05 Jun 2027 00:55:42.156   05 Jun 2027 00:56:20.070            37.914                Anadyr1          1184.812
       271   05 Jun 2027 00:57:53.431   05 Jun 2027 00:58:26.798            33.367                Norilsk          1042.719
       272   05 Jun 2027 00:58:39.060   05 Jun 2027 00:59:36.164            57.104               Magadan2          1784.500
       273   05 Jun 2027 01:00:19.193   05 Jun 2027 01:00:53.268            34.075               Magadan2          1064.844
       274   05 Jun 2027 01:01:48.019   05 Jun 2027 01:02:09.220            21.201               Magadan2           662.531
       275   05 Jun 2027 01:02:14.526   05 Jun 2027 01:03:46.767            92.241                Irkutsk          2882.531
       276   05 Jun 2027 01:03:51.756   05 Jun 2027 01:04:49.361            57.605                Novosib          1800.156
       277   05 Jun 2027 01:15:49.310   05 Jun 2027 01:18:35.288           165.978                Sumatra          5186.813
       278   05 Jun 2027 01:53:47.139   05 Jun 2027 01:55:07.193            80.054            RioGallegos          2501.687
       279   05 Jun 2027 02:30:25.084   05 Jun 2027 02:31:07.817            42.733                Anadyr1          1335.406
       280   05 Jun 2027 02:33:51.948   05 Jun 2027 02:34:54.476            62.528                Norilsk          1954.000
       281   05 Jun 2027 02:35:20.506   05 Jun 2027 02:35:23.601             3.095                Norilsk            96.719
       282   05 Jun 2027 02:36:11.002   05 Jun 2027 02:36:49.841            38.839               Magadan1          1213.719
       283   05 Jun 2027 02:37:45.289   05 Jun 2027 02:40:24.667           159.378                Irkutsk          4980.562
       284   05 Jun 2027 02:43:25.468   05 Jun 2027 02:43:44.757            19.289                Irkutsk           602.781
       285   05 Jun 2027 02:47:44.868   05 Jun 2027 02:49:02.630            77.762                  Delhi          2430.063
       286   05 Jun 2027 02:53:34.730   05 Jun 2027 03:01:34.430           479.700                Sumatra         14990.625
       287   05 Jun 2027 04:16:51.155   05 Jun 2027 04:18:19.416            88.261                Novosib          2758.156
       288   05 Jun 2027 04:18:32.796   05 Jun 2027 04:21:28.187           175.391                Novosib          5480.969
       289   05 Jun 2027 04:21:38.288   05 Jun 2027 04:22:46.881            68.593                Norilsk          2143.531
       290   05 Jun 2027 04:22:48.985   05 Jun 2027 04:23:20.821            31.836                Irkutsk           994.875
       291   05 Jun 2027 04:32:19.226   05 Jun 2027 04:32:48.483            29.257                  Delhi           914.281
       292   05 Jun 2027 05:54:20.289   05 Jun 2027 05:55:40.540            80.251                Novosib          2507.844
       293   05 Jun 2027 05:55:51.887   05 Jun 2027 05:56:57.067            65.180                Norilsk          2036.875
       294   05 Jun 2027 05:58:20.446   05 Jun 2027 05:58:41.958            21.512                Novosib           672.250
       295   05 Jun 2027 05:59:00.027   05 Jun 2027 05:59:36.747            36.720              Murmansk2          1147.500
       296   05 Jun 2027 06:01:02.872   05 Jun 2027 06:01:42.042            39.170                 Moscow          1224.063
       297   05 Jun 2027 06:01:58.752   05 Jun 2027 06:02:29.329            30.577                 Moscow           955.531
       298   05 Jun 2027 06:15:37.824   05 Jun 2027 06:17:32.548           114.724               CapeTown          3585.125
       299   05 Jun 2027 06:20:03.491   05 Jun 2027 06:22:15.301           131.810               CapeTown          4119.063
       300   05 Jun 2027 07:19:06.956   05 Jun 2027 07:19:46.081            39.125                Anadyr1          1222.656
       301   05 Jun 2027 07:20:17.441   05 Jun 2027 07:20:36.543            19.102               Magadan2           596.937
       302   05 Jun 2027 07:20:54.135   05 Jun 2027 07:22:12.409            78.274                Anadyr1          2446.063
       303   05 Jun 2027 07:32:10.749   05 Jun 2027 07:32:19.423             8.674              Murmansk2           271.063
       304   05 Jun 2027 07:32:41.482   05 Jun 2027 07:32:53.732            12.250              Murmansk2           382.813
       305   05 Jun 2027 07:33:02.090   05 Jun 2027 07:33:17.215            15.125                 Moscow           472.656
       306   05 Jun 2027 07:33:29.948   05 Jun 2027 07:34:48.305            78.357                 Moscow          2448.656
       307   05 Jun 2027 07:51:57.771   05 Jun 2027 07:54:29.983           152.212               CapeTown          4756.625
       308   05 Jun 2027 08:52:55.554   05 Jun 2027 08:53:23.015            27.461               Magadan2           858.156
       309   05 Jun 2027 08:53:30.851   05 Jun 2027 08:54:58.625            87.774                Anadyr1          2742.938
       310   05 Jun 2027 08:55:16.856   05 Jun 2027 08:57:18.234           121.378               Magadan1          3793.063
       311   05 Jun 2027 10:26:42.597   05 Jun 2027 10:28:06.296            83.699               Magadan1          2615.594
       312   05 Jun 2027 10:29:25.382   05 Jun 2027 10:30:31.732            66.350               Magadan2          2073.438
       313   05 Jun 2027 10:31:25.985   05 Jun 2027 10:33:03.085            97.100               Magadan1          3034.375
       314   05 Jun 2027 10:33:28.431   05 Jun 2027 10:33:35.034             6.603               Magadan1           206.344
       315   05 Jun 2027 10:34:03.146   05 Jun 2027 10:36:16.786           133.640               Magadan2          4176.250
       316   05 Jun 2027 12:02:53.717   05 Jun 2027 12:05:08.440           134.723               Magadan2          4210.094
       317   05 Jun 2027 12:06:21.433   05 Jun 2027 12:11:18.417           296.984               Magadan2          9280.750
       318   05 Jun 2027 13:41:34.184   05 Jun 2027 13:42:03.509            29.325                Irkutsk           916.406
       319   05 Jun 2027 13:46:50.944   05 Jun 2027 13:47:00.509             9.565                Norilsk           298.906
       320   05 Jun 2027 13:47:45.484   05 Jun 2027 13:48:07.917            22.433                Novosib           701.031
       321   05 Jun 2027 13:51:14.918   05 Jun 2027 13:51:32.494            17.576                Norilsk           549.250
       322   05 Jun 2027 14:25:35.773   05 Jun 2027 14:32:35.083           419.310            RioGallegos         13103.437
       323   05 Jun 2027 15:00:07.557   05 Jun 2027 15:06:59.027           411.470                Sumatra         12858.438
       324   05 Jun 2027 15:16:00.067   05 Jun 2027 15:21:37.663           337.596                Irkutsk         10549.875
       325   05 Jun 2027 16:46:16.089   05 Jun 2027 16:50:36.195           260.106                  Delhi          8128.312
       326   05 Jun 2027 16:54:30.748   05 Jun 2027 16:58:47.482           256.734                Novosib          8022.938
       327   05 Jun 2027 17:02:24.897   05 Jun 2027 17:04:35.545           130.648                Norilsk          4082.750
       328   05 Jun 2027 20:09:50.827   05 Jun 2027 20:10:40.521            49.694              Murmansk2          1552.937
       329   05 Jun 2027 20:12:37.750   05 Jun 2027 20:15:28.903           171.153              Murmansk2          5348.531
       330   05 Jun 2027 20:16:08.479   05 Jun 2027 20:16:37.097            28.618              Murmansk2           894.313
       331   05 Jun 2027 21:17:42.782   05 Jun 2027 21:24:13.842           391.060               CapeTown         12220.625
       332   05 Jun 2027 23:32:06.453   05 Jun 2027 23:33:23.886            77.433                Anadyr1          2419.781
       333   05 Jun 2027 23:34:05.188   05 Jun 2027 23:34:17.901            12.713                Anadyr1           397.281
       334   05 Jun 2027 23:34:24.071   05 Jun 2027 23:34:46.322            22.251               Magadan2           695.344
       335   05 Jun 2027 23:34:46.322   05 Jun 2027 23:36:07.236            80.914               Magadan1          2528.562
       336   05 Jun 2027 23:39:06.943   05 Jun 2027 23:39:26.800            19.857               Magadan1           620.531
       337   05 Jun 2027 23:40:41.152   05 Jun 2027 23:41:31.385            50.233                Irkutsk          1569.781
       338   05 Jun 2027 23:42:19.835   05 Jun 2027 23:43:44.529            84.694                Irkutsk          2646.687
       339   06 Jun 2027 00:26:19.589   06 Jun 2027 00:28:39.935           140.346            RioGallegos          4385.812
       340   06 Jun 2027 00:31:41.070   06 Jun 2027 00:31:45.901             4.831            RioGallegos           150.969
       341   06 Jun 2027 00:32:39.125   06 Jun 2027 00:32:45.984             6.859            RioGallegos           214.344
       342   06 Jun 2027 00:33:41.516   06 Jun 2027 00:33:50.232             8.716            RioGallegos           272.375
       343   06 Jun 2027 00:37:28.690   06 Jun 2027 00:37:46.512            17.822            RioGallegos           556.937
       344   06 Jun 2027 01:07:38.536   06 Jun 2027 01:08:02.165            23.629                Anadyr1           738.406
       345   06 Jun 2027 01:08:24.251   06 Jun 2027 01:08:33.056             8.805                Anadyr2           275.156
       346   06 Jun 2027 01:09:05.766   06 Jun 2027 01:09:30.861            25.095                Anadyr2           784.219
       347   06 Jun 2027 01:09:30.861   06 Jun 2027 01:10:11.326            40.465                Anadyr1          1264.531
       348   06 Jun 2027 01:10:13.623   06 Jun 2027 01:11:56.876           103.253                Norilsk          3226.656
       349   06 Jun 2027 01:12:07.821   06 Jun 2027 01:12:20.834            13.013               Magadan1           406.656
       350   06 Jun 2027 01:13:37.453   06 Jun 2027 01:13:51.900            14.447               Magadan2           451.469
       351   06 Jun 2027 01:13:51.900   06 Jun 2027 01:14:11.378            19.478               Magadan1           608.687
       352   06 Jun 2027 01:14:49.762   06 Jun 2027 01:15:49.566            59.804                Irkutsk          1868.875
       353   06 Jun 2027 01:16:28.981   06 Jun 2027 01:16:44.913            15.932                Irkutsk           497.875
       354   06 Jun 2027 01:16:57.045   06 Jun 2027 01:17:40.970            43.925                Novosib          1372.656
       355   06 Jun 2027 01:18:06.041   06 Jun 2027 01:18:20.017            13.976                Novosib           436.750
       356   06 Jun 2027 01:20:55.247   06 Jun 2027 01:21:12.236            16.989                Irkutsk           530.906
       357   06 Jun 2027 01:25:26.603   06 Jun 2027 01:26:17.076            50.473                Irkutsk          1577.281
       358   06 Jun 2027 01:27:41.718   06 Jun 2027 01:28:26.721            45.003                Sumatra          1406.344
       359   06 Jun 2027 01:34:35.617   06 Jun 2027 01:36:12.559            96.942                Sumatra          3029.438
       360   06 Jun 2027 02:09:27.807   06 Jun 2027 02:09:46.728            18.921            RioGallegos           591.281
       361   06 Jun 2027 02:11:27.387   06 Jun 2027 02:11:46.810            19.423            RioGallegos           606.969
       362   06 Jun 2027 02:14:34.668   06 Jun 2027 02:14:35.359             0.691            RioGallegos            21.594
       363   06 Jun 2027 02:42:11.938   06 Jun 2027 02:42:16.357             4.419                Anadyr2           138.094
       364   06 Jun 2027 02:42:16.357   06 Jun 2027 02:43:09.215            52.858                Anadyr1          1651.813
       365   06 Jun 2027 02:45:30.773   06 Jun 2027 02:45:33.500             2.727                Anadyr2            85.219
       366   06 Jun 2027 02:45:54.452   06 Jun 2027 02:47:03.325            68.873                Norilsk          2152.281
       367   06 Jun 2027 02:47:28.470   06 Jun 2027 02:47:56.829            28.359                Norilsk           886.219
       368   06 Jun 2027 02:49:49.223   06 Jun 2027 02:51:58.783           129.560                Novosib          4048.750
       369   06 Jun 2027 02:53:22.872   06 Jun 2027 02:54:10.039            47.167                Irkutsk          1473.969
       370   06 Jun 2027 02:58:06.261   06 Jun 2027 02:58:42.273            36.012                Irkutsk          1125.375
       371   06 Jun 2027 03:06:51.331   06 Jun 2027 03:12:12.410           321.079                Sumatra         10033.719
       372   06 Jun 2027 03:42:41.461   06 Jun 2027 03:42:55.693            14.232            RioGallegos           444.750
       373   06 Jun 2027 04:26:36.370   06 Jun 2027 04:26:46.258             9.888                Irkutsk           309.000
       374   06 Jun 2027 04:27:42.476   06 Jun 2027 04:30:18.053           155.577                Irkutsk          4861.781
       375   06 Jun 2027 04:30:25.093   06 Jun 2027 04:30:51.470            26.377                Irkutsk           824.281
       376   06 Jun 2027 04:31:02.852   06 Jun 2027 04:31:32.858            30.006                Novosib           937.687
       377   06 Jun 2027 04:31:54.140   06 Jun 2027 04:32:49.751            55.611                Irkutsk          1737.844
       378   06 Jun 2027 04:37:29.276   06 Jun 2027 04:38:46.588            77.312                  Delhi          2416.000
       379   06 Jun 2027 06:09:21.185   06 Jun 2027 06:09:59.913            38.728                 Moscow          1210.250
       380   06 Jun 2027 06:10:11.519   06 Jun 2027 06:10:48.501            36.982              Murmansk2          1155.687
       381   06 Jun 2027 06:13:17.423   06 Jun 2027 06:14:04.337            46.914                 Moscow          1466.063
       382   06 Jun 2027 06:27:24.288   06 Jun 2027 06:29:55.234           150.946               CapeTown          4717.062
       383   06 Jun 2027 07:30:35.007   06 Jun 2027 07:30:41.380             6.373               Magadan2           199.156
       384   06 Jun 2027 07:30:44.520   06 Jun 2027 07:30:55.429            10.909                Anadyr2           340.906
       385   06 Jun 2027 07:30:55.429   06 Jun 2027 07:31:54.934            59.505                Anadyr1          1859.531
       386   06 Jun 2027 07:32:54.343   06 Jun 2027 07:33:28.064            33.721                Anadyr2          1053.781
       387   06 Jun 2027 07:44:10.732   06 Jun 2027 07:44:28.843            18.111              Murmansk1           565.969
       388   06 Jun 2027 07:45:20.719   06 Jun 2027 07:45:48.861            28.142                 Moscow           879.437
       389   06 Jun 2027 08:04:30.968   06 Jun 2027 08:10:52.478           381.510               CapeTown         11922.188
       390   06 Jun 2027 09:05:21.150   06 Jun 2027 09:05:24.314             3.164                Anadyr1            98.875
       391   06 Jun 2027 09:05:26.530   06 Jun 2027 09:06:01.544            35.014               Magadan2          1094.187
       392   06 Jun 2027 09:06:23.392   06 Jun 2027 09:06:46.019            22.627               Magadan2           707.094
       393   06 Jun 2027 09:06:58.231   06 Jun 2027 09:08:06.128            67.897                Anadyr1          2121.781
       394   06 Jun 2027 09:08:28.267   06 Jun 2027 09:09:13.174            44.907               Magadan1          1403.344
       395   06 Jun 2027 09:09:21.329   06 Jun 2027 09:10:34.433            73.104               Magadan1          2284.500
       396   06 Jun 2027 10:40:01.954   06 Jun 2027 10:40:37.165            35.211               Magadan1          1100.344
       397   06 Jun 2027 10:40:46.720   06 Jun 2027 10:42:29.551           102.831               Magadan1          3213.469
       398   06 Jun 2027 10:43:06.445   06 Jun 2027 10:43:36.675            30.230               Magadan1           944.687
       399   06 Jun 2027 10:43:50.504   06 Jun 2027 10:44:17.824            27.320               Magadan2           853.750
       400   06 Jun 2027 10:45:34.872   06 Jun 2027 10:46:05.670            30.798               Magadan1           962.437
       401   06 Jun 2027 10:46:34.915   06 Jun 2027 10:47:18.910            43.995                Irkutsk          1374.844
       402   06 Jun 2027 10:47:40.261   06 Jun 2027 10:47:40.819             0.558                Norilsk            17.438
       403   06 Jun 2027 11:23:40.444   06 Jun 2027 11:24:16.698            36.254            RioGallegos          1132.938
       404   06 Jun 2027 11:25:52.425   06 Jun 2027 11:26:59.335            66.910            RioGallegos          2090.938
       405   06 Jun 2027 12:11:34.442   06 Jun 2027 12:13:24.144           109.702                Irkutsk          3428.188
       406   06 Jun 2027 12:14:28.303   06 Jun 2027 12:15:11.714            43.411                Irkutsk          1356.594
       407   06 Jun 2027 12:15:43.848   06 Jun 2027 12:23:01.041           437.193               Magadan1         13662.281
       408   06 Jun 2027 13:57:14.442   06 Jun 2027 13:57:34.591            20.149                Irkutsk           629.656
       409   06 Jun 2027 14:02:47.993   06 Jun 2027 14:03:17.310            29.317                Norilsk           916.156
       410   06 Jun 2027 14:38:31.079   06 Jun 2027 14:45:45.625           434.546            RioGallegos         13579.562
       411   06 Jun 2027 15:14:01.853   06 Jun 2027 15:16:58.751           176.898                Sumatra          5528.063
       412   06 Jun 2027 15:29:54.043   06 Jun 2027 15:32:18.377           144.334                Irkutsk          4510.438
       413   06 Jun 2027 17:09:19.699   06 Jun 2027 17:12:06.101           166.402                Norilsk          5200.062
       414   06 Jun 2027 18:39:24.147   06 Jun 2027 18:40:07.336            43.189                 Moscow          1349.656
       415   06 Jun 2027 18:41:04.231   06 Jun 2027 18:43:52.883           168.652                 Moscow          5270.375
       416   06 Jun 2027 18:47:22.925   06 Jun 2027 18:47:50.627            27.702                 Moscow           865.688
       417   06 Jun 2027 18:51:31.770   06 Jun 2027 18:52:09.973            38.203              Murmansk1          1193.844
       418   06 Jun 2027 18:59:58.363   06 Jun 2027 18:59:59.856             1.493                Anadyr2            46.656
       419   06 Jun 2027 19:01:09.707   06 Jun 2027 19:01:15.737             6.030                Anadyr2           188.437
       420   06 Jun 2027 19:51:43.397   06 Jun 2027 19:53:52.059           128.662               CapeTown          4020.687
       421   06 Jun 2027 19:59:16.921   06 Jun 2027 20:00:03.287            46.366               CapeTown          1448.938
       422   06 Jun 2027 20:21:45.934   06 Jun 2027 20:23:06.972            81.038              Murmansk2          2532.438
       423   06 Jun 2027 20:23:07.942   06 Jun 2027 20:30:23.590           435.648              Murmansk1         13614.000
       424   06 Jun 2027 21:30:53.096   06 Jun 2027 21:34:39.240           226.144               CapeTown          7067.000
       425   06 Jun 2027 22:12:28.636   06 Jun 2027 22:12:48.737            20.101               Magadan1           628.156
       426   06 Jun 2027 22:13:45.776   06 Jun 2027 22:14:26.909            41.133               Magadan1          1285.406
       427   06 Jun 2027 23:44:07.004   06 Jun 2027 23:47:57.196           230.192                Anadyr1          7193.500
       428   06 Jun 2027 23:47:58.366   06 Jun 2027 23:49:41.544           103.178                Norilsk          3224.313
       429   06 Jun 2027 23:49:50.365   06 Jun 2027 23:50:12.450            22.085               Magadan2           690.156
       430   06 Jun 2027 23:50:58.258   06 Jun 2027 23:51:48.023            49.765               Magadan1          1555.156
       431   06 Jun 2027 23:51:51.894   06 Jun 2027 23:52:06.611            14.717                Irkutsk           459.906
       432   06 Jun 2027 23:53:04.767   06 Jun 2027 23:54:06.858            62.091                Irkutsk          1940.344
       433   06 Jun 2027 23:54:26.811   06 Jun 2027 23:54:43.749            16.938                Irkutsk           529.313
       434   06 Jun 2027 23:55:18.128   06 Jun 2027 23:55:32.118            13.990               Magadan2           437.188
       435   06 Jun 2027 23:56:48.880   06 Jun 2027 23:57:08.346            19.466                Irkutsk           608.312
       436   07 Jun 2027 00:08:23.368   07 Jun 2027 00:09:15.605            52.237                Sumatra          1632.406
       437   07 Jun 2027 00:09:31.089   07 Jun 2027 00:10:56.615            85.526                Sumatra          2672.687
       438   07 Jun 2027 00:38:13.054   07 Jun 2027 00:39:19.983            66.929            RioGallegos          2091.531
       439   07 Jun 2027 00:46:38.834   07 Jun 2027 00:47:11.024            32.190            RioGallegos          1005.938
       440   07 Jun 2027 01:19:33.962   07 Jun 2027 01:19:44.944            10.982                Anadyr1           343.188
       441   07 Jun 2027 01:19:50.116   07 Jun 2027 01:20:05.653            15.537                Anadyr2           485.531
       442   07 Jun 2027 01:20:24.362   07 Jun 2027 01:20:57.635            33.273                Anadyr2          1039.781
       443   07 Jun 2027 01:21:31.389   07 Jun 2027 01:22:12.670            41.281                Anadyr1          1290.031
       444   07 Jun 2027 01:22:33.155   07 Jun 2027 01:22:49.814            16.659               Magadan2           520.594
       445   07 Jun 2027 01:23:09.477   07 Jun 2027 01:23:59.237            49.760                Norilsk          1555.000
       446   07 Jun 2027 01:24:19.083   07 Jun 2027 01:25:45.416            86.333               Magadan1          2697.906
       447   07 Jun 2027 01:25:57.213   07 Jun 2027 01:27:37.675           100.462                Irkutsk          3139.437
       448   07 Jun 2027 01:27:49.619   07 Jun 2027 01:27:53.152             3.533                Irkutsk           110.406
       449   07 Jun 2027 01:29:01.644   07 Jun 2027 01:29:13.192            11.548                Novosib           360.875
       450   07 Jun 2027 01:31:27.743   07 Jun 2027 01:31:31.722             3.979                Novosib           124.344
       451   07 Jun 2027 01:32:41.784   07 Jun 2027 01:32:56.218            14.434                Novosib           451.062
       452   07 Jun 2027 01:33:01.057   07 Jun 2027 01:34:46.885           105.828                Novosib          3307.125
       453   07 Jun 2027 01:39:39.938   07 Jun 2027 01:42:10.369           150.431                Sumatra          4700.969
       454   07 Jun 2027 02:23:31.531   07 Jun 2027 02:25:16.172           104.641            RioGallegos          3270.031
       455   07 Jun 2027 02:57:56.942   07 Jun 2027 02:58:14.373            17.431                Norilsk           544.719
       456   07 Jun 2027 02:59:57.667   07 Jun 2027 02:59:58.434             0.767                Norilsk            23.969
       457   07 Jun 2027 03:02:02.298   07 Jun 2027 03:02:14.481            12.183               Magadan2           380.719
       458   07 Jun 2027 03:02:14.481   07 Jun 2027 03:03:05.805            51.324               Magadan1          1603.875
       459   07 Jun 2027 03:03:24.011   07 Jun 2027 03:04:17.306            53.295                Norilsk          1665.469
       460   07 Jun 2027 03:04:19.252   07 Jun 2027 03:04:59.097            39.845               Magadan2          1245.156
       461   07 Jun 2027 03:05:19.462   07 Jun 2027 03:06:31.480            72.018                Novosib          2250.562
       462   07 Jun 2027 03:06:38.824   07 Jun 2027 03:08:17.016            98.192                Norilsk          3068.500
       463   07 Jun 2027 03:08:27.232   07 Jun 2027 03:09:33.840            66.608                Norilsk          2081.500
       464   07 Jun 2027 03:09:40.547   07 Jun 2027 03:09:52.019            11.472                Irkutsk           358.500
       465   07 Jun 2027 03:10:17.385   07 Jun 2027 03:11:37.331            79.946                  Delhi          2498.313
       466   07 Jun 2027 03:51:44.830   07 Jun 2027 03:55:18.072           213.242            RioGallegos          6663.812
       467   07 Jun 2027 04:41:51.614   07 Jun 2027 04:43:25.181            93.567                Novosib          2923.969
       468   07 Jun 2027 04:43:50.515   07 Jun 2027 04:46:01.910           131.395                Irkutsk          4106.094
       469   07 Jun 2027 04:46:28.036   07 Jun 2027 04:54:37.292           489.256                  Delhi         15289.250
       470   07 Jun 2027 06:19:51.000   07 Jun 2027 06:19:51.364             0.364                Norilsk            11.375
       471   07 Jun 2027 06:21:00.367   07 Jun 2027 06:21:13.812            13.445                 Moscow           420.156
       472   07 Jun 2027 06:21:38.270   07 Jun 2027 06:21:38.861             0.591              Murmansk2            18.469
       473   07 Jun 2027 06:22:03.086   07 Jun 2027 06:22:35.901            32.815              Murmansk2          1025.469
       474   07 Jun 2027 06:25:29.124   07 Jun 2027 06:26:08.541            39.417                 Moscow          1231.781
       475   07 Jun 2027 06:39:15.981   07 Jun 2027 06:42:21.790           185.809               CapeTown          5806.531
       476   07 Jun 2027 07:42:32.512   07 Jun 2027 07:42:43.062            10.550                Anadyr1           329.687
       477   07 Jun 2027 07:42:44.672   07 Jun 2027 07:43:03.474            18.802               Magadan2           587.562
       478   07 Jun 2027 07:43:05.532   07 Jun 2027 07:44:06.043            60.511                Anadyr2          1890.969
       479   07 Jun 2027 07:54:53.101   07 Jun 2027 07:55:06.432            13.331                Norilsk           416.594
       480   07 Jun 2027 07:56:53.571   07 Jun 2027 07:58:01.191            67.620                 Moscow          2113.125
       481   07 Jun 2027 08:17:15.040   07 Jun 2027 08:18:32.610            77.570               CapeTown          2424.063
       482   07 Jun 2027 08:23:17.509   07 Jun 2027 08:26:13.401           175.892               CapeTown          5496.625
