uniorb/output/strategy_4/Drop/Drop_KinoSat_110305.txt

KinoSat_110305
-------------------------
    Access    *     Start Time (UTCG)     *     Stop Time (UTCG)  *   Duration (s)        *       Station  *  Data (Mbytes)
         1   01 Jun 2027 03:58:07.571   01 Jun 2027 03:58:34.989            27.418               Magadan1          3427.250
         2   01 Jun 2027 03:58:58.603   01 Jun 2027 04:01:06.645           128.042               Magadan1         16005.250
         3   01 Jun 2027 04:01:58.770   01 Jun 2027 04:02:58.843            60.073               Magadan1          7509.125
         4   01 Jun 2027 04:03:11.332   01 Jun 2027 04:03:54.408            43.076                Novosib          5384.500
         5   01 Jun 2027 04:04:17.094   01 Jun 2027 04:04:58.733            41.639                Norilsk          5204.875
         6   01 Jun 2027 04:08:48.416   01 Jun 2027 04:08:49.483             1.067                Norilsk           133.375
         7   01 Jun 2027 04:38:28.503   01 Jun 2027 04:39:09.675            41.172            RioGallegos          5146.500
         8   01 Jun 2027 04:41:59.600   01 Jun 2027 04:42:11.190            11.590            RioGallegos          1448.750
         9   01 Jun 2027 04:42:47.490   01 Jun 2027 04:43:26.907            39.417            RioGallegos          4927.125
        10   01 Jun 2027 05:13:29.068   01 Jun 2027 05:14:48.907            79.839                Sumatra          9979.875
        11   01 Jun 2027 05:26:03.111   01 Jun 2027 05:27:10.136            67.025                  Delhi          8378.125
        12   01 Jun 2027 05:29:06.927   01 Jun 2027 05:31:13.286           126.359                  Delhi         15794.875
        13   01 Jun 2027 05:36:56.489   01 Jun 2027 05:37:49.907            53.418                Norilsk          6677.250
        14   01 Jun 2027 05:38:07.247   01 Jun 2027 05:40:04.440           117.193                Novosib         14649.125
        15   01 Jun 2027 06:22:10.829   01 Jun 2027 06:22:43.244            32.415            RioGallegos          4051.875
        16   01 Jun 2027 06:51:43.359   01 Jun 2027 06:52:14.485            31.126                Sumatra          3890.750
        17   01 Jun 2027 06:57:32.395   01 Jun 2027 06:58:59.379            86.984                  Delhi         10873.000
        18   01 Jun 2027 07:13:54.153   01 Jun 2027 07:14:06.761            12.608                 Moscow          1576.000
        19   01 Jun 2027 07:14:13.144   01 Jun 2027 07:14:27.106            13.962              Murmansk1          1745.250
        20   01 Jun 2027 07:14:34.245   01 Jun 2027 07:14:49.003            14.758                 Moscow          1844.750
        21   01 Jun 2027 07:15:02.269   01 Jun 2027 07:16:06.375            64.106                Novosib          8013.250
        22   01 Jun 2027 07:16:11.737   01 Jun 2027 07:16:37.185            25.448              Murmansk1          3181.000
        23   01 Jun 2027 07:17:02.778   01 Jun 2027 07:17:27.404            24.626                 Moscow          3078.250
        24   01 Jun 2027 08:37:50.895   01 Jun 2027 08:39:06.211            75.316                  Delhi          9414.500
        25   01 Jun 2027 08:47:37.463   01 Jun 2027 08:50:06.377           148.914                Novosib         18614.250
        26   01 Jun 2027 08:50:36.111   01 Jun 2027 08:52:17.890           101.779                 Moscow         12722.375
        27   01 Jun 2027 08:52:39.807   01 Jun 2027 08:55:09.159           149.352                Norilsk         18669.000
        28   01 Jun 2027 08:55:41.038   01 Jun 2027 08:58:19.551           158.513              Murmansk2         19814.125
        29   01 Jun 2027 09:57:27.323   01 Jun 2027 10:00:37.806           190.483               CapeTown         23810.375
        30   01 Jun 2027 10:02:44.244   01 Jun 2027 10:05:03.314           139.070               CapeTown         17383.750
        31   01 Jun 2027 10:36:55.292   01 Jun 2027 10:37:26.674            31.382                Anadyr1          3922.750
        32   01 Jun 2027 10:39:17.619   01 Jun 2027 10:41:02.103           104.484                Anadyr2         13060.500
        33   01 Jun 2027 12:16:10.817   01 Jun 2027 12:19:18.774           187.957               Magadan1         23494.625
        34   01 Jun 2027 12:20:31.397   01 Jun 2027 12:21:36.266            64.869               Magadan1          8108.625
        35   01 Jun 2027 13:50:22.111   01 Jun 2027 13:52:28.375           126.264               Magadan2         15783.000
        36   01 Jun 2027 15:32:39.946   01 Jun 2027 15:35:16.298           156.352                Irkutsk         19544.000
        37   01 Jun 2027 16:18:05.406   01 Jun 2027 16:19:30.851            85.445            RioGallegos         10680.625
        38   01 Jun 2027 16:20:55.696   01 Jun 2027 16:22:00.733            65.037            RioGallegos          8129.625
        39   01 Jun 2027 16:27:13.528   01 Jun 2027 16:27:33.832            20.304            RioGallegos          2538.000
        40   01 Jun 2027 17:05:44.716   01 Jun 2027 17:07:37.907           113.191                Irkutsk         14148.875
        41   01 Jun 2027 17:08:05.974   01 Jun 2027 17:10:49.282           163.308                Novosib         20413.500
        42   01 Jun 2027 17:20:41.458   01 Jun 2027 17:21:12.584            31.126                Sumatra          3890.750
        43   01 Jun 2027 17:22:28.111   01 Jun 2027 17:23:17.315            49.204                Sumatra          6150.500
        44   01 Jun 2027 18:44:19.299   01 Jun 2027 18:46:11.888           112.589                Novosib         13931.125
        45   02 Jun 2027 04:15:57.628   02 Jun 2027 04:17:03.488            65.860                Novosib          8232.500
        46   02 Jun 2027 04:17:10.767   02 Jun 2027 04:20:06.013           175.246              Murmansk1         21905.750
        47   02 Jun 2027 04:54:04.587   02 Jun 2027 04:54:14.936            10.349            RioGallegos          1293.625
        48   02 Jun 2027 05:25:23.395   02 Jun 2027 05:27:41.788           138.393                Sumatra         17299.125
        49   02 Jun 2027 05:36:00.246   02 Jun 2027 05:38:50.950           170.704                  Delhi         21338.000
        50   02 Jun 2027 05:50:51.173   02 Jun 2027 05:53:19.953           148.780                Novosib         18597.500
        51   02 Jun 2027 05:53:33.714   02 Jun 2027 05:56:45.592           191.878                Norilsk         23984.750
        52   02 Jun 2027 05:57:06.900   02 Jun 2027 05:58:58.193           111.293              Murmansk1         13911.625
        53   02 Jun 2027 07:05:24.967   02 Jun 2027 07:08:59.512           214.545                Sumatra         26818.125
        54   02 Jun 2027 07:16:45.466   02 Jun 2027 07:22:15.105           329.639                  Delhi         41204.875
        55   02 Jun 2027 07:22:15.480   02 Jun 2027 07:22:31.687            16.207                 Moscow          2025.875
        56   02 Jun 2027 07:27:31.874   02 Jun 2027 07:28:27.495            55.621              Murmansk1          6952.625
        57   02 Jun 2027 07:28:33.785   02 Jun 2027 07:29:48.449            74.664                Norilsk          9333.000
        58   02 Jun 2027 07:29:57.967   02 Jun 2027 07:34:28.833           270.866              Murmansk1         33858.250
        59   02 Jun 2027 09:04:21.543   02 Jun 2027 09:05:04.130            42.587                Norilsk          5323.375
        60   02 Jun 2027 09:05:30.905   02 Jun 2027 09:06:52.070            81.165                 Moscow         10145.625
        61   02 Jun 2027 09:07:00.641   02 Jun 2027 09:10:21.028           200.387              Murmansk1         25048.375
        62   02 Jun 2027 10:15:04.734   02 Jun 2027 10:18:35.621           210.887               CapeTown         26360.875
        63   02 Jun 2027 10:36:43.392   02 Jun 2027 10:46:19.017           575.625              Murmansk1         71953.125
        64   02 Jun 2027 10:48:34.441   02 Jun 2027 10:57:37.265           542.824                Anadyr1         67853.000
        65   02 Jun 2027 11:46:33.513   02 Jun 2027 11:56:02.341           568.828               CapeTown         71103.500
        66   02 Jun 2027 12:13:28.449   02 Jun 2027 12:16:46.484           198.035              Murmansk2         24754.375
        67   02 Jun 2027 12:27:41.559   02 Jun 2027 12:31:31.830           230.271               Magadan1         28783.875
        68   02 Jun 2027 14:02:19.939   02 Jun 2027 14:03:30.538            70.599               Magadan1          8824.875
        69   02 Jun 2027 14:04:50.851   02 Jun 2027 14:05:31.560            40.709               Magadan2          5088.625
        70   02 Jun 2027 15:43:44.038   02 Jun 2027 15:47:03.226           199.188                Irkutsk         24898.500
        71   02 Jun 2027 16:00:21.371   02 Jun 2027 16:04:12.904           231.533                Sumatra         28941.625
        72   02 Jun 2027 17:17:41.202   02 Jun 2027 17:17:54.272            13.070                Irkutsk          1633.750
        73   02 Jun 2027 17:18:46.079   02 Jun 2027 17:22:41.662           235.583                Novosib         29447.875
        74   02 Jun 2027 17:31:49.166   02 Jun 2027 17:34:09.879           140.713                Sumatra         17589.125
        75   02 Jun 2027 19:00:58.791   02 Jun 2027 19:04:39.422           220.631                  Delhi         27578.875
        76   02 Jun 2027 20:32:03.027   02 Jun 2027 20:32:45.942            42.915                 Moscow          5364.375
        77   02 Jun 2027 20:34:04.662   02 Jun 2027 20:36:07.773           123.111                 Moscow          6886.125
        78   03 Jun 2027 04:27:50.217   03 Jun 2027 04:27:52.033             1.816                Irkutsk           227.000
        79   03 Jun 2027 04:28:01.351   03 Jun 2027 04:29:09.166            67.815                Novosib          8476.875
        80   03 Jun 2027 04:29:10.791   03 Jun 2027 04:32:25.825           195.034                Norilsk         24379.250
        81   03 Jun 2027 05:37:23.328   03 Jun 2027 05:39:45.011           141.683                Sumatra         17710.375
        82   03 Jun 2027 05:47:20.077   03 Jun 2027 05:47:49.776            29.699                  Delhi          3712.375
        83   03 Jun 2027 05:48:50.838   03 Jun 2027 05:50:29.661            98.823                  Delhi         12352.875
        84   03 Jun 2027 06:03:53.752   03 Jun 2027 06:05:21.590            87.838                Novosib         10979.750
        85   03 Jun 2027 06:05:25.696   03 Jun 2027 06:08:47.448           201.752                Norilsk         25219.000
        86   03 Jun 2027 06:08:59.179   03 Jun 2027 06:10:54.536           115.357              Murmansk1         14419.625
        87   03 Jun 2027 07:28:22.502   03 Jun 2027 07:34:07.554           345.052                  Delhi         43131.500
        88   03 Jun 2027 07:39:34.414   03 Jun 2027 07:40:17.041            42.627              Murmansk2          5328.375
        89   03 Jun 2027 07:40:26.787   03 Jun 2027 07:41:47.405            80.618                Norilsk         10077.250
        90   03 Jun 2027 07:41:56.638   03 Jun 2027 07:46:28.882           272.244              Murmansk2         34030.500
        91   03 Jun 2027 09:09:17.828   03 Jun 2027 09:09:59.312            41.484                 Moscow          5185.500
        92   03 Jun 2027 09:15:24.457   03 Jun 2027 09:18:53.244           208.787                 Moscow         26098.375
        93   03 Jun 2027 09:19:36.937   03 Jun 2027 09:22:22.598           165.661              Murmansk2         20707.625
        94   03 Jun 2027 10:24:21.166   03 Jun 2027 10:31:12.102           410.936               CapeTown         51367.000
        95   03 Jun 2027 10:48:44.748   03 Jun 2027 10:50:01.443            76.695              Murmansk2          9586.875
        96   03 Jun 2027 10:50:01.443   03 Jun 2027 10:58:20.223           498.780              Murmansk1         62347.500
        97   03 Jun 2027 11:00:28.638   03 Jun 2027 11:10:12.049           583.411                Anadyr2         72926.375
        98   03 Jun 2027 12:00:23.109   03 Jun 2027 12:05:12.144           289.035               CapeTown         36129.375
        99   03 Jun 2027 12:37:25.592   03 Jun 2027 12:38:26.378            60.786                Anadyr2          7598.250
       100   03 Jun 2027 12:39:22.092   03 Jun 2027 12:40:51.979            89.887               Magadan1         11235.875
       101   03 Jun 2027 12:43:30.180   03 Jun 2027 12:47:31.590           241.410               Magadan2         30176.250
       102   03 Jun 2027 15:09:06.385   03 Jun 2027 15:11:05.239           118.854            RioGallegos         14856.750
       103   03 Jun 2027 15:55:11.454   03 Jun 2027 15:56:31.672            80.218                Irkutsk         10027.250
       104   03 Jun 2027 15:58:53.383   03 Jun 2027 16:00:11.685            78.302                Irkutsk          9787.750
       105   03 Jun 2027 16:10:37.548   03 Jun 2027 16:14:51.809           254.261                Sumatra         31782.625
       106   03 Jun 2027 17:30:29.170   03 Jun 2027 17:31:40.064            70.894                Novosib          8861.750
       107   03 Jun 2027 17:32:36.413   03 Jun 2027 17:34:35.966           119.553                Novosib         14944.125
       108   03 Jun 2027 17:42:10.194   03 Jun 2027 17:42:42.174            31.980                  Delhi          3997.500
       109   03 Jun 2027 19:12:53.228   03 Jun 2027 19:15:33.032           159.804                  Delhi         19975.500
       110   03 Jun 2027 19:23:28.112   03 Jun 2027 19:23:39.479            11.367                  Delhi          1420.875
       111   03 Jun 2027 20:39:54.427   03 Jun 2027 20:40:23.963            29.536              Murmansk2          3692.000
       112   03 Jun 2027 20:43:49.699   03 Jun 2027 20:46:15.411           145.712                 Moscow         18214.000
       113   03 Jun 2027 22:42:55.100   03 Jun 2027 22:44:27.336            92.236               CapeTown          3088.625
       114   04 Jun 2027 04:16:04.385   04 Jun 2027 04:18:39.030           154.645                Sumatra         19330.625
       115   04 Jun 2027 04:40:02.809   04 Jun 2027 04:47:49.212           466.403              Murmansk1         58300.375
       116   04 Jun 2027 05:15:01.698   04 Jun 2027 05:24:33.233           571.535            RioGallegos         71441.875
       117   04 Jun 2027 05:49:28.891   04 Jun 2027 05:50:27.000            58.109                Sumatra          7263.625
       118   04 Jun 2027 06:14:24.183   04 Jun 2027 06:15:11.059            46.876                Irkutsk          5859.500
       119   04 Jun 2027 06:15:41.246   04 Jun 2027 06:17:22.634           101.388                Novosib         12673.500
       120   04 Jun 2027 06:17:41.484   04 Jun 2027 06:20:49.342           187.858                Norilsk         23482.250
       121   04 Jun 2027 06:20:55.729   04 Jun 2027 06:22:51.473           115.744              Murmansk1         14468.000
       122   04 Jun 2027 07:41:45.877   04 Jun 2027 07:45:55.798           249.921                  Delhi         31240.125
       123   04 Jun 2027 07:46:01.585   04 Jun 2027 07:47:04.079            62.494                Novosib          7811.750
       124   04 Jun 2027 07:51:28.534   04 Jun 2027 07:51:32.286             3.752                Novosib           469.000
       125   04 Jun 2027 07:51:58.936   04 Jun 2027 07:52:12.695            13.759              Murmansk1          1719.875
       126   04 Jun 2027 07:52:20.755   04 Jun 2027 07:53:44.579            83.824                Norilsk         10478.000
       127   04 Jun 2027 07:53:55.735   04 Jun 2027 07:58:29.219           273.484              Murmansk2         34185.500
       128   04 Jun 2027 09:21:18.876   04 Jun 2027 09:22:06.842            47.966                 Moscow          5995.750
       129   04 Jun 2027 09:26:23.475   04 Jun 2027 09:28:38.711           135.236              Murmansk1         16904.500
       130   04 Jun 2027 09:28:43.194   04 Jun 2027 09:30:53.778           130.584                 Moscow         16323.000
       131   04 Jun 2027 09:31:07.396   04 Jun 2027 09:34:24.235           196.839              Murmansk2         24604.875
       132   04 Jun 2027 10:38:20.210   04 Jun 2027 10:43:39.560           319.350               CapeTown         39918.750
       133   04 Jun 2027 11:01:10.263   04 Jun 2027 11:02:02.544            52.281              Murmansk1          6535.125
       134   04 Jun 2027 11:02:51.423   04 Jun 2027 11:06:05.001           193.578                 Moscow         24197.250
       135   04 Jun 2027 11:06:07.066   04 Jun 2027 11:10:21.205           254.139              Murmansk1         31767.375
       136   04 Jun 2027 11:12:44.040   04 Jun 2027 11:20:27.681           463.641                Anadyr2         57955.125
       137   04 Jun 2027 12:51:08.156   04 Jun 2027 12:56:55.091           346.935               Magadan2         43366.875
       138   04 Jun 2027 15:20:00.884   04 Jun 2027 15:23:12.832           191.948            RioGallegos         23993.500
       139   04 Jun 2027 16:06:49.056   04 Jun 2027 16:08:44.978           115.922                Irkutsk         14490.250
       140   04 Jun 2027 16:12:38.662   04 Jun 2027 16:13:26.517            47.855                Irkutsk          5981.875
       141   04 Jun 2027 16:21:37.263   04 Jun 2027 16:24:31.758           174.495                Sumatra         21811.875
       142   04 Jun 2027 17:44:46.480   04 Jun 2027 17:45:05.640            19.160                Novosib          2395.000
       143   04 Jun 2027 17:51:59.012   04 Jun 2027 17:54:21.050           142.038                  Delhi         17754.750
       144   04 Jun 2027 17:55:52.938   04 Jun 2027 17:58:14.828           141.890                  Delhi         17736.250
       145   04 Jun 2027 19:25:59.550   04 Jun 2027 19:26:11.421            11.871                  Delhi          1483.875
       146   04 Jun 2027 20:52:33.275   04 Jun 2027 20:52:41.615             8.340              Murmansk1          1042.500
       147   04 Jun 2027 20:55:39.671   04 Jun 2027 20:56:26.502            46.831                 Moscow          5853.875
       148   04 Jun 2027 20:56:28.619   04 Jun 2027 20:56:38.013             9.394              Murmansk2          1174.250
       149   04 Jun 2027 20:58:22.940   04 Jun 2027 21:00:00.203            97.263                 Moscow         12157.875
       150   04 Jun 2027 22:54:55.976   04 Jun 2027 22:54:59.955             3.979               CapeTown           497.375
       151   05 Jun 2027 03:14:47.013   05 Jun 2027 03:14:55.567             8.554                Irkutsk          1069.250
       152   05 Jun 2027 03:15:53.361   05 Jun 2027 03:25:15.609           562.248              Murmansk1         70281.000
       153   05 Jun 2027 04:27:14.553   05 Jun 2027 04:30:26.064           191.511                Sumatra         23938.875
       154   05 Jun 2027 04:52:02.465   05 Jun 2027 04:56:52.503           290.038                Norilsk         36254.750
       155   05 Jun 2027 04:56:55.232   05 Jun 2027 04:59:41.314           166.082              Murmansk2         20760.250
       156   05 Jun 2027 06:09:32.331   05 Jun 2027 06:13:39.797           247.466                Sumatra         30933.250
       157   05 Jun 2027 06:19:48.240   05 Jun 2027 06:23:29.276           221.036                Novosib         27629.500
       158   05 Jun 2027 06:27:05.244   05 Jun 2027 06:29:23.029           137.785                Novosib         17223.125
       159   05 Jun 2027 06:29:50.149   05 Jun 2027 06:34:48.983           298.834              Murmansk1         37354.250
       160   05 Jun 2027 07:53:44.081   05 Jun 2027 07:57:38.988           234.907                  Delhi         29363.375
       161   05 Jun 2027 07:58:02.019   05 Jun 2027 07:58:07.583             5.564                Novosib           695.500
       162   05 Jun 2027 07:58:35.900   05 Jun 2027 07:59:25.030            49.130                Novosib          6141.250
       163   05 Jun 2027 08:03:22.627   05 Jun 2027 08:04:12.280            49.653              Murmansk2          6206.625
       164   05 Jun 2027 08:05:38.557   05 Jun 2027 08:07:06.525            87.968              Murmansk1         10996.000
       165   05 Jun 2027 08:07:06.525   05 Jun 2027 08:10:29.829           203.304              Murmansk2         25413.000
       166   05 Jun 2027 09:33:41.009   05 Jun 2027 09:34:14.018            33.009                 Moscow          4126.125
       167   05 Jun 2027 09:36:52.574   05 Jun 2027 09:36:55.283             2.709              Murmansk1           338.625
       168   05 Jun 2027 09:37:58.317   05 Jun 2027 09:40:28.772           150.455              Murmansk1         18806.875
       169   05 Jun 2027 09:40:39.485   05 Jun 2027 09:43:20.274           160.789                Norilsk         20098.625
       170   05 Jun 2027 09:43:44.576   05 Jun 2027 09:46:25.911           161.335              Murmansk2         20166.875
       171   05 Jun 2027 09:51:32.523   05 Jun 2027 09:53:03.737            91.214                Anadyr2         11401.750
       172   05 Jun 2027 10:49:34.131   05 Jun 2027 10:55:59.767           385.636               CapeTown         48204.500
       173   05 Jun 2027 11:13:11.927   05 Jun 2027 11:14:03.811            51.884              Murmansk1          6485.500
       174   05 Jun 2027 11:14:19.790   05 Jun 2027 11:17:51.341           211.551                 Moscow         26443.875
       175   05 Jun 2027 11:17:55.064   05 Jun 2027 11:20:18.026           142.962              Murmansk1         17870.250
       176   05 Jun 2027 11:24:21.395   05 Jun 2027 11:25:14.188            52.793                Anadyr2          6599.125
       177   05 Jun 2027 13:02:57.828   05 Jun 2027 13:05:21.434           143.606               Magadan2         17950.750
       178   05 Jun 2027 13:05:21.434   05 Jun 2027 13:09:18.549           237.115               Magadan1         29639.375
       179   05 Jun 2027 15:31:24.956   05 Jun 2027 15:35:02.262           217.306            RioGallegos         27163.250
       180   05 Jun 2027 16:20:54.593   05 Jun 2027 16:22:40.589           105.996                Irkutsk         13249.500
       181   05 Jun 2027 16:32:55.304   05 Jun 2027 16:36:21.867           206.563                Sumatra         25820.375
       182   05 Jun 2027 17:56:53.362   05 Jun 2027 17:58:06.655            73.293                Novosib          9161.625
       183   05 Jun 2027 18:03:01.315   05 Jun 2027 18:06:05.889           184.574                  Delhi         23071.750
       184   05 Jun 2027 21:05:59.643   05 Jun 2027 21:06:18.069            18.426              Murmansk2          2303.250
       185   05 Jun 2027 21:07:32.101   05 Jun 2027 21:08:56.905            84.804                 Moscow         10600.500
       186   05 Jun 2027 21:32:54.148   05 Jun 2027 21:34:15.478            81.330               CapeTown         10166.250
       187   06 Jun 2027 03:28:08.980   06 Jun 2027 03:28:26.317            17.337              Murmansk1          2167.125
       188   06 Jun 2027 03:28:36.853   06 Jun 2027 03:32:06.610           209.757                Norilsk         26219.625
       189   06 Jun 2027 04:38:38.917   06 Jun 2027 04:39:36.875            57.958                Sumatra          7244.750
       190   06 Jun 2027 04:41:21.856   06 Jun 2027 04:42:19.112            57.256                Sumatra          7157.000
       191   06 Jun 2027 05:03:46.374   06 Jun 2027 05:03:56.056             9.682                Irkutsk          1210.250
       192   06 Jun 2027 05:04:04.186   06 Jun 2027 05:08:53.793           289.607                Norilsk         36200.875
       193   06 Jun 2027 05:09:23.434   06 Jun 2027 05:11:34.171           130.737              Murmansk2         16342.125
       194   06 Jun 2027 06:21:32.539   06 Jun 2027 06:25:17.586           225.047                Sumatra         28130.875
       195   06 Jun 2027 06:28:36.533   06 Jun 2027 06:29:23.846            47.313                Novosib          5914.125
       196   06 Jun 2027 06:29:39.433   06 Jun 2027 06:34:25.286           285.853                  Delhi         35731.625
       197   06 Jun 2027 06:34:31.048   06 Jun 2027 06:35:44.168            73.120                Irkutsk          9140.000
       198   06 Jun 2027 06:39:43.969   06 Jun 2027 06:40:25.508            41.539              Murmansk2          5192.375
       199   06 Jun 2027 06:40:40.092   06 Jun 2027 06:41:22.693            42.601                Novosib          5325.125
       200   06 Jun 2027 06:41:49.506   06 Jun 2027 06:46:47.011           297.505              Murmansk1         37188.125
       201   06 Jun 2027 08:05:38.786   06 Jun 2027 08:06:07.533            28.747                  Delhi          3593.375
       202   06 Jun 2027 08:07:20.459   06 Jun 2027 08:11:33.283           252.824                Novosib         31603.000
       203   06 Jun 2027 08:15:15.090   06 Jun 2027 08:15:55.368            40.278              Murmansk1          5034.750
       204   06 Jun 2027 08:16:11.868   06 Jun 2027 08:20:48.354           276.486                Norilsk         34560.750
       205   06 Jun 2027 08:21:14.233   06 Jun 2027 08:22:30.662            76.429              Murmansk2          9553.625
       206   06 Jun 2027 09:45:18.942   06 Jun 2027 09:45:44.288            25.346                 Moscow          3168.250
       207   06 Jun 2027 09:48:53.590   06 Jun 2027 09:52:04.258           190.668              Murmansk1         23833.500
       208   06 Jun 2027 09:52:18.560   06 Jun 2027 09:54:52.622           154.062                 Moscow         19257.750
       209   06 Jun 2027 09:54:53.182   06 Jun 2027 09:58:27.591           214.409              Murmansk2         26801.125
       210   06 Jun 2027 10:01:48.054   06 Jun 2027 10:06:33.510           285.456                Anadyr1         35682.000
       211   06 Jun 2027 11:03:29.491   06 Jun 2027 11:07:20.763           231.272               CapeTown         28909.000
       212   06 Jun 2027 13:14:50.071   06 Jun 2027 13:15:23.711            33.640               Magadan1          4205.000
       213   06 Jun 2027 13:15:23.711   06 Jun 2027 13:18:08.252           164.541               Magadan2         20567.625
       214   06 Jun 2027 13:19:58.785   06 Jun 2027 13:21:38.426            99.641               Magadan2         12455.125
       215   06 Jun 2027 15:43:00.647   06 Jun 2027 15:46:54.347           233.700            RioGallegos         29212.500
       216   06 Jun 2027 16:33:00.722   06 Jun 2027 16:34:36.775            96.053                Irkutsk         12006.625
       217   06 Jun 2027 16:44:24.974   06 Jun 2027 16:45:52.544            87.570                Sumatra         10946.250
       218   06 Jun 2027 16:55:38.947   06 Jun 2027 16:55:47.025             8.078                Sumatra          1009.750
       219   06 Jun 2027 18:06:00.014   06 Jun 2027 18:08:32.142           152.128                Novosib         19016.000
       220   06 Jun 2027 18:14:23.323   06 Jun 2027 18:17:55.487           212.164                  Delhi         26520.500
       221   06 Jun 2027 19:47:26.855   06 Jun 2027 19:48:17.285            50.430                 Moscow          6303.750
       222   06 Jun 2027 21:18:34.687   06 Jun 2027 21:19:07.922            33.235              Murmansk2          4154.375
       223   06 Jun 2027 21:21:22.395   06 Jun 2027 21:22:28.935            66.540                 Moscow          8317.500
       224   06 Jun 2027 21:44:21.824   06 Jun 2027 21:45:33.872            72.048               CapeTown          9006.000
       225   06 Jun 2027 21:46:13.951   06 Jun 2027 21:47:55.723           101.772               CapeTown         12721.500
       226   07 Jun 2027 03:39:59.603   07 Jun 2027 03:41:38.658            99.055                Norilsk         12381.875
       227   07 Jun 2027 04:50:13.163   07 Jun 2027 04:52:05.695           112.532                Sumatra         14066.500
       228   07 Jun 2027 05:04:40.867   07 Jun 2027 05:06:05.427            84.560                  Delhi         10570.000
       229   07 Jun 2027 05:15:22.369   07 Jun 2027 05:15:55.610            33.241                Irkutsk          4155.125
       230   07 Jun 2027 05:16:05.994   07 Jun 2027 05:20:55.249           289.255                Norilsk         36156.875
       231   07 Jun 2027 05:21:11.009   07 Jun 2027 05:23:27.771           136.762              Murmansk2         17095.250
       232   07 Jun 2027 06:40:45.217   07 Jun 2027 06:42:01.337            76.120                Novosib          9515.000
       233   07 Jun 2027 06:43:23.865   07 Jun 2027 06:46:31.383           187.518                  Delhi         23439.750
       234   07 Jun 2027 06:46:50.412   07 Jun 2027 06:47:03.594            13.182                Irkutsk          1647.750
       235   07 Jun 2027 06:51:57.838   07 Jun 2027 06:52:36.973            39.135                 Moscow          4891.875
       236   07 Jun 2027 06:52:56.713   07 Jun 2027 06:53:21.536            24.823                Novosib          3102.875
       237   07 Jun 2027 06:53:49.231   07 Jun 2027 06:55:36.727           107.496              Murmansk1         13437.000
       238   07 Jun 2027 06:55:36.727   07 Jun 2027 06:58:45.515           188.788              Murmansk2         23598.500
       239   07 Jun 2027 08:17:29.639   07 Jun 2027 08:18:19.250            49.611                  Delhi          6201.375
       240   07 Jun 2027 08:20:08.087   07 Jun 2027 08:23:15.349           187.262                Novosib         23407.750
       241   07 Jun 2027 08:28:00.652   07 Jun 2027 08:30:59.994           179.342                 Moscow         22417.750
       242   07 Jun 2027 08:31:02.834   07 Jun 2027 08:34:31.708           208.874              Murmansk2         26109.250
       243   07 Jun 2027 09:37:55.061   07 Jun 2027 09:38:43.083            48.022               CapeTown          6002.750
       244   07 Jun 2027 09:57:17.789   07 Jun 2027 09:58:25.764            67.975                 Moscow          8496.875
       245   07 Jun 2027 10:01:17.288   07 Jun 2027 10:03:44.972           147.684              Murmansk2         18460.500
       246   07 Jun 2027 10:04:09.362   07 Jun 2027 10:06:50.726           161.364                 Moscow         20170.500
       247   07 Jun 2027 10:07:07.067   07 Jun 2027 10:10:29.250           202.183              Murmansk2         25272.875
       248   07 Jun 2027 10:13:23.652   07 Jun 2027 10:19:36.630           372.978                Anadyr1         46622.250
       249   07 Jun 2027 11:15:22.984   07 Jun 2027 11:20:22.169           299.185               CapeTown         37398.125
       250   07 Jun 2027 11:37:37.709   07 Jun 2027 11:38:27.811            50.102                 Moscow          6262.750
       251   07 Jun 2027 11:41:23.215   07 Jun 2027 11:43:22.337           119.122              Murmansk1         14890.250
       252   07 Jun 2027 11:43:22.337   07 Jun 2027 11:46:22.047           179.710              Murmansk2         22463.750
       253   07 Jun 2027 13:26:44.243   07 Jun 2027 13:33:50.700           426.457               Magadan1         53307.125
       254   07 Jun 2027 15:56:41.247   07 Jun 2027 16:00:53.431           252.184            RioGallegos         31523.000
       255   07 Jun 2027 16:45:03.528   07 Jun 2027 16:45:37.754            34.226                Irkutsk          4278.250
       256   07 Jun 2027 16:46:30.428   07 Jun 2027 16:47:27.364            56.936                Novosib          7117.000
       257   07 Jun 2027 16:56:03.275   07 Jun 2027 16:58:00.005           116.730                Sumatra         14591.250
       258   07 Jun 2027 16:58:16.676   07 Jun 2027 17:00:19.253           122.577                Sumatra         15322.125
       259   07 Jun 2027 18:25:56.314   07 Jun 2027 18:28:05.763           129.449                  Delhi         16181.125
       260   07 Jun 2027 18:28:35.560   07 Jun 2027 18:29:49.105            73.545                  Delhi          9193.125
       261   07 Jun 2027 19:58:22.242   07 Jun 2027 20:00:36.303           134.061                 Moscow         16757.625
       262   07 Jun 2027 21:55:56.342   07 Jun 2027 21:57:50.666           114.324               CapeTown         14290.500
       263   07 Jun 2027 21:59:50.547   07 Jun 2027 22:01:49.494           118.947               CapeTown          7401.000
       264   08 Jun 2027 03:52:09.860   08 Jun 2027 03:53:04.960            55.100                Novosib          6887.500
       265   08 Jun 2027 03:53:08.855   08 Jun 2027 03:56:19.350           190.495              Murmansk1         23811.875
       266   08 Jun 2027 05:01:55.139   08 Jun 2027 05:02:28.469            33.330                Sumatra          4166.250
       267   08 Jun 2027 05:03:47.590   08 Jun 2027 05:06:22.110           154.520                Sumatra         19315.000
       268   08 Jun 2027 05:28:04.876   08 Jun 2027 05:28:19.964            15.088              Murmansk1          1886.000
       269   08 Jun 2027 05:28:51.660   08 Jun 2027 05:32:56.835           245.175                Norilsk         30646.875
       270   08 Jun 2027 05:32:58.954   08 Jun 2027 05:35:22.101           143.147              Murmansk2         17893.375
       271   08 Jun 2027 06:52:57.176   08 Jun 2027 06:55:18.095           140.919                Novosib         17614.875
       272   08 Jun 2027 06:55:21.494   08 Jun 2027 06:58:34.151           192.657                  Delhi         24082.125
       273   08 Jun 2027 06:58:41.737   08 Jun 2027 06:59:54.667            72.930                Irkutsk          9116.250
       274   08 Jun 2027 07:03:39.094   08 Jun 2027 07:04:02.508            23.414                 Moscow          2926.750
       275   08 Jun 2027 07:04:06.951   08 Jun 2027 07:04:29.541            22.590                Norilsk          2823.750
       276   08 Jun 2027 07:04:37.471   08 Jun 2027 07:05:19.426            41.955                Novosib          5244.375
       277   08 Jun 2027 07:05:49.287   08 Jun 2027 07:10:44.469           295.182              Murmansk1         36897.750
       278   08 Jun 2027 08:30:24.515   08 Jun 2027 08:31:02.651            38.136                 Moscow          4767.000
       279   08 Jun 2027 08:33:07.484   08 Jun 2027 08:34:50.071           102.587                Novosib         12823.375
       280   08 Jun 2027 08:39:16.899   08 Jun 2027 08:39:31.833            14.934              Murmansk1          1866.750
       281   08 Jun 2027 08:40:21.382   08 Jun 2027 08:43:02.781           161.399                 Moscow         20174.875
       282   08 Jun 2027 08:43:11.701   08 Jun 2027 08:46:32.923           201.222              Murmansk2         25152.750
       283   08 Jun 2027 09:50:31.814   08 Jun 2027 09:52:53.344           141.530               CapeTown         17691.250
       284   08 Jun 2027 10:09:43.416   08 Jun 2027 10:09:45.965             2.549                 Moscow           318.625
       285   08 Jun 2027 10:13:18.620   08 Jun 2027 10:15:43.220           144.600              Murmansk2         18075.000
       286   08 Jun 2027 10:15:46.642   08 Jun 2027 10:18:47.746           181.104                 Moscow         22638.000
       287   08 Jun 2027 10:19:14.081   08 Jun 2027 10:21:25.848           131.767              Murmansk2         16470.875
       288   08 Jun 2027 10:21:25.848   08 Jun 2027 10:22:30.854            65.006              Murmansk1          8125.750
       289   08 Jun 2027 10:25:07.924   08 Jun 2027 10:32:28.564           440.640                Anadyr1         55080.000
       290   08 Jun 2027 11:27:14.548   08 Jun 2027 11:32:25.396           310.848               CapeTown         38856.000
       291   08 Jun 2027 11:49:16.657   08 Jun 2027 11:49:27.866            11.209              Murmansk2          1401.125
       292   08 Jun 2027 11:49:51.463   08 Jun 2027 11:52:24.290           152.827                 Moscow         19103.375
       293   08 Jun 2027 11:53:47.673   08 Jun 2027 11:53:54.974             7.301              Murmansk2           912.625
       294   08 Jun 2027 12:05:19.155   08 Jun 2027 12:06:48.881            89.726               Magadan2         11215.750
       295   08 Jun 2027 13:38:39.913   08 Jun 2027 13:41:44.204           184.291               Magadan2         23036.375
       296   08 Jun 2027 13:48:00.998   08 Jun 2027 13:48:11.859            10.861               Magadan2          1357.625
       297   08 Jun 2027 16:06:29.882   08 Jun 2027 16:12:20.382           350.500            RioGallegos         43812.500
       298   08 Jun 2027 16:54:04.384   08 Jun 2027 16:56:04.158           119.774                Irkutsk         14971.750
       299   08 Jun 2027 16:56:40.503   08 Jun 2027 16:59:13.885           153.382                Novosib         19172.750
       300   08 Jun 2027 17:10:33.047   08 Jun 2027 17:12:26.427           113.380                Sumatra         14172.500
       301   08 Jun 2027 18:29:50.851   08 Jun 2027 18:31:25.010            94.159                Novosib         11769.875
       302   08 Jun 2027 18:39:19.854   08 Jun 2027 18:41:46.316           146.462                  Delhi         18307.750
       303   08 Jun 2027 20:09:00.881   08 Jun 2027 20:09:48.122            47.241                 Moscow          5905.125
       304   08 Jun 2027 21:43:19.449   08 Jun 2027 21:45:42.663           143.214                 Moscow         17901.750
       305   08 Jun 2027 21:50:02.911   08 Jun 2027 21:51:15.406            72.495                 Moscow          8344.625
       306   09 Jun 2027 04:04:11.820   09 Jun 2027 04:09:03.432           291.612                Norilsk         36451.500
       307   09 Jun 2027 05:13:43.657   09 Jun 2027 05:15:04.802            81.145                Sumatra         10143.125
       308   09 Jun 2027 05:16:38.744   09 Jun 2027 05:18:20.688           101.944                Sumatra         12743.000
       309   09 Jun 2027 05:39:49.579   09 Jun 2027 05:41:25.178            95.599                 Moscow         11949.875
       310   09 Jun 2027 05:41:26.591   09 Jun 2027 05:41:32.516             5.925                Novosib           740.625
       311   09 Jun 2027 05:41:42.147   09 Jun 2027 05:44:58.541           196.394                Norilsk         24549.250
       312   09 Jun 2027 05:45:13.770   09 Jun 2027 05:47:17.135           123.365              Murmansk2         15420.625
       313   09 Jun 2027 07:05:16.621   09 Jun 2027 07:10:33.641           317.020                  Delhi         39627.500
       314   09 Jun 2027 07:11:00.379   09 Jun 2027 07:11:53.746            53.367                Irkutsk          6670.875
       315   09 Jun 2027 07:15:31.640   09 Jun 2027 07:16:44.912            73.272              Murmansk1          9159.000
       316   09 Jun 2027 07:17:08.510   09 Jun 2027 07:17:16.202             7.692                Novosib           961.500
       317   09 Jun 2027 07:17:49.637   09 Jun 2027 07:22:43.823           294.186              Murmansk2         36773.250
       318   09 Jun 2027 08:51:04.092   09 Jun 2027 08:52:08.243            64.151              Murmansk2          8018.875
       319   09 Jun 2027 08:52:59.840   09 Jun 2027 08:55:05.056           125.216                 Moscow         15652.000
       320   09 Jun 2027 08:55:12.790   09 Jun 2027 08:58:34.280           201.490              Murmansk2         25186.250
       321   09 Jun 2027 10:02:59.477   09 Jun 2027 10:06:02.269           182.792               CapeTown         22849.000
       322   09 Jun 2027 10:25:20.076   09 Jun 2027 10:27:10.417           110.341              Murmansk2         13792.625
       323   09 Jun 2027 10:27:52.368   09 Jun 2027 10:30:43.478           171.110                 Moscow         21388.750
       324   09 Jun 2027 10:31:01.336   09 Jun 2027 10:34:32.364           211.028              Murmansk2         26378.500
       325   09 Jun 2027 10:37:11.090   09 Jun 2027 10:45:13.272           482.182                Anadyr1         60272.750
       326   09 Jun 2027 11:39:32.183   09 Jun 2027 11:44:23.629           291.446               CapeTown         36430.750
       327   09 Jun 2027 12:04:34.576   09 Jun 2027 12:10:19.763           345.187              Murmansk1         43148.375
       328   09 Jun 2027 12:12:17.061   09 Jun 2027 12:20:09.463           472.402                Anadyr2         59050.250
       329   09 Jun 2027 12:20:47.458   09 Jun 2027 12:21:52.031            64.573               Magadan2          8071.625
       330   09 Jun 2027 13:50:36.783   09 Jun 2027 13:52:00.125            83.342               Magadan1         10417.750
       331   09 Jun 2027 13:52:43.383   09 Jun 2027 13:55:12.724           149.341               Magadan2         18667.625
       332   09 Jun 2027 15:32:53.482   09 Jun 2027 15:35:30.856           157.374                Irkutsk         19671.750
       333   09 Jun 2027 16:18:19.988   09 Jun 2027 16:21:10.695           170.707            RioGallegos         21338.375
       334   09 Jun 2027 17:05:59.360   09 Jun 2027 17:07:52.180           112.820                Irkutsk         14102.500
       335   09 Jun 2027 17:08:21.357   09 Jun 2027 17:14:33.730           372.373                Novosib         46546.625
       336   09 Jun 2027 18:48:37.585   09 Jun 2027 18:49:22.262            44.677                Novosib          5584.625
       337   09 Jun 2027 18:49:22.801   09 Jun 2027 18:51:40.314           137.513                  Delhi         17189.125
       338   09 Jun 2027 20:20:35.475   09 Jun 2027 20:24:28.526           233.051                 Moscow         20551.750
       339   10 Jun 2027 04:16:12.936   10 Jun 2027 04:20:10.238           237.302                Norilsk         29662.750
       340   10 Jun 2027 05:25:38.064   10 Jun 2027 05:27:58.158           140.094                Sumatra         17511.750
       341   10 Jun 2027 05:36:14.312   10 Jun 2027 05:39:05.500           171.188                  Delhi         21398.500
       342   10 Jun 2027 05:52:20.536   10 Jun 2027 05:57:00.329           279.793                Norilsk         34974.125
       343   10 Jun 2027 05:57:22.950   10 Jun 2027 05:59:12.841           109.891              Murmansk1         13736.375
       344   10 Jun 2027 07:17:54.299   10 Jun 2027 07:22:29.731           275.432                  Delhi         34429.000
       345   10 Jun 2027 07:22:33.132   10 Jun 2027 07:22:44.487            11.355                 Moscow          1419.375
       346   10 Jun 2027 07:23:23.271   10 Jun 2027 07:23:51.720            28.449                Irkutsk          3556.125
       347   10 Jun 2027 07:27:55.668   10 Jun 2027 07:28:29.573            33.905              Murmansk1          4238.125
       348   10 Jun 2027 07:28:33.407   10 Jun 2027 07:29:11.636            38.229                Novosib          4778.625
       349   10 Jun 2027 07:29:50.261   10 Jun 2027 07:34:43.539           293.278              Murmansk2         36659.750
       350   10 Jun 2027 09:04:14.406   10 Jun 2027 09:05:37.741            83.335                Norilsk         10416.875
       351   10 Jun 2027 09:05:45.953   10 Jun 2027 09:07:06.803            80.850                 Moscow         10106.250
       352   10 Jun 2027 09:07:15.398   10 Jun 2027 09:10:35.760           200.362              Murmansk1         25045.250
       353   10 Jun 2027 10:16:52.572   10 Jun 2027 10:18:50.927           118.355               CapeTown         14794.375
       354   10 Jun 2027 10:37:21.625   10 Jun 2027 10:39:10.705           109.080              Murmansk1         13635.000
       355   10 Jun 2027 10:39:10.705   10 Jun 2027 10:46:33.750           443.045              Murmansk2         55380.625
       356   10 Jun 2027 10:48:49.044   10 Jun 2027 10:57:52.507           543.463                Anadyr2         67932.875
       357   10 Jun 2027 11:48:39.884   10 Jun 2027 11:56:16.920           457.036               CapeTown         57129.500
       358   10 Jun 2027 12:13:43.667   10 Jun 2027 12:19:18.139           334.472              Murmansk2         41809.000
       359   10 Jun 2027 12:19:18.139   10 Jun 2027 12:22:17.230           179.091              Murmansk1         22386.375
       360   10 Jun 2027 12:24:17.232   10 Jun 2027 12:28:48.345           271.113                Anadyr1         33889.125
       361   10 Jun 2027 12:31:46.520   10 Jun 2027 12:34:55.772           189.252               Magadan1         23656.500
       362   10 Jun 2027 14:05:06.619   10 Jun 2027 14:07:13.026           126.407               Magadan2         15800.875
       363   10 Jun 2027 15:43:58.159   10 Jun 2027 15:47:17.846           199.687                Irkutsk         24960.875
       364   10 Jun 2027 16:00:33.838   10 Jun 2027 16:04:29.745           235.907                Sumatra         29488.375
       365   10 Jun 2027 17:17:55.869   10 Jun 2027 17:18:04.974             9.105                Irkutsk          1138.125
       366   10 Jun 2027 17:19:00.497   10 Jun 2027 17:22:56.365           235.868                Novosib         29483.500
       367   10 Jun 2027 17:37:00.152   10 Jun 2027 17:37:00.654             0.502                Sumatra            62.750
       368   10 Jun 2027 17:38:50.662   10 Jun 2027 17:39:21.123            30.461                Sumatra          3807.625
       369   10 Jun 2027 17:41:13.696   10 Jun 2027 17:43:06.342           112.646                Sumatra         14080.750
       370   10 Jun 2027 19:01:13.397   10 Jun 2027 19:04:52.980           219.583                  Delhi         27447.875
       371   10 Jun 2027 20:32:17.508   10 Jun 2027 20:34:19.907           122.399                 Moscow         15299.875
       372   10 Jun 2027 22:08:57.880   10 Jun 2027 22:09:18.283            20.403              Murmansk1           963.624
       373   11 Jun 2027 04:28:04.740   11 Jun 2027 04:28:06.778             2.038                Irkutsk           254.750
       374   11 Jun 2027 04:28:07.558   11 Jun 2027 04:29:23.947            76.389                Novosib          9548.625
       375   11 Jun 2027 04:29:26.239   11 Jun 2027 04:33:01.805           215.566              Murmansk2         26945.750
       376   11 Jun 2027 05:37:38.080   11 Jun 2027 05:39:16.420            98.340                Sumatra         12292.500
       377   11 Jun 2027 05:45:37.137   11 Jun 2027 05:47:16.650            99.513                Sumatra         12439.125
       378   11 Jun 2027 05:50:45.662   11 Jun 2027 05:50:52.256             6.594                  Delhi           824.250
       379   11 Jun 2027 05:53:45.566   11 Jun 2027 05:55:02.492            76.926                  Delhi          9615.750
       380   11 Jun 2027 06:03:15.070   11 Jun 2027 06:03:45.160            30.090              Murmansk2          3761.250
       381   11 Jun 2027 06:04:08.735   11 Jun 2027 06:05:36.318            87.583                Novosib         10947.875
       382   11 Jun 2027 06:05:41.177   11 Jun 2027 06:09:02.185           201.008                Norilsk         25126.000
       383   11 Jun 2027 06:09:13.717   11 Jun 2027 06:11:09.193           115.476              Murmansk1         14434.500
       384   11 Jun 2027 07:28:36.876   11 Jun 2027 07:34:22.129           345.253                  Delhi         43156.625
       385   11 Jun 2027 07:39:51.470   11 Jun 2027 07:40:24.721            33.251              Murmansk1          4156.375
       386   11 Jun 2027 07:40:41.815   11 Jun 2027 07:42:03.263            81.448                Norilsk         10181.000
       387   11 Jun 2027 07:42:11.263   11 Jun 2027 07:43:13.828            62.565              Murmansk2          7820.625
       388   11 Jun 2027 07:43:13.828   11 Jun 2027 07:46:43.592           209.764              Murmansk1         26220.500
       389   11 Jun 2027 09:09:32.556   11 Jun 2027 09:10:14.168            41.612                 Moscow          5201.500
       390   11 Jun 2027 09:15:49.603   11 Jun 2027 09:19:07.966           198.363                 Moscow         24795.375
       391   11 Jun 2027 09:19:51.501   11 Jun 2027 09:22:37.331           165.830              Murmansk1         20728.750
       392   11 Jun 2027 10:27:22.981   11 Jun 2027 10:31:27.263           244.282               CapeTown         30535.250
       393   11 Jun 2027 10:48:59.479   11 Jun 2027 10:50:16.176            76.697              Murmansk2          9587.125
       394   11 Jun 2027 10:50:16.176   11 Jun 2027 10:58:34.953           498.777              Murmansk1         62347.125
       395   11 Jun 2027 11:00:43.269   11 Jun 2027 11:10:27.229           583.960                Anadyr1         72995.000
       396   11 Jun 2027 11:58:40.440   11 Jun 2027 12:03:11.433           270.993               CapeTown         33874.125
       397   11 Jun 2027 12:39:36.564   11 Jun 2027 12:43:40.330           243.766               Magadan1         30470.750
       398   11 Jun 2027 12:44:43.015   11 Jun 2027 12:46:05.472            82.457               Magadan2         10307.125
       399   11 Jun 2027 14:15:11.762   11 Jun 2027 14:15:33.877            22.115               Magadan2          2764.375
       400   11 Jun 2027 14:24:06.106   11 Jun 2027 14:25:01.556            55.450               Magadan2          6931.250
       401   11 Jun 2027 15:09:19.620   11 Jun 2027 15:11:20.837           121.217            RioGallegos         15152.125
       402   11 Jun 2027 15:55:25.779   11 Jun 2027 15:56:46.977            81.198                Irkutsk         10149.750
       403   11 Jun 2027 15:59:08.054   11 Jun 2027 16:00:27.020            78.966                Irkutsk          9870.750
       404   11 Jun 2027 16:10:51.205   11 Jun 2027 16:15:07.003           255.798                Sumatra         31974.750
       405   11 Jun 2027 17:31:56.081   11 Jun 2027 17:34:50.701           174.620                Novosib         21827.500
       406   11 Jun 2027 17:42:20.153   11 Jun 2027 17:42:56.570            36.417                  Delhi          4552.125
       407   11 Jun 2027 19:13:07.883   11 Jun 2027 19:15:47.046           159.163                  Delhi         19895.375
       408   11 Jun 2027 19:17:57.922   11 Jun 2027 19:18:34.398            36.476                  Delhi          4559.500
       409   11 Jun 2027 20:42:51.737   11 Jun 2027 20:44:08.432            76.695              Murmansk1          9586.875
       410   11 Jun 2027 20:46:30.587   11 Jun 2027 20:48:18.082           107.495                 Moscow          9872.000
       411   12 Jun 2027 04:16:18.248   12 Jun 2027 04:18:53.578           155.330                Sumatra         19416.250
       412   12 Jun 2027 04:40:17.651   12 Jun 2027 04:48:03.799           466.148              Murmansk2         58268.500
       413   12 Jun 2027 05:18:26.631   12 Jun 2027 05:27:22.890           536.259            RioGallegos         67032.375
       414   12 Jun 2027 05:49:43.722   12 Jun 2027 05:50:39.513            55.791                Sumatra          6973.875
       415   12 Jun 2027 06:14:38.709   12 Jun 2027 06:15:25.176            46.467                Irkutsk          5808.375
       416   12 Jun 2027 06:15:55.402   12 Jun 2027 06:17:37.354           101.952                Novosib         12744.000
       417   12 Jun 2027 06:17:58.221   12 Jun 2027 06:21:04.080           185.859                Norilsk         23232.375
       418   12 Jun 2027 06:21:11.656   12 Jun 2027 06:23:06.140           114.484              Murmansk2         14310.500
       419   12 Jun 2027 07:40:04.830   12 Jun 2027 07:46:10.305           365.475                  Delhi         45684.375
       420   12 Jun 2027 07:51:43.951   12 Jun 2027 07:51:46.895             2.944                Novosib           368.000
       421   12 Jun 2027 07:51:56.162   12 Jun 2027 07:55:03.530           187.368                 Moscow         23421.000
       422   12 Jun 2027 07:55:09.828   12 Jun 2027 07:56:52.641           102.813              Murmansk1         12851.625
       423   12 Jun 2027 07:56:52.641   12 Jun 2027 07:58:43.934           111.293              Murmansk2         13911.625
       424   12 Jun 2027 09:21:33.596   12 Jun 2027 09:22:21.132            47.536                 Moscow          5942.000
       425   12 Jun 2027 09:26:38.125   12 Jun 2027 09:28:40.051           121.926              Murmansk2         15240.750
       426   12 Jun 2027 09:28:57.398   12 Jun 2027 09:31:08.491           131.093                 Moscow         16386.625
       427   12 Jun 2027 09:31:57.611   12 Jun 2027 09:34:38.968           161.357              Murmansk1         20169.625
       428   12 Jun 2027 10:36:50.050   12 Jun 2027 10:43:54.606           424.556               CapeTown         53069.500
       429   12 Jun 2027 11:01:24.898   12 Jun 2027 11:02:17.280            52.382              Murmansk2          6547.750
       430   12 Jun 2027 11:02:17.334   12 Jun 2027 11:06:19.551           242.217                 Moscow         30277.125
       431   12 Jun 2027 11:06:23.707   12 Jun 2027 11:10:35.931           252.224              Murmansk1         31528.000
       432   12 Jun 2027 11:12:59.208   12 Jun 2027 11:20:41.656           462.448                Anadyr2         57806.000
       433   12 Jun 2027 12:51:22.689   12 Jun 2027 12:57:10.353           347.664               Magadan1         43458.000
       434   12 Jun 2027 15:20:14.941   12 Jun 2027 15:23:27.440           192.499            RioGallegos         24062.375
       435   12 Jun 2027 16:07:03.490   12 Jun 2027 16:09:00.203           116.713                Irkutsk         14589.125
       436   12 Jun 2027 16:21:51.268   12 Jun 2027 16:24:46.362           175.094                Sumatra         21886.750
       437   12 Jun 2027 17:45:01.642   12 Jun 2027 17:46:46.575           104.933                Novosib         13116.625
       438   12 Jun 2027 17:52:12.660   12 Jun 2027 17:54:35.561           142.901                  Delhi         17862.625
       439   12 Jun 2027 19:25:05.886   12 Jun 2027 19:27:05.298           119.412                  Delhi         14926.500
       440   12 Jun 2027 20:55:54.252   12 Jun 2027 20:56:41.685            47.433                 Moscow          5929.125
       441   12 Jun 2027 20:56:43.679   12 Jun 2027 20:56:52.855             9.176              Murmansk2          1147.000
       442   12 Jun 2027 20:58:38.049   12 Jun 2027 21:00:14.980            96.931                 Moscow         12116.375
       443   12 Jun 2027 21:24:35.753   12 Jun 2027 21:25:50.522            74.769               CapeTown          8881.750
       444   13 Jun 2027 03:15:01.961   13 Jun 2027 03:15:13.856            11.895                Irkutsk          1486.875
       445   13 Jun 2027 03:16:07.887   13 Jun 2027 03:16:22.903            15.016              Murmansk1          1877.000
       446   13 Jun 2027 03:16:22.903   13 Jun 2027 03:24:11.444           468.541              Murmansk2         58567.625
       447   13 Jun 2027 04:27:28.665   13 Jun 2027 04:30:40.721           192.056                Sumatra         24007.000
       448   13 Jun 2027 04:52:17.320   13 Jun 2027 04:57:07.229           289.909                Norilsk         36238.625
       449   13 Jun 2027 04:57:09.975   13 Jun 2027 04:59:55.912           165.937              Murmansk2         20742.125
       450   13 Jun 2027 06:09:47.007   13 Jun 2027 06:13:54.239           247.232                Sumatra         30904.000
       451   13 Jun 2027 06:20:21.950   13 Jun 2027 06:23:43.664           201.714                Novosib         25214.250
       452   13 Jun 2027 06:27:19.459   13 Jun 2027 06:29:37.740           138.281                Novosib         17285.125
       453   13 Jun 2027 06:30:04.956   13 Jun 2027 06:32:01.620           116.664              Murmansk2         14583.000
       454   13 Jun 2027 06:32:01.620   13 Jun 2027 06:35:03.658           182.038              Murmansk1         22754.750
       455   13 Jun 2027 07:55:20.696   13 Jun 2027 07:58:22.711           182.015                Novosib         22751.875
       456   13 Jun 2027 07:58:50.157   13 Jun 2027 07:59:40.785            50.628                Novosib          6328.500
       457   13 Jun 2027 08:03:40.925   13 Jun 2027 08:04:46.255            65.330                Novosib          8166.250
       458   13 Jun 2027 08:05:53.404   13 Jun 2027 08:07:22.149            88.745              Murmansk1         11093.125
       459   13 Jun 2027 08:07:22.149   13 Jun 2027 08:10:44.548           202.399              Murmansk2         25299.875
       460   13 Jun 2027 09:33:01.657   13 Jun 2027 09:33:08.912             7.255                 Moscow           906.875
       461   13 Jun 2027 09:35:46.605   13 Jun 2027 09:36:17.172            30.567              Murmansk2          3820.875
       462   13 Jun 2027 09:37:04.775   13 Jun 2027 09:37:29.710            24.935              Murmansk1          3116.875
       463   13 Jun 2027 09:38:14.206   13 Jun 2027 09:40:45.725           151.519              Murmansk1         18939.875
       464   13 Jun 2027 09:40:55.635   13 Jun 2027 09:43:35.518           159.883                Norilsk         19985.375
       465   13 Jun 2027 09:43:46.381   13 Jun 2027 09:46:40.645           174.264              Murmansk1         21783.000
       466   13 Jun 2027 09:51:48.185   13 Jun 2027 09:53:20.233            92.048                Anadyr2         11506.000
       467   13 Jun 2027 10:50:01.426   13 Jun 2027 10:56:14.714           373.288               CapeTown         46661.000
       468   13 Jun 2027 11:13:26.561   13 Jun 2027 11:14:18.546            51.985              Murmansk1          6498.125
       469   13 Jun 2027 11:14:36.598   13 Jun 2027 11:18:05.832           209.234                 Moscow         26154.250
       470   13 Jun 2027 11:18:11.740   13 Jun 2027 11:19:43.538            91.798              Murmansk2         11474.750
       471   13 Jun 2027 11:24:36.064   13 Jun 2027 11:25:29.305            53.241                Anadyr2          6655.125
       472   13 Jun 2027 11:28:55.415   13 Jun 2027 11:29:48.564            53.149                Anadyr1          6643.625
       473   13 Jun 2027 13:03:12.405   13 Jun 2027 13:05:36.666           144.261               Magadan2         18032.625
       474   13 Jun 2027 13:05:36.666   13 Jun 2027 13:09:33.747           237.081               Magadan1         29635.125
       475   13 Jun 2027 15:31:39.248   13 Jun 2027 15:35:16.925           217.677            RioGallegos         27209.625
       476   13 Jun 2027 16:33:09.509   13 Jun 2027 16:36:36.575           207.066                Sumatra         25883.250
       477   13 Jun 2027 17:54:21.740   13 Jun 2027 17:55:17.619            55.879                Novosib          6984.875
       478   13 Jun 2027 17:57:08.459   13 Jun 2027 17:58:21.966            73.507                Novosib          9188.375
       479   13 Jun 2027 18:03:15.374   13 Jun 2027 18:06:20.497           185.123                  Delhi         23140.375
       480   13 Jun 2027 21:06:16.603   13 Jun 2027 21:06:44.443            27.840              Murmansk1          3480.000
       481   13 Jun 2027 21:07:46.714   13 Jun 2027 21:09:12.012            85.298                 Moscow         10662.250
       482   13 Jun 2027 21:33:08.345   13 Jun 2027 21:34:30.460            82.115               CapeTown         10264.375
