uniorb/output/strategy_4/Drop/Drop_KinoSat_110205.txt

KinoSat_110205
-------------------------
    Access    *     Start Time (UTCG)     *     Stop Time (UTCG)  *   Duration (s)        *       Station  *  Data (Mbytes)
         1   01 Jun 2027 04:03:56.980   01 Jun 2027 04:04:17.094            20.114                Norilsk          2514.250
         2   01 Jun 2027 04:04:22.881   01 Jun 2027 04:04:57.183            34.302                Novosib          4287.750
         3   01 Jun 2027 04:04:58.733   01 Jun 2027 04:05:18.842            20.109                Norilsk          2513.625
         4   01 Jun 2027 04:05:33.103   01 Jun 2027 04:06:57.442            84.339                Norilsk         10542.375
         5   01 Jun 2027 04:07:16.458   01 Jun 2027 04:07:49.102            32.644              Murmansk2          4080.500
         6   01 Jun 2027 04:08:04.106   01 Jun 2027 04:08:24.765            20.659              Murmansk2          2582.375
         7   01 Jun 2027 04:08:24.765   01 Jun 2027 04:09:02.507            37.742              Murmansk1          4717.750
         8   01 Jun 2027 04:09:08.102   01 Jun 2027 04:09:21.441            13.339                Norilsk          1667.375
         9   01 Jun 2027 04:12:05.329   01 Jun 2027 04:12:52.572            47.243                Norilsk          5905.375
        10   01 Jun 2027 04:12:56.020   01 Jun 2027 04:13:03.882             7.862                Norilsk           982.750
        11   01 Jun 2027 04:43:55.913   01 Jun 2027 04:45:04.359            68.446            RioGallegos          8555.750
        12   01 Jun 2027 05:20:28.976   01 Jun 2027 05:22:58.611           149.635                Sumatra         18704.375
        13   01 Jun 2027 05:32:44.541   01 Jun 2027 05:33:44.173            59.632                  Delhi          7454.000
        14   01 Jun 2027 05:41:42.375   01 Jun 2027 05:43:52.014           129.639                Irkutsk         16204.875
        15   01 Jun 2027 07:02:58.043   01 Jun 2027 07:05:02.027           123.984                  Delhi         15498.000
        16   01 Jun 2027 07:18:07.894   01 Jun 2027 07:18:42.370            34.476                 Moscow          4309.500
        17   01 Jun 2027 07:18:54.173   01 Jun 2027 07:19:48.350            54.177                 Moscow          6772.125
        18   01 Jun 2027 07:20:22.385   01 Jun 2027 07:21:14.896            52.511                Novosib          6563.875
        19   01 Jun 2027 08:54:58.053   01 Jun 2027 08:56:45.710           107.657              Murmansk1         13457.125
        20   01 Jun 2027 09:07:42.508   01 Jun 2027 09:08:06.980            24.472                Anadyr1          3059.000
        21   01 Jun 2027 10:00:37.806   01 Jun 2027 10:05:03.314           265.508               CapeTown         33188.500
        22   01 Jun 2027 10:41:02.103   01 Jun 2027 10:42:28.932            86.829                Anadyr2         10853.625
        23   01 Jun 2027 10:45:25.723   01 Jun 2027 10:45:43.287            17.564                Anadyr1          2195.500
        24   01 Jun 2027 12:19:40.111   01 Jun 2027 12:23:14.353           214.242               Magadan1         26780.250
        25   01 Jun 2027 13:54:57.906   01 Jun 2027 13:56:15.659            77.753               Magadan1          9719.125
        26   01 Jun 2027 13:58:04.089   01 Jun 2027 13:58:20.076            15.987               Magadan1          1998.375
        27   01 Jun 2027 14:52:25.150   01 Jun 2027 14:55:37.764           192.614            RioGallegos         24076.750
        28   01 Jun 2027 15:35:16.298   01 Jun 2027 15:39:27.084           250.786                Irkutsk         31348.250
        29   01 Jun 2027 15:49:44.354   01 Jun 2027 15:53:08.668           204.314                Sumatra         25539.250
        30   01 Jun 2027 17:11:34.782   01 Jun 2027 17:15:15.223           220.441                Novosib         27555.125
        31   01 Jun 2027 17:19:52.956   01 Jun 2027 17:22:53.199           180.243                  Delhi          3460.001
        32   02 Jun 2027 04:19:43.544   02 Jun 2027 04:20:10.026            26.482                Irkutsk          3310.250
        33   02 Jun 2027 04:20:33.088   02 Jun 2027 04:20:36.197             3.109                Irkutsk           388.625
        34   02 Jun 2027 05:30:33.800   02 Jun 2027 05:30:55.466            21.666                Sumatra          2708.250
        35   02 Jun 2027 05:32:55.999   02 Jun 2027 05:34:57.423           121.424                Sumatra         15178.000
        36   02 Jun 2027 05:38:50.950   02 Jun 2027 05:41:20.783           149.833                  Delhi         18729.125
        37   02 Jun 2027 05:54:51.939   02 Jun 2027 05:55:21.500            29.561                Novosib          3695.125
        38   02 Jun 2027 05:55:59.286   02 Jun 2027 05:58:03.040           123.754                Novosib         15469.250
        39   02 Jun 2027 05:58:05.045   02 Jun 2027 05:58:35.626            30.581              Murmansk2          3822.625
        40   02 Jun 2027 05:58:40.175   02 Jun 2027 05:59:04.004            23.829                 Moscow          2978.625
        41   02 Jun 2027 05:59:18.586   02 Jun 2027 06:01:54.212           155.626              Murmansk1         19453.250
        42   02 Jun 2027 07:15:26.708   02 Jun 2027 07:16:18.763            52.055                  Delhi          6506.875
        43   02 Jun 2027 07:16:45.466   02 Jun 2027 07:17:39.576            54.110                  Delhi          6763.750
        44   02 Jun 2027 07:18:44.005   02 Jun 2027 07:19:18.041            34.036                  Delhi          4254.500
        45   02 Jun 2027 07:24:09.123   02 Jun 2027 07:25:31.215            82.092                  Delhi         10261.500
        46   02 Jun 2027 07:31:55.466   02 Jun 2027 07:32:25.138            29.672                 Moscow          3709.000
        47   02 Jun 2027 07:32:36.471   02 Jun 2027 07:33:01.401            24.930                Novosib          3116.250
        48   02 Jun 2027 07:33:07.847   02 Jun 2027 07:35:49.537           161.690                Norilsk         20211.250
        49   02 Jun 2027 07:35:51.001   02 Jun 2027 07:36:58.313            67.312              Murmansk1          8414.000
        50   02 Jun 2027 07:36:58.313   02 Jun 2027 07:38:10.254            71.941              Murmansk2          8992.625
        51   02 Jun 2027 09:02:09.604   02 Jun 2027 09:03:33.450            83.846                 Moscow         10480.750
        52   02 Jun 2027 09:05:42.594   02 Jun 2027 09:07:00.641            78.047              Murmansk1          9755.875
        53   02 Jun 2027 09:07:51.781   02 Jun 2027 09:08:33.015            41.234              Murmansk1          5154.250
        54   02 Jun 2027 09:10:48.151   02 Jun 2027 09:13:12.404           144.253              Murmansk2         18031.625
        55   02 Jun 2027 09:18:36.118   02 Jun 2027 09:22:17.473           221.355                Anadyr2         27669.375
        56   02 Jun 2027 10:52:59.843   02 Jun 2027 10:54:14.992            75.149                Anadyr2          9393.625
        57   02 Jun 2027 11:00:32.643   02 Jun 2027 11:02:33.136           120.493                Anadyr1         15061.625
        58   02 Jun 2027 12:31:31.830   02 Jun 2027 12:37:00.016           328.186               Magadan2         41023.250
        59   02 Jun 2027 15:03:24.871   02 Jun 2027 15:03:41.062            16.191            RioGallegos          2023.875
        60   02 Jun 2027 15:05:30.256   02 Jun 2027 15:07:05.739            95.483            RioGallegos         11935.375
        61   02 Jun 2027 15:47:03.226   02 Jun 2027 15:50:05.915           182.689                Irkutsk         22836.125
        62   02 Jun 2027 16:01:11.577   02 Jun 2027 16:02:25.470            73.893                Sumatra          9236.625
        63   02 Jun 2027 16:04:12.904   02 Jun 2027 16:05:04.040            51.136                Sumatra          6392.000
        64   02 Jun 2027 16:08:12.578   02 Jun 2027 16:08:27.777            15.199                Sumatra          1899.875
        65   02 Jun 2027 17:22:41.662   02 Jun 2027 17:25:38.697           177.035                Novosib         22129.375
        66   02 Jun 2027 17:31:11.391   02 Jun 2027 17:34:42.399           211.008                  Delhi         26376.000
        67   02 Jun 2027 19:05:35.785   02 Jun 2027 19:06:38.404            62.619                  Delhi          7827.375
        68   02 Jun 2027 19:07:39.377   02 Jun 2027 19:08:40.088            60.711                  Delhi          7588.875
        69   02 Jun 2027 19:10:09.010   02 Jun 2027 19:10:28.586            19.576                  Delhi          2447.000
        70   02 Jun 2027 20:36:07.773   02 Jun 2027 20:38:17.977           130.204                 Moscow         16275.500
        71   02 Jun 2027 21:09:18.938   02 Jun 2027 21:09:57.656            38.718               CapeTown          3313.250
        72   03 Jun 2027 05:50:37.610   03 Jun 2027 05:53:30.609           172.999                  Delhi         21624.875
        73   03 Jun 2027 06:08:10.970   03 Jun 2027 06:08:36.744            25.774                 Moscow          3221.750
        74   03 Jun 2027 06:08:51.555   03 Jun 2027 06:09:29.404            37.849                Novosib          4731.125
        75   03 Jun 2027 06:09:33.713   03 Jun 2027 06:11:12.394            98.681                 Moscow         12335.125
        76   03 Jun 2027 06:11:42.332   03 Jun 2027 06:13:34.781           112.449                Norilsk         14056.125
        77   03 Jun 2027 06:13:56.103   03 Jun 2027 06:14:35.527            39.424              Murmansk1          4928.000
        78   03 Jun 2027 07:28:05.497   03 Jun 2027 07:29:00.470            54.973                  Delhi          6871.625
        79   03 Jun 2027 07:29:44.373   03 Jun 2027 07:31:32.378           108.005                  Delhi         13500.625
        80   03 Jun 2027 07:36:35.807   03 Jun 2027 07:38:27.130           111.323                Novosib         13915.375
        81   03 Jun 2027 07:39:15.127   03 Jun 2027 07:39:40.043            24.916                 Moscow          3114.500
        82   03 Jun 2027 07:44:34.318   03 Jun 2027 07:49:28.455           294.137                Norilsk         36767.125
        83   03 Jun 2027 07:49:42.597   03 Jun 2027 07:51:11.616            89.019              Murmansk2         11127.375
        84   03 Jun 2027 09:12:03.707   03 Jun 2027 09:12:47.792            44.085                 Moscow          5510.625
        85   03 Jun 2027 09:13:58.365   03 Jun 2027 09:15:34.853            96.488                 Moscow         12061.000
        86   03 Jun 2027 09:15:36.283   03 Jun 2027 09:16:47.822            71.539              Murmansk2          8942.375
        87   03 Jun 2027 09:18:11.628   03 Jun 2027 09:18:27.715            16.087              Murmansk2          2010.875
        88   03 Jun 2027 09:19:13.357   03 Jun 2027 09:19:52.763            39.406              Murmansk2          4925.750
        89   03 Jun 2027 09:22:41.182   03 Jun 2027 09:23:26.734            45.552                Norilsk          5694.000
        90   03 Jun 2027 09:30:08.455   03 Jun 2027 09:36:03.057           354.602                Anadyr1         44325.250
        91   03 Jun 2027 11:04:58.377   03 Jun 2027 11:06:39.362           100.985                Anadyr1         12623.125
        92   03 Jun 2027 11:13:23.084   03 Jun 2027 11:14:32.190            69.106                Anadyr1          8638.250
        93   03 Jun 2027 12:08:14.116   03 Jun 2027 12:09:19.577            65.461               CapeTown          8182.625
        94   03 Jun 2027 12:33:57.030   03 Jun 2027 12:34:36.457            39.427              Murmansk2          4928.375
        95   03 Jun 2027 12:41:15.261   03 Jun 2027 12:42:06.133            50.872                Anadyr1          6359.000
        96   03 Jun 2027 12:43:25.607   03 Jun 2027 12:45:51.691           146.084               Magadan1         18260.500
        97   03 Jun 2027 12:47:31.590   03 Jun 2027 12:47:59.943            28.353               Magadan2          3544.125
        98   03 Jun 2027 12:51:53.040   03 Jun 2027 12:52:56.315            63.275               Magadan1          7909.375
        99   03 Jun 2027 14:18:58.926   03 Jun 2027 14:21:09.261           130.335               Magadan2         16291.875
       100   03 Jun 2027 15:11:26.894   03 Jun 2027 15:15:35.089           248.195            RioGallegos         31024.375
       101   03 Jun 2027 15:58:53.383   03 Jun 2027 16:00:11.685            78.302                Irkutsk          9787.750
       102   03 Jun 2027 16:03:07.274   03 Jun 2027 16:03:20.612            13.338                Irkutsk          1667.250
       103   03 Jun 2027 16:12:47.985   03 Jun 2027 16:14:51.809           123.824                Sumatra         15478.000
       104   03 Jun 2027 17:34:35.966   03 Jun 2027 17:36:38.119           122.153                Novosib         15269.125
       105   03 Jun 2027 17:42:42.174   03 Jun 2027 17:46:35.684           233.510                  Delhi         29188.750
       106   03 Jun 2027 17:49:36.049   03 Jun 2027 17:49:49.537            13.488                  Delhi          1686.000
       107   03 Jun 2027 19:22:25.854   03 Jun 2027 19:23:39.479            73.625                  Delhi          9203.125
       108   03 Jun 2027 20:45:44.250   03 Jun 2027 20:46:34.039            49.789              Murmansk1          6223.625
       109   03 Jun 2027 20:48:03.328   03 Jun 2027 20:49:41.728            98.400                 Moscow         12300.000
       110   03 Jun 2027 21:19:50.781   03 Jun 2027 21:21:59.502           128.721               CapeTown         14979.750
       111   04 Jun 2027 03:08:44.435   04 Jun 2027 03:09:43.237            58.802                Novosib          7350.250
       112   04 Jun 2027 03:09:50.311   04 Jun 2027 03:10:44.077            53.766                Norilsk          6720.750
       113   04 Jun 2027 04:18:39.030   04 Jun 2027 04:23:07.611           268.581                Sumatra         33572.625
       114   04 Jun 2027 04:44:30.844   04 Jun 2027 04:46:09.293            98.449                Novosib         12306.125
       115   04 Jun 2027 04:46:10.132   04 Jun 2027 04:49:38.120           207.988              Murmansk2         25998.500
       116   04 Jun 2027 05:26:38.380   04 Jun 2027 05:27:08.251            29.871            RioGallegos          3733.875
       117   04 Jun 2027 05:27:48.517   04 Jun 2027 05:28:23.357            34.840            RioGallegos          4355.000
       118   04 Jun 2027 05:28:51.373   04 Jun 2027 05:29:11.080            19.707            RioGallegos          2463.375
       119   04 Jun 2027 05:55:32.913   04 Jun 2027 05:57:26.493           113.580                Sumatra         14197.500
       120   04 Jun 2027 05:58:30.007   04 Jun 2027 05:59:12.115            42.108                Sumatra          5263.500
       121   04 Jun 2027 06:02:29.735   04 Jun 2027 06:05:41.847           192.112                  Delhi         24014.000
       122   04 Jun 2027 06:09:34.168   04 Jun 2027 06:11:20.244           106.076                Novosib         13259.500
       123   04 Jun 2027 06:11:49.294   04 Jun 2027 06:12:36.428            47.134                Irkutsk          5891.750
       124   04 Jun 2027 06:12:42.469   04 Jun 2027 06:13:04.956            22.487                Novosib          2810.875
       125   04 Jun 2027 06:13:52.782   04 Jun 2027 06:16:11.256           138.474                 Moscow         17309.250
       126   04 Jun 2027 06:20:01.640   04 Jun 2027 06:20:47.069            45.429              Murmansk1          5678.625
       127   04 Jun 2027 06:20:47.069   04 Jun 2027 06:23:51.370           184.301              Murmansk2         23037.625
       128   04 Jun 2027 06:23:55.047   04 Jun 2027 06:25:20.927            85.880              Murmansk1         10735.000
       129   04 Jun 2027 07:41:29.778   04 Jun 2027 07:43:53.414           143.636                  Delhi         17954.500
       130   04 Jun 2027 07:48:27.295   04 Jun 2027 07:51:41.125           193.830                 Moscow         24228.750
       131   04 Jun 2027 07:55:40.284   04 Jun 2027 07:56:17.082            36.798                Novosib          4599.750
       132   04 Jun 2027 07:57:02.622   04 Jun 2027 08:03:12.813           370.191              Murmansk2         46273.875
       133   04 Jun 2027 09:23:16.212   04 Jun 2027 09:27:39.199           262.987                 Moscow         32873.375
       134   04 Jun 2027 09:27:53.463   04 Jun 2027 09:28:38.711            45.248              Murmansk1          5656.000
       135   04 Jun 2027 09:29:44.955   04 Jun 2027 09:30:27.576            42.621              Murmansk2          5327.625
       136   04 Jun 2027 09:31:46.448   04 Jun 2027 09:32:30.979            44.531              Murmansk2          5566.375
       137   04 Jun 2027 09:34:24.235   04 Jun 2027 09:35:40.535            76.300              Murmansk1          9537.500
       138   04 Jun 2027 09:41:51.197   04 Jun 2027 09:46:06.506           255.309                Anadyr1         31913.625
       139   04 Jun 2027 09:46:14.880   04 Jun 2027 09:48:31.945           137.065                Anadyr2         17133.125
       140   04 Jun 2027 11:05:42.943   04 Jun 2027 11:07:43.700           120.757              Murmansk2         15094.625
       141   04 Jun 2027 11:16:57.549   04 Jun 2027 11:17:41.500            43.951                Anadyr1          5493.875
       142   04 Jun 2027 11:18:32.667   04 Jun 2027 11:19:00.786            28.119                Anadyr2          3514.875
       143   04 Jun 2027 11:20:27.681   04 Jun 2027 11:21:44.569            76.888                Anadyr2          9611.000
       144   04 Jun 2027 11:22:24.748   04 Jun 2027 11:23:32.786            68.038               Magadan2          8504.750
       145   04 Jun 2027 12:55:20.976   04 Jun 2027 12:57:04.887           103.911               Magadan1         12988.875
       146   04 Jun 2027 13:00:14.667   04 Jun 2027 13:00:34.207            19.540               Magadan2          2442.500
       147   04 Jun 2027 13:02:50.754   04 Jun 2027 13:06:17.131           206.377               Magadan1         25797.125
       148   04 Jun 2027 14:34:19.852   04 Jun 2027 14:35:52.296            92.444               Magadan1         11555.500
       149   04 Jun 2027 15:23:12.832   04 Jun 2027 15:27:30.869           258.037            RioGallegos         32254.625
       150   04 Jun 2027 16:10:46.009   04 Jun 2027 16:12:38.662           112.653                Irkutsk         14081.625
       151   04 Jun 2027 16:24:31.758   04 Jun 2027 16:27:09.929           158.171                Sumatra         19771.375
       152   04 Jun 2027 17:46:31.815   04 Jun 2027 17:48:52.364           140.549                Novosib         17568.625
       153   04 Jun 2027 17:54:21.050   04 Jun 2027 17:55:52.938            91.888                  Delhi         11486.000
       154   04 Jun 2027 17:58:14.828   04 Jun 2027 17:58:32.590            17.762                  Delhi          2220.250
       155   04 Jun 2027 20:56:38.013   04 Jun 2027 20:56:56.617            18.604              Murmansk2          2325.500
       156   04 Jun 2027 21:00:00.203   04 Jun 2027 21:01:17.948            77.745                 Moscow          9718.125
       157   04 Jun 2027 21:24:21.233   04 Jun 2027 21:25:25.820            64.587               CapeTown          8073.375
       158   04 Jun 2027 23:01:45.707   04 Jun 2027 23:02:25.123            39.416               CapeTown          4927.000
       159   05 Jun 2027 03:20:45.629   05 Jun 2027 03:21:05.937            20.308                Norilsk          2538.500
       160   05 Jun 2027 03:21:23.264   05 Jun 2027 03:25:25.621           242.357              Murmansk1         30294.625
       161   05 Jun 2027 03:25:25.621   05 Jun 2027 03:26:33.261            67.640              Murmansk2          8455.000
       162   05 Jun 2027 03:27:11.212   05 Jun 2027 03:27:44.169            32.957              Murmansk2          4119.625
       163   05 Jun 2027 03:27:52.128   05 Jun 2027 03:28:14.095            21.967              Murmansk2          2745.875
       164   05 Jun 2027 03:28:53.887   05 Jun 2027 03:29:11.819            17.932              Murmansk2          2241.500
       165   05 Jun 2027 04:30:26.064   05 Jun 2027 04:33:16.399           170.335                Sumatra         21291.875
       166   05 Jun 2027 04:56:39.701   05 Jun 2027 04:57:56.237            76.536                 Moscow          9567.000
       167   05 Jun 2027 04:57:56.409   05 Jun 2027 05:01:12.055           195.646              Murmansk1         24455.750
       168   05 Jun 2027 05:01:12.055   05 Jun 2027 05:01:39.030            26.975              Murmansk2          3371.875
       169   05 Jun 2027 05:34:42.701   05 Jun 2027 05:35:18.239            35.538            RioGallegos          4442.250
       170   05 Jun 2027 05:35:59.552   05 Jun 2027 05:36:20.193            20.641            RioGallegos          2580.125
       171   05 Jun 2027 05:36:32.258   05 Jun 2027 05:37:13.948            41.690            RioGallegos          5211.250
       172   05 Jun 2027 05:39:02.182   05 Jun 2027 05:39:50.233            48.051            RioGallegos          6006.375
       173   05 Jun 2027 06:08:23.473   05 Jun 2027 06:11:28.959           185.486                Sumatra         23185.750
       174   05 Jun 2027 06:14:27.173   05 Jun 2027 06:16:25.778           118.605                  Delhi         14825.625
       175   05 Jun 2027 06:21:48.760   05 Jun 2027 06:23:29.276           100.516                Novosib         12564.500
       176   05 Jun 2027 06:24:18.558   05 Jun 2027 06:26:12.704           114.146                Irkutsk         14268.250
       177   05 Jun 2027 06:26:41.506   05 Jun 2027 06:28:12.292            90.786                 Moscow         11348.250
       178   05 Jun 2027 06:32:11.350   05 Jun 2027 06:33:57.356           106.006                Novosib         13250.750
       179   05 Jun 2027 06:34:02.267   05 Jun 2027 06:37:06.754           184.487                Norilsk         23060.875
       180   05 Jun 2027 06:37:18.882   05 Jun 2027 06:37:32.760            13.878              Murmansk1          1734.750
       181   05 Jun 2027 07:59:47.385   05 Jun 2027 08:01:28.253           100.868                 Moscow         12608.500
       182   05 Jun 2027 08:09:19.916   05 Jun 2027 08:15:14.159           354.243              Murmansk1         44280.375
       183   05 Jun 2027 09:14:32.175   05 Jun 2027 09:22:28.315           476.140               CapeTown         59517.500
       184   05 Jun 2027 09:35:33.700   05 Jun 2027 09:42:34.687           420.987                 Moscow         52623.375
       185   05 Jun 2027 09:42:53.600   05 Jun 2027 09:45:24.992           151.392                 Moscow         18924.000
       186   05 Jun 2027 09:45:31.264   05 Jun 2027 09:48:02.089           150.825              Murmansk1         18853.125
       187   05 Jun 2027 09:48:53.281   05 Jun 2027 09:49:40.812            47.531              Murmansk2          5941.375
       188   05 Jun 2027 09:53:39.325   05 Jun 2027 09:58:03.197           263.872                Anadyr1         32984.000
       189   05 Jun 2027 09:58:04.173   05 Jun 2027 10:01:43.414           219.241                Anadyr2         27405.125
       190   05 Jun 2027 11:17:41.119   05 Jun 2027 11:19:27.751           106.632              Murmansk2         13329.000
       191   05 Jun 2027 11:19:27.751   05 Jun 2027 11:19:54.238            26.487              Murmansk1          3310.875
       192   05 Jun 2027 11:21:04.421   05 Jun 2027 11:21:11.417             6.996              Murmansk2           874.500
       193   05 Jun 2027 11:28:57.242   05 Jun 2027 11:29:34.003            36.761                Anadyr1          4595.125
       194   05 Jun 2027 11:30:53.680   05 Jun 2027 11:33:45.524           171.844                Anadyr2         21480.500
       195   05 Jun 2027 11:33:57.497   05 Jun 2027 11:38:10.882           253.385               Magadan2         31673.125
       196   05 Jun 2027 13:07:17.596   05 Jun 2027 13:08:38.068            80.472               Magadan2         10059.000
       197   05 Jun 2027 13:09:18.549   05 Jun 2027 13:12:25.993           187.444               Magadan1         23430.500
       198   05 Jun 2027 15:35:02.262   05 Jun 2027 15:40:39.436           337.174            RioGallegos         42146.750
       199   05 Jun 2027 16:22:40.589   05 Jun 2027 16:24:37.425           116.836                Irkutsk         14604.500
       200   05 Jun 2027 16:36:21.867   05 Jun 2027 16:39:21.314           179.447                Sumatra         22430.875
       201   05 Jun 2027 17:58:28.935   05 Jun 2027 17:59:43.206            74.271                Novosib          9283.875
       202   05 Jun 2027 18:06:05.889   05 Jun 2027 18:10:32.867           266.978                  Delhi         33372.250
       203   05 Jun 2027 21:16:44.483   05 Jun 2027 21:17:01.977            17.494                 Moscow          2186.750
       204   05 Jun 2027 21:18:52.152   05 Jun 2027 21:20:03.362            71.210                 Moscow          8901.250
       205   05 Jun 2027 21:36:05.884   05 Jun 2027 21:38:50.966           165.082               CapeTown         20635.250
       206   06 Jun 2027 03:32:46.683   06 Jun 2027 03:36:57.579           250.896              Murmansk2         31362.000
       207   06 Jun 2027 04:42:19.112   06 Jun 2027 04:45:24.736           185.624                Sumatra         23203.000
       208   06 Jun 2027 05:08:43.550   06 Jun 2027 05:13:29.075           285.525              Murmansk2         35690.625
       209   06 Jun 2027 05:13:29.075   06 Jun 2027 05:14:03.232            34.157              Murmansk1          4269.625
       210   06 Jun 2027 05:46:52.689   06 Jun 2027 05:47:24.749            32.060            RioGallegos          4007.500
       211   06 Jun 2027 05:48:08.657   06 Jun 2027 05:48:34.576            25.919            RioGallegos          3239.875
       212   06 Jun 2027 05:53:21.660   06 Jun 2027 05:53:35.954            14.294            RioGallegos          1786.750
       213   06 Jun 2027 06:21:48.197   06 Jun 2027 06:23:41.749           113.552                Sumatra         14194.000
       214   06 Jun 2027 06:26:29.921   06 Jun 2027 06:28:14.109           104.188                  Delhi         13023.500
       215   06 Jun 2027 06:28:55.680   06 Jun 2027 06:29:39.433            43.753                  Delhi          5469.125
       216   06 Jun 2027 06:33:48.072   06 Jun 2027 06:35:29.737           101.665                  Delhi         12708.125
       217   06 Jun 2027 06:35:58.864   06 Jun 2027 06:38:17.743           138.879                Novosib         17359.875
       218   06 Jun 2027 06:39:01.854   06 Jun 2027 06:39:43.969            42.115              Murmansk2          5264.375
       219   06 Jun 2027 06:44:08.622   06 Jun 2027 06:47:04.841           176.219                Norilsk         22027.375
       220   06 Jun 2027 06:47:06.931   06 Jun 2027 06:47:32.413            25.482                 Moscow          3185.250
       221   06 Jun 2027 06:47:42.566   06 Jun 2027 06:49:16.298            93.732              Murmansk1         11716.500
       222   06 Jun 2027 08:20:09.908   06 Jun 2027 08:20:48.354            38.446                Norilsk          4805.750
       223   06 Jun 2027 08:21:14.233   06 Jun 2027 08:27:15.636           361.403              Murmansk2         45175.375
       224   06 Jun 2027 09:25:53.677   06 Jun 2027 09:35:05.824           552.147               CapeTown         69018.375
       225   06 Jun 2027 09:47:55.127   06 Jun 2027 09:54:00.135           365.008                 Moscow         45626.000
       226   06 Jun 2027 09:54:28.203   06 Jun 2027 10:00:49.236           381.033              Murmansk2         47629.125
       227   06 Jun 2027 10:05:30.816   06 Jun 2027 10:11:02.201           331.385                Anadyr2         41423.125
       228   06 Jun 2027 10:11:14.062   06 Jun 2027 10:14:23.860           189.798                Anadyr1         23724.750
       229   06 Jun 2027 11:32:20.825   06 Jun 2027 11:33:04.371            43.546              Murmansk1          5443.250
       230   06 Jun 2027 11:40:57.347   06 Jun 2027 11:41:28.529            31.182                Anadyr1          3897.750
       231   06 Jun 2027 11:43:35.537   06 Jun 2027 11:45:52.740           137.203                Anadyr2         17150.375
       232   06 Jun 2027 11:48:33.284   06 Jun 2027 11:51:22.263           168.979               Magadan1         21122.375
       233   06 Jun 2027 12:38:56.820   06 Jun 2027 12:39:24.568            27.748               CapeTown          3468.500
       234   06 Jun 2027 12:41:09.737   06 Jun 2027 12:41:30.462            20.725               CapeTown          2590.625
       235   06 Jun 2027 13:16:51.041   06 Jun 2027 13:18:54.561           123.520                Anadyr2         15440.000
       236   06 Jun 2027 13:19:15.247   06 Jun 2027 13:20:19.879            64.632               Magadan1          8079.000
       237   06 Jun 2027 13:21:38.426   06 Jun 2027 13:23:59.159           140.733               Magadan2         17591.625
       238   06 Jun 2027 15:06:39.788   06 Jun 2027 15:06:44.440             4.652                Irkutsk           581.500
       239   06 Jun 2027 15:18:01.364   06 Jun 2027 15:20:24.419           143.055                Sumatra         17881.875
       240   06 Jun 2027 15:46:54.347   06 Jun 2027 15:48:46.509           112.162            RioGallegos         14020.250
       241   06 Jun 2027 16:34:36.775   06 Jun 2027 16:36:07.327            90.552                Irkutsk         11319.000
       242   06 Jun 2027 16:39:47.460   06 Jun 2027 16:41:07.152            79.692                Irkutsk          9961.500
       243   06 Jun 2027 16:43:28.438   06 Jun 2027 16:43:55.120            26.682                Novosib          3335.250
       244   06 Jun 2027 16:48:17.766   06 Jun 2027 16:51:24.567           186.801                Sumatra         23350.125
       245   06 Jun 2027 18:15:14.035   06 Jun 2027 18:17:26.273           132.238                Novosib         16529.750
       246   06 Jun 2027 18:17:55.487   06 Jun 2027 18:20:38.336           162.849                  Delhi         20356.125
       247   06 Jun 2027 19:49:01.429   06 Jun 2027 19:50:26.949            85.520                 Moscow         10690.000
       248   06 Jun 2027 21:31:14.149   06 Jun 2027 21:32:02.595            48.446                 Moscow          6055.750
       249   06 Jun 2027 21:47:55.723   06 Jun 2027 21:49:10.223            74.500               CapeTown          9312.500
       250   06 Jun 2027 21:50:58.036   06 Jun 2027 21:51:16.136            18.100               CapeTown          2262.500
       251   06 Jun 2027 21:52:50.240   06 Jun 2027 21:53:35.506            45.266               CapeTown          5658.250
       252   06 Jun 2027 21:59:17.270   06 Jun 2027 22:00:10.373            53.103               CapeTown          6637.875
       253   07 Jun 2027 03:22:39.114   07 Jun 2027 03:24:01.636            82.522                Sumatra          9211.625
       254   07 Jun 2027 03:44:59.134   07 Jun 2027 03:48:02.640           183.506              Murmansk2         22938.250
       255   07 Jun 2027 04:54:17.809   07 Jun 2027 04:56:54.018           156.209                Sumatra         19526.125
       256   07 Jun 2027 05:20:03.007   07 Jun 2027 05:20:05.662             2.655              Murmansk1           331.875
       257   07 Jun 2027 05:20:55.249   07 Jun 2027 05:20:59.723             4.474                Norilsk           559.250
       258   07 Jun 2027 05:21:11.009   07 Jun 2027 05:25:56.974           285.965              Murmansk1         35745.625
       259   07 Jun 2027 05:27:23.056   07 Jun 2027 05:27:40.867            17.811              Murmansk2          2226.375
       260   07 Jun 2027 05:59:59.563   07 Jun 2027 06:00:40.314            40.751            RioGallegos          5093.875
       261   07 Jun 2027 06:03:50.832   07 Jun 2027 06:04:40.660            49.828            RioGallegos          6228.500
       262   07 Jun 2027 06:05:32.737   07 Jun 2027 06:05:46.567            13.830            RioGallegos          1728.750
       263   07 Jun 2027 06:38:38.194   07 Jun 2027 06:45:03.055           384.861                  Delhi         48107.625
       264   07 Jun 2027 06:46:29.330   07 Jun 2027 06:46:55.109            25.779                Novosib          3222.375
       265   07 Jun 2027 06:48:17.617   07 Jun 2027 06:50:29.025           131.408                Novosib         16426.000
       266   07 Jun 2027 06:50:50.910   07 Jun 2027 06:52:18.293            87.383                 Moscow         10922.875
       267   07 Jun 2027 06:56:18.942   07 Jun 2027 06:56:39.514            20.572                Novosib          2571.500
       268   07 Jun 2027 06:56:54.985   07 Jun 2027 06:57:36.055            41.070              Murmansk2          5133.750
       269   07 Jun 2027 06:57:36.055   07 Jun 2027 07:01:34.556           238.501              Murmansk1         29812.625
       270   07 Jun 2027 08:22:53.878   07 Jun 2027 08:25:23.313           149.435                 Moscow         18679.375
       271   07 Jun 2027 08:32:29.236   07 Jun 2027 08:35:47.992           198.756                 Moscow         24844.500
       272   07 Jun 2027 08:35:52.674   07 Jun 2027 08:37:18.162            85.488                Norilsk         10686.000
       273   07 Jun 2027 08:37:43.023   07 Jun 2027 08:39:17.205            94.182              Murmansk2         11772.750
       274   07 Jun 2027 09:37:26.507   07 Jun 2027 09:46:44.769           558.262               CapeTown         69782.750
       275   07 Jun 2027 10:00:20.916   07 Jun 2027 10:04:11.176           230.260                 Moscow         28782.500
       276   07 Jun 2027 10:04:32.230   07 Jun 2027 10:05:00.959            28.729              Murmansk2          3591.125
       277   07 Jun 2027 10:05:49.445   07 Jun 2027 10:07:38.295           108.850              Murmansk1         13606.250
       278   07 Jun 2027 10:10:29.106   07 Jun 2027 10:10:42.553            13.447              Murmansk1          1680.875
       279   07 Jun 2027 10:10:52.880   07 Jun 2027 10:13:17.324           144.444              Murmansk2         18055.500
       280   07 Jun 2027 10:17:24.617   07 Jun 2027 10:26:59.608           574.991                Anadyr1         71873.875
       281   07 Jun 2027 11:49:18.772   07 Jun 2027 11:49:45.153            26.381              Murmansk2          3297.625
       282   07 Jun 2027 11:52:57.802   07 Jun 2027 11:55:14.028           136.226                Anadyr2         17028.250
       283   07 Jun 2027 11:56:20.681   07 Jun 2027 12:04:07.195           466.514               Magadan2         58314.250
       284   07 Jun 2027 13:31:15.627   07 Jun 2027 13:33:50.700           155.073               Magadan2         19384.125
       285   07 Jun 2027 15:27:50.150   07 Jun 2027 15:31:51.102           240.952                Sumatra         30119.000
       286   07 Jun 2027 16:47:27.364   07 Jun 2027 16:49:13.736           106.372                Novosib         13296.500
       287   07 Jun 2027 17:00:19.253   07 Jun 2027 17:02:28.749           129.496                Sumatra         16187.000
       288   07 Jun 2027 17:08:04.827   07 Jun 2027 17:11:30.856           206.029                Sumatra         25753.625
       289   07 Jun 2027 18:29:49.105   07 Jun 2027 18:32:46.237           177.132                  Delhi         22141.500
       290   07 Jun 2027 20:00:47.220   07 Jun 2027 20:02:39.428           112.208                 Moscow         14026.000
       291   07 Jun 2027 21:42:49.389   07 Jun 2027 21:43:32.154            42.765                 Moscow          5345.625
       292   07 Jun 2027 21:47:31.938   07 Jun 2027 21:48:49.203            77.265                 Moscow          9658.125
       293   07 Jun 2027 22:01:49.494   07 Jun 2027 22:02:26.870            37.376               CapeTown          4672.000
       294   07 Jun 2027 22:05:05.543   07 Jun 2027 22:05:14.841             9.298               CapeTown          1162.250
       295   07 Jun 2027 22:07:35.645   07 Jun 2027 22:09:24.485           108.840               CapeTown          6170.250
       296   08 Jun 2027 03:56:47.641   08 Jun 2027 03:59:54.195           186.554                Norilsk         23319.250
       297   08 Jun 2027 05:06:22.110   08 Jun 2027 05:08:07.468           105.358                Sumatra         13169.750
       298   08 Jun 2027 05:15:50.143   08 Jun 2027 05:17:03.367            73.224                  Delhi          9153.000
       299   08 Jun 2027 05:31:18.303   08 Jun 2027 05:32:16.284            57.981                Irkutsk          7247.625
       300   08 Jun 2027 05:32:37.760   08 Jun 2027 05:32:43.259             5.499                Novosib           687.375
       301   08 Jun 2027 05:32:58.954   08 Jun 2027 05:33:29.316            30.362              Murmansk2          3795.250
       302   08 Jun 2027 05:33:29.316   08 Jun 2027 05:34:18.312            48.996              Murmansk1          6124.500
       303   08 Jun 2027 05:34:31.688   08 Jun 2027 05:34:57.935            26.247                 Moscow          3280.875
       304   08 Jun 2027 05:35:19.368   08 Jun 2027 05:37:54.678           155.310              Murmansk1         19413.750
       305   08 Jun 2027 05:37:54.678   08 Jun 2027 05:39:24.115            89.437              Murmansk2         11179.625
       306   08 Jun 2027 06:50:52.401   08 Jun 2027 06:51:21.591            29.190                  Delhi          3648.750
       307   08 Jun 2027 06:57:14.829   08 Jun 2027 06:57:44.978            30.149                  Delhi          3768.625
       308   08 Jun 2027 06:58:56.084   08 Jun 2027 07:02:10.894           194.810                Novosib         24351.250
       309   08 Jun 2027 07:02:17.142   08 Jun 2027 07:03:39.094            81.952                 Moscow         10244.000
       310   08 Jun 2027 07:08:20.029   08 Jun 2027 07:09:39.725            79.696                Novosib          9962.000
       311   08 Jun 2027 07:09:46.807   08 Jun 2027 07:11:32.932           106.125              Murmansk2         13265.625
       312   08 Jun 2027 07:11:32.932   08 Jun 2027 07:13:07.798            94.866              Murmansk1         11858.250
       313   08 Jun 2027 07:13:29.045   08 Jun 2027 07:13:42.323            13.278                Norilsk          1659.750
       314   08 Jun 2027 08:34:55.223   08 Jun 2027 08:38:32.753           217.530                 Moscow         27191.250
       315   08 Jun 2027 08:39:00.978   08 Jun 2027 08:40:16.049            75.071                 Moscow          9383.875
       316   08 Jun 2027 08:43:27.281   08 Jun 2027 08:47:48.698           261.417                 Moscow         32677.125
       317   08 Jun 2027 08:47:50.004   08 Jun 2027 08:49:10.901            80.897                Norilsk         10112.125
       318   08 Jun 2027 08:49:40.771   08 Jun 2027 08:51:17.971            97.200              Murmansk1         12150.000
       319   08 Jun 2027 09:49:06.750   08 Jun 2027 09:50:31.814            85.064               CapeTown         10633.000
       320   08 Jun 2027 09:52:53.344   08 Jun 2027 09:55:24.807           151.463               CapeTown         18932.875
       321   08 Jun 2027 10:15:46.790   08 Jun 2027 10:16:44.393            57.603              Murmansk2          7200.375
       322   08 Jun 2027 10:17:51.086   08 Jun 2027 10:21:25.848           214.762              Murmansk1         26845.250
       323   08 Jun 2027 10:22:54.318   08 Jun 2027 10:24:20.440            86.122              Murmansk2         10765.250
       324   08 Jun 2027 10:29:20.102   08 Jun 2027 10:38:51.953           571.851                Anadyr2         71481.375
       325   08 Jun 2027 12:01:47.713   08 Jun 2027 12:01:51.491             3.778              Murmansk2           472.250
       326   08 Jun 2027 12:02:11.534   08 Jun 2027 12:02:26.738            15.204              Murmansk2          1900.500
       327   08 Jun 2027 12:02:48.092   08 Jun 2027 12:02:49.606             1.514              Murmansk2           189.250
       328   08 Jun 2027 12:05:21.713   08 Jun 2027 12:06:20.322            58.609                Anadyr2          7326.125
       329   08 Jun 2027 12:11:54.315   08 Jun 2027 12:12:22.246            27.931               Magadan1          3491.375
       330   08 Jun 2027 12:13:54.252   08 Jun 2027 12:17:00.643           186.391               Magadan1         23298.875
       331   08 Jun 2027 13:46:59.295   08 Jun 2027 13:48:00.998            61.703               Magadan2          7712.875
       332   08 Jun 2027 15:23:48.303   08 Jun 2027 15:24:18.118            29.815                Irkutsk          3726.875
       333   08 Jun 2027 15:28:15.749   08 Jun 2027 15:30:46.219           150.470                Irkutsk         18808.750
       334   08 Jun 2027 15:38:43.785   08 Jun 2027 15:44:09.831           326.046                Sumatra         40755.750
       335   08 Jun 2027 17:04:59.756   08 Jun 2027 17:08:40.270           220.514                Novosib         27564.250
       336   08 Jun 2027 18:39:18.155   08 Jun 2027 18:39:23.192             5.037                Novosib           629.625
       337   08 Jun 2027 18:41:46.316   08 Jun 2027 18:43:53.610           127.294                  Delhi         15911.750
       338   08 Jun 2027 18:51:21.013   08 Jun 2027 18:52:36.105            75.092                  Delhi          9386.500
       339   08 Jun 2027 20:12:36.566   08 Jun 2027 20:13:13.945            37.379                 Moscow          4672.375
       340   08 Jun 2027 20:15:52.016   08 Jun 2027 20:17:01.414            69.398                 Moscow          8674.750
       341   08 Jun 2027 21:47:57.314   08 Jun 2027 21:48:31.644            34.330                 Moscow          4291.250
       342   08 Jun 2027 21:50:02.911   08 Jun 2027 21:51:15.406            72.495                 Moscow          9061.875
       343   08 Jun 2027 21:54:10.320   08 Jun 2027 21:54:31.106            20.786              Murmansk1          2598.250
       344   08 Jun 2027 21:58:01.777   08 Jun 2027 21:59:57.453           115.676                 Moscow         12579.500
       345   09 Jun 2027 04:08:39.249   09 Jun 2027 04:09:17.369            38.120              Murmansk2          4765.000
       346   09 Jun 2027 05:20:44.019   09 Jun 2027 05:23:13.264           149.245                Sumatra         18655.625
       347   09 Jun 2027 05:29:22.018   09 Jun 2027 05:31:28.263           126.245                  Delhi         15780.625
       348   09 Jun 2027 05:44:19.630   09 Jun 2027 05:44:58.541            38.911                Norilsk          4863.875
       349   09 Jun 2027 05:45:13.770   09 Jun 2027 05:46:20.491            66.721              Murmansk1          8340.125
       350   09 Jun 2027 05:46:51.235   09 Jun 2027 05:47:06.462            15.227              Murmansk1          1903.375
       351   09 Jun 2027 05:47:17.135   09 Jun 2027 05:51:22.921           245.786              Murmansk1         30723.250
       352   09 Jun 2027 07:03:13.285   09 Jun 2027 07:05:16.621           123.336                  Delhi         15417.000
       353   09 Jun 2027 07:10:11.710   09 Jun 2027 07:10:33.641            21.931                  Delhi          2741.375
       354   09 Jun 2027 07:11:12.636   09 Jun 2027 07:13:10.078           117.442                  Delhi         14680.250
       355   09 Jun 2027 07:13:10.716   09 Jun 2027 07:15:17.796           127.080                Novosib         15885.000
       356   09 Jun 2027 07:15:20.067   09 Jun 2027 07:15:54.161            34.094                Norilsk          4261.750
       357   09 Jun 2027 07:20:10.293   09 Jun 2027 07:26:19.891           369.598              Murmansk1         46199.750
       358   09 Jun 2027 07:27:12.254   09 Jun 2027 07:27:24.631            12.377              Murmansk2          1547.125
       359   09 Jun 2027 08:46:59.509   09 Jun 2027 08:51:49.564           290.055                 Moscow         36256.875
       360   09 Jun 2027 08:55:12.790   09 Jun 2027 08:56:50.773            97.983              Murmansk1         12247.875
       361   09 Jun 2027 08:57:08.946   09 Jun 2027 09:00:59.397           230.451                Norilsk         28806.375
       362   09 Jun 2027 09:01:35.382   09 Jun 2027 09:02:33.271            57.889              Murmansk2          7236.125
       363   09 Jun 2027 09:07:54.592   09 Jun 2027 09:09:26.002            91.410                Anadyr2         11426.250
       364   09 Jun 2027 10:06:02.269   09 Jun 2027 10:06:46.845            44.576               CapeTown          5572.000
       365   09 Jun 2027 10:34:32.364   09 Jun 2027 10:36:33.573           121.209              Murmansk2         15151.125
       366   09 Jun 2027 10:41:16.869   09 Jun 2027 10:42:43.209            86.340                Anadyr2         10792.500
       367   09 Jun 2027 10:45:13.272   09 Jun 2027 10:46:24.972            71.700                Anadyr1          8962.500
       368   09 Jun 2027 10:47:47.526   09 Jun 2027 10:50:49.527           182.001                Anadyr2         22750.125
       369   09 Jun 2027 12:08:19.387   09 Jun 2027 12:08:38.763            19.376              Murmansk2          2422.000
       370   09 Jun 2027 12:19:54.760   09 Jun 2027 12:24:18.816           264.056               Magadan2         33007.000
       371   09 Jun 2027 13:55:12.724   09 Jun 2027 13:56:30.708            77.984               Magadan2          9748.000
       372   09 Jun 2027 14:52:38.920   09 Jun 2027 14:55:53.615           194.695            RioGallegos         24336.875
       373   09 Jun 2027 15:35:30.856   09 Jun 2027 15:36:54.468            83.612                Irkutsk         10451.500
       374   09 Jun 2027 15:49:58.523   09 Jun 2027 15:53:23.494           204.971                Sumatra         25621.375
       375   09 Jun 2027 15:56:21.737   09 Jun 2027 15:58:46.116           144.379                Sumatra         18047.375
       376   09 Jun 2027 17:14:33.730   09 Jun 2027 17:15:30.148            56.418                Novosib          7052.250
       377   09 Jun 2027 17:20:06.910   09 Jun 2027 17:25:18.747           311.837                  Delhi         38979.625
       378   09 Jun 2027 18:55:11.898   09 Jun 2027 18:55:18.157             6.259                  Delhi           782.375
       379   09 Jun 2027 20:24:28.526   09 Jun 2027 20:27:46.334           197.808                 Moscow         24726.000
       380   09 Jun 2027 21:56:46.034   09 Jun 2027 21:56:56.763            10.729              Murmansk2          1341.125
       381   09 Jun 2027 22:00:26.292   09 Jun 2027 22:02:27.514           121.222                 Moscow          4873.125
       382   10 Jun 2027 04:20:47.916   10 Jun 2027 04:20:51.028             3.112                Irkutsk           389.000
       383   10 Jun 2027 05:30:48.977   10 Jun 2027 05:31:09.852            20.875                Sumatra          2609.375
       384   10 Jun 2027 05:33:00.701   10 Jun 2027 05:35:12.156           131.455                Sumatra         16431.875
       385   10 Jun 2027 05:39:05.500   10 Jun 2027 05:41:35.803           150.303                  Delhi         18787.875
       386   10 Jun 2027 05:56:20.194   10 Jun 2027 05:58:17.855           117.661                Novosib         14707.625
       387   10 Jun 2027 05:58:24.557   10 Jun 2027 06:01:47.763           203.206                Norilsk         25400.750
       388   10 Jun 2027 06:02:11.526   10 Jun 2027 06:03:02.929            51.403              Murmansk2          6425.375
       389   10 Jun 2027 07:18:56.900   10 Jun 2027 07:19:32.911            36.011                  Delhi          4501.375
       390   10 Jun 2027 07:24:05.886   10 Jun 2027 07:28:06.891           241.005                Novosib         30125.625
       391   10 Jun 2027 07:32:11.398   10 Jun 2027 07:33:23.655            72.257              Murmansk2          9032.125
       392   10 Jun 2027 07:33:43.265   10 Jun 2027 07:37:43.461           240.196                Norilsk         30024.500
       393   10 Jun 2027 07:38:04.131   10 Jun 2027 07:38:25.478            21.347              Murmansk1          2668.375
       394   10 Jun 2027 07:39:01.666   10 Jun 2027 07:39:25.438            23.772              Murmansk1          2971.500
       395   10 Jun 2027 09:02:24.284   10 Jun 2027 09:03:48.159            83.875                 Moscow         10484.375
       396   10 Jun 2027 09:08:06.574   10 Jun 2027 09:08:41.101            34.527              Murmansk2          4315.875
       397   10 Jun 2027 09:10:39.120   10 Jun 2027 09:13:26.944           167.824              Murmansk2         20978.000
       398   10 Jun 2027 09:18:50.271   10 Jun 2027 09:22:32.277           222.006                Anadyr2         27750.750
       399   10 Jun 2027 10:46:57.451   10 Jun 2027 10:48:41.377           103.926              Murmansk1         12990.750
       400   10 Jun 2027 10:53:14.626   10 Jun 2027 10:54:20.974            66.348                Anadyr2          8293.500
       401   10 Jun 2027 10:57:52.507   10 Jun 2027 10:59:59.327           126.820                Anadyr1         15852.500
       402   10 Jun 2027 12:31:46.520   10 Jun 2027 12:36:16.425           269.905               Magadan1         33738.125
       403   10 Jun 2027 14:07:13.026   10 Jun 2027 14:07:44.066            31.040               Magadan2          3880.000
       404   10 Jun 2027 14:09:00.537   10 Jun 2027 14:10:26.888            86.351               Magadan1         10793.875
       405   10 Jun 2027 15:00:00.267   10 Jun 2027 15:00:10.269            10.002            RioGallegos          1250.250
       406   10 Jun 2027 15:03:33.634   10 Jun 2027 15:03:55.892            22.258            RioGallegos          2782.250
       407   10 Jun 2027 15:05:45.766   10 Jun 2027 15:07:18.291            92.525            RioGallegos         11565.625
       408   10 Jun 2027 15:47:17.846   10 Jun 2027 15:47:54.448            36.602                Irkutsk          4575.250
       409   10 Jun 2027 15:50:21.638   10 Jun 2027 15:51:38.073            76.435                Irkutsk          9554.375
       410   10 Jun 2027 16:01:25.927   10 Jun 2027 16:05:18.987           233.060                Sumatra         29132.500
       411   10 Jun 2027 17:22:56.365   10 Jun 2027 17:27:26.427           270.062                Novosib         33757.750
       412   10 Jun 2027 17:31:25.620   10 Jun 2027 17:34:57.201           211.581                  Delhi         26447.625
       413   10 Jun 2027 20:36:22.501   10 Jun 2027 20:38:32.030           129.529                 Moscow         16191.125
       414   10 Jun 2027 22:14:15.281   10 Jun 2027 22:14:47.879            32.598                 Moscow          4074.750
       415   10 Jun 2027 22:36:05.233   10 Jun 2027 22:36:52.828            47.595               CapeTown           793.375
       416   11 Jun 2027 05:45:29.476   11 Jun 2027 05:47:16.650           107.174                Sumatra         13396.750
       417   11 Jun 2027 05:53:45.566   11 Jun 2027 05:55:02.492            76.926                  Delhi          9615.750
       418   11 Jun 2027 06:08:25.921   11 Jun 2027 06:09:37.068            71.147              Murmansk2          8893.375
       419   11 Jun 2027 06:09:43.753   11 Jun 2027 06:10:16.917            33.164                Novosib          4145.500
       420   11 Jun 2027 06:10:24.802   11 Jun 2027 06:10:40.833            16.031              Murmansk1          2003.875
       421   11 Jun 2027 06:10:49.860   11 Jun 2027 06:11:27.335            37.475                 Moscow          4684.375
       422   11 Jun 2027 06:11:30.281   11 Jun 2027 06:12:11.949            41.668              Murmansk1          5208.500
       423   11 Jun 2027 06:12:16.924   11 Jun 2027 06:14:50.005           153.081              Murmansk2         19135.125
       424   11 Jun 2027 07:28:21.089   11 Jun 2027 07:29:36.299            75.210                  Delhi          9401.250
       425   11 Jun 2027 07:36:51.473   11 Jun 2027 07:38:41.815           110.342                Novosib         13792.750
       426   11 Jun 2027 07:38:42.684   11 Jun 2027 07:39:55.021            72.337                 Moscow          9042.125
       427   11 Jun 2027 07:44:49.255   11 Jun 2027 07:49:43.286           294.031                Norilsk         36753.875
       428   11 Jun 2027 07:49:58.508   11 Jun 2027 07:51:26.459            87.951              Murmansk2         10993.875
       429   11 Jun 2027 09:13:40.119   11 Jun 2027 09:14:13.171            33.052                 Moscow          4131.500
       430   11 Jun 2027 09:14:27.345   11 Jun 2027 09:15:49.603            82.258                 Moscow         10282.250
       431   11 Jun 2027 09:15:50.825   11 Jun 2027 09:16:12.423            21.598              Murmansk1          2699.750
       432   11 Jun 2027 09:17:58.351   11 Jun 2027 09:18:42.359            44.008              Murmansk2          5501.000
       433   11 Jun 2027 09:19:29.829   11 Jun 2027 09:19:51.501            21.672              Murmansk2          2709.000
       434   11 Jun 2027 09:23:00.216   11 Jun 2027 09:23:38.137            37.921                Norilsk          4740.125
       435   11 Jun 2027 09:30:22.889   11 Jun 2027 09:36:18.917           356.028                Anadyr2         44503.500
       436   11 Jun 2027 11:05:13.174   11 Jun 2027 11:06:06.329            53.155                Anadyr2          6644.375
       437   11 Jun 2027 11:06:54.582   11 Jun 2027 11:09:12.341           137.759                Anadyr1         17219.875
       438   11 Jun 2027 12:08:28.958   11 Jun 2027 12:09:33.289            64.331               CapeTown          8041.375
       439   11 Jun 2027 12:34:12.985   11 Jun 2027 12:35:49.173            96.188              Murmansk1         12023.500
       440   11 Jun 2027 12:43:40.330   11 Jun 2027 12:49:42.880           362.550               Magadan1         45318.750
       441   11 Jun 2027 14:22:32.070   11 Jun 2027 14:24:06.106            94.036               Magadan2         11754.500
       442   11 Jun 2027 15:11:41.430   11 Jun 2027 15:15:49.957           248.527            RioGallegos         31065.875
       443   11 Jun 2027 16:03:22.753   11 Jun 2027 16:03:35.550            12.797                Irkutsk          1599.625
       444   11 Jun 2027 16:13:02.474   11 Jun 2027 16:17:20.079           257.605                Sumatra         32200.625
       445   11 Jun 2027 17:36:46.276   11 Jun 2027 17:36:52.239             5.963                Novosib           745.375
       446   11 Jun 2027 17:42:56.570   11 Jun 2027 17:46:50.564           233.994                  Delhi         29249.250
       447   11 Jun 2027 17:49:51.242   11 Jun 2027 17:50:03.031            11.789                  Delhi          1473.625
       448   11 Jun 2027 19:17:57.922   11 Jun 2027 19:18:34.398            36.476                  Delhi          4559.500
       449   11 Jun 2027 19:20:45.445   11 Jun 2027 19:22:40.548           115.103                  Delhi         14387.875
       450   11 Jun 2027 20:48:18.082   11 Jun 2027 20:49:56.009            97.927                 Moscow         12240.875
       451   11 Jun 2027 22:22:57.379   11 Jun 2027 22:23:20.350            22.971              Murmansk2          2871.375
       452   11 Jun 2027 22:48:58.908   11 Jun 2027 22:50:50.915           112.007               CapeTown         10832.375
       453   12 Jun 2027 03:08:59.382   12 Jun 2027 03:09:58.178            58.796                Novosib          7349.500
       454   12 Jun 2027 03:09:59.134   12 Jun 2027 03:10:47.641            48.507                Norilsk          6063.375
       455   12 Jun 2027 04:18:53.578   12 Jun 2027 04:23:22.735           269.157                Sumatra         33644.625
       456   12 Jun 2027 04:44:45.188   12 Jun 2027 04:46:24.164            98.976                Novosib         12372.000
       457   12 Jun 2027 04:46:27.738   12 Jun 2027 04:49:42.365           194.627              Murmansk2         24328.375
       458   12 Jun 2027 05:23:31.234   12 Jun 2027 05:23:58.783            27.549            RioGallegos          3443.625
       459   12 Jun 2027 05:24:47.818   12 Jun 2027 05:26:52.794           124.976            RioGallegos         15622.000
       460   12 Jun 2027 05:55:48.448   12 Jun 2027 05:57:41.241           112.793                Sumatra         14099.125
       461   12 Jun 2027 06:02:44.472   12 Jun 2027 06:05:55.777           191.305                  Delhi         23913.125
       462   12 Jun 2027 06:09:49.214   12 Jun 2027 06:15:25.902           336.688                Novosib         42086.000
       463   12 Jun 2027 06:15:29.783   12 Jun 2027 06:16:27.113            57.330                 Moscow          7166.250
       464   12 Jun 2027 06:20:16.172   12 Jun 2027 06:22:26.871           130.699              Murmansk2         16337.375
       465   12 Jun 2027 06:22:32.109   12 Jun 2027 06:23:34.743            62.634                 Moscow          7829.250
       466   12 Jun 2027 06:23:41.900   12 Jun 2027 06:25:36.540           114.640              Murmansk2         14330.000
       467   12 Jun 2027 07:41:44.744   12 Jun 2027 07:42:00.514            15.770                  Delhi          1971.250
       468   12 Jun 2027 07:49:47.726   12 Jun 2027 07:51:43.951           116.225                Novosib         14528.125
       469   12 Jun 2027 07:55:54.339   12 Jun 2027 07:56:31.390            37.051                Novosib          4631.375
       470   12 Jun 2027 07:57:18.345   12 Jun 2027 08:01:15.206           236.861              Murmansk2         29607.625
       471   12 Jun 2027 08:01:15.206   12 Jun 2027 08:03:27.660           132.454              Murmansk1         16556.750
       472   12 Jun 2027 09:03:45.819   12 Jun 2027 09:07:30.554           224.735               CapeTown         28091.875
       473   12 Jun 2027 09:25:18.567   12 Jun 2027 09:27:53.991           155.424                 Moscow         19428.000
       474   12 Jun 2027 09:27:55.105   12 Jun 2027 09:28:55.741            60.636              Murmansk2          7579.500
       475   12 Jun 2027 09:29:59.610   12 Jun 2027 09:32:19.553           139.943              Murmansk1         17492.875
       476   12 Jun 2027 09:32:38.681   12 Jun 2027 09:32:46.369             7.688              Murmansk1           961.000
       477   12 Jun 2027 09:34:41.859   12 Jun 2027 09:35:50.994            69.135              Murmansk2          8641.875
       478   12 Jun 2027 09:42:05.759   12 Jun 2027 09:49:12.856           427.097                Anadyr2         53387.125
       479   12 Jun 2027 11:05:57.601   12 Jun 2027 11:07:58.433           120.832              Murmansk2         15104.000
       480   12 Jun 2027 11:17:12.358   12 Jun 2027 11:18:48.202            95.844                Anadyr2         11980.500
       481   12 Jun 2027 11:19:15.957   12 Jun 2027 11:20:41.656            85.699                Anadyr2         10712.375
       482   12 Jun 2027 12:55:35.725   12 Jun 2027 13:00:29.946           294.221               Magadan2         36777.625
