uniorb/output/strategy_4/Drop/Drop_KinoSat_111609.txt

KinoSat_111609
-------------------------
    Access    *     Start Time (UTCG)     *     Stop Time (UTCG)  *   Duration (s)        *       Station  *  Data (Mbytes)
         1   01 Jun 2027 04:15:24.580   01 Jun 2027 04:16:28.153            63.573                Norilsk          1986.656
         2   01 Jun 2027 04:16:51.538   01 Jun 2027 04:17:50.347            58.809                Norilsk          1837.781
         3   01 Jun 2027 04:18:11.548   01 Jun 2027 04:19:21.035            69.487                Novosib          2171.469
         4   01 Jun 2027 04:19:21.934   01 Jun 2027 04:20:15.365            53.431              Murmansk1          1669.719
         5   01 Jun 2027 04:20:48.343   01 Jun 2027 04:23:56.834           188.491                 Moscow          5890.344
         6   01 Jun 2027 04:35:38.764   01 Jun 2027 04:42:01.141           382.377               CapeTown         11949.281
         7   01 Jun 2027 04:42:09.678   01 Jun 2027 04:42:46.135            36.457               CapeTown          1139.281
         8   01 Jun 2027 04:43:43.570   01 Jun 2027 04:45:02.814            79.244               CapeTown          2476.375
         9   01 Jun 2027 05:40:53.399   01 Jun 2027 05:43:00.149           126.750               Magadan2          3960.938
        10   01 Jun 2027 05:43:02.277   01 Jun 2027 05:43:15.714            13.437                Anadyr1           419.906
        11   01 Jun 2027 05:51:05.785   01 Jun 2027 05:55:01.079           235.294                 Moscow          7352.938
        12   01 Jun 2027 05:55:31.632   01 Jun 2027 05:57:00.319            88.687              Murmansk1          2771.469
        13   01 Jun 2027 05:57:36.402   01 Jun 2027 05:59:00.090            83.688                 Moscow          2615.250
        14   01 Jun 2027 06:12:28.045   01 Jun 2027 06:13:10.454            42.409               CapeTown          1325.281
        15   01 Jun 2027 07:15:37.272   01 Jun 2027 07:20:45.691           308.419                Anadyr1          9638.094
        16   01 Jun 2027 07:27:04.433   01 Jun 2027 07:27:05.239             0.806                 Moscow            25.187
        17   01 Jun 2027 07:27:52.501   01 Jun 2027 07:27:53.890             1.389                 Moscow            43.406
        18   01 Jun 2027 08:01:02.069   01 Jun 2027 08:01:16.263            14.194            RioGallegos           443.562
        19   01 Jun 2027 08:50:25.590   01 Jun 2027 08:50:37.152            11.562               Magadan2           361.312
        20   01 Jun 2027 08:50:57.544   01 Jun 2027 08:51:39.188            41.644                Anadyr2          1301.375
        21   01 Jun 2027 08:51:39.188   01 Jun 2027 08:56:08.188           269.000                Anadyr1          8406.250
        22   01 Jun 2027 10:26:33.636   01 Jun 2027 10:28:05.681            92.045               Magadan1          2876.406
        23   01 Jun 2027 10:28:05.681   01 Jun 2027 10:31:18.119           192.438               Magadan2          6013.688
        24   01 Jun 2027 11:06:51.550   01 Jun 2027 11:07:22.917            31.367            RioGallegos           980.219
        25   01 Jun 2027 11:07:42.216   01 Jun 2027 11:08:05.027            22.811            RioGallegos           712.844
        26   01 Jun 2027 11:41:47.801   01 Jun 2027 11:44:02.923           135.122                Sumatra          4222.563
        27   01 Jun 2027 13:39:04.987   01 Jun 2027 13:39:59.097            54.110                Irkutsk          1690.937
        28   01 Jun 2027 15:06:57.878   01 Jun 2027 15:08:52.886           115.008                  Delhi          3594.000
        29   01 Jun 2027 15:09:11.513   01 Jun 2027 15:10:06.128            54.615                  Delhi          1706.719
        30   01 Jun 2027 15:15:03.179   01 Jun 2027 15:17:55.462           172.283                Novosib          5383.844
        31   01 Jun 2027 15:21:54.629   01 Jun 2027 15:22:12.022            17.393                Norilsk           543.531
        32   01 Jun 2027 16:33:20.695   01 Jun 2027 16:34:12.861            52.166               CapeTown          1630.188
        33   01 Jun 2027 16:50:29.866   01 Jun 2027 16:50:57.949            28.083              Murmansk1           877.594
        34   01 Jun 2027 16:52:29.916   01 Jun 2027 16:53:04.584            34.668              Murmansk2          1083.375
        35   01 Jun 2027 16:53:59.628   01 Jun 2027 16:55:15.543            75.915                 Moscow          2372.344
        36   01 Jun 2027 16:58:22.674   01 Jun 2027 16:58:53.720            31.046              Murmansk1           970.188
        37   01 Jun 2027 17:04:58.157   01 Jun 2027 17:05:45.852            47.695                Anadyr2          1490.469
        38   01 Jun 2027 17:06:30.017   01 Jun 2027 17:07:08.417            38.400                Anadyr2          1200.000
        39   01 Jun 2027 17:07:45.961   01 Jun 2027 17:08:00.822            14.861                Anadyr1           464.406
        40   01 Jun 2027 17:08:49.813   01 Jun 2027 17:08:54.434             4.621                Anadyr2           144.406
        41   01 Jun 2027 17:09:42.927   01 Jun 2027 17:10:40.547            57.620                Anadyr2          1800.625
        42   01 Jun 2027 18:04:29.904   01 Jun 2027 18:05:30.363            60.459               CapeTown          1889.344
        43   01 Jun 2027 18:29:23.671   01 Jun 2027 18:34:34.013           310.342              Murmansk1          9698.188
        44   01 Jun 2027 18:44:17.009   01 Jun 2027 18:44:33.259            16.250               Magadan1           507.812
        45   01 Jun 2027 18:47:12.767   01 Jun 2027 18:47:49.767            37.000               Magadan2          1156.250
        46   01 Jun 2027 18:49:29.771   01 Jun 2027 18:50:22.972            53.201               Magadan1          1662.531
        47   01 Jun 2027 19:37:57.761   01 Jun 2027 19:38:10.489            12.728               CapeTown           397.750
        48   01 Jun 2027 19:39:30.515   01 Jun 2027 19:40:01.231            30.716               CapeTown           959.875
        49   01 Jun 2027 19:42:43.967   01 Jun 2027 19:42:47.168             3.201               CapeTown           100.031
        50   01 Jun 2027 20:16:16.959   01 Jun 2027 20:20:01.869           224.910                Anadyr1          7028.438
        51   01 Jun 2027 20:20:45.778   01 Jun 2027 20:22:47.243           121.465               Magadan1          3795.781
        52   01 Jun 2027 20:27:54.438   01 Jun 2027 20:28:23.672            29.234               Magadan2           913.563
        53   01 Jun 2027 20:30:25.042   01 Jun 2027 20:30:44.442            19.400               Magadan2           606.250
        54   01 Jun 2027 21:52:10.572   01 Jun 2027 21:54:14.586           124.014                Anadyr1          3875.437
        55   01 Jun 2027 21:54:18.946   01 Jun 2027 21:55:51.405            92.459                Anadyr2          2889.344
        56   01 Jun 2027 21:55:57.692   01 Jun 2027 21:58:54.136           176.444                Norilsk          5513.875
        57   01 Jun 2027 21:59:58.854   01 Jun 2027 22:00:08.086             9.232                Norilsk           288.500
        58   01 Jun 2027 22:00:19.164   01 Jun 2027 22:00:38.014            18.850               Magadan1           589.062
        59   01 Jun 2027 22:00:49.159   01 Jun 2027 22:01:13.506            24.347               Magadan2           760.844
        60   01 Jun 2027 22:01:29.372   01 Jun 2027 22:01:38.271             8.899                Irkutsk           278.094
        61   01 Jun 2027 22:02:40.549   01 Jun 2027 22:03:32.372            51.823                Irkutsk          1619.469
        62   01 Jun 2027 22:46:22.979   01 Jun 2027 22:47:24.582            61.603            RioGallegos          1925.094
        63   01 Jun 2027 22:49:03.214   01 Jun 2027 22:49:26.210            22.996            RioGallegos           718.625
        64   01 Jun 2027 22:51:44.578   01 Jun 2027 22:52:29.515            44.937            RioGallegos          1404.281
        65   01 Jun 2027 23:27:41.097   01 Jun 2027 23:29:58.922           137.825                Anadyr1          4307.031
        66   01 Jun 2027 23:30:12.477   01 Jun 2027 23:31:42.196            89.719                Norilsk          2803.719
        67   01 Jun 2027 23:32:53.746   01 Jun 2027 23:34:15.010            81.264               Magadan2          2539.500
        68   01 Jun 2027 23:34:43.471   01 Jun 2027 23:35:34.150            50.679                Irkutsk          1583.719
        69   01 Jun 2027 23:35:45.837   01 Jun 2027 23:36:49.580            63.743                Novosib          1991.969
        70   01 Jun 2027 23:42:22.398   01 Jun 2027 23:42:59.640            37.242                Novosib          1163.813
        71   01 Jun 2027 23:47:45.323   01 Jun 2027 23:48:17.459            32.136                Sumatra          1004.250
        72   01 Jun 2027 23:50:51.352   01 Jun 2027 23:50:57.354             6.002                Sumatra           187.562
        73   01 Jun 2027 23:52:02.364   01 Jun 2027 23:53:49.998           107.634                Sumatra          3363.562
        74   02 Jun 2027 00:29:58.614   02 Jun 2027 00:31:02.197            63.583            RioGallegos          1986.969
        75   02 Jun 2027 01:02:41.415   02 Jun 2027 01:03:13.989            32.574                Anadyr2          1017.937
        76   02 Jun 2027 01:03:54.568   02 Jun 2027 01:04:23.452            28.884                Anadyr1           902.625
        77   02 Jun 2027 01:04:25.256   02 Jun 2027 01:04:28.930             3.674                Anadyr2           114.813
        78   02 Jun 2027 01:04:53.011   02 Jun 2027 01:05:06.365            13.354                Anadyr1           417.312
        79   02 Jun 2027 01:05:59.732   02 Jun 2027 01:07:49.449           109.717                Norilsk          3428.656
        80   02 Jun 2027 01:08:53.984   02 Jun 2027 01:09:03.268             9.284               Magadan1           290.125
        81   02 Jun 2027 01:09:15.173   02 Jun 2027 01:09:34.958            19.785               Magadan1           618.281
        82   02 Jun 2027 01:09:53.694   02 Jun 2027 01:12:43.171           169.477                Novosib          5296.156
        83   02 Jun 2027 01:17:25.620   02 Jun 2027 01:18:12.798            47.178                  Delhi          1474.313
        84   02 Jun 2027 01:24:17.683   02 Jun 2027 01:24:41.671            23.988                  Delhi           749.625
        85   02 Jun 2027 01:27:21.138   02 Jun 2027 01:30:36.132           194.994                Sumatra          6093.562
        86   02 Jun 2027 02:35:36.555   02 Jun 2027 02:35:51.035            14.480                Anadyr2           452.500
        87   02 Jun 2027 02:38:22.314   02 Jun 2027 02:38:29.670             7.356                Anadyr1           229.875
        88   02 Jun 2027 02:41:04.691   02 Jun 2027 02:41:41.612            36.921                Anadyr2          1153.781
        89   02 Jun 2027 02:41:50.004   02 Jun 2027 02:42:28.900            38.896               Magadan2          1215.500
        90   02 Jun 2027 02:42:50.067   02 Jun 2027 02:43:30.268            40.201                Norilsk          1256.281
        91   02 Jun 2027 02:44:14.809   02 Jun 2027 02:45:06.170            51.361              Murmansk2          1605.031
        92   02 Jun 2027 02:45:34.091   02 Jun 2027 02:46:08.102            34.011              Murmansk1          1062.844
        93   02 Jun 2027 02:46:23.656   02 Jun 2027 02:47:01.621            37.965                Novosib          1186.406
        94   02 Jun 2027 02:47:39.395   02 Jun 2027 02:48:47.609            68.214                Irkutsk          2131.688
        95   02 Jun 2027 02:49:28.987   02 Jun 2027 02:49:40.108            11.121                Irkutsk           347.531
        96   02 Jun 2027 02:52:20.103   02 Jun 2027 02:52:37.779            17.676                Irkutsk           552.375
        97   02 Jun 2027 02:54:21.856   02 Jun 2027 02:54:34.776            12.920                  Delhi           403.750
        98   02 Jun 2027 02:55:07.237   02 Jun 2027 02:57:14.674           127.437                  Delhi          3982.406
        99   02 Jun 2027 04:27:52.013   02 Jun 2027 04:29:25.467            93.454              Murmansk2          2920.437
       100   02 Jun 2027 04:29:27.196   02 Jun 2027 04:29:40.850            13.654                Norilsk           426.688
       101   02 Jun 2027 04:29:41.902   02 Jun 2027 04:30:23.228            41.326              Murmansk1          1291.438
       102   02 Jun 2027 04:30:43.600   02 Jun 2027 04:34:28.651           225.051                 Moscow          7032.844
       103   02 Jun 2027 04:47:26.363   02 Jun 2027 04:48:16.444            50.081               CapeTown          1565.031
       104   02 Jun 2027 04:49:04.184   02 Jun 2027 04:50:21.309            77.125               CapeTown          2410.156
       105   02 Jun 2027 05:51:09.697   02 Jun 2027 05:52:12.436            62.739                Anadyr2          1960.594
       106   02 Jun 2027 05:52:47.694   02 Jun 2027 05:53:46.084            58.390               Magadan1          1824.687
       107   02 Jun 2027 07:27:40.859   02 Jun 2027 07:27:53.343            12.484                Anadyr1           390.125
       108   02 Jun 2027 07:28:15.013   02 Jun 2027 07:32:30.395           255.382               Magadan1          7980.687
       109   02 Jun 2027 09:01:39.086   02 Jun 2027 09:06:49.429           310.343                Anadyr2          9698.219
       110   02 Jun 2027 09:06:49.429   02 Jun 2027 09:07:58.124            68.695                Anadyr1          2146.719
       111   02 Jun 2027 10:38:33.573   02 Jun 2027 10:40:27.280           113.707               Magadan1          3553.344
       112   02 Jun 2027 10:41:10.659   02 Jun 2027 10:41:51.113            40.454                Irkutsk          1264.188
       113   02 Jun 2027 10:42:06.320   02 Jun 2027 10:42:31.922            25.602                Irkutsk           800.063
       114   02 Jun 2027 10:42:41.971   02 Jun 2027 10:42:43.561             1.590                Novosib            49.687
       115   02 Jun 2027 10:43:17.556   02 Jun 2027 10:44:01.971            44.415                Irkutsk          1387.969
       116   02 Jun 2027 10:44:17.284   02 Jun 2027 10:45:25.384            68.100                Novosib          2128.125
       117   02 Jun 2027 11:22:51.475   02 Jun 2027 11:23:03.736            12.261            RioGallegos           383.156
       118   02 Jun 2027 11:53:44.271   02 Jun 2027 11:54:18.354            34.083                Sumatra          1065.094
       119   02 Jun 2027 11:56:33.912   02 Jun 2027 11:56:42.681             8.769                Sumatra           274.031
       120   02 Jun 2027 11:56:53.428   02 Jun 2027 11:57:23.846            30.418                Sumatra           950.563
       121   02 Jun 2027 12:04:27.634   02 Jun 2027 12:04:40.678            13.044                  Delhi           407.625
       122   02 Jun 2027 12:07:53.592   02 Jun 2027 12:08:42.812            49.220                Irkutsk          1538.125
       123   02 Jun 2027 12:10:25.216   02 Jun 2027 12:10:38.255            13.039                Irkutsk           407.469
       124   02 Jun 2027 12:13:28.114   02 Jun 2027 12:13:41.217            13.103                Norilsk           409.469
       125   02 Jun 2027 12:17:03.883   02 Jun 2027 12:17:38.932            35.049                Irkutsk          1095.281
       126   02 Jun 2027 12:23:16.543   02 Jun 2027 12:23:46.166            29.623                Norilsk           925.719
       127   02 Jun 2027 12:58:50.924   02 Jun 2027 12:59:38.883            47.959            RioGallegos          1498.719
       128   02 Jun 2027 13:01:50.868   02 Jun 2027 13:03:12.782            81.914            RioGallegos          2559.813
       129   02 Jun 2027 13:40:16.265   02 Jun 2027 13:41:04.726            48.461                  Delhi          1514.406
       130   02 Jun 2027 13:45:44.703   02 Jun 2027 13:47:47.497           122.794                Novosib          3837.312
       131   02 Jun 2027 13:48:39.908   02 Jun 2027 13:50:02.555            82.647                Novosib          2582.719
       132   02 Jun 2027 13:56:44.621   02 Jun 2027 13:57:21.959            37.338                Norilsk          1166.813
       133   02 Jun 2027 15:22:20.930   02 Jun 2027 15:26:06.967           226.037                 Moscow          7063.656
       134   02 Jun 2027 15:27:02.529   02 Jun 2027 15:27:29.249            26.720              Murmansk2           835.000
       135   02 Jun 2027 15:27:54.535   02 Jun 2027 15:28:51.163            56.628              Murmansk1          1769.625
       136   02 Jun 2027 15:29:34.830   02 Jun 2027 15:30:54.909            80.079                Norilsk          2502.469
       137   02 Jun 2027 15:33:01.685   02 Jun 2027 15:35:07.811           126.126                Norilsk          3941.438
       138   02 Jun 2027 16:41:14.076   02 Jun 2027 16:41:22.557             8.481               CapeTown           265.031
       139   02 Jun 2027 16:43:49.026   02 Jun 2027 16:44:17.579            28.553               CapeTown           892.281
       140   02 Jun 2027 16:59:34.588   02 Jun 2027 16:59:46.875            12.287                 Moscow           383.969
       141   02 Jun 2027 17:00:30.621   02 Jun 2027 17:00:57.820            27.199                 Moscow           849.969
       142   02 Jun 2027 17:01:14.372   02 Jun 2027 17:02:08.056            53.684                 Moscow          1677.625
       143   02 Jun 2027 17:02:45.997   02 Jun 2027 17:02:58.820            12.823              Murmansk1           400.719
       144   02 Jun 2027 17:03:33.008   02 Jun 2027 17:04:30.760            57.752                 Moscow          1804.750
       145   02 Jun 2027 17:16:51.592   02 Jun 2027 17:18:09.027            77.435                Anadyr2          2419.844
       146   02 Jun 2027 17:18:31.288   02 Jun 2027 17:19:17.781            46.493                Anadyr1          1452.906
       147   02 Jun 2027 17:25:21.606   02 Jun 2027 17:25:43.845            22.239                Anadyr2           694.969
       148   02 Jun 2027 18:11:48.840   02 Jun 2027 18:13:49.356           120.516               CapeTown          3766.125
       149   02 Jun 2027 18:41:59.622   02 Jun 2027 18:44:53.084           173.462              Murmansk2          5420.687
       150   02 Jun 2027 18:46:47.945   02 Jun 2027 18:47:19.113            31.168              Murmansk1           974.000
       151   02 Jun 2027 18:55:52.776   02 Jun 2027 18:57:16.149            83.373               Magadan2          2605.406
       152   02 Jun 2027 18:57:16.149   02 Jun 2027 18:57:27.241            11.092               Magadan1           346.625
       153   02 Jun 2027 18:58:26.666   02 Jun 2027 18:58:39.086            12.420               Magadan1           388.125
       154   02 Jun 2027 18:59:42.632   02 Jun 2027 18:59:50.318             7.686               Magadan1           240.187
       155   02 Jun 2027 19:01:33.824   02 Jun 2027 19:02:27.727            53.903               Magadan2          1684.469
       156   02 Jun 2027 20:28:18.704   02 Jun 2027 20:29:55.782            97.078                Anadyr1          3033.688
       157   02 Jun 2027 20:30:12.560   02 Jun 2027 20:32:03.394           110.834                Anadyr2          3463.563
       158   02 Jun 2027 20:32:13.802   02 Jun 2027 20:34:26.511           132.709               Magadan2          4147.156
       159   02 Jun 2027 20:37:05.184   02 Jun 2027 20:37:21.333            16.149               Magadan2           504.656
       160   02 Jun 2027 20:38:36.095   02 Jun 2027 20:38:47.007            10.912               Magadan2           341.000
       161   02 Jun 2027 20:39:08.724   02 Jun 2027 20:39:35.084            26.360               Magadan2           823.750
       162   02 Jun 2027 22:04:10.851   02 Jun 2027 22:08:05.009           234.158                Anadyr2          7317.438
       163   02 Jun 2027 22:08:16.138   02 Jun 2027 22:10:13.735           117.597                Norilsk          3674.906
       164   02 Jun 2027 22:10:18.064   02 Jun 2027 22:11:48.200            90.136               Magadan2          2816.750
       165   02 Jun 2027 22:11:50.185   02 Jun 2027 22:11:53.371             3.186                Irkutsk            99.563
       166   02 Jun 2027 22:12:46.342   02 Jun 2027 22:13:36.185            49.843                Irkutsk          1557.594
       167   02 Jun 2027 22:14:19.181   02 Jun 2027 22:14:24.592             5.411                Irkutsk           169.094
       168   02 Jun 2027 22:16:50.739   02 Jun 2027 22:17:25.879            35.140                Irkutsk          1098.125
       169   02 Jun 2027 22:27:59.972   02 Jun 2027 22:29:10.948            70.976                Sumatra          2218.000
       170   02 Jun 2027 22:30:20.761   02 Jun 2027 22:31:47.876            87.115                Sumatra          2722.344
       171   02 Jun 2027 23:39:36.135   02 Jun 2027 23:39:46.103             9.968                Anadyr2           311.500
       172   02 Jun 2027 23:39:46.103   02 Jun 2027 23:40:14.137            28.034                Anadyr1           876.063
       173   02 Jun 2027 23:40:30.160   02 Jun 2027 23:41:58.008            87.848                Anadyr1          2745.250
       174   02 Jun 2027 23:42:22.842   02 Jun 2027 23:43:26.893            64.051                Norilsk          2001.594
       175   02 Jun 2027 23:43:35.991   02 Jun 2027 23:43:44.334             8.343                Norilsk           260.719
       176   02 Jun 2027 23:45:34.356   02 Jun 2027 23:46:29.690            55.334               Magadan2          1729.188
       177   02 Jun 2027 23:46:59.187   02 Jun 2027 23:48:19.880            80.693                Novosib          2521.656
       178   02 Jun 2027 23:50:55.386   02 Jun 2027 23:52:23.155            87.769                Novosib          2742.781
       179   02 Jun 2027 23:59:44.626   03 Jun 2027 00:00:10.422            25.796                Sumatra           806.125
       180   03 Jun 2027 00:02:08.497   03 Jun 2027 00:02:30.277            21.780                Sumatra           680.625
       181   03 Jun 2027 00:03:46.368   03 Jun 2027 00:03:55.982             9.614                Sumatra           300.437
       182   03 Jun 2027 00:34:58.694   03 Jun 2027 00:35:08.211             9.517            RioGallegos           297.406
       183   03 Jun 2027 00:37:02.914   03 Jun 2027 00:37:51.105            48.191            RioGallegos          1505.969
       184   03 Jun 2027 00:44:44.091   03 Jun 2027 00:45:04.992            20.901            RioGallegos           653.156
       185   03 Jun 2027 01:13:57.362   03 Jun 2027 01:14:28.408            31.046                Anadyr1           970.188
       186   03 Jun 2027 01:14:28.408   03 Jun 2027 01:15:13.305            44.897                Anadyr2          1403.031
       187   03 Jun 2027 01:16:08.022   03 Jun 2027 01:16:34.544            26.522                Anadyr2           828.813
       188   03 Jun 2027 01:16:54.193   03 Jun 2027 01:16:59.739             5.546                Anadyr1           173.313
       189   03 Jun 2027 01:18:02.020   03 Jun 2027 01:19:43.274           101.254                Norilsk          3164.187
       190   03 Jun 2027 01:20:21.766   03 Jun 2027 01:20:28.276             6.510               Magadan1           203.438
       191   03 Jun 2027 01:20:54.583   03 Jun 2027 01:21:05.583            11.000               Magadan1           343.750
       192   03 Jun 2027 01:21:28.514   03 Jun 2027 01:23:31.819           123.305              Murmansk1          3853.281
       193   03 Jun 2027 01:23:34.949   03 Jun 2027 01:24:06.737            31.788                Novosib           993.375
       194   03 Jun 2027 01:29:17.879   03 Jun 2027 01:30:06.702            48.823                  Delhi          1525.719
       195   03 Jun 2027 01:36:07.251   03 Jun 2027 01:36:27.477            20.226                  Delhi           632.063
       196   03 Jun 2027 01:41:07.463   03 Jun 2027 01:41:40.373            32.910                  Delhi          1028.437
       197   03 Jun 2027 02:10:45.748   03 Jun 2027 02:12:07.803            82.055            RioGallegos          2564.219
       198   03 Jun 2027 02:13:44.840   03 Jun 2027 02:14:00.542            15.702            RioGallegos           490.688
       199   03 Jun 2027 02:17:28.708   03 Jun 2027 02:17:48.456            19.748            RioGallegos           617.125
       200   03 Jun 2027 02:47:23.298   03 Jun 2027 02:47:50.657            27.359                Anadyr1           854.969
       201   03 Jun 2027 02:49:09.873   03 Jun 2027 02:49:32.353            22.480                Anadyr1           702.500
       202   03 Jun 2027 02:50:14.650   03 Jun 2027 02:50:40.696            26.046                Anadyr1           813.937
       203   03 Jun 2027 02:52:55.239   03 Jun 2027 02:53:39.480            44.241                Anadyr1          1382.531
       204   03 Jun 2027 02:53:45.642   03 Jun 2027 02:54:02.023            16.381               Magadan2           511.906
       205   03 Jun 2027 02:54:07.426   03 Jun 2027 02:54:25.723            18.297               Magadan2           571.781
       206   03 Jun 2027 02:56:14.409   03 Jun 2027 02:57:05.620            51.211              Murmansk2          1600.344
       207   03 Jun 2027 02:57:35.840   03 Jun 2027 02:58:28.682            52.842              Murmansk1          1651.312
       208   03 Jun 2027 02:58:37.131   03 Jun 2027 02:59:12.428            35.297                Novosib          1103.031
       209   03 Jun 2027 02:59:37.917   03 Jun 2027 03:00:19.113            41.196                Irkutsk          1287.375
       210   03 Jun 2027 03:00:28.722   03 Jun 2027 03:01:39.400            70.678                Novosib          2208.688
       211   03 Jun 2027 03:01:56.495   03 Jun 2027 03:03:33.614            97.119                Novosib          3034.969
       212   03 Jun 2027 03:03:34.949   03 Jun 2027 03:03:40.814             5.865              Murmansk1           183.281
       213   03 Jun 2027 03:03:47.974   03 Jun 2027 03:05:07.086            79.112                Irkutsk          2472.250
       214   03 Jun 2027 03:06:11.035   03 Jun 2027 03:08:21.333           130.298                  Delhi          4071.812
       215   03 Jun 2027 04:39:49.274   03 Jun 2027 04:40:07.143            17.869                Novosib           558.406
       216   03 Jun 2027 04:40:18.459   03 Jun 2027 04:40:46.627            28.168                Novosib           880.250
       217   03 Jun 2027 04:41:42.532   03 Jun 2027 04:42:12.941            30.409                Novosib           950.281
       218   03 Jun 2027 04:42:14.227   03 Jun 2027 04:42:44.380            30.153              Murmansk1           942.281
       219   03 Jun 2027 04:42:52.889   03 Jun 2027 04:44:58.016           125.127                 Moscow          3910.219
       220   03 Jun 2027 04:46:00.738   03 Jun 2027 04:46:07.056             6.318                 Moscow           197.437
       221   03 Jun 2027 04:59:19.106   03 Jun 2027 05:03:02.619           223.513               CapeTown          6984.781
       222   03 Jun 2027 05:55:58.828   03 Jun 2027 05:56:40.813            41.985                Anadyr1          1312.031
       223   03 Jun 2027 06:02:32.789   03 Jun 2027 06:02:48.873            16.084                Anadyr2           502.625
       224   03 Jun 2027 06:02:53.839   03 Jun 2027 06:03:04.412            10.573                Anadyr2           330.406
       225   03 Jun 2027 06:03:59.932   03 Jun 2027 06:07:05.800           185.868               Magadan1          5808.375
       226   03 Jun 2027 07:36:53.964   03 Jun 2027 07:37:23.999            30.035               Magadan2           938.594
       227   03 Jun 2027 07:37:40.731   03 Jun 2027 07:37:42.462             1.731                Anadyr1            54.094
       228   03 Jun 2027 07:37:53.510   03 Jun 2027 07:38:05.205            11.695               Magadan2           365.469
       229   03 Jun 2027 07:38:13.886   03 Jun 2027 07:38:35.967            22.081               Magadan2           690.031
       230   03 Jun 2027 07:38:41.862   03 Jun 2027 07:39:16.288            34.426               Magadan2          1075.813
       231   03 Jun 2027 07:39:16.288   03 Jun 2027 07:40:13.076            56.788               Magadan1          1774.625
       232   03 Jun 2027 07:40:29.149   03 Jun 2027 07:40:44.977            15.828               Magadan1           494.625
       233   03 Jun 2027 07:41:03.523   03 Jun 2027 07:42:24.505            80.982                Anadyr2          2530.687
       234   03 Jun 2027 09:11:29.412   03 Jun 2027 09:11:36.533             7.121               Magadan2           222.531
       235   03 Jun 2027 09:12:56.529   03 Jun 2027 09:13:09.153            12.624               Magadan2           394.500
       236   03 Jun 2027 09:13:49.343   03 Jun 2027 09:14:19.704            30.361               Magadan2           948.781
       237   03 Jun 2027 09:14:27.307   03 Jun 2027 09:14:42.546            15.239               Magadan1           476.219
       238   03 Jun 2027 09:14:53.865   03 Jun 2027 09:15:13.328            19.463                Anadyr1           608.219
       239   03 Jun 2027 09:15:19.255   03 Jun 2027 09:16:39.046            79.791               Magadan1          2493.469
       240   03 Jun 2027 09:17:36.719   03 Jun 2027 09:18:48.400            71.681                Anadyr2          2240.031
       241   03 Jun 2027 09:19:21.005   03 Jun 2027 09:19:35.504            14.499               Magadan1           453.094
       242   03 Jun 2027 09:21:36.024   03 Jun 2027 09:21:52.475            16.451                Norilsk           514.094
       243   03 Jun 2027 09:55:26.628   03 Jun 2027 09:55:39.986            13.358            RioGallegos           417.437
       244   03 Jun 2027 09:56:06.457   03 Jun 2027 09:56:20.587            14.130            RioGallegos           441.563
       245   03 Jun 2027 09:58:46.723   03 Jun 2027 09:59:42.687            55.964            RioGallegos          1748.875
       246   03 Jun 2027 10:33:12.346   03 Jun 2027 10:34:35.845            83.499                Sumatra          2609.344
       247   03 Jun 2027 10:49:07.270   03 Jun 2027 10:49:33.669            26.399               Magadan2           824.969
       248   03 Jun 2027 10:50:00.352   03 Jun 2027 10:50:06.117             5.765                Irkutsk           180.156
       249   03 Jun 2027 10:50:06.722   03 Jun 2027 10:50:24.317            17.595                Irkutsk           549.844
       250   03 Jun 2027 10:50:32.831   03 Jun 2027 10:51:41.628            68.797               Magadan1          2149.906
       251   03 Jun 2027 10:52:45.604   03 Jun 2027 10:53:00.447            14.843                Irkutsk           463.844
       252   03 Jun 2027 10:53:02.304   03 Jun 2027 10:53:16.358            14.054                Norilsk           439.187
       253   03 Jun 2027 10:53:23.784   03 Jun 2027 10:54:17.603            53.819               Magadan1          1681.844
       254   03 Jun 2027 10:54:47.051   03 Jun 2027 10:55:16.754            29.703                Norilsk           928.219
       255   03 Jun 2027 10:55:21.119   03 Jun 2027 10:55:43.461            22.342                Norilsk           698.187
       256   03 Jun 2027 10:55:45.030   03 Jun 2027 10:56:14.433            29.403                Irkutsk           918.844
       257   03 Jun 2027 11:31:12.735   03 Jun 2027 11:31:54.922            42.187            RioGallegos          1318.344
       258   03 Jun 2027 11:37:49.534   03 Jun 2027 11:38:44.001            54.467            RioGallegos          1702.094
       259   03 Jun 2027 12:08:53.322   03 Jun 2027 12:09:55.388            62.066                Sumatra          1939.562
       260   03 Jun 2027 12:20:14.428   03 Jun 2027 12:21:23.693            69.265                Irkutsk          2164.531
       261   03 Jun 2027 12:23:03.795   03 Jun 2027 12:23:10.006             6.211                Novosib           194.094
       262   03 Jun 2027 12:24:24.705   03 Jun 2027 12:25:26.304            61.599                Norilsk          1924.969
       263   03 Jun 2027 13:12:11.720   03 Jun 2027 13:13:49.657            97.937            RioGallegos          3060.531
       264   03 Jun 2027 13:14:37.110   03 Jun 2027 13:15:35.226            58.116            RioGallegos          1816.125
       265   03 Jun 2027 13:58:09.644   03 Jun 2027 13:59:16.737            67.093                Novosib          2096.656
       266   03 Jun 2027 13:59:42.604   03 Jun 2027 14:03:03.978           201.374                Novosib          6292.938
       267   03 Jun 2027 14:07:45.723   03 Jun 2027 14:07:49.361             3.638                Novosib           113.687
       268   03 Jun 2027 14:09:24.097   03 Jun 2027 14:10:20.364            56.267                Norilsk          1758.344
       269   03 Jun 2027 15:34:21.166   03 Jun 2027 15:37:02.521           161.355                 Moscow          5042.344
       270   03 Jun 2027 15:37:49.846   03 Jun 2027 15:39:01.348            71.502              Murmansk1          2234.437
       271   03 Jun 2027 15:39:20.142   03 Jun 2027 15:40:20.015            59.873              Murmansk1          1871.031
       272   03 Jun 2027 15:42:19.335   03 Jun 2027 15:45:00.437           161.102                Norilsk          5034.437
       273   03 Jun 2027 15:46:11.615   03 Jun 2027 15:46:47.296            35.681                Norilsk          1115.031
       274   03 Jun 2027 17:12:03.274   03 Jun 2027 17:12:43.328            40.054                 Moscow          1251.688
       275   03 Jun 2027 17:15:04.209   03 Jun 2027 17:16:11.926            67.717              Murmansk2          2116.156
       276   03 Jun 2027 17:17:08.176   03 Jun 2027 17:17:35.452            27.276              Murmansk1           852.375
       277   03 Jun 2027 17:18:39.707   03 Jun 2027 17:19:08.795            29.088              Murmansk1           909.000
       278   03 Jun 2027 17:24:33.698   03 Jun 2027 17:24:37.964             4.266              Murmansk2           133.312
       279   03 Jun 2027 17:28:46.919   03 Jun 2027 17:30:09.285            82.366                Anadyr1          2573.938
       280   03 Jun 2027 17:30:19.826   03 Jun 2027 17:31:09.156            49.330                Anadyr2          1541.562
       281   03 Jun 2027 18:23:55.888   03 Jun 2027 18:24:32.433            36.545               CapeTown          1142.031
       282   03 Jun 2027 18:24:53.058   03 Jun 2027 18:25:52.352            59.294               CapeTown          1852.937
       283   03 Jun 2027 18:54:39.091   03 Jun 2027 18:58:39.226           240.135              Murmansk1          7504.219
       284   03 Jun 2027 18:59:18.688   03 Jun 2027 18:59:31.268            12.580              Murmansk2           393.125
       285   03 Jun 2027 19:05:37.926   03 Jun 2027 19:06:00.889            22.963                Anadyr2           717.594
       286   03 Jun 2027 19:07:36.208   03 Jun 2027 19:08:18.208            42.000               Magadan2          1312.500
       287   03 Jun 2027 19:08:18.208   03 Jun 2027 19:08:56.192            37.984               Magadan1          1187.000
       288   03 Jun 2027 19:15:00.523   03 Jun 2027 19:15:07.645             7.122               Magadan2           222.562
       289   03 Jun 2027 20:40:20.397   03 Jun 2027 20:41:56.155            95.758                Anadyr1          2992.438
       290   03 Jun 2027 20:42:03.545   03 Jun 2027 20:44:04.786           121.241                Anadyr2          3788.781
       291   03 Jun 2027 20:44:52.483   03 Jun 2027 20:46:21.189            88.706               Magadan2          2772.062
       292   03 Jun 2027 20:46:31.713   03 Jun 2027 20:47:38.002            66.289               Magadan1          2071.531
       293   03 Jun 2027 20:48:04.600   03 Jun 2027 20:48:10.920             6.320               Magadan1           197.500
       294   03 Jun 2027 20:48:49.576   03 Jun 2027 20:49:07.111            17.535               Magadan1           547.969
       295   03 Jun 2027 20:49:34.762   03 Jun 2027 20:49:44.428             9.666               Magadan1           302.063
       296   03 Jun 2027 20:50:07.015   03 Jun 2027 20:50:15.365             8.350               Magadan1           260.937
       297   03 Jun 2027 20:51:33.109   03 Jun 2027 20:52:01.373            28.264               Magadan1           883.250
       298   03 Jun 2027 21:36:54.946   03 Jun 2027 21:39:09.248           134.302            RioGallegos          4196.937
       299   03 Jun 2027 21:40:59.286   03 Jun 2027 21:41:20.559            21.273            RioGallegos           664.781
       300   03 Jun 2027 22:16:10.725   03 Jun 2027 22:17:24.995            74.270                Anadyr2          2320.937
       301   03 Jun 2027 22:18:08.891   03 Jun 2027 22:18:32.694            23.803                Anadyr2           743.844
       302   03 Jun 2027 22:18:33.661   03 Jun 2027 22:20:52.527           138.866               Magadan2          4339.563
       303   03 Jun 2027 22:21:02.712   03 Jun 2027 22:21:31.211            28.499               Magadan2           890.594
       304   03 Jun 2027 22:23:22.515   03 Jun 2027 22:25:00.779            98.264                Irkutsk          3070.750
       305   03 Jun 2027 22:38:36.345   03 Jun 2027 22:40:27.836           111.491                Sumatra          3484.094
       306   03 Jun 2027 22:41:45.328   03 Jun 2027 22:43:33.398           108.070                Sumatra          3377.188
       307   03 Jun 2027 23:51:30.115   03 Jun 2027 23:51:44.147            14.032                Anadyr1           438.500
       308   03 Jun 2027 23:52:29.743   03 Jun 2027 23:52:59.960            30.217                Anadyr1           944.281
       309   03 Jun 2027 23:53:57.540   03 Jun 2027 23:54:28.871            31.331                Anadyr2           979.094
       310   03 Jun 2027 23:54:37.973   03 Jun 2027 23:55:46.477            68.504                Norilsk          2140.750
       311   03 Jun 2027 23:56:11.863   03 Jun 2027 23:56:58.691            46.828               Magadan2          1463.375
       312   03 Jun 2027 23:58:00.042   03 Jun 2027 23:59:05.909            65.867                Irkutsk          2058.344
       313   03 Jun 2027 23:59:36.946   03 Jun 2027 23:59:39.566             2.620                Novosib            81.875
       314   04 Jun 2027 00:00:55.768   04 Jun 2027 00:01:57.581            61.813                Novosib          1931.656
       315   04 Jun 2027 00:09:22.677   04 Jun 2027 00:10:27.856            65.179                  Delhi          2036.844
       316   04 Jun 2027 00:11:22.019   04 Jun 2027 00:13:21.063           119.044                  Delhi          3720.125
       317   04 Jun 2027 00:56:54.716   04 Jun 2027 00:57:25.060            30.344            RioGallegos           948.250
       318   04 Jun 2027 01:25:41.501   04 Jun 2027 01:26:32.573            51.072                Anadyr1          1596.000
       319   04 Jun 2027 01:26:50.986   04 Jun 2027 01:27:13.056            22.070                Anadyr1           689.688
       320   04 Jun 2027 01:27:51.700   04 Jun 2027 01:28:10.435            18.735                Anadyr1           585.469
       321   04 Jun 2027 01:28:32.893   04 Jun 2027 01:28:45.881            12.988                Anadyr2           405.875
       322   04 Jun 2027 01:30:04.265   04 Jun 2027 01:31:43.415            99.150                Norilsk          3098.437
       323   04 Jun 2027 01:33:05.364   04 Jun 2027 01:35:24.470           139.106              Murmansk1          4347.063
       324   04 Jun 2027 01:37:39.456   04 Jun 2027 01:37:46.875             7.419                Irkutsk           231.844
       325   04 Jun 2027 01:39:29.524   04 Jun 2027 01:40:31.300            61.776                Novosib          1930.500
       326   04 Jun 2027 01:45:13.308   04 Jun 2027 01:46:51.998            98.690                  Delhi          3084.062
       327   04 Jun 2027 02:23:01.506   04 Jun 2027 02:24:21.124            79.618            RioGallegos          2488.063
       328   04 Jun 2027 02:24:35.638   04 Jun 2027 02:25:04.257            28.619            RioGallegos           894.344
       329   04 Jun 2027 02:59:44.695   04 Jun 2027 02:59:47.671             2.976                Anadyr1            93.000
       330   04 Jun 2027 03:01:10.239   04 Jun 2027 03:01:33.525            23.286                Anadyr2           727.688
       331   04 Jun 2027 03:13:26.521   04 Jun 2027 03:13:30.441             3.920              Murmansk1           122.500
       332   04 Jun 2027 03:13:36.603   04 Jun 2027 03:14:09.736            33.133                Novosib          1035.406
       333   04 Jun 2027 03:14:25.719   04 Jun 2027 03:15:06.915            41.196                 Moscow          1287.375
       334   04 Jun 2027 03:15:08.175   04 Jun 2027 03:17:00.906           112.731                Norilsk          3522.844
       335   04 Jun 2027 03:17:25.343   04 Jun 2027 03:17:49.447            24.104              Murmansk2           753.250
       336   04 Jun 2027 03:17:57.630   04 Jun 2027 03:18:21.020            23.390                Novosib           730.937
       337   04 Jun 2027 03:18:21.360   04 Jun 2027 03:18:40.717            19.357                Norilsk           604.906
       338   04 Jun 2027 03:18:44.505   04 Jun 2027 03:21:56.812           192.307                  Delhi          6009.594
       339   04 Jun 2027 04:53:32.197   04 Jun 2027 04:54:22.234            50.037                 Moscow          1563.656
       340   04 Jun 2027 04:54:50.929   04 Jun 2027 04:54:56.045             5.116                 Moscow           159.875
       341   04 Jun 2027 04:55:21.827   04 Jun 2027 04:55:25.496             3.669                 Moscow           114.656
       342   04 Jun 2027 04:55:56.260   04 Jun 2027 04:56:21.826            25.566                 Moscow           798.937
       343   04 Jun 2027 05:11:16.868   04 Jun 2027 05:14:03.611           166.743               CapeTown          5210.719
       344   04 Jun 2027 06:08:01.737   04 Jun 2027 06:09:13.997            72.260                Anadyr2          2258.125
       345   04 Jun 2027 06:14:17.858   04 Jun 2027 06:14:35.233            17.375               Magadan2           542.969
       346   04 Jun 2027 06:14:42.198   04 Jun 2027 06:15:33.037            50.839               Magadan2          1588.719
       347   04 Jun 2027 06:15:33.037   04 Jun 2027 06:15:35.017             1.980               Magadan1            61.875
       348   04 Jun 2027 06:16:04.702   04 Jun 2027 06:17:10.956            66.254                Anadyr1          2070.438
       349   04 Jun 2027 06:52:05.293   04 Jun 2027 06:54:16.750           131.457               CapeTown          4108.031
       350   04 Jun 2027 07:50:27.808   04 Jun 2027 07:50:39.379            11.571               Magadan2           361.594
       351   04 Jun 2027 07:50:43.149   04 Jun 2027 07:50:57.238            14.089               Magadan2           440.281
       352   04 Jun 2027 07:51:07.864   04 Jun 2027 07:51:17.332             9.468                Anadyr1           295.875
       353   04 Jun 2027 07:51:26.401   04 Jun 2027 07:52:10.161            43.760               Magadan2          1367.500
       354   04 Jun 2027 07:52:14.892   04 Jun 2027 07:52:41.334            26.442               Magadan1           826.312
       355   04 Jun 2027 07:52:47.483   04 Jun 2027 07:53:14.549            27.066               Magadan2           845.812
       356   04 Jun 2027 07:54:19.382   04 Jun 2027 07:55:03.233            43.851                Anadyr1          1370.344
       357   04 Jun 2027 08:34:35.267   04 Jun 2027 08:34:40.039             4.772            RioGallegos           149.125
       358   04 Jun 2027 08:35:58.931   04 Jun 2027 08:36:39.409            40.478            RioGallegos          1264.937
       359   04 Jun 2027 09:25:35.812   04 Jun 2027 09:26:04.200            28.388               Magadan2           887.125
       360   04 Jun 2027 09:26:14.829   04 Jun 2027 09:26:44.899            30.070               Magadan2           939.688
       361   04 Jun 2027 09:27:23.246   04 Jun 2027 09:28:38.357            75.111               Magadan2          2347.219
       362   04 Jun 2027 09:29:36.316   04 Jun 2027 09:30:35.134            58.818               Magadan2          1838.062
       363   04 Jun 2027 09:30:40.467   04 Jun 2027 09:31:31.642            51.175               Magadan2          1599.219
       364   04 Jun 2027 10:07:15.530   04 Jun 2027 10:08:07.322            51.792            RioGallegos          1618.500
       365   04 Jun 2027 10:12:54.840   04 Jun 2027 10:13:11.884            17.044            RioGallegos           532.625
       366   04 Jun 2027 10:44:07.354   04 Jun 2027 10:46:00.674           113.320                Sumatra          3541.250
       367   04 Jun 2027 11:02:42.567   04 Jun 2027 11:02:54.097            11.530               Magadan2           360.312
       368   04 Jun 2027 11:02:54.097   04 Jun 2027 11:03:24.706            30.609               Magadan1           956.531
       369   04 Jun 2027 11:04:23.921   04 Jun 2027 11:04:27.894             3.973                Irkutsk           124.156
       370   04 Jun 2027 11:04:58.933   04 Jun 2027 11:06:04.605            65.672                Irkutsk          2052.250
       371   04 Jun 2027 11:06:48.960   04 Jun 2027 11:07:31.236            42.276                Irkutsk          1321.125
       372   04 Jun 2027 11:07:35.914   04 Jun 2027 11:07:56.758            20.844                Irkutsk           651.375
       373   04 Jun 2027 11:08:10.271   04 Jun 2027 11:08:47.284            37.013                Novosib          1156.656
       374   04 Jun 2027 11:43:29.246   04 Jun 2027 11:44:19.207            49.961            RioGallegos          1561.281
       375   04 Jun 2027 12:17:54.314   04 Jun 2027 12:20:04.519           130.205                Sumatra          4068.906
       376   04 Jun 2027 12:32:40.020   04 Jun 2027 12:33:09.520            29.500                Irkutsk           921.875
       377   04 Jun 2027 12:33:57.273   04 Jun 2027 12:34:50.040            52.767                Novosib          1648.969
       378   04 Jun 2027 12:36:33.806   04 Jun 2027 12:37:22.468            48.662                Norilsk          1520.687
       379   04 Jun 2027 14:02:30.227   04 Jun 2027 14:02:59.555            29.328                  Delhi           916.500
       380   04 Jun 2027 14:04:01.745   04 Jun 2027 14:04:50.128            48.383                  Delhi          1511.969
       381   04 Jun 2027 14:06:56.234   04 Jun 2027 14:07:24.688            28.454                  Delhi           889.188
       382   04 Jun 2027 14:08:21.819   04 Jun 2027 14:09:56.432            94.613                  Delhi          2956.656
       383   04 Jun 2027 14:10:39.402   04 Jun 2027 14:11:29.873            50.471                Novosib          1577.219
       384   04 Jun 2027 14:11:35.882   04 Jun 2027 14:14:01.243           145.361                Novosib          4542.531
       385   04 Jun 2027 14:14:34.628   04 Jun 2027 14:14:58.655            24.027                Norilsk           750.844
       386   04 Jun 2027 14:15:36.244   04 Jun 2027 14:16:17.966            41.722                Norilsk          1303.813
       387   04 Jun 2027 14:17:37.070   04 Jun 2027 14:19:19.273           102.203                Norilsk          3193.844
       388   04 Jun 2027 15:46:24.329   04 Jun 2027 15:47:26.251            61.922                 Moscow          1935.063
       389   04 Jun 2027 15:47:43.918   04 Jun 2027 15:48:06.428            22.510                 Moscow           703.438
       390   04 Jun 2027 15:48:36.711   04 Jun 2027 15:49:27.539            50.828                 Moscow          1588.375
       391   04 Jun 2027 15:49:55.094   04 Jun 2027 15:50:58.492            63.398              Murmansk1          1981.187
       392   04 Jun 2027 15:55:08.875   04 Jun 2027 15:57:50.847           161.972                Norilsk          5061.625
       393   04 Jun 2027 15:59:17.623   04 Jun 2027 15:59:46.020            28.397                Norilsk           887.406
       394   04 Jun 2027 17:24:37.373   04 Jun 2027 17:26:06.418            89.045                 Moscow          2782.656
       395   04 Jun 2027 17:27:24.582   04 Jun 2027 17:28:04.943            40.361              Murmansk2          1261.281
       396   04 Jun 2027 17:28:24.296   04 Jun 2027 17:29:09.700            45.404              Murmansk2          1418.875
       397   04 Jun 2027 17:31:10.939   04 Jun 2027 17:31:57.151            46.212              Murmansk2          1444.125
       398   04 Jun 2027 17:40:43.648   04 Jun 2027 17:42:08.481            84.833                Anadyr1          2651.031
       399   04 Jun 2027 17:42:08.481   04 Jun 2027 17:42:09.897             1.416                Anadyr2            44.250
       400   04 Jun 2027 18:36:06.007   04 Jun 2027 18:37:51.220           105.213               CapeTown          3287.906
       401   04 Jun 2027 18:45:20.133   04 Jun 2027 18:45:50.795            30.662               CapeTown           958.188
       402   04 Jun 2027 19:07:22.675   04 Jun 2027 19:12:50.947           328.272              Murmansk2         10258.500
       403   04 Jun 2027 19:20:34.433   04 Jun 2027 19:21:40.992            66.559               Magadan1          2079.969
       404   04 Jun 2027 20:52:22.011   04 Jun 2027 20:55:25.401           183.390                Anadyr1          5730.937
       405   04 Jun 2027 20:55:48.812   04 Jun 2027 20:57:34.288           105.476               Magadan2          3296.125
       406   04 Jun 2027 20:58:10.077   04 Jun 2027 20:58:44.400            34.323               Magadan2          1072.594
       407   04 Jun 2027 20:59:31.569   04 Jun 2027 21:00:07.394            35.825                Anadyr1          1119.531
       408   04 Jun 2027 21:02:24.574   04 Jun 2027 21:02:44.874            20.300               Magadan2           634.375
       409   04 Jun 2027 21:03:14.498   04 Jun 2027 21:03:44.080            29.582               Magadan2           924.437
       410   04 Jun 2027 21:48:05.656   04 Jun 2027 21:50:50.259           164.603            RioGallegos          5143.844
       411   04 Jun 2027 21:53:49.341   04 Jun 2027 21:54:04.137            14.796            RioGallegos           462.375
       412   04 Jun 2027 22:28:10.146   04 Jun 2027 22:29:34.832            84.686                Anadyr2          2646.438
       413   04 Jun 2027 22:29:59.828   04 Jun 2027 22:30:18.276            18.448                Anadyr2           576.500
       414   04 Jun 2027 22:30:21.424   04 Jun 2027 22:31:48.745            87.321                Norilsk          2728.781
       415   04 Jun 2027 22:31:59.088   04 Jun 2027 22:32:13.674            14.586               Magadan2           455.813
       416   04 Jun 2027 22:32:15.632   04 Jun 2027 22:32:42.145            26.513               Magadan2           828.531
       417   04 Jun 2027 22:34:11.365   04 Jun 2027 22:34:26.099            14.734               Magadan2           460.437
       418   04 Jun 2027 22:35:03.085   04 Jun 2027 22:35:47.015            43.930                Irkutsk          1372.813
       419   04 Jun 2027 22:37:01.117   04 Jun 2027 22:37:42.439            41.322                Irkutsk          1291.312
       420   04 Jun 2027 22:49:43.302   04 Jun 2027 22:51:27.452           104.150                Sumatra          3254.688
       421   04 Jun 2027 22:55:00.631   04 Jun 2027 22:55:25.149            24.518                Sumatra           766.187
       422   04 Jun 2027 22:56:02.672   04 Jun 2027 22:57:08.834            66.162                Sumatra          2067.562
       423   05 Jun 2027 00:03:22.948   05 Jun 2027 00:03:38.276            15.328                Anadyr2           479.000
       424   05 Jun 2027 00:03:41.506   05 Jun 2027 00:05:01.132            79.626                Anadyr1          2488.312
       425   05 Jun 2027 00:05:53.170   05 Jun 2027 00:05:57.461             4.291                Anadyr1           134.094
       426   05 Jun 2027 00:06:05.600   05 Jun 2027 00:07:21.703            76.103                Norilsk          2378.219
       427   05 Jun 2027 00:07:50.527   05 Jun 2027 00:08:25.566            35.039               Magadan1          1094.969
       428   05 Jun 2027 00:09:59.755   05 Jun 2027 00:10:57.364            57.609                Irkutsk          1800.281
       429   05 Jun 2027 00:11:03.325   05 Jun 2027 00:11:42.563            39.238                Novosib          1226.188
       430   05 Jun 2027 00:13:28.922   05 Jun 2027 00:13:43.567            14.645                Irkutsk           457.656
       431   05 Jun 2027 00:14:44.829   05 Jun 2027 00:15:51.303            66.474                Novosib          2077.313
       432   05 Jun 2027 00:19:56.330   05 Jun 2027 00:21:32.993            96.663                  Delhi          3020.719
       433   05 Jun 2027 00:58:08.424   05 Jun 2027 00:58:50.348            41.924            RioGallegos          1310.125
       434   05 Jun 2027 01:06:26.331   05 Jun 2027 01:06:51.716            25.385            RioGallegos           793.281
       435   05 Jun 2027 01:09:55.698   05 Jun 2027 01:10:05.286             9.588            RioGallegos           299.625
       436   05 Jun 2027 01:37:24.664   05 Jun 2027 01:37:55.811            31.147                Anadyr1           973.344
       437   05 Jun 2027 01:38:30.774   05 Jun 2027 01:39:12.868            42.094                Anadyr2          1315.438
       438   05 Jun 2027 01:39:12.868   05 Jun 2027 01:39:36.437            23.569                Anadyr1           736.531
       439   05 Jun 2027 01:40:03.059   05 Jun 2027 01:40:20.042            16.983                Anadyr1           530.719
       440   05 Jun 2027 01:42:06.432   05 Jun 2027 01:44:05.419           118.987                Norilsk          3718.344
       441   05 Jun 2027 01:44:52.229   05 Jun 2027 01:47:16.128           143.899              Murmansk2          4496.844
       442   05 Jun 2027 01:50:31.346   05 Jun 2027 01:50:56.181            24.835              Murmansk1           776.094
       443   05 Jun 2027 01:53:37.822   05 Jun 2027 01:55:29.361           111.539                  Delhi          3485.594
       444   05 Jun 2027 02:35:21.396   05 Jun 2027 02:37:07.822           106.426            RioGallegos          3325.812
       445   05 Jun 2027 02:39:22.102   05 Jun 2027 02:39:41.760            19.658            RioGallegos           614.312
       446   05 Jun 2027 02:40:32.764   05 Jun 2027 02:40:39.355             6.591            RioGallegos           205.969
       447   05 Jun 2027 03:26:50.827   05 Jun 2027 03:27:47.270            56.443                Novosib          1763.844
       448   05 Jun 2027 03:27:58.454   05 Jun 2027 03:28:07.969             9.515                Irkutsk           297.344
       449   05 Jun 2027 03:28:25.221   05 Jun 2027 03:29:10.935            45.714                Norilsk          1428.563
       450   05 Jun 2027 03:29:11.819   05 Jun 2027 03:29:34.320            22.501              Murmansk2           703.156
       451   05 Jun 2027 03:29:34.320   05 Jun 2027 03:29:50.446            16.126              Murmansk1           503.938
       452   05 Jun 2027 03:29:54.622   05 Jun 2027 03:31:30.230            95.608                Novosib          2987.750
       453   05 Jun 2027 03:31:33.812   05 Jun 2027 03:36:10.881           277.069                  Delhi          8658.406
       454   05 Jun 2027 05:04:20.931   05 Jun 2027 05:04:39.571            18.640                 Moscow           582.500
       455   05 Jun 2027 05:04:51.223   05 Jun 2027 05:05:09.691            18.468                 Moscow           577.125
       456   05 Jun 2027 05:05:15.711   05 Jun 2027 05:05:43.886            28.175                 Moscow           880.469
       457   05 Jun 2027 05:06:21.502   05 Jun 2027 05:06:30.592             9.090                 Moscow           284.062
       458   05 Jun 2027 05:07:55.176   05 Jun 2027 05:08:09.722            14.546                 Moscow           454.563
       459   05 Jun 2027 05:09:00.863   05 Jun 2027 05:09:12.556            11.693                 Moscow           365.406
       460   05 Jun 2027 05:23:19.673   05 Jun 2027 05:25:46.103           146.430               CapeTown          4575.937
       461   05 Jun 2027 06:26:18.936   05 Jun 2027 06:27:13.113            54.177                Anadyr2          1693.031
       462   05 Jun 2027 06:27:13.113   05 Jun 2027 06:27:38.424            25.311                Anadyr1           790.969
       463   05 Jun 2027 06:27:52.955   05 Jun 2027 06:28:12.068            19.113               Magadan1           597.281
       464   05 Jun 2027 06:28:16.386   05 Jun 2027 06:28:30.644            14.258               Magadan2           445.562
       465   05 Jun 2027 06:28:30.644   05 Jun 2027 06:28:41.178            10.534               Magadan1           329.188
       466   05 Jun 2027 06:29:12.743   05 Jun 2027 06:29:30.810            18.067                Anadyr1           564.594
       467   05 Jun 2027 06:31:40.301   05 Jun 2027 06:32:15.507            35.206                Anadyr2          1100.187
       468   05 Jun 2027 06:32:19.085   05 Jun 2027 06:32:33.895            14.810               Magadan2           462.813
       469   05 Jun 2027 07:04:28.143   05 Jun 2027 07:06:18.134           109.991               CapeTown          3437.219
       470   05 Jun 2027 08:02:37.732   05 Jun 2027 08:03:06.648            28.916                Anadyr2           903.625
       471   05 Jun 2027 08:03:06.648   05 Jun 2027 08:03:09.713             3.065                Anadyr1            95.781
       472   05 Jun 2027 08:03:22.349   05 Jun 2027 08:04:04.239            41.890                Anadyr2          1309.062
       473   05 Jun 2027 08:04:06.062   05 Jun 2027 08:04:49.759            43.697               Magadan1          1365.531
       474   05 Jun 2027 08:05:03.923   05 Jun 2027 08:06:12.248            68.325                Anadyr2          2135.156
       475   05 Jun 2027 08:49:52.094   05 Jun 2027 08:50:55.985            63.891            RioGallegos          1996.594
       476   05 Jun 2027 09:38:00.143   05 Jun 2027 09:38:08.203             8.060               Magadan2           251.875
       477   05 Jun 2027 09:38:23.331   05 Jun 2027 09:38:46.980            23.649               Magadan1           739.031
       478   05 Jun 2027 09:39:14.606   05 Jun 2027 09:39:29.868            15.262               Magadan2           476.938
       479   05 Jun 2027 09:40:36.890   05 Jun 2027 09:41:22.835            45.945               Magadan2          1435.781
       480   05 Jun 2027 09:41:49.489   05 Jun 2027 09:42:11.280            21.791                Irkutsk           680.969
       481   05 Jun 2027 09:42:41.583   05 Jun 2027 09:43:03.177            21.594               Magadan2           674.813
       482   05 Jun 2027 09:43:24.628   05 Jun 2027 09:43:45.213            20.585               Magadan1           643.281
