uniorb/output/strategy_4/Drop/Drop_KinoSat_110402.txt

KinoSat_110402
-------------------------
    Access    *     Start Time (UTCG)     *     Stop Time (UTCG)  *   Duration (s)        *       Station  *  Data (Mbytes)
         1   01 Jun 2027 04:22:37.746   01 Jun 2027 04:23:08.229            30.483               Magadan1          3810.375
         2   01 Jun 2027 04:23:19.896   01 Jun 2027 04:24:28.411            68.515               Magadan2          8564.375
         3   01 Jun 2027 04:24:32.409   01 Jun 2027 04:25:19.003            46.594                Irkutsk          5824.250
         4   01 Jun 2027 04:25:20.262   01 Jun 2027 04:26:20.805            60.543                Irkutsk          7567.875
         5   01 Jun 2027 04:27:21.644   01 Jun 2027 04:27:23.924             2.280               Magadan1           285.000
         6   01 Jun 2027 04:27:39.347   01 Jun 2027 04:28:26.191            46.844                Norilsk          5855.500
         7   01 Jun 2027 04:28:26.553   01 Jun 2027 04:28:57.715            31.162              Murmansk2          3895.250
         8   01 Jun 2027 04:29:11.031   01 Jun 2027 04:30:00.963            49.932              Murmansk2          6241.500
         9   01 Jun 2027 05:02:34.135   01 Jun 2027 05:03:43.500            69.365            RioGallegos          8670.625
        10   01 Jun 2027 05:06:17.719   01 Jun 2027 05:06:39.366            21.647            RioGallegos          2705.875
        11   01 Jun 2027 05:37:53.696   01 Jun 2027 05:39:43.094           109.398                Sumatra         13674.750
        12   01 Jun 2027 06:00:02.960   01 Jun 2027 06:02:38.798           155.838                Irkutsk         19479.750
        13   01 Jun 2027 06:03:24.584   01 Jun 2027 06:04:12.839            48.255              Murmansk1          6031.875
        14   01 Jun 2027 06:40:51.729   01 Jun 2027 06:41:03.804            12.075            RioGallegos          1509.375
        15   01 Jun 2027 07:14:48.586   01 Jun 2027 07:15:07.921            19.335                Sumatra          2416.875
        16   01 Jun 2027 07:16:12.878   01 Jun 2027 07:17:12.572            59.694                Sumatra          7461.750
        17   01 Jun 2027 07:21:44.584   01 Jun 2027 07:22:36.256            51.672                  Delhi          6459.000
        18   01 Jun 2027 07:24:17.068   01 Jun 2027 07:24:49.317            32.249                  Delhi          4031.125
        19   01 Jun 2027 07:38:35.326   01 Jun 2027 07:38:46.299            10.973                Novosib          1371.625
        20   01 Jun 2027 07:39:02.878   01 Jun 2027 07:41:35.807           152.929              Murmansk2         19116.125
        21   01 Jun 2027 09:00:15.108   01 Jun 2027 09:00:16.065             0.957                  Delhi           119.625
        22   01 Jun 2027 09:01:26.657   01 Jun 2027 09:02:04.784            38.127                  Delhi          4765.875
        23   01 Jun 2027 09:14:01.898   01 Jun 2027 09:15:50.183           108.285                 Moscow         13535.625
        24   01 Jun 2027 09:16:04.736   01 Jun 2027 09:16:30.901            26.165              Murmansk1          3270.625
        25   01 Jun 2027 09:16:44.728   01 Jun 2027 09:20:42.290           237.562                Norilsk         29695.250
        26   01 Jun 2027 09:21:27.157   01 Jun 2027 09:22:27.787            60.630              Murmansk2          7578.750
        27   01 Jun 2027 10:22:46.090   01 Jun 2027 10:28:28.400           342.310               CapeTown         42788.750
        28   01 Jun 2027 11:01:06.190   01 Jun 2027 11:04:13.243           187.053                Anadyr2         23381.625
        29   01 Jun 2027 11:04:13.243   01 Jun 2027 11:07:29.776           196.533                Anadyr1         24566.625
        30   01 Jun 2027 12:41:38.277   01 Jun 2027 12:43:09.483            91.206               Magadan1         11400.750
        31   01 Jun 2027 14:14:35.952   01 Jun 2027 14:16:27.530           111.578               Magadan1         13947.250
        32   01 Jun 2027 14:17:24.414   01 Jun 2027 14:18:59.264            94.850               Magadan2         11856.250
        33   01 Jun 2027 16:42:27.686   01 Jun 2027 16:48:23.928           356.242            RioGallegos         44530.250
        34   01 Jun 2027 17:31:54.003   01 Jun 2027 17:32:46.225            52.222                Irkutsk          6527.750
        35   01 Jun 2027 17:34:21.684   01 Jun 2027 17:37:02.331           160.647                Novosib         20080.875
        36   01 Jun 2027 17:43:46.479   01 Jun 2027 17:45:30.791           104.312                Sumatra         13039.000
        37   01 Jun 2027 17:46:19.359   01 Jun 2027 17:48:11.628           112.269                Sumatra         14033.625
        38   01 Jun 2027 19:13:35.734   01 Jun 2027 19:15:08.436            92.702                  Delhi          4875.625
        39   02 Jun 2027 04:39:25.934   02 Jun 2027 04:39:54.417            28.483                Irkutsk          3560.375
        40   02 Jun 2027 04:39:54.889   02 Jun 2027 04:41:05.694            70.805                Novosib          8850.625
        41   02 Jun 2027 04:41:17.903   02 Jun 2027 04:48:29.359           431.456              Murmansk1         53932.000
        42   02 Jun 2027 05:14:37.276   02 Jun 2027 05:17:52.708           195.432            RioGallegos         24429.000
        43   02 Jun 2027 05:49:40.825   02 Jun 2027 05:51:16.276            95.451                Sumatra         11931.375
        44   02 Jun 2027 05:52:31.551   02 Jun 2027 05:54:16.295           104.744                Sumatra         13093.000
        45   02 Jun 2027 06:15:57.633   02 Jun 2027 06:16:01.570             3.937                Norilsk           492.125
        46   02 Jun 2027 06:16:08.550   02 Jun 2027 06:17:27.118            78.568                Novosib          9821.000
        47   02 Jun 2027 06:17:36.088   02 Jun 2027 06:20:53.278           197.190                Norilsk         24648.750
        48   02 Jun 2027 06:20:59.705   02 Jun 2027 06:23:13.362           133.657              Murmansk1         16707.125
        49   02 Jun 2027 06:58:27.714   02 Jun 2027 07:02:08.701           220.987            RioGallegos         27623.375
        50   02 Jun 2027 07:31:04.346   02 Jun 2027 07:35:12.953           248.607                Sumatra         31075.875
        51   02 Jun 2027 07:41:04.023   02 Jun 2027 07:41:11.282             7.259                Novosib           907.375
        52   02 Jun 2027 07:41:47.407   02 Jun 2027 07:46:29.173           281.766                  Delhi         35220.750
        53   02 Jun 2027 07:46:32.869   02 Jun 2027 07:48:07.754            94.885                Irkutsk         11860.625
        54   02 Jun 2027 07:51:37.821   02 Jun 2027 07:53:12.129            94.308                Novosib         11788.500
        55   02 Jun 2027 07:53:27.706   02 Jun 2027 07:56:53.146           205.440                Norilsk         25680.000
        56   02 Jun 2027 07:56:55.437   02 Jun 2027 07:58:39.096           103.659              Murmansk1         12957.375
        57   02 Jun 2027 09:17:00.026   02 Jun 2027 09:18:55.147           115.121                  Delhi         14390.125
        58   02 Jun 2027 09:26:53.503   02 Jun 2027 09:27:16.472            22.969                 Moscow          2871.125
        59   02 Jun 2027 09:28:45.646   02 Jun 2027 09:32:40.456           234.810                Norilsk         29351.250
        60   02 Jun 2027 09:33:03.784   02 Jun 2027 09:34:29.101            85.317              Murmansk2         10664.625
        61   02 Jun 2027 10:38:38.511   02 Jun 2027 10:41:44.295           185.784               CapeTown         23223.000
        62   02 Jun 2027 10:57:08.392   02 Jun 2027 10:57:14.364             5.972                 Moscow           746.500
        63   02 Jun 2027 11:00:51.399   02 Jun 2027 11:01:20.645            29.246              Murmansk2          3655.750
        64   02 Jun 2027 11:01:27.506   02 Jun 2027 11:06:39.644           312.138                 Moscow         39017.250
        65   02 Jun 2027 11:06:46.616   02 Jun 2027 11:10:27.141           220.525              Murmansk2         27565.625
        66   02 Jun 2027 11:13:07.347   02 Jun 2027 11:20:58.923           471.576                Anadyr1         58947.000
        67   02 Jun 2027 12:12:27.405   02 Jun 2027 12:20:19.586           472.181               CapeTown         59022.625
        68   02 Jun 2027 12:36:56.793   02 Jun 2027 12:37:52.899            56.106              Murmansk1          7013.250
        69   02 Jun 2027 12:48:47.062   02 Jun 2027 12:50:34.637           107.575                Anadyr2         13446.875
        70   02 Jun 2027 12:52:29.038   02 Jun 2027 12:55:47.294           198.256               Magadan2         24782.000
        71   02 Jun 2027 14:27:51.189   02 Jun 2027 14:28:06.972            15.783               Magadan1          1972.875
        72   02 Jun 2027 14:28:33.800   02 Jun 2027 14:29:28.107            54.307               Magadan2          6788.375
        73   02 Jun 2027 16:09:09.272   02 Jun 2027 16:12:21.486           192.214                Irkutsk         24026.750
        74   02 Jun 2027 16:54:17.132   02 Jun 2027 16:55:34.555            77.423            RioGallegos          9677.875
        75   02 Jun 2027 16:56:52.304   02 Jun 2027 16:58:05.997            73.693            RioGallegos          9211.625
        76   02 Jun 2027 17:43:25.845   02 Jun 2027 17:46:56.138           210.293                Novosib         26286.625
        77   02 Jun 2027 17:49:33.063   02 Jun 2027 17:50:15.332            42.269                Novosib          5283.625
        78   02 Jun 2027 17:58:36.389   02 Jun 2027 17:59:31.104            54.715                Sumatra          6839.375
        79   02 Jun 2027 19:25:20.637   02 Jun 2027 19:29:34.879           254.242                  Delhi         31780.250
        80   02 Jun 2027 20:52:44.629   02 Jun 2027 20:53:42.273            57.644              Murmansk1          7205.500
        81   02 Jun 2027 20:56:35.574   02 Jun 2027 20:57:39.384            63.810                 Moscow          7976.250
        82   02 Jun 2027 22:57:39.137   02 Jun 2027 22:58:06.075            26.938               CapeTown          3367.250
        83   03 Jun 2027 03:14:32.447   03 Jun 2027 03:15:11.599            39.152               Magadan1          4894.000
        84   03 Jun 2027 03:15:37.636   03 Jun 2027 03:15:49.332            11.696                Novosib          1462.000
        85   03 Jun 2027 03:15:55.593   03 Jun 2027 03:16:08.113            12.520               Magadan1          1565.000
        86   03 Jun 2027 03:16:15.514   03 Jun 2027 03:17:00.121            44.607                Norilsk          5575.875
        87   03 Jun 2027 03:17:02.636   03 Jun 2027 03:20:25.982           203.346              Murmansk1         25418.250
        88   03 Jun 2027 04:52:01.097   03 Jun 2027 04:52:19.180            18.083                Norilsk          2260.375
        89   03 Jun 2027 04:52:32.816   03 Jun 2027 04:53:28.098            55.282                Norilsk          6910.250
        90   03 Jun 2027 04:54:53.465   03 Jun 2027 04:56:47.552           114.087              Murmansk2         14260.875
        91   03 Jun 2027 04:56:47.552   03 Jun 2027 05:00:19.149           211.597              Murmansk1         26449.625
        92   03 Jun 2027 05:34:58.727   03 Jun 2027 05:39:25.646           266.919            RioGallegos         33364.875
        93   03 Jun 2027 06:09:11.462   03 Jun 2027 06:14:16.689           305.227                Sumatra         38153.375
        94   03 Jun 2027 06:18:12.084   03 Jun 2027 06:21:26.020           193.936                Irkutsk         24242.000
        95   03 Jun 2027 06:27:59.543   03 Jun 2027 06:28:02.727             3.184                Norilsk           398.000
        96   03 Jun 2027 06:28:05.278   03 Jun 2027 06:29:29.387            84.109                Novosib         10513.625
        97   03 Jun 2027 06:29:51.946   03 Jun 2027 06:32:55.041           183.095                Norilsk         22886.875
        98   03 Jun 2027 06:33:07.400   03 Jun 2027 06:35:08.914           121.514              Murmansk2         15189.250
        99   03 Jun 2027 07:10:18.624   03 Jun 2027 07:13:43.155           204.531            RioGallegos         25566.375
       100   03 Jun 2027 07:44:36.342   03 Jun 2027 07:45:40.463            64.121                Sumatra          8015.125
       101   03 Jun 2027 07:52:55.498   03 Jun 2027 07:58:26.021           330.523                  Delhi         41315.375
       102   03 Jun 2027 07:58:37.431   03 Jun 2027 07:59:39.360            61.929                Novosib          7741.125
       103   03 Jun 2027 08:03:26.721   03 Jun 2027 08:06:47.541           200.820                 Moscow         25102.500
       104   03 Jun 2027 08:06:48.395   03 Jun 2027 08:08:54.667           126.272                Norilsk         15784.000
       105   03 Jun 2027 08:08:54.870   03 Jun 2027 08:10:38.726           103.856              Murmansk1         12982.000
       106   03 Jun 2027 09:40:16.278   03 Jun 2027 09:44:37.391           261.113                Norilsk         32639.125
       107   03 Jun 2027 09:45:07.504   03 Jun 2027 09:46:30.549            83.045              Murmansk2         10380.625
       108   03 Jun 2027 11:09:04.140   03 Jun 2027 11:09:21.354            17.214                 Moscow          2151.750
       109   03 Jun 2027 11:12:52.898   03 Jun 2027 11:13:08.480            15.582              Murmansk2          1947.750
       110   03 Jun 2027 11:13:20.865   03 Jun 2027 11:18:34.176           313.311                 Moscow         39163.875
       111   03 Jun 2027 11:18:47.937   03 Jun 2027 11:22:28.545           220.608              Murmansk1         27576.000
       112   03 Jun 2027 11:24:45.815   03 Jun 2027 11:33:39.265           533.450                Anadyr2         66681.250
       113   03 Jun 2027 12:22:44.316   03 Jun 2027 12:32:13.973           569.657               CapeTown         71207.125
       114   03 Jun 2027 12:49:30.863   03 Jun 2027 12:58:12.920           522.057              Murmansk1         65257.125
       115   03 Jun 2027 13:00:12.320   03 Jun 2027 13:12:36.209           743.889                Anadyr1         92986.125
       116   03 Jun 2027 13:58:12.642   03 Jun 2027 13:58:54.818            42.176               CapeTown          5272.000
       117   03 Jun 2027 14:38:41.906   03 Jun 2027 14:40:53.591           131.685               Magadan2         16460.625
       118   03 Jun 2027 14:41:44.676   03 Jun 2027 14:43:46.258           121.582               Magadan1         15197.750
       119   03 Jun 2027 16:20:02.876   03 Jun 2027 16:26:00.414           357.538                Irkutsk         44692.250
       120   03 Jun 2027 16:37:11.713   03 Jun 2027 16:39:10.812           119.099                Sumatra         14887.375
       121   03 Jun 2027 17:55:00.257   03 Jun 2027 17:58:47.670           227.413                Novosib         28426.625
       122   03 Jun 2027 21:04:04.987   03 Jun 2027 21:05:23.341            78.354              Murmansk2          9794.250
       123   03 Jun 2027 21:08:16.244   03 Jun 2027 21:11:52.977           216.733                 Moscow         27091.625
       124   03 Jun 2027 21:13:51.128   03 Jun 2027 21:15:11.860            80.732                 Moscow         10091.500
       125   03 Jun 2027 21:38:04.869   03 Jun 2027 21:38:58.716            53.847               CapeTown          6730.875
       126   04 Jun 2027 03:26:44.668   04 Jun 2027 03:27:05.538            20.870                Norilsk          2608.750
       127   04 Jun 2027 03:27:49.221   04 Jun 2027 03:29:04.518            75.297              Murmansk2          9412.125
       128   04 Jun 2027 03:29:04.518   04 Jun 2027 03:37:55.786           531.268              Murmansk1         66408.500
       129   04 Jun 2027 04:03:21.526   04 Jun 2027 04:04:40.045            78.519            RioGallegos          9814.875
       130   04 Jun 2027 04:41:52.010   04 Jun 2027 04:42:34.957            42.947                Sumatra          5368.375
       131   04 Jun 2027 05:04:02.310   04 Jun 2027 05:05:33.483            91.173                Norilsk         11396.625
       132   04 Jun 2027 05:06:46.020   04 Jun 2027 05:09:10.912           144.892              Murmansk2         18111.500
       133   04 Jun 2027 05:09:10.912   04 Jun 2027 05:12:09.626           178.714              Murmansk1         22339.250
       134   04 Jun 2027 05:46:59.898   04 Jun 2027 05:51:23.078           263.180            RioGallegos         32897.500
       135   04 Jun 2027 06:21:30.458   04 Jun 2027 06:26:14.693           284.235                Sumatra         35529.375
       136   04 Jun 2027 06:29:46.766   04 Jun 2027 06:33:18.673           211.907                Irkutsk         26488.375
       137   04 Jun 2027 06:40:23.823   04 Jun 2027 06:44:56.872           273.049                Norilsk         34131.125
       138   04 Jun 2027 06:45:08.900   04 Jun 2027 06:47:05.114           116.214              Murmansk1         14526.750
       139   04 Jun 2027 07:22:06.547   04 Jun 2027 07:25:04.811           178.264            RioGallegos         22283.000
       140   04 Jun 2027 08:02:55.886   04 Jun 2027 08:10:19.262           443.376                  Delhi         55422.000
       141   04 Jun 2027 08:10:33.048   04 Jun 2027 08:10:48.031            14.983                Novosib          1872.875
       142   04 Jun 2027 08:10:57.970   04 Jun 2027 08:11:23.913            25.943                 Moscow          3242.875
       143   04 Jun 2027 08:15:37.968   04 Jun 2027 08:18:52.871           194.903                 Moscow         24362.875
       144   04 Jun 2027 08:19:02.801   04 Jun 2027 08:22:38.693           215.892              Murmansk1         26986.500
       145   04 Jun 2027 09:45:00.323   04 Jun 2027 09:45:27.360            27.037                 Moscow          3379.625
       146   04 Jun 2027 09:51:44.151   04 Jun 2027 09:55:02.876           198.725                 Moscow         24840.625
       147   04 Jun 2027 09:55:08.524   04 Jun 2027 09:56:32.578            84.054                Norilsk         10506.750
       148   04 Jun 2027 09:56:43.233   04 Jun 2027 09:58:32.086           108.853              Murmansk1         13606.625
       149   04 Jun 2027 11:24:54.273   04 Jun 2027 11:26:34.709           100.436              Murmansk1         12554.500
       150   04 Jun 2027 11:26:51.215   04 Jun 2027 11:30:26.850           215.635                 Moscow         26954.375
       151   04 Jun 2027 11:30:37.787   04 Jun 2027 11:34:29.778           231.991              Murmansk2         28998.875
       152   04 Jun 2027 11:39:22.906   04 Jun 2027 11:46:14.921           412.015                Anadyr1         51501.875
       153   04 Jun 2027 12:36:39.673   04 Jun 2027 12:44:03.366           443.693               CapeTown         55461.625
       154   04 Jun 2027 13:02:08.250   04 Jun 2027 13:10:09.346           481.096              Murmansk1         60137.000
       155   04 Jun 2027 13:15:04.210   04 Jun 2027 13:24:47.887           583.677                Anadyr1         72959.625
       156   04 Jun 2027 14:48:07.259   04 Jun 2027 14:51:48.083           220.824                Anadyr1         27603.000
       157   04 Jun 2027 14:54:53.564   04 Jun 2027 14:57:47.684           174.120               Magadan1         21765.000
       158   04 Jun 2027 15:45:42.417   04 Jun 2027 15:48:06.438           144.021            RioGallegos         18002.625
       159   04 Jun 2027 16:31:27.117   04 Jun 2027 16:37:45.723           378.606                Irkutsk         47325.750
       160   04 Jun 2027 16:47:03.650   04 Jun 2027 16:48:59.048           115.398                Sumatra         14424.750
       161   04 Jun 2027 16:50:46.729   04 Jun 2027 16:53:01.237           134.508                Sumatra         16813.500
       162   04 Jun 2027 18:07:51.213   04 Jun 2027 18:10:22.477           151.264                Novosib         18908.000
       163   04 Jun 2027 21:16:04.369   04 Jun 2027 21:18:26.854           142.485              Murmansk1         17810.625
       164   04 Jun 2027 21:22:34.444   04 Jun 2027 21:23:54.415            79.971                 Moscow          9996.375
       165   04 Jun 2027 21:26:14.843   04 Jun 2027 21:27:12.248            57.405                 Moscow          7175.625
       166   04 Jun 2027 21:46:49.002   04 Jun 2027 21:47:54.706            65.704               CapeTown          8213.000
       167   04 Jun 2027 21:50:24.653   04 Jun 2027 21:50:56.052            31.399               CapeTown          3924.875
       168   05 Jun 2027 03:38:52.033   05 Jun 2027 03:39:37.436            45.403                Irkutsk          5675.375
       169   05 Jun 2027 03:40:03.752   05 Jun 2027 03:45:34.327           330.575              Murmansk1         41321.875
       170   05 Jun 2027 04:52:27.175   05 Jun 2027 04:54:48.775           141.600                Sumatra         17700.000
       171   05 Jun 2027 05:16:03.704   05 Jun 2027 05:17:36.454            92.750                Norilsk         11593.750
       172   05 Jun 2027 05:18:39.319   05 Jun 2027 05:20:50.912           131.593              Murmansk1         16449.125
       173   05 Jun 2027 05:20:50.912   05 Jun 2027 05:24:00.824           189.912              Murmansk2         23739.000
       174   05 Jun 2027 05:59:00.116   05 Jun 2027 06:03:19.074           258.958            RioGallegos         32369.750
       175   05 Jun 2027 06:33:42.595   05 Jun 2027 06:38:07.025           264.430                Sumatra         33053.750
       176   05 Jun 2027 06:41:31.116   05 Jun 2027 06:45:53.238           262.122                Irkutsk         32765.250
       177   05 Jun 2027 06:52:02.718   05 Jun 2027 06:53:32.285            89.567                Novosib         11195.875
       178   05 Jun 2027 06:53:55.124   05 Jun 2027 06:59:01.924           306.800              Murmansk2         38350.000
       179   05 Jun 2027 07:33:50.443   05 Jun 2027 07:35:49.745           119.302            RioGallegos         14912.750
       180   05 Jun 2027 08:18:02.398   05 Jun 2027 08:22:08.425           246.027                  Delhi         30753.375
       181   05 Jun 2027 08:22:27.917   05 Jun 2027 08:22:56.632            28.715                 Moscow          3589.375
       182   05 Jun 2027 08:27:37.617   05 Jun 2027 08:30:57.674           200.057                 Moscow         25007.125
       183   05 Jun 2027 08:31:05.972   05 Jun 2027 08:34:38.960           212.988              Murmansk1         26623.500
       184   05 Jun 2027 09:57:28.525   05 Jun 2027 09:58:01.020            32.495                 Moscow          4061.875
       185   05 Jun 2027 09:58:31.249   05 Jun 2027 09:58:46.547            15.298                 Moscow          1912.250
       186   05 Jun 2027 10:02:39.953   05 Jun 2027 10:04:32.390           112.437              Murmansk1         14054.625
       187   05 Jun 2027 10:04:44.226   05 Jun 2027 10:07:03.534           139.308                 Moscow         17413.500
       188   05 Jun 2027 10:07:05.196   05 Jun 2027 10:08:25.168            79.972                Norilsk          9996.500
       189   05 Jun 2027 10:08:27.723   05 Jun 2027 10:10:33.698           125.975              Murmansk1         15746.875
       190   05 Jun 2027 11:36:55.466   05 Jun 2027 11:38:32.058            96.592              Murmansk2         12074.000
       191   05 Jun 2027 11:39:21.124   05 Jun 2027 11:42:17.141           176.017                 Moscow         22002.125
       192   05 Jun 2027 11:42:48.859   05 Jun 2027 11:46:30.798           221.939              Murmansk2         27742.375
       193   05 Jun 2027 11:52:12.153   05 Jun 2027 11:58:46.566           394.413                Anadyr1         49301.625
       194   05 Jun 2027 12:51:53.405   05 Jun 2027 12:55:47.561           234.156               CapeTown         29269.500
       195   05 Jun 2027 13:14:49.465   05 Jun 2027 13:22:04.021           434.556              Murmansk1         54319.500
       196   05 Jun 2027 13:24:13.435   05 Jun 2027 13:31:38.551           445.116                Anadyr1         55639.500
       197   05 Jun 2027 13:32:48.950   05 Jun 2027 13:33:23.068            34.118               Magadan2          4264.750
       198   05 Jun 2027 13:34:25.033   05 Jun 2027 13:35:56.893            91.860               Magadan2         11482.500
       199   05 Jun 2027 13:35:56.893   05 Jun 2027 13:36:16.024            19.131               Magadan1          2391.375
       200   05 Jun 2027 15:04:01.084   05 Jun 2027 15:05:23.502            82.418               Magadan1         10302.250
       201   05 Jun 2027 15:56:20.824   05 Jun 2027 15:59:20.962           180.138            RioGallegos         22517.250
       202   05 Jun 2027 16:01:48.655   05 Jun 2027 16:02:00.375            11.720            RioGallegos          1465.000
       203   05 Jun 2027 16:43:03.033   05 Jun 2027 16:48:32.812           329.779                Irkutsk         41222.375
       204   05 Jun 2027 16:57:57.796   05 Jun 2027 17:00:40.285           162.489                Sumatra         20311.125
       205   05 Jun 2027 18:21:18.798   05 Jun 2027 18:22:36.608            77.810                Novosib          9726.250
       206   05 Jun 2027 18:28:25.518   05 Jun 2027 18:30:31.396           125.878                  Delhi         15734.750
       207   05 Jun 2027 18:31:44.504   05 Jun 2027 18:32:46.011            61.507                  Delhi          7688.375
       208   05 Jun 2027 21:34:16.883   05 Jun 2027 21:38:34.415           257.532                 Moscow         32191.500
       209   05 Jun 2027 21:57:54.318   05 Jun 2027 22:00:07.635           133.317               CapeTown         10334.500
       210   06 Jun 2027 03:52:05.859   06 Jun 2027 03:59:55.724           469.865              Murmansk2         58733.125
       211   06 Jun 2027 05:03:33.389   06 Jun 2027 05:06:33.446           180.057                Sumatra         22507.125
       212   06 Jun 2027 05:29:26.048   06 Jun 2027 05:29:27.824             1.776                Novosib           222.000
       213   06 Jun 2027 05:30:33.353   06 Jun 2027 05:32:58.684           145.331              Murmansk1         18166.375
       214   06 Jun 2027 05:32:58.684   06 Jun 2027 05:35:52.761           174.077              Murmansk2         21759.625
       215   06 Jun 2027 06:10:59.279   06 Jun 2027 06:15:13.383           254.104            RioGallegos         31763.000
       216   06 Jun 2027 06:45:48.701   06 Jun 2027 06:49:53.293           244.592                Sumatra         30574.000
       217   06 Jun 2027 06:53:11.417   06 Jun 2027 06:53:50.669            39.252                Irkutsk          4906.500
       218   06 Jun 2027 06:55:03.830   06 Jun 2027 06:58:16.031           192.201                Irkutsk         24025.125
       219   06 Jun 2027 07:04:04.848   06 Jun 2027 07:06:24.595           139.747                 Moscow         17468.375
       220   06 Jun 2027 07:06:43.730   06 Jun 2027 07:10:59.304           255.574              Murmansk1         31946.750
       221   06 Jun 2027 08:30:00.756   06 Jun 2027 08:33:52.748           231.992                  Delhi         28999.000
       222   06 Jun 2027 08:33:56.913   06 Jun 2027 08:34:22.821            25.908                 Moscow          3238.500
       223   06 Jun 2027 08:34:32.681   06 Jun 2027 08:34:59.017            26.336                Novosib          3292.000
       224   06 Jun 2027 08:39:24.312   06 Jun 2027 08:40:43.995            79.683                Novosib          9960.375
       225   06 Jun 2027 08:41:00.276   06 Jun 2027 08:44:57.773           237.497                Norilsk         29687.125
       226   06 Jun 2027 08:44:57.802   06 Jun 2027 08:46:39.505           101.703              Murmansk2         12712.875
       227   06 Jun 2027 10:09:29.050   06 Jun 2027 10:10:53.184            84.134                 Moscow         10516.750
       228   06 Jun 2027 10:14:11.360   06 Jun 2027 10:19:03.496           292.136                 Moscow         36517.000
       229   06 Jun 2027 10:19:54.044   06 Jun 2027 10:22:35.356           161.312              Murmansk2         20164.000
       230   06 Jun 2027 10:27:17.711   06 Jun 2027 10:28:42.182            84.471                Anadyr1         10558.875
       231   06 Jun 2027 11:31:49.017   06 Jun 2027 11:32:05.899            16.882               CapeTown          2110.250
       232   06 Jun 2027 11:48:56.435   06 Jun 2027 11:58:31.534           575.099              Murmansk2         71887.375
       233   06 Jun 2027 12:01:17.961   06 Jun 2027 12:11:14.659           596.698                Anadyr2         74587.250
       234   06 Jun 2027 13:03:49.982   06 Jun 2027 13:06:26.258           156.276               CapeTown         19534.500
       235   06 Jun 2027 13:39:09.627   06 Jun 2027 13:43:09.512           239.885               Magadan2         29985.625
       236   06 Jun 2027 13:46:28.941   06 Jun 2027 13:47:56.337            87.396               Magadan2         10924.500
       237   06 Jun 2027 16:07:41.150   06 Jun 2027 16:11:09.221           208.071            RioGallegos         26008.875
       238   06 Jun 2027 16:56:47.507   06 Jun 2027 17:00:55.752           248.245                Irkutsk         31030.625
       239   06 Jun 2027 17:09:12.784   06 Jun 2027 17:12:28.159           195.375                Sumatra         24421.875
       240   06 Jun 2027 17:15:21.270   06 Jun 2027 17:17:14.464           113.194                Sumatra         14149.250
       241   06 Jun 2027 18:34:20.580   06 Jun 2027 18:34:33.265            12.685                Novosib          1585.625
       242   06 Jun 2027 18:39:21.118   06 Jun 2027 18:41:58.174           157.056                  Delhi         19632.000
       243   06 Jun 2027 21:42:26.354   06 Jun 2027 21:45:12.163           165.809              Murmansk2         20726.125
       244   06 Jun 2027 21:46:22.877   06 Jun 2027 21:47:58.949            96.072                 Moscow         10481.125
       245   07 Jun 2027 04:04:27.073   07 Jun 2027 04:06:31.160           124.087              Murmansk2         15510.875
       246   07 Jun 2027 05:14:55.262   07 Jun 2027 05:15:39.304            44.042                Sumatra          5505.250
       247   07 Jun 2027 05:16:28.880   07 Jun 2027 05:17:29.263            60.383                Sumatra          7547.875
       248   07 Jun 2027 05:40:06.898   07 Jun 2027 05:45:03.313           296.415                Norilsk         37051.875
       249   07 Jun 2027 05:45:17.257   07 Jun 2027 05:47:45.452           148.195              Murmansk1         18524.375
       250   07 Jun 2027 06:22:57.280   07 Jun 2027 06:27:05.632           248.352            RioGallegos         31044.000
       251   07 Jun 2027 06:57:49.168   07 Jun 2027 07:01:32.668           223.500                Sumatra         27937.500
       252   07 Jun 2027 07:05:15.375   07 Jun 2027 07:05:44.324            28.949                Irkutsk          3618.625
       253   07 Jun 2027 07:07:03.315   07 Jun 2027 07:11:04.899           241.584                Irkutsk         30198.000
       254   07 Jun 2027 07:15:40.528   07 Jun 2027 07:17:32.615           112.087                Novosib         14010.875
       255   07 Jun 2027 07:17:42.177   07 Jun 2027 07:21:02.526           200.349                Norilsk         25043.625
       256   07 Jun 2027 07:21:12.074   07 Jun 2027 07:22:57.216           105.142              Murmansk2         13142.750
       257   07 Jun 2027 08:41:55.628   07 Jun 2027 08:45:30.962           215.334                  Delhi         26916.750
       258   07 Jun 2027 08:45:41.172   07 Jun 2027 08:48:10.787           149.615                Novosib         18701.875
       259   07 Jun 2027 08:51:23.675   07 Jun 2027 08:52:30.322            66.647                Novosib          8330.875
       260   07 Jun 2027 08:52:30.566   07 Jun 2027 08:56:58.077           267.511                Norilsk         33438.875
       261   07 Jun 2027 08:57:03.782   07 Jun 2027 08:58:40.284            96.502              Murmansk2         12062.750
       262   07 Jun 2027 10:21:28.862   07 Jun 2027 10:22:59.157            90.295                 Moscow         11286.875
       263   07 Jun 2027 10:24:50.374   07 Jun 2027 10:25:55.889            65.515              Murmansk2          8189.375
       264   07 Jun 2027 10:25:55.889   07 Jun 2027 10:28:33.451           157.562              Murmansk1         19695.250
       265   07 Jun 2027 10:28:36.887   07 Jun 2027 10:31:02.681           145.794                 Moscow         18224.250
       266   07 Jun 2027 10:31:10.286   07 Jun 2027 10:31:52.853            42.567                Norilsk          5320.875
       267   07 Jun 2027 10:31:53.966   07 Jun 2027 10:34:37.025           163.059              Murmansk1         20382.375
       268   07 Jun 2027 10:38:05.115   07 Jun 2027 10:42:27.679           262.564                Anadyr2         32820.500
       269   07 Jun 2027 13:51:01.379   07 Jun 2027 13:54:16.242           194.863               Magadan2         24357.875
       270   07 Jun 2027 13:54:41.886   07 Jun 2027 13:55:19.406            37.520               Magadan1          4690.000
       271   07 Jun 2027 13:56:42.038   07 Jun 2027 13:57:34.910            52.872               Magadan2          6609.000
       272   07 Jun 2027 16:19:14.953   07 Jun 2027 16:25:54.240           399.287            RioGallegos         49910.875
       273   07 Jun 2027 17:10:11.866   07 Jun 2027 17:10:41.400            29.534                Irkutsk          3691.750
       274   07 Jun 2027 17:20:40.340   07 Jun 2027 17:24:21.971           221.631                Sumatra         27703.875
       275   07 Jun 2027 17:24:38.710   07 Jun 2027 17:25:20.545            41.835                Sumatra          5229.375
       276   07 Jun 2027 17:26:34.810   07 Jun 2027 17:27:44.332            69.522                Sumatra          8690.250
       277   07 Jun 2027 18:43:35.843   07 Jun 2027 18:44:52.976            77.133                Novosib          9641.625
       278   07 Jun 2027 18:50:40.031   07 Jun 2027 18:54:02.168           202.137                  Delhi         25267.125
       279   07 Jun 2027 21:52:05.456   07 Jun 2027 21:53:43.596            98.140              Murmansk2         12267.500
       280   07 Jun 2027 21:55:37.324   07 Jun 2027 21:57:27.217           109.893                 Moscow          7129.000
       281   08 Jun 2027 04:16:12.279   08 Jun 2027 04:17:05.172            52.893                Novosib          6611.625
       282   08 Jun 2027 04:17:12.041   08 Jun 2027 04:17:27.317            15.276              Murmansk1          1909.500
       283   08 Jun 2027 05:26:27.662   08 Jun 2027 05:28:10.291           102.629                Sumatra         12828.625
       284   08 Jun 2027 05:52:08.657   08 Jun 2027 05:57:04.726           296.069                Norilsk         37008.625
       285   08 Jun 2027 05:57:19.280   08 Jun 2027 05:59:38.890           139.610              Murmansk1         17451.250
       286   08 Jun 2027 06:34:53.935   08 Jun 2027 06:38:55.286           241.351            RioGallegos         30168.875
       287   08 Jun 2027 07:09:44.048   08 Jun 2027 07:13:03.692           199.644                Sumatra         24955.500
       288   08 Jun 2027 07:16:52.943   08 Jun 2027 07:17:47.508            54.565                Novosib          6820.625
       289   08 Jun 2027 07:19:01.749   08 Jun 2027 07:23:07.258           245.509                Irkutsk         30688.625
       290   08 Jun 2027 07:27:48.989   08 Jun 2027 07:27:54.241             5.252                 Moscow           656.500
       291   08 Jun 2027 07:27:55.970   08 Jun 2027 07:29:31.625            95.655                Novosib         11956.875
       292   08 Jun 2027 07:29:39.497   08 Jun 2027 07:33:04.370           204.873                Norilsk         25609.125
       293   08 Jun 2027 07:33:12.581   08 Jun 2027 07:34:55.617           103.036              Murmansk2         12879.500
       294   08 Jun 2027 08:53:46.671   08 Jun 2027 08:57:00.828           194.157                  Delhi         24269.625
       295   08 Jun 2027 08:57:10.895   08 Jun 2027 08:59:07.911           117.016                Novosib         14627.000
       296   08 Jun 2027 09:04:29.491   08 Jun 2027 09:08:57.846           268.355                Norilsk         33544.375
       297   08 Jun 2027 09:08:58.680   08 Jun 2027 09:10:41.273           102.593              Murmansk2         12824.125
       298   08 Jun 2027 10:33:27.877   08 Jun 2027 10:34:43.544            75.667                 Moscow          9458.375
       299   08 Jun 2027 10:36:42.614   08 Jun 2027 10:40:31.582           228.968              Murmansk1         28621.000
       300   08 Jun 2027 10:40:32.295   08 Jun 2027 10:43:00.970           148.675                 Moscow         18584.375
       301   08 Jun 2027 10:43:54.831   08 Jun 2027 10:46:38.677           163.846              Murmansk1         20480.750
       302   08 Jun 2027 10:49:37.782   08 Jun 2027 10:55:34.230           356.448                Anadyr1         44556.000
       303   08 Jun 2027 11:51:29.280   08 Jun 2027 11:56:30.640           301.360               CapeTown         37670.000
       304   08 Jun 2027 12:12:12.354   08 Jun 2027 12:13:12.887            60.533              Murmansk1          7566.625
       305   08 Jun 2027 14:02:55.171   08 Jun 2027 14:05:33.097           157.926               Magadan2         19740.750
       306   08 Jun 2027 14:05:33.097   08 Jun 2027 14:07:17.585           104.488               Magadan1         13061.000
       307   08 Jun 2027 14:10:23.163   08 Jun 2027 14:11:56.821            93.658               Magadan2         11707.250
       308   08 Jun 2027 16:30:56.151   08 Jun 2027 16:37:11.957           375.806            RioGallegos         46975.750
       309   08 Jun 2027 17:18:22.834   08 Jun 2027 17:19:42.162            79.328                Irkutsk          9916.000
       310   08 Jun 2027 17:20:59.842   08 Jun 2027 17:21:48.898            49.056                Irkutsk          6132.000
       311   08 Jun 2027 17:22:08.047   08 Jun 2027 17:22:54.079            46.032                Novosib          5754.000
       312   08 Jun 2027 17:32:16.991   08 Jun 2027 17:34:07.938           110.947                Sumatra         13868.375
       313   08 Jun 2027 17:36:19.068   08 Jun 2027 17:37:54.227            95.159                Sumatra         11894.875
       314   08 Jun 2027 18:54:05.507   08 Jun 2027 18:56:01.334           115.827                Novosib         14478.375
       315   08 Jun 2027 19:02:11.091   08 Jun 2027 19:02:47.965            36.874                  Delhi          4609.250
       316   08 Jun 2027 19:04:06.095   08 Jun 2027 19:05:54.364           108.269                  Delhi         13533.625
       317   08 Jun 2027 20:34:02.537   08 Jun 2027 20:36:07.585           125.048                 Moscow         15631.000
       318   08 Jun 2027 22:04:13.637   08 Jun 2027 22:04:53.370            39.733              Murmansk1          2239.250
       319   09 Jun 2027 04:28:13.163   09 Jun 2027 04:31:51.913           218.750                Norilsk         27343.750
       320   09 Jun 2027 05:38:08.135   09 Jun 2027 05:38:11.590             3.455                Sumatra           431.875
       321   09 Jun 2027 05:39:57.540   09 Jun 2027 05:40:31.960            34.420                Sumatra          4302.500
       322   09 Jun 2027 05:41:35.359   09 Jun 2027 05:42:23.216            47.857                Sumatra          5982.125
       323   09 Jun 2027 05:44:20.051   09 Jun 2027 05:44:25.861             5.810                Sumatra           726.250
       324   09 Jun 2027 05:52:58.496   09 Jun 2027 05:53:48.064            49.568                  Delhi          6196.000
       325   09 Jun 2027 06:04:10.490   09 Jun 2027 06:09:06.272           295.782                Norilsk         36972.750
       326   09 Jun 2027 06:09:21.208   09 Jun 2027 06:11:33.056           131.848              Murmansk1         16481.000
       327   09 Jun 2027 06:46:49.023   09 Jun 2027 06:50:41.539           232.516            RioGallegos         29064.500
       328   09 Jun 2027 07:21:33.075   09 Jun 2027 07:24:23.668           170.593                Sumatra         21324.125
       329   09 Jun 2027 07:29:29.366   09 Jun 2027 07:30:24.225            54.859                Novosib          6857.375
       330   09 Jun 2027 07:30:46.139   09 Jun 2027 07:34:00.476           194.337                Irkutsk         24292.125
       331   09 Jun 2027 07:34:03.907   09 Jun 2027 07:34:43.628            39.721                  Delhi          4965.125
       332   09 Jun 2027 07:34:54.919   09 Jun 2027 07:36:02.341            67.422                Irkutsk          8427.750
       333   09 Jun 2027 07:40:08.274   09 Jun 2027 07:41:29.716            81.442                Novosib         10180.250
       334   09 Jun 2027 07:41:38.661   09 Jun 2027 07:45:06.144           207.483                Norilsk         25935.375
       335   09 Jun 2027 07:45:11.810   09 Jun 2027 07:46:54.463           102.653              Murmansk2         12831.625
       336   09 Jun 2027 09:05:33.255   09 Jun 2027 09:08:17.754           164.499                  Delhi         20562.375
       337   09 Jun 2027 09:09:03.648   09 Jun 2027 09:11:11.639           127.991                Novosib         15998.875
       338   09 Jun 2027 09:15:14.653   09 Jun 2027 09:15:45.340            30.687                Novosib          3835.875
       339   09 Jun 2027 09:16:30.367   09 Jun 2027 09:20:56.917           266.550                Norilsk         33318.750
       340   09 Jun 2027 09:21:28.810   09 Jun 2027 09:22:42.442            73.632              Murmansk1          9204.000
       341   09 Jun 2027 10:26:22.904   09 Jun 2027 10:28:44.243           141.339               CapeTown         17667.375
       342   09 Jun 2027 10:45:25.973   09 Jun 2027 10:46:04.390            38.417                 Moscow          4802.125
       343   09 Jun 2027 10:49:04.468   09 Jun 2027 10:52:30.190           205.722              Murmansk1         25715.250
       344   09 Jun 2027 10:52:30.472   09 Jun 2027 10:54:58.220           147.748                 Moscow         18468.500
       345   09 Jun 2027 10:55:00.179   09 Jun 2027 10:58:40.281           220.102              Murmansk2         27512.750
       346   09 Jun 2027 11:01:20.654   09 Jun 2027 11:07:43.610           382.956                Anadyr2         47869.500
       347   09 Jun 2027 12:41:51.227   09 Jun 2027 12:43:59.532           128.305               Magadan2         16038.125
       348   09 Jun 2027 14:14:50.545   09 Jun 2027 14:17:39.324           168.779               Magadan2         21097.375
       349   09 Jun 2027 14:19:14.291   09 Jun 2027 14:19:16.516             2.225               Magadan1           278.125
       350   09 Jun 2027 16:42:42.173   09 Jun 2027 16:48:38.222           356.049            RioGallegos         44506.125
       351   09 Jun 2027 17:30:15.486   09 Jun 2027 17:32:08.950           113.464                Irkutsk         14183.000
       352   09 Jun 2027 17:32:19.997   09 Jun 2027 17:34:36.640           136.643                Novosib         17080.375
       353   09 Jun 2027 17:44:25.425   09 Jun 2027 17:45:45.162            79.737                Sumatra          9967.125
       354   09 Jun 2027 17:48:26.450   09 Jun 2027 17:49:42.106            75.656                Sumatra          9457.000
       355   09 Jun 2027 19:06:01.362   09 Jun 2027 19:07:45.864           104.502                Novosib         13062.750
       356   09 Jun 2027 19:15:23.457   09 Jun 2027 19:15:58.907            35.450                  Delhi          4431.250
       357   09 Jun 2027 20:41:13.997   09 Jun 2027 20:41:45.628            31.631              Murmansk2          3953.875
       358   09 Jun 2027 20:44:36.990   09 Jun 2027 20:44:51.925            14.935              Murmansk2          1866.875
       359   09 Jun 2027 20:45:17.537   09 Jun 2027 20:48:06.980           169.443                 Moscow         21180.375
       360   09 Jun 2027 22:16:46.803   09 Jun 2027 22:17:23.717            36.914              Murmansk2          4614.250
       361   09 Jun 2027 22:43:50.226   09 Jun 2027 22:46:03.365           133.139               CapeTown           507.000
       362   10 Jun 2027 04:40:14.795   10 Jun 2027 04:45:13.943           299.148                Norilsk         37393.500
       363   10 Jun 2027 04:45:24.074   10 Jun 2027 04:48:43.865           199.791              Murmansk1         24973.875
       364   10 Jun 2027 05:14:51.977   10 Jun 2027 05:22:10.381           438.404            RioGallegos         54800.500
       365   10 Jun 2027 05:49:55.343   10 Jun 2027 05:50:41.893            46.550                Sumatra          5818.750
       366   10 Jun 2027 05:52:46.329   10 Jun 2027 05:54:30.769           104.440                Sumatra         13055.000
       367   10 Jun 2027 06:01:29.011   10 Jun 2027 06:02:54.934            85.923                  Delhi         10740.375
       368   10 Jun 2027 06:16:12.372   10 Jun 2027 06:16:16.596             4.224                Norilsk           528.000
       369   10 Jun 2027 06:16:27.556   10 Jun 2027 06:17:41.789            74.233                Novosib          9279.125
       370   10 Jun 2027 06:18:16.360   10 Jun 2027 06:18:51.252            34.892              Murmansk1          4361.500
       371   10 Jun 2027 06:19:04.897   10 Jun 2027 06:21:07.941           123.044                Norilsk         15380.500
       372   10 Jun 2027 06:21:14.273   10 Jun 2027 06:23:27.940           133.667              Murmansk2         16708.375
       373   10 Jun 2027 06:58:42.235   10 Jun 2027 07:02:23.075           220.840            RioGallegos         27605.000
       374   10 Jun 2027 07:33:15.634   10 Jun 2027 07:35:26.728           131.094                Sumatra         16386.750
       375   10 Jun 2027 07:41:18.868   10 Jun 2027 07:41:25.898             7.030                Novosib           878.750
       376   10 Jun 2027 07:42:02.148   10 Jun 2027 07:46:43.794           281.646                  Delhi         35205.750
       377   10 Jun 2027 07:46:47.326   10 Jun 2027 07:48:23.383            96.057                Irkutsk         12007.125
       378   10 Jun 2027 07:51:34.861   10 Jun 2027 07:54:56.344           201.483                 Moscow         25185.375
       379   10 Jun 2027 07:55:04.327   10 Jun 2027 07:57:07.812           123.485                Norilsk         15435.625
       380   10 Jun 2027 07:57:12.566   10 Jun 2027 07:58:53.728           101.162              Murmansk1         12645.250
       381   10 Jun 2027 09:17:14.377   10 Jun 2027 09:19:08.618           114.241                  Delhi         14280.125
       382   10 Jun 2027 09:27:08.337   10 Jun 2027 09:27:26.897            18.560                 Moscow          2320.000
       383   10 Jun 2027 09:29:01.136   10 Jun 2027 09:32:55.073           233.937                Norilsk         29242.125
       384   10 Jun 2027 09:33:34.730   10 Jun 2027 09:34:43.758            69.028              Murmansk1          8628.500
       385   10 Jun 2027 10:41:15.619   10 Jun 2027 10:41:59.701            44.082               CapeTown          5510.250
       386   10 Jun 2027 11:01:06.059   10 Jun 2027 11:03:40.423           154.364              Murmansk2         19295.500
       387   10 Jun 2027 11:04:31.486   10 Jun 2027 11:06:54.226           142.740                 Moscow         17842.500
       388   10 Jun 2027 11:07:01.352   10 Jun 2027 11:10:41.800           220.448              Murmansk1         27556.000
       389   10 Jun 2027 11:13:23.079   10 Jun 2027 11:21:14.103           471.024                Anadyr1         58878.000
       390   10 Jun 2027 12:12:42.283   10 Jun 2027 12:20:34.186           471.903               CapeTown         58987.875
       391   10 Jun 2027 12:37:11.838   10 Jun 2027 12:42:41.892           330.054              Murmansk2         41256.750
       392   10 Jun 2027 12:49:02.163   10 Jun 2027 12:50:49.493           107.330                Anadyr2         13416.250
       393   10 Jun 2027 12:52:43.146   10 Jun 2027 12:57:45.819           302.673               Magadan2         37834.125
       394   10 Jun 2027 16:09:22.581   10 Jun 2027 16:12:37.883           195.302                Irkutsk         24412.750
       395   10 Jun 2027 16:54:31.656   10 Jun 2027 16:55:49.571            77.915            RioGallegos          9739.375
       396   10 Jun 2027 16:57:07.174   10 Jun 2027 16:58:19.021            71.847            RioGallegos          8980.875
       397   10 Jun 2027 17:43:40.094   10 Jun 2027 17:47:10.703           210.609                Novosib         26326.125
       398   10 Jun 2027 17:47:40.904   10 Jun 2027 17:49:48.197           127.293                Novosib         15911.625
       399   10 Jun 2027 19:25:35.119   10 Jun 2027 19:27:46.274           131.155                  Delhi         16394.375
       400   10 Jun 2027 19:30:40.031   10 Jun 2027 19:31:24.610            44.579                  Delhi          5572.375
       401   10 Jun 2027 20:53:00.764   10 Jun 2027 20:53:56.642            55.878              Murmansk1          6984.750
       402   10 Jun 2027 20:56:49.927   10 Jun 2027 21:00:07.142           197.215                 Moscow         23841.625
       403   11 Jun 2027 03:14:47.029   11 Jun 2027 03:15:26.229            39.200               Magadan2          4900.000
       404   11 Jun 2027 03:15:49.869   11 Jun 2027 03:19:34.663           224.794              Murmansk2         28099.250
       405   11 Jun 2027 04:52:31.239   11 Jun 2027 04:53:05.117            33.878                Novosib          4234.750
       406   11 Jun 2027 04:53:14.340   11 Jun 2027 04:53:43.001            28.661                Norilsk          3582.625
       407   11 Jun 2027 04:55:08.057   11 Jun 2027 05:00:33.663           325.606              Murmansk1         40700.750
       408   11 Jun 2027 05:35:13.364   11 Jun 2027 05:39:40.262           266.898            RioGallegos         33362.250
       409   11 Jun 2027 06:09:26.354   11 Jun 2027 06:14:31.338           304.984                Sumatra         38123.000
       410   11 Jun 2027 06:18:26.682   11 Jun 2027 06:21:40.574           193.892                Irkutsk         24236.500
       411   11 Jun 2027 06:28:14.282   11 Jun 2027 06:28:17.811             3.529                Norilsk           441.125
       412   11 Jun 2027 06:28:19.681   11 Jun 2027 06:29:44.051            84.370                Novosib         10546.250
       413   11 Jun 2027 06:30:08.581   11 Jun 2027 06:33:09.703           181.122                Norilsk         22640.250
       414   11 Jun 2027 06:33:24.682   11 Jun 2027 06:35:23.501           118.819              Murmansk2         14852.375
       415   11 Jun 2027 07:10:33.112   11 Jun 2027 07:13:57.413           204.301            RioGallegos         25537.625
       416   11 Jun 2027 07:44:50.605   11 Jun 2027 07:45:53.445            62.840                Sumatra          7855.000
       417   11 Jun 2027 07:53:09.964   11 Jun 2027 07:58:40.601           330.637                  Delhi         41329.625
       418   11 Jun 2027 07:58:52.064   11 Jun 2027 07:59:54.612            62.548                Novosib          7818.500
       419   11 Jun 2027 08:03:44.614   11 Jun 2027 08:07:02.250           197.636                 Moscow         24704.500
       420   11 Jun 2027 08:07:04.530   11 Jun 2027 08:09:09.325           124.795                Norilsk         15599.375
       421   11 Jun 2027 08:09:11.961   11 Jun 2027 08:10:53.362           101.401              Murmansk1         12675.125
       422   11 Jun 2027 09:40:30.887   11 Jun 2027 09:44:51.984           261.097                Norilsk         32637.125
       423   11 Jun 2027 09:45:09.547   11 Jun 2027 09:46:45.207            95.660              Murmansk2         11957.500
       424   11 Jun 2027 11:09:18.715   11 Jun 2027 11:09:38.270            19.555                 Moscow          2444.375
       425   11 Jun 2027 11:13:07.556   11 Jun 2027 11:13:25.143            17.587              Murmansk2          2198.375
       426   11 Jun 2027 11:13:34.680   11 Jun 2027 11:18:48.737           314.057                 Moscow         39257.125
       427   11 Jun 2027 11:19:02.674   11 Jun 2027 11:22:43.202           220.528              Murmansk2         27566.000
       428   11 Jun 2027 11:26:36.424   11 Jun 2027 11:33:54.379           437.955                Anadyr2         54744.375
       429   11 Jun 2027 12:22:58.905   11 Jun 2027 12:32:28.511           569.606               CapeTown         71200.750
       430   11 Jun 2027 12:49:45.948   11 Jun 2027 12:58:27.524           521.576              Murmansk2         65197.000
       431   11 Jun 2027 13:00:26.962   11 Jun 2027 13:12:51.009           744.047                Anadyr2         93005.875
       432   11 Jun 2027 13:58:28.195   11 Jun 2027 14:00:29.734           121.539               CapeTown         15192.375
       433   11 Jun 2027 14:38:57.124   11 Jun 2027 14:40:06.854            69.730               Magadan1          8716.250
       434   11 Jun 2027 14:42:00.520   11 Jun 2027 14:44:00.820           120.300               Magadan2         15037.500
       435   11 Jun 2027 16:20:16.951   11 Jun 2027 16:26:16.005           359.054                Irkutsk         44881.750
       436   11 Jun 2027 16:37:23.303   11 Jun 2027 16:40:01.464           158.161                Sumatra         19770.125
       437   11 Jun 2027 17:55:14.630   11 Jun 2027 17:58:36.511           201.881                Novosib         25235.125
       438   11 Jun 2027 18:01:53.813   11 Jun 2027 18:02:13.431            19.618                Novosib          2452.250
       439   11 Jun 2027 21:04:19.614   11 Jun 2027 21:05:07.959            48.345              Murmansk1          6043.125
       440   11 Jun 2027 21:08:30.677   11 Jun 2027 21:14:06.208           335.531                 Moscow         41941.375
       441   11 Jun 2027 21:36:34.305   11 Jun 2027 21:37:38.290            63.985               CapeTown          7998.125
       442   11 Jun 2027 21:38:19.894   11 Jun 2027 21:39:13.675            53.781               CapeTown          6722.625
       443   11 Jun 2027 23:10:27.754   11 Jun 2027 23:10:37.901            10.147               CapeTown          1268.375
       444   12 Jun 2027 03:27:02.568   12 Jun 2027 03:27:20.014            17.446                Norilsk          2180.750
       445   12 Jun 2027 03:28:06.154   12 Jun 2027 03:28:20.895            14.741               Magadan2          1842.625
       446   12 Jun 2027 03:28:22.546   12 Jun 2027 03:33:34.150           311.604                Norilsk         38950.500
       447   12 Jun 2027 03:33:34.342   12 Jun 2027 03:38:10.263           275.921              Murmansk1         34490.125
       448   12 Jun 2027 04:03:35.984   12 Jun 2027 04:04:53.914            77.930            RioGallegos          9741.250
       449   12 Jun 2027 04:42:05.211   12 Jun 2027 04:42:50.294            45.083                Sumatra          5635.375
       450   12 Jun 2027 05:04:17.038   12 Jun 2027 05:05:48.412            91.374                Norilsk         11421.750
       451   12 Jun 2027 05:07:00.624   12 Jun 2027 05:09:04.030           123.406              Murmansk1         15425.750
       452   12 Jun 2027 05:09:04.030   12 Jun 2027 05:12:24.150           200.120              Murmansk2         25015.000
       453   12 Jun 2027 05:47:14.523   12 Jun 2027 05:51:37.676           263.153            RioGallegos         32894.125
       454   12 Jun 2027 06:21:45.260   12 Jun 2027 06:26:29.272           284.012                Sumatra         35501.500
       455   12 Jun 2027 06:30:22.603   12 Jun 2027 06:33:36.090           193.487                Irkutsk         24185.875
       456   12 Jun 2027 06:40:22.284   12 Jun 2027 06:41:21.444            59.160                 Moscow          7395.000
       457   12 Jun 2027 06:41:23.591   12 Jun 2027 06:45:11.534           227.943                Norilsk         28492.875
       458   12 Jun 2027 06:45:26.033   12 Jun 2027 06:47:19.710           113.677              Murmansk1         14209.625
       459   12 Jun 2027 07:22:20.991   12 Jun 2027 07:25:18.837           177.846            RioGallegos         22230.750
       460   12 Jun 2027 08:04:49.420   12 Jun 2027 08:10:33.792           344.372                  Delhi         43046.500
       461   12 Jun 2027 08:10:47.722   12 Jun 2027 08:11:03.414            15.692                Novosib          1961.500
       462   12 Jun 2027 08:11:13.106   12 Jun 2027 08:11:19.124             6.018                 Moscow           752.250
       463   12 Jun 2027 08:11:35.071   12 Jun 2027 08:11:57.718            22.647                Norilsk          2830.875
       464   12 Jun 2027 08:15:52.800   12 Jun 2027 08:19:07.574           194.774                 Moscow         24346.750
       465   12 Jun 2027 08:19:17.667   12 Jun 2027 08:20:49.193            91.526              Murmansk2         11440.750
       466   12 Jun 2027 08:20:49.193   12 Jun 2027 08:22:53.334           124.141              Murmansk1         15517.625
       467   12 Jun 2027 09:45:15.081   12 Jun 2027 09:45:42.021            26.940                 Moscow          3367.500
       468   12 Jun 2027 09:51:51.158   12 Jun 2027 09:55:17.527           206.369                 Moscow         25796.125
       469   12 Jun 2027 09:55:25.911   12 Jun 2027 09:56:47.142            81.231                Norilsk         10153.875
       470   12 Jun 2027 09:57:13.456   12 Jun 2027 09:58:46.745            93.289              Murmansk2         11661.125
       471   12 Jun 2027 11:25:08.928   12 Jun 2027 11:26:50.575           101.647              Murmansk2         12705.875
       472   12 Jun 2027 11:27:05.607   12 Jun 2027 11:30:41.384           215.777                 Moscow         26972.125
       473   12 Jun 2027 11:31:04.127   12 Jun 2027 11:34:44.431           220.304              Murmansk1         27538.000
       474   12 Jun 2027 11:39:38.151   12 Jun 2027 11:46:29.980           411.829                Anadyr2         51478.625
       475   12 Jun 2027 12:37:13.010   12 Jun 2027 12:44:17.839           424.829               CapeTown         53103.625
       476   12 Jun 2027 13:02:23.380   12 Jun 2027 13:10:23.930           480.550              Murmansk2         60068.750
       477   12 Jun 2027 13:12:27.389   12 Jun 2027 13:25:02.657           755.268                Anadyr1         94408.500
       478   12 Jun 2027 14:48:21.914   12 Jun 2027 14:50:04.414           102.500                Anadyr1         12812.500
       479   12 Jun 2027 14:51:39.722   12 Jun 2027 14:51:56.103            16.381               Magadan1          2047.625
       480   12 Jun 2027 14:55:09.123   12 Jun 2027 14:58:02.431           173.308               Magadan2         21663.500
       481   12 Jun 2027 15:45:55.146   12 Jun 2027 15:48:23.412           148.266            RioGallegos         18533.250
       482   12 Jun 2027 16:31:41.398   12 Jun 2027 16:39:20.906           459.508                Irkutsk         57438.500
