uniorb/output/strategy_4/Drop/Drop_KinoSat_110710.txt

KinoSat_110710
-------------------------
    Access    *     Start Time (UTCG)     *     Stop Time (UTCG)  *   Duration (s)        *       Station  *  Data (Mbytes)
         1   01 Jun 2027 04:29:53.992   01 Jun 2027 04:30:43.239            49.247               Magadan2          1538.969
         2   01 Jun 2027 04:30:43.239   01 Jun 2027 04:30:57.673            14.434               Magadan1           451.062
         3   01 Jun 2027 04:31:14.438   01 Jun 2027 04:32:18.998            64.560                Irkutsk          2017.500
         4   01 Jun 2027 04:32:19.562   01 Jun 2027 04:32:50.922            31.360               Magadan2           980.000
         5   01 Jun 2027 04:33:07.653   01 Jun 2027 04:33:19.062            11.409               Magadan2           356.531
         6   01 Jun 2027 04:33:33.445   01 Jun 2027 04:33:58.580            25.135                Anadyr1           785.469
         7   01 Jun 2027 05:10:19.587   01 Jun 2027 05:12:10.904           111.317            RioGallegos          3478.656
         8   01 Jun 2027 06:04:47.911   01 Jun 2027 06:05:11.626            23.715                Novosib           741.094
         9   01 Jun 2027 06:05:15.318   01 Jun 2027 06:08:58.300           222.982                Irkutsk          6968.188
        10   01 Jun 2027 06:09:11.145   01 Jun 2027 06:09:43.925            32.780              Murmansk1          1024.375
        11   01 Jun 2027 06:09:43.925   01 Jun 2027 06:10:09.506            25.581              Murmansk2           799.406
        12   01 Jun 2027 06:10:41.058   01 Jun 2027 06:10:49.878             8.820                Novosib           275.625
        13   01 Jun 2027 06:12:25.388   01 Jun 2027 06:12:50.019            24.631              Murmansk2           769.719
        14   01 Jun 2027 06:13:37.924   01 Jun 2027 06:14:04.801            26.877              Murmansk2           839.906
        15   01 Jun 2027 06:44:27.298   01 Jun 2027 06:45:40.426            73.128            RioGallegos          2285.250
        16   01 Jun 2027 07:19:51.505   01 Jun 2027 07:22:05.637           134.132                Sumatra          4191.625
        17   01 Jun 2027 07:32:54.879   01 Jun 2027 07:33:49.752            54.873                  Delhi          1714.781
        18   01 Jun 2027 07:41:25.005   01 Jun 2027 07:43:56.831           151.826                Irkutsk          4744.563
        19   01 Jun 2027 07:44:07.434   01 Jun 2027 07:44:31.976            24.542                Novosib           766.938
        20   01 Jun 2027 07:44:44.984   01 Jun 2027 07:44:51.484             6.500                Norilsk           203.125
        21   01 Jun 2027 07:44:55.886   01 Jun 2027 07:46:20.216            84.330              Murmansk1          2635.312
        22   01 Jun 2027 07:46:20.216   01 Jun 2027 07:47:51.686            91.470              Murmansk2          2858.438
        23   01 Jun 2027 07:48:56.062   01 Jun 2027 07:49:16.142            20.080                Norilsk           627.500
        24   01 Jun 2027 07:51:05.146   01 Jun 2027 07:51:11.554             6.408              Murmansk2           200.250
        25   01 Jun 2027 07:51:22.385   01 Jun 2027 07:51:46.616            24.231              Murmansk2           757.219
        26   01 Jun 2027 08:22:19.885   01 Jun 2027 08:23:23.540            63.655            RioGallegos          1989.219
        27   01 Jun 2027 08:24:25.409   01 Jun 2027 08:24:56.198            30.789            RioGallegos           962.156
        28   01 Jun 2027 08:26:13.733   01 Jun 2027 08:26:15.815             2.082            RioGallegos            65.062
        29   01 Jun 2027 08:30:58.762   01 Jun 2027 08:31:40.508            41.746            RioGallegos          1304.562
        30   01 Jun 2027 08:56:31.779   01 Jun 2027 08:56:37.395             5.616                Sumatra           175.500
        31   01 Jun 2027 08:57:10.312   01 Jun 2027 08:57:32.738            22.426                Sumatra           700.812
        32   01 Jun 2027 09:03:39.516   01 Jun 2027 09:05:18.825            99.309                  Delhi          3103.406
        33   01 Jun 2027 09:06:50.678   01 Jun 2027 09:06:52.423             1.745                  Delhi            54.531
        34   01 Jun 2027 09:20:16.885   01 Jun 2027 09:20:39.329            22.444              Murmansk1           701.375
        35   01 Jun 2027 09:20:39.329   01 Jun 2027 09:21:27.157            47.828              Murmansk2          1494.625
        36   01 Jun 2027 09:21:32.539   01 Jun 2027 09:21:54.063            21.524                Novosib           672.625
        37   01 Jun 2027 09:23:37.121   01 Jun 2027 09:24:26.603            49.482                 Moscow          1546.313
        38   01 Jun 2027 10:41:52.752   01 Jun 2027 10:45:31.366           218.614                  Delhi          6831.687
        39   01 Jun 2027 10:46:25.756   01 Jun 2027 10:46:53.141            27.385                  Delhi           855.781
        40   01 Jun 2027 10:49:38.135   01 Jun 2027 10:50:10.018            31.883                  Delhi           996.344
        41   01 Jun 2027 10:55:32.413   01 Jun 2027 11:02:36.112           423.699                Norilsk         13240.594
        42   01 Jun 2027 12:05:02.002   01 Jun 2027 12:06:51.419           109.417               CapeTown          3419.281
        43   01 Jun 2027 12:08:20.258   01 Jun 2027 12:09:54.696            94.438               CapeTown          2951.187
        44   01 Jun 2027 12:26:08.216   01 Jun 2027 12:27:05.400            57.184                 Moscow          1787.000
        45   01 Jun 2027 12:27:49.076   01 Jun 2027 12:32:13.551           264.475              Murmansk1          8264.844
        46   01 Jun 2027 12:35:29.809   01 Jun 2027 12:36:06.577            36.768              Murmansk1          1149.000
        47   01 Jun 2027 12:36:48.876   01 Jun 2027 12:37:36.923            48.047              Murmansk1          1501.469
        48   01 Jun 2027 12:43:03.332   01 Jun 2027 12:49:53.226           409.894                Anadyr1         12809.188
        49   01 Jun 2027 14:06:16.090   01 Jun 2027 14:06:17.568             1.478              Murmansk2            46.188
        50   01 Jun 2027 14:07:50.325   01 Jun 2027 14:07:59.000             8.675              Murmansk2           271.094
        51   01 Jun 2027 14:08:23.178   01 Jun 2027 14:08:24.794             1.616              Murmansk2            50.500
        52   01 Jun 2027 14:18:06.140   01 Jun 2027 14:19:45.576            99.436                Anadyr1          3107.375
        53   01 Jun 2027 14:19:52.279   01 Jun 2027 14:23:25.039           212.760                Anadyr2          6648.750
        54   01 Jun 2027 15:48:06.940   01 Jun 2027 15:48:20.810            13.870              Murmansk1           433.437
        55   01 Jun 2027 15:49:26.169   01 Jun 2027 15:49:35.090             8.921              Murmansk2           278.781
        56   01 Jun 2027 15:53:56.359   01 Jun 2027 15:56:50.034           173.675                Anadyr1          5427.344
        57   01 Jun 2027 15:57:57.213   01 Jun 2027 16:00:35.873           158.660               Magadan1          4958.125
        58   01 Jun 2027 16:01:56.789   01 Jun 2027 16:03:09.677            72.888               Magadan2          2277.750
        59   01 Jun 2027 17:29:50.829   01 Jun 2027 17:32:58.772           187.943                Anadyr1          5873.219
        60   01 Jun 2027 17:33:08.099   01 Jun 2027 17:36:19.625           191.526                Norilsk          5985.187
        61   01 Jun 2027 18:24:24.320   01 Jun 2027 18:30:31.198           366.878            RioGallegos         11464.937
        62   01 Jun 2027 19:07:42.992   01 Jun 2027 19:09:43.393           120.401                Norilsk          3762.531
        63   01 Jun 2027 19:09:57.413   01 Jun 2027 19:13:11.378           193.965                Norilsk          6061.406
        64   01 Jun 2027 19:13:41.002   01 Jun 2027 19:14:39.354            58.352                Irkutsk          1823.500
        65   01 Jun 2027 19:14:59.331   01 Jun 2027 19:17:56.262           176.931                Novosib          5529.094
        66   01 Jun 2027 19:18:12.227   01 Jun 2027 19:18:31.697            19.470                Novosib           608.437
        67   01 Jun 2027 19:28:14.626   01 Jun 2027 19:29:40.690            86.064                Sumatra          2689.500
        68   01 Jun 2027 20:49:53.652   01 Jun 2027 20:51:08.948            75.296                Novosib          2353.000
        69   01 Jun 2027 20:54:09.608   01 Jun 2027 20:54:29.365            19.757                Novosib           617.406
        70   01 Jun 2027 20:55:33.947   01 Jun 2027 20:58:55.049           201.102                  Delhi          6284.438
        71   01 Jun 2027 22:19:47.269   01 Jun 2027 22:19:53.825             6.556               Magadan2           204.875
        72   01 Jun 2027 22:20:09.517   01 Jun 2027 22:20:48.476            38.959               Magadan2          1217.469
        73   01 Jun 2027 22:21:26.198   01 Jun 2027 22:21:30.974             4.776               Magadan1           149.250
        74   01 Jun 2027 22:22:02.747   01 Jun 2027 22:26:11.472           248.725              Murmansk2          7772.656
        75   01 Jun 2027 22:27:06.002   01 Jun 2027 22:33:08.673           362.671                 Moscow         11333.469
        76   01 Jun 2027 23:57:46.125   01 Jun 2027 23:58:28.583            42.458              Murmansk1          1326.812
        77   02 Jun 2027 00:01:09.264   02 Jun 2027 00:02:46.015            96.751                 Moscow          3023.469
        78   02 Jun 2027 00:03:24.797   02 Jun 2027 00:04:42.225            77.428                 Moscow          2419.625
        79   02 Jun 2027 00:25:34.075   02 Jun 2027 00:27:04.601            90.526               CapeTown          2828.938
        80   02 Jun 2027 00:27:46.313   02 Jun 2027 00:29:12.824            86.511               CapeTown          2703.469
        81   02 Jun 2027 01:24:56.799   02 Jun 2027 01:25:31.111            34.312               Magadan1          1072.250
        82   02 Jun 2027 01:27:36.210   02 Jun 2027 01:28:03.760            27.550               Magadan1           860.937
        83   02 Jun 2027 01:33:17.237   02 Jun 2027 01:33:29.484            12.247               Magadan1           382.719
        84   02 Jun 2027 01:33:44.103   02 Jun 2027 01:35:59.950           135.847              Murmansk1          4245.219
        85   02 Jun 2027 01:36:57.872   02 Jun 2027 01:37:12.694            14.822                 Moscow           463.188
        86   02 Jun 2027 01:38:16.618   02 Jun 2027 01:40:01.279           104.661                 Moscow          3270.656
        87   02 Jun 2027 02:06:44.184   02 Jun 2027 02:07:45.830            61.646               CapeTown          1926.437
        88   02 Jun 2027 02:57:40.637   02 Jun 2027 03:00:19.390           158.753               Magadan2          4961.031
        89   02 Jun 2027 03:03:18.374   02 Jun 2027 03:03:29.190            10.816                Anadyr2           338.000
        90   02 Jun 2027 03:03:33.309   02 Jun 2027 03:03:51.792            18.483               Magadan2           577.594
        91   02 Jun 2027 03:03:51.792   02 Jun 2027 03:05:30.345            98.553               Magadan1          3079.781
        92   02 Jun 2027 03:05:38.710   02 Jun 2027 03:07:19.124           100.414               Magadan2          3137.937
        93   02 Jun 2027 03:07:19.124   02 Jun 2027 03:07:29.905            10.781               Magadan1           336.906
        94   02 Jun 2027 03:07:32.391   02 Jun 2027 03:08:35.208            62.817               Magadan1          1963.031
        95   02 Jun 2027 04:41:34.052   02 Jun 2027 04:43:04.181            90.129               Magadan1          2816.531
        96   02 Jun 2027 04:43:18.882   02 Jun 2027 04:43:25.100             6.218               Magadan1           194.313
        97   02 Jun 2027 04:43:27.490   02 Jun 2027 04:44:20.242            52.752                Anadyr1          1648.500
        98   02 Jun 2027 05:23:29.396   02 Jun 2027 05:24:16.787            47.391            RioGallegos          1480.969
        99   02 Jun 2027 06:17:50.767   02 Jun 2027 06:19:49.837           119.070                Novosib          3720.938
       100   02 Jun 2027 06:19:58.281   02 Jun 2027 06:20:30.473            32.192              Murmansk1          1006.000
       101   02 Jun 2027 06:20:58.654   02 Jun 2027 06:21:46.724            48.070                Irkutsk          1502.187
       102   02 Jun 2027 06:22:26.187   02 Jun 2027 06:22:57.295            31.108                Novosib           972.125
       103   02 Jun 2027 07:54:54.183   02 Jun 2027 07:56:29.858            95.675                Irkutsk          2989.844
       104   02 Jun 2027 07:58:39.096   02 Jun 2027 07:59:35.587            56.491              Murmansk2          1765.344
       105   02 Jun 2027 08:03:49.442   02 Jun 2027 08:04:35.534            46.092              Murmansk1          1440.375
       106   02 Jun 2027 08:34:59.197   02 Jun 2027 08:35:26.552            27.355            RioGallegos           854.844
       107   02 Jun 2027 08:36:26.238   02 Jun 2027 08:37:34.208            67.970            RioGallegos          2124.063
       108   02 Jun 2027 08:38:00.287   02 Jun 2027 08:38:43.695            43.408            RioGallegos          1356.500
       109   02 Jun 2027 09:09:17.664   02 Jun 2027 09:10:02.905            45.241                Sumatra          1413.781
       110   02 Jun 2027 09:10:59.671   02 Jun 2027 09:12:54.533           114.862                Sumatra          3589.438
       111   02 Jun 2027 09:30:19.774   02 Jun 2027 09:31:04.366            44.592                Novosib          1393.500
       112   02 Jun 2027 09:31:51.079   02 Jun 2027 09:32:07.370            16.291                Norilsk           509.094
       113   02 Jun 2027 09:32:14.048   02 Jun 2027 09:32:37.248            23.200                Norilsk           725.000
       114   02 Jun 2027 09:32:45.465   02 Jun 2027 09:32:54.706             9.241                Norilsk           288.781
       115   02 Jun 2027 09:33:17.391   02 Jun 2027 09:33:18.039             0.648                Novosib            20.250
       116   02 Jun 2027 10:55:04.551   02 Jun 2027 10:58:12.423           187.872                  Delhi          5871.000
       117   02 Jun 2027 11:11:01.640   02 Jun 2027 11:11:04.699             3.059              Murmansk1            95.594
       118   02 Jun 2027 12:15:52.460   02 Jun 2027 12:17:08.341            75.881               CapeTown          2371.281
       119   02 Jun 2027 12:18:23.670   02 Jun 2027 12:18:30.847             7.177               CapeTown           224.281
       120   02 Jun 2027 12:19:49.741   02 Jun 2027 12:22:12.178           142.437               CapeTown          4451.156
       121   02 Jun 2027 12:37:05.734   02 Jun 2027 12:37:13.647             7.913                 Moscow           247.281
       122   02 Jun 2027 12:40:01.455   02 Jun 2027 12:41:50.049           108.594              Murmansk1          3393.562
       123   02 Jun 2027 12:42:44.456   02 Jun 2027 12:42:46.447             1.991              Murmansk2            62.219
       124   02 Jun 2027 12:43:50.211   02 Jun 2027 12:44:01.277            11.066              Murmansk2           345.813
       125   02 Jun 2027 12:44:45.290   02 Jun 2027 12:45:06.354            21.064              Murmansk1           658.250
       126   02 Jun 2027 12:54:50.369   02 Jun 2027 12:58:42.669           232.300                Anadyr2          7259.375
       127   02 Jun 2027 12:58:49.523   02 Jun 2027 13:00:53.690           124.167                Anadyr1          3880.219
       128   02 Jun 2027 14:21:59.399   02 Jun 2027 14:22:41.575            42.176              Murmansk2          1318.000
       129   02 Jun 2027 14:30:05.698   02 Jun 2027 14:33:26.386           200.688                Anadyr1          6271.500
       130   02 Jun 2027 14:33:40.210   02 Jun 2027 14:34:20.377            40.167                Anadyr1          1255.219
       131   02 Jun 2027 14:34:34.199   02 Jun 2027 14:39:02.275           268.076               Magadan2          8377.375
       132   02 Jun 2027 16:08:26.737   02 Jun 2027 16:11:46.980           200.243               Magadan1          6257.594
       133   02 Jun 2027 16:11:46.980   02 Jun 2027 16:12:34.954            47.974               Magadan2          1499.187
       134   02 Jun 2027 16:14:51.085   02 Jun 2027 16:15:07.933            16.848               Magadan2           526.500
       135   02 Jun 2027 16:16:33.659   02 Jun 2027 16:16:43.216             9.557               Magadan2           298.656
       136   02 Jun 2027 17:41:51.284   02 Jun 2027 17:41:51.892             0.608                Anadyr2            19.000
       137   02 Jun 2027 17:42:34.043   02 Jun 2027 17:43:42.485            68.442                Anadyr2          2138.813
       138   02 Jun 2027 17:44:09.441   02 Jun 2027 17:45:49.908           100.467               Magadan1          3139.594
       139   02 Jun 2027 17:45:52.795   02 Jun 2027 17:46:58.453            65.658                Norilsk          2051.812
       140   02 Jun 2027 17:47:29.957   02 Jun 2027 17:49:21.603           111.646                Norilsk          3488.937
       141   02 Jun 2027 17:51:39.068   02 Jun 2027 17:53:12.965            93.897                Irkutsk          2934.281
       142   02 Jun 2027 18:36:12.981   02 Jun 2027 18:37:03.555            50.574            RioGallegos          1580.438
       143   02 Jun 2027 18:38:00.098   02 Jun 2027 18:39:19.004            78.906            RioGallegos          2465.812
       144   02 Jun 2027 19:19:43.375   02 Jun 2027 19:20:12.915            29.540                Norilsk           923.125
       145   02 Jun 2027 19:21:13.775   02 Jun 2027 19:21:14.274             0.499                Norilsk            15.594
       146   02 Jun 2027 19:23:13.960   02 Jun 2027 19:23:23.812             9.852                Norilsk           307.875
       147   02 Jun 2027 19:23:50.149   02 Jun 2027 19:24:27.876            37.727                Irkutsk          1178.969
       148   02 Jun 2027 19:24:34.012   02 Jun 2027 19:25:10.463            36.451                Norilsk          1139.094
       149   02 Jun 2027 19:25:27.663   02 Jun 2027 19:31:52.169           384.506                Novosib         12015.812
       150   02 Jun 2027 19:38:49.852   02 Jun 2027 19:39:10.609            20.757                Sumatra           648.656
       151   02 Jun 2027 19:40:27.514   02 Jun 2027 19:41:17.143            49.629                Sumatra          1550.906
       152   02 Jun 2027 19:48:26.738   02 Jun 2027 19:49:36.345            69.607                Sumatra          2175.219
       153   02 Jun 2027 21:03:12.145   02 Jun 2027 21:03:25.351            13.206                Novosib           412.688
       154   02 Jun 2027 21:03:32.997   02 Jun 2027 21:05:13.840           100.843                Novosib          3151.344
       155   02 Jun 2027 21:07:17.464   02 Jun 2027 21:11:08.382           230.918                  Delhi          7216.187
       156   02 Jun 2027 22:34:00.190   02 Jun 2027 22:40:10.277           370.087              Murmansk1         11565.219
       157   02 Jun 2027 22:40:35.002   02 Jun 2027 22:45:42.004           307.002                 Moscow          9593.813
       158   03 Jun 2027 00:15:56.889   03 Jun 2027 00:16:40.601            43.712                 Moscow          1366.000
       159   03 Jun 2027 00:37:17.440   03 Jun 2027 00:39:38.979           141.539               CapeTown          4423.094
       160   03 Jun 2027 00:41:04.538   03 Jun 2027 00:41:12.226             7.688               CapeTown           240.250
       161   03 Jun 2027 00:46:06.249   03 Jun 2027 00:46:42.458            36.209               CapeTown          1131.531
       162   03 Jun 2027 01:36:28.994   03 Jun 2027 01:37:07.074            38.080               Magadan2          1190.000
       163   03 Jun 2027 01:40:03.595   03 Jun 2027 01:40:18.004            14.409               Magadan1           450.281
       164   03 Jun 2027 01:40:48.494   03 Jun 2027 01:41:09.467            20.973               Magadan2           655.406
       165   03 Jun 2027 01:45:45.582   03 Jun 2027 01:47:03.508            77.926              Murmansk1          2435.187
       166   03 Jun 2027 01:48:39.744   03 Jun 2027 01:49:58.697            78.953              Murmansk1          2467.281
       167   03 Jun 2027 01:51:52.713   03 Jun 2027 01:52:00.590             7.877                 Moscow           246.156
       168   03 Jun 2027 01:53:20.022   03 Jun 2027 01:54:06.053            46.031                 Moscow          1438.469
       169   03 Jun 2027 01:57:35.233   03 Jun 2027 01:58:06.314            31.081                 Moscow           971.281
       170   03 Jun 2027 02:17:23.502   03 Jun 2027 02:18:03.389            39.887               CapeTown          1246.469
       171   03 Jun 2027 02:21:15.410   03 Jun 2027 02:21:20.329             4.919               CapeTown           153.719
       172   03 Jun 2027 02:22:55.845   03 Jun 2027 02:23:16.615            20.770               CapeTown           649.063
       173   03 Jun 2027 03:09:32.351   03 Jun 2027 03:09:45.208            12.857               Magadan1           401.781
       174   03 Jun 2027 03:09:52.309   03 Jun 2027 03:10:59.863            67.554               Magadan2          2111.063
       175   03 Jun 2027 03:14:32.447   03 Jun 2027 03:16:08.113            95.666               Magadan2          2989.563
       176   03 Jun 2027 03:16:08.113   03 Jun 2027 03:20:30.609           262.496               Magadan1          8203.000
       177   03 Jun 2027 03:20:33.798   03 Jun 2027 03:21:08.187            34.389                Anadyr1          1074.656
       178   03 Jun 2027 04:53:22.353   03 Jun 2027 04:56:07.572           165.219               Magadan2          5163.094
       179   03 Jun 2027 04:56:11.351   03 Jun 2027 04:57:36.888            85.537                Anadyr1          2673.031
       180   03 Jun 2027 06:28:42.834   03 Jun 2027 06:28:56.067            13.233               Magadan1           413.531
       181   03 Jun 2027 06:29:01.997   03 Jun 2027 06:29:21.217            19.220               Magadan2           600.625
       182   03 Jun 2027 06:29:56.429   03 Jun 2027 06:31:17.459            81.030               Magadan1          2532.187
       183   03 Jun 2027 06:31:29.164   03 Jun 2027 06:32:06.887            37.723               Magadan1          1178.844
       184   03 Jun 2027 06:32:06.887   03 Jun 2027 06:32:43.694            36.807               Magadan2          1150.219
       185   03 Jun 2027 06:35:13.932   03 Jun 2027 06:35:26.575            12.643              Murmansk2           395.094
       186   03 Jun 2027 08:04:19.247   03 Jun 2027 08:04:36.981            17.734                Irkutsk           554.188
       187   03 Jun 2027 08:05:37.371   03 Jun 2027 08:05:49.259            11.888                Irkutsk           371.500
       188   03 Jun 2027 08:07:03.311   03 Jun 2027 08:07:07.540             4.229                Irkutsk           132.156
       189   03 Jun 2027 08:07:10.532   03 Jun 2027 08:07:35.397            24.865                Irkutsk           777.031
       190   03 Jun 2027 08:07:38.378   03 Jun 2027 08:08:31.054            52.676                 Moscow          1646.125
       191   03 Jun 2027 08:08:41.666   03 Jun 2027 08:08:55.536            13.870                Irkutsk           433.437
       192   03 Jun 2027 08:14:05.649   03 Jun 2027 08:14:25.681            20.032                Norilsk           626.000
       193   03 Jun 2027 08:47:47.712   03 Jun 2027 08:48:41.546            53.834            RioGallegos          1682.313
       194   03 Jun 2027 09:22:30.345   03 Jun 2027 09:23:38.102            67.757                Sumatra          2117.406
       195   03 Jun 2027 09:24:40.795   03 Jun 2027 09:25:14.345            33.550                Sumatra          1048.437
       196   03 Jun 2027 09:42:25.671   03 Jun 2027 09:42:25.739             0.068                Novosib             2.125
       197   03 Jun 2027 09:43:55.619   03 Jun 2027 09:44:09.615            13.996                Novosib           437.375
       198   03 Jun 2027 09:44:37.391   03 Jun 2027 09:44:38.877             1.486                Norilsk            46.438
       199   03 Jun 2027 09:44:45.204   03 Jun 2027 09:44:56.579            11.375                Novosib           355.469
       200   03 Jun 2027 09:45:01.862   03 Jun 2027 09:45:21.800            19.938                Novosib           623.062
       201   03 Jun 2027 11:09:56.184   03 Jun 2027 11:10:33.288            37.104                  Delhi          1159.500
       202   03 Jun 2027 11:22:27.673   03 Jun 2027 11:22:29.775             2.102                Norilsk            65.688
       203   03 Jun 2027 12:48:57.988   03 Jun 2027 12:49:18.021            20.033                 Moscow           626.031
       204   03 Jun 2027 12:49:28.316   03 Jun 2027 12:50:17.823            49.507                 Moscow          1547.094
       205   03 Jun 2027 12:51:12.031   03 Jun 2027 12:51:36.122            24.091                 Moscow           752.844
       206   03 Jun 2027 12:51:52.604   03 Jun 2027 12:52:04.707            12.103                 Moscow           378.219
       207   03 Jun 2027 12:52:15.753   03 Jun 2027 12:55:48.732           212.979              Murmansk1          6655.594
       208   03 Jun 2027 12:57:04.313   03 Jun 2027 12:57:14.572            10.259              Murmansk2           320.594
       209   03 Jun 2027 13:06:41.137   03 Jun 2027 13:12:33.162           352.025                Anadyr1         11000.781
       210   03 Jun 2027 14:33:43.218   03 Jun 2027 14:34:36.115            52.897              Murmansk2          1653.031
       211   03 Jun 2027 14:42:05.689   03 Jun 2027 14:43:37.271            91.582                Anadyr1          2861.937
       212   03 Jun 2027 14:43:39.567   03 Jun 2027 14:44:29.938            50.371                Anadyr2          1574.094
       213   03 Jun 2027 14:44:40.217   03 Jun 2027 14:45:26.682            46.465                Anadyr2          1452.031
       214   03 Jun 2027 14:45:56.846   03 Jun 2027 14:52:15.711           378.865               Magadan2         11839.531
       215   03 Jun 2027 16:20:24.135   03 Jun 2027 16:22:40.875           136.740               Magadan2          4273.125
       216   03 Jun 2027 16:23:49.699   03 Jun 2027 16:24:34.645            44.946               Magadan1          1404.563
       217   03 Jun 2027 16:25:51.014   03 Jun 2027 16:27:03.866            72.852               Magadan1          2276.625
       218   03 Jun 2027 17:53:51.444   03 Jun 2027 17:55:14.463            83.019                Anadyr2          2594.344
       219   03 Jun 2027 17:55:52.239   03 Jun 2027 17:55:59.528             7.289                Anadyr1           227.781
       220   03 Jun 2027 17:56:11.065   03 Jun 2027 17:58:57.194           166.129               Magadan1          5191.531
       221   03 Jun 2027 17:59:17.077   03 Jun 2027 18:02:13.774           176.697                Norilsk          5521.781
       222   03 Jun 2027 18:03:10.443   03 Jun 2027 18:04:54.796           104.353                Irkutsk          3261.031
       223   03 Jun 2027 18:50:05.030   03 Jun 2027 18:50:54.164            49.134            RioGallegos          1535.438
       224   03 Jun 2027 19:31:44.165   03 Jun 2027 19:33:11.497            87.332                Norilsk          2729.125
       225   03 Jun 2027 19:36:59.356   03 Jun 2027 19:44:28.244           448.888                Novosib         14027.750
       226   03 Jun 2027 21:11:35.860   03 Jun 2027 21:13:25.853           109.993                Novosib          3437.281
       227   03 Jun 2027 21:19:05.982   03 Jun 2027 21:23:08.498           242.516                  Delhi          7578.625
       228   03 Jun 2027 22:45:58.651   03 Jun 2027 22:47:46.738           108.087              Murmansk1          3377.719
       229   03 Jun 2027 22:47:48.549   03 Jun 2027 22:52:23.098           274.549              Murmansk2          8579.656
       230   03 Jun 2027 22:52:38.414   03 Jun 2027 22:56:39.835           241.421                 Moscow          7544.406
       231   03 Jun 2027 23:18:23.569   03 Jun 2027 23:19:51.121            87.552               CapeTown          2736.000
       232   03 Jun 2027 23:20:19.109   03 Jun 2027 23:21:34.239            75.130               CapeTown          2347.813
       233   04 Jun 2027 00:29:10.492   04 Jun 2027 00:29:20.130             9.638                 Moscow           301.187
       234   04 Jun 2027 00:34:29.100   04 Jun 2027 00:34:39.755            10.655                 Moscow           332.969
       235   04 Jun 2027 00:49:06.043   04 Jun 2027 00:50:54.870           108.827               CapeTown          3400.844
       236   04 Jun 2027 00:56:31.713   04 Jun 2027 00:57:11.521            39.808               CapeTown          1244.000
       237   04 Jun 2027 01:47:28.128   04 Jun 2027 01:48:31.663            63.535               Magadan2          1985.469
       238   04 Jun 2027 01:49:20.471   04 Jun 2027 01:49:45.491            25.020               Magadan2           781.875
       239   04 Jun 2027 01:52:16.256   04 Jun 2027 01:52:19.827             3.571               Magadan2           111.594
       240   04 Jun 2027 01:52:53.646   04 Jun 2027 01:53:19.226            25.580               Magadan2           799.375
       241   04 Jun 2027 01:56:24.903   04 Jun 2027 01:56:30.047             5.144               Magadan2           160.750
       242   04 Jun 2027 01:56:39.755   04 Jun 2027 01:56:58.305            18.550                Norilsk           579.687
       243   04 Jun 2027 01:57:46.949   04 Jun 2027 01:58:04.855            17.906              Murmansk2           559.563
       244   04 Jun 2027 01:58:15.001   04 Jun 2027 01:59:02.427            47.426              Murmansk1          1482.063
       245   04 Jun 2027 02:00:35.056   04 Jun 2027 02:02:03.696            88.640              Murmansk2          2770.000
       246   04 Jun 2027 02:02:13.183   04 Jun 2027 02:03:16.323            63.140                 Moscow          1973.125
       247   04 Jun 2027 02:26:35.472   04 Jun 2027 02:27:02.025            26.553               CapeTown           829.781
       248   04 Jun 2027 02:31:30.821   04 Jun 2027 02:31:49.624            18.803               CapeTown           587.594
       249   04 Jun 2027 03:21:26.273   04 Jun 2027 03:21:44.467            18.194               Magadan2           568.562
       250   04 Jun 2027 03:21:44.467   04 Jun 2027 03:22:54.978            70.511               Magadan1          2203.469
       251   04 Jun 2027 03:26:11.407   04 Jun 2027 03:31:51.967           340.560                Anadyr1         10642.500
       252   04 Jun 2027 05:04:39.981   04 Jun 2027 05:08:10.219           210.238                Anadyr2          6569.937
       253   04 Jun 2027 05:08:10.219   04 Jun 2027 05:08:20.488            10.269                Anadyr1           320.906
       254   04 Jun 2027 05:08:27.070   04 Jun 2027 05:09:16.092            49.022               Magadan2          1531.938
       255   04 Jun 2027 05:09:50.900   04 Jun 2027 05:10:00.318             9.418               Magadan1           294.312
       256   04 Jun 2027 06:39:44.283   04 Jun 2027 06:40:34.229            49.946               Magadan2          1560.812
       257   04 Jun 2027 06:41:12.667   04 Jun 2027 06:41:28.624            15.957               Magadan2           498.656
       258   04 Jun 2027 06:41:39.535   04 Jun 2027 06:42:02.091            22.556               Magadan1           704.875
       259   04 Jun 2027 06:43:15.694   04 Jun 2027 06:43:31.860            16.166               Magadan1           505.187
       260   04 Jun 2027 06:43:33.636   04 Jun 2027 06:44:14.987            41.351               Magadan1          1292.219
       261   04 Jun 2027 06:45:34.661   04 Jun 2027 06:45:57.449            22.788                Norilsk           712.125
       262   04 Jun 2027 08:17:36.387   04 Jun 2027 08:18:09.549            33.162                Irkutsk          1036.313
       263   04 Jun 2027 08:18:35.727   04 Jun 2027 08:18:52.871            17.144                 Moscow           535.750
       264   04 Jun 2027 08:19:10.694   04 Jun 2027 08:19:31.129            20.435                Irkutsk           638.594
       265   04 Jun 2027 08:19:53.824   04 Jun 2027 08:20:11.325            17.501                Irkutsk           546.906
       266   04 Jun 2027 08:20:20.369   04 Jun 2027 08:20:33.936            13.567              Murmansk2           423.969
       267   04 Jun 2027 08:20:48.353   04 Jun 2027 08:21:33.189            44.836                Irkutsk          1401.125
       268   04 Jun 2027 08:26:05.047   04 Jun 2027 08:26:15.560            10.513                Norilsk           328.531
       269   04 Jun 2027 09:00:49.959   04 Jun 2027 09:01:38.880            48.921            RioGallegos          1528.781
       270   04 Jun 2027 09:02:45.569   04 Jun 2027 09:03:31.629            46.060            RioGallegos          1439.375
       271   04 Jun 2027 09:41:29.403   04 Jun 2027 09:41:47.040            17.637                  Delhi           551.156
       272   04 Jun 2027 09:56:40.497   04 Jun 2027 09:57:26.565            46.068                Novosib          1439.625
       273   04 Jun 2027 11:37:55.386   04 Jun 2027 11:38:14.591            19.205                Norilsk           600.156
       274   04 Jun 2027 13:01:22.667   04 Jun 2027 13:01:24.633             1.966                 Moscow            61.437
       275   04 Jun 2027 13:01:44.596   04 Jun 2027 13:02:21.888            37.292                 Moscow          1165.375
       276   04 Jun 2027 13:03:05.873   04 Jun 2027 13:04:11.022            65.149                 Moscow          2035.906
       277   04 Jun 2027 13:04:32.049   04 Jun 2027 13:06:25.260           113.211              Murmansk2          3537.844
       278   04 Jun 2027 13:07:36.017   04 Jun 2027 13:07:57.071            21.054              Murmansk2           657.938
       279   04 Jun 2027 13:08:02.704   04 Jun 2027 13:08:58.631            55.927              Murmansk1          1747.719
       280   04 Jun 2027 13:18:34.418   04 Jun 2027 13:21:19.240           164.822                Anadyr2          5150.688
       281   04 Jun 2027 13:21:35.131   04 Jun 2027 13:22:36.860            61.729                Anadyr1          1929.031
       282   04 Jun 2027 13:23:48.812   04 Jun 2027 13:24:19.441            30.629                Anadyr2           957.156
       283   04 Jun 2027 13:26:54.229   04 Jun 2027 13:27:59.627            65.398                Anadyr1          2043.688
       284   04 Jun 2027 14:43:51.652   04 Jun 2027 14:44:28.161            36.509              Murmansk1          1140.906
       285   04 Jun 2027 14:45:44.933   04 Jun 2027 14:46:01.546            16.613              Murmansk2           519.156
       286   04 Jun 2027 14:46:28.003   04 Jun 2027 14:47:41.299            73.296              Murmansk2          2290.500
       287   04 Jun 2027 14:54:06.044   04 Jun 2027 14:54:31.157            25.113                Anadyr1           784.781
       288   04 Jun 2027 14:55:30.856   04 Jun 2027 14:57:26.642           115.786                Anadyr2          3618.313
       289   04 Jun 2027 14:57:33.617   04 Jun 2027 15:04:10.156           396.539               Magadan2         12391.844
       290   04 Jun 2027 16:32:22.419   04 Jun 2027 16:34:22.783           120.364               Magadan1          3761.375
       291   04 Jun 2027 16:35:52.430   04 Jun 2027 16:36:34.852            42.422               Magadan1          1325.688
       292   04 Jun 2027 18:05:51.249   04 Jun 2027 18:08:48.442           177.193                Anadyr2          5537.281
       293   04 Jun 2027 18:08:58.900   04 Jun 2027 18:13:08.519           249.619                Norilsk          7800.594
       294   04 Jun 2027 18:13:28.276   04 Jun 2027 18:16:41.274           192.998                Irkutsk          6031.187
       295   04 Jun 2027 18:18:29.859   04 Jun 2027 18:19:58.911            89.052                Irkutsk          2782.875
       296   04 Jun 2027 18:29:20.042   04 Jun 2027 18:31:58.817           158.775                Sumatra          4961.719
       297   04 Jun 2027 18:34:17.667   04 Jun 2027 18:35:16.985            59.318                Sumatra          1853.688
       298   04 Jun 2027 19:48:39.713   04 Jun 2027 19:49:21.635            41.922                Novosib          1310.063
       299   04 Jun 2027 19:50:28.398   04 Jun 2027 19:53:38.982           190.584                Novosib          5955.750
       300   04 Jun 2027 20:09:53.214   04 Jun 2027 20:10:30.046            36.832                Sumatra          1151.000
       301   04 Jun 2027 21:23:12.015   04 Jun 2027 21:26:43.857           211.842              Murmansk2          6620.062
       302   04 Jun 2027 21:30:58.660   04 Jun 2027 21:32:49.419           110.759                  Delhi          3461.219
       303   04 Jun 2027 21:36:15.363   04 Jun 2027 21:36:47.184            31.821                  Delhi           994.406
       304   04 Jun 2027 22:57:01.311   04 Jun 2027 22:57:19.235            17.924                Norilsk           560.125
       305   04 Jun 2027 22:57:19.291   04 Jun 2027 22:57:26.812             7.521               Magadan1           235.031
       306   04 Jun 2027 22:57:57.880   04 Jun 2027 22:59:46.841           108.961              Murmansk1          3405.031
       307   04 Jun 2027 22:59:46.841   04 Jun 2027 23:03:47.611           240.770              Murmansk2          7524.062
       308   04 Jun 2027 23:04:42.310   04 Jun 2027 23:07:08.142           145.832                 Moscow          4557.250
       309   04 Jun 2027 23:28:59.345   04 Jun 2027 23:30:49.060           109.715               CapeTown          3428.594
       310   04 Jun 2027 23:31:43.790   04 Jun 2027 23:33:52.671           128.881               CapeTown          4027.531
       311   05 Jun 2027 00:35:34.334   05 Jun 2027 00:36:09.441            35.107              Murmansk2          1097.094
       312   05 Jun 2027 00:37:05.196   05 Jun 2027 00:39:04.770           119.574                 Moscow          3736.688
       313   05 Jun 2027 01:00:59.670   05 Jun 2027 01:01:55.243            55.573               CapeTown          1736.656
       314   05 Jun 2027 01:08:20.837   05 Jun 2027 01:09:22.234            61.397               CapeTown          1918.656
       315   05 Jun 2027 01:59:07.771   05 Jun 2027 02:00:34.365            86.594               Magadan2          2706.063
       316   05 Jun 2027 02:02:26.959   05 Jun 2027 02:02:30.095             3.136               Magadan2            98.000
       317   05 Jun 2027 02:04:01.383   05 Jun 2027 02:04:08.625             7.242               Magadan1           226.313
       318   05 Jun 2027 02:04:56.224   05 Jun 2027 02:05:17.245            21.021               Magadan2           656.906
       319   05 Jun 2027 02:08:50.231   05 Jun 2027 02:08:58.102             7.871               Magadan2           245.969
       320   05 Jun 2027 02:09:48.165   05 Jun 2027 02:10:51.481            63.316              Murmansk1          1978.625
       321   05 Jun 2027 02:10:51.481   05 Jun 2027 02:11:02.079            10.598              Murmansk2           331.187
       322   05 Jun 2027 02:12:29.681   05 Jun 2027 02:12:47.438            17.757              Murmansk1           554.906
       323   05 Jun 2027 02:13:07.853   05 Jun 2027 02:13:13.858             6.005              Murmansk2           187.656
       324   05 Jun 2027 02:13:35.303   05 Jun 2027 02:14:36.243            60.940                 Moscow          1904.375
       325   05 Jun 2027 02:19:22.837   05 Jun 2027 02:19:47.754            24.917                 Moscow           778.656
       326   05 Jun 2027 02:22:46.665   05 Jun 2027 02:23:13.691            27.026                 Moscow           844.563
       327   05 Jun 2027 02:39:25.159   05 Jun 2027 02:40:10.115            44.956               CapeTown          1404.875
       328   05 Jun 2027 03:37:34.548   05 Jun 2027 03:38:57.342            82.794               Magadan1          2587.312
       329   05 Jun 2027 03:38:58.657   05 Jun 2027 03:39:41.119            42.462                Anadyr1          1326.937
       330   05 Jun 2027 03:39:41.119   05 Jun 2027 03:40:23.211            42.092                Anadyr2          1315.375
       331   05 Jun 2027 03:40:34.733   05 Jun 2027 03:43:53.342           198.609                Anadyr2          6206.531
       332   05 Jun 2027 04:24:46.835   05 Jun 2027 04:24:57.970            11.135            RioGallegos           347.969
       333   05 Jun 2027 04:31:41.626   05 Jun 2027 04:32:03.807            22.181            RioGallegos           693.156
       334   05 Jun 2027 05:15:17.662   05 Jun 2027 05:15:42.595            24.933                Anadyr1           779.156
       335   05 Jun 2027 05:15:42.595   05 Jun 2027 05:16:13.352            30.757                Anadyr2           961.156
       336   05 Jun 2027 05:16:26.676   05 Jun 2027 05:17:27.855            61.179               Magadan2          1911.844
       337   05 Jun 2027 05:17:35.450   05 Jun 2027 05:21:28.515           233.065                Irkutsk          7283.281
       338   05 Jun 2027 06:51:47.220   05 Jun 2027 06:52:27.792            40.572               Magadan1          1267.875
       339   05 Jun 2027 06:53:01.232   05 Jun 2027 06:54:10.426            69.194               Magadan1          2162.313
       340   05 Jun 2027 06:55:18.384   05 Jun 2027 06:55:34.377            15.993               Magadan2           499.781
       341   05 Jun 2027 06:55:47.709   05 Jun 2027 06:55:56.945             9.236               Magadan2           288.625
       342   05 Jun 2027 06:59:06.713   05 Jun 2027 07:00:17.544            70.831              Murmansk1          2213.469
       343   05 Jun 2027 08:29:30.567   05 Jun 2027 08:29:34.282             3.715                Irkutsk           116.094
       344   05 Jun 2027 08:29:36.268   05 Jun 2027 08:30:33.783            57.515                Norilsk          1797.344
       345   05 Jun 2027 08:30:43.413   05 Jun 2027 08:30:47.551             4.138                Norilsk           129.312
       346   05 Jun 2027 08:30:56.067   05 Jun 2027 08:31:21.267            25.200                Norilsk           787.500
       347   05 Jun 2027 08:31:56.453   05 Jun 2027 08:31:59.290             2.837                Irkutsk            88.656
       348   05 Jun 2027 08:32:06.727   05 Jun 2027 08:32:07.511             0.784                Novosib            24.500
       349   05 Jun 2027 08:32:29.336   05 Jun 2027 08:32:51.867            22.531                Norilsk           704.094
       350   05 Jun 2027 08:32:54.158   05 Jun 2027 08:33:26.463            32.305                Irkutsk          1009.531
       351   05 Jun 2027 09:14:20.627   05 Jun 2027 09:15:53.994            93.367            RioGallegos          2917.719
       352   05 Jun 2027 09:53:14.808   05 Jun 2027 09:54:38.694            83.886                  Delhi          2621.438
       353   05 Jun 2027 10:05:46.620   05 Jun 2027 10:06:24.623            38.003                Norilsk          1187.594
       354   05 Jun 2027 10:07:33.485   05 Jun 2027 10:07:48.345            14.860                Novosib           464.375
       355   05 Jun 2027 10:08:39.179   05 Jun 2027 10:09:08.756            29.577                Norilsk           924.281
       356   05 Jun 2027 10:09:38.213   05 Jun 2027 10:09:56.068            17.855                Novosib           557.969
       357   05 Jun 2027 11:48:21.934   05 Jun 2027 11:48:56.127            34.193                Norilsk          1068.531
       358   05 Jun 2027 13:14:17.321   05 Jun 2027 13:14:33.367            16.046                 Moscow           501.437
       359   05 Jun 2027 13:14:46.296   05 Jun 2027 13:15:02.463            16.167                 Moscow           505.219
       360   05 Jun 2027 13:16:33.381   05 Jun 2027 13:17:37.148            63.767                 Moscow          1992.719
       361   05 Jun 2027 13:17:48.814   05 Jun 2027 13:18:26.813            37.999              Murmansk1          1187.469
       362   05 Jun 2027 13:18:37.575   05 Jun 2027 13:18:48.674            11.099              Murmansk2           346.844
       363   05 Jun 2027 13:19:23.263   05 Jun 2027 13:20:07.567            44.304              Murmansk2          1384.500
       364   05 Jun 2027 13:20:33.128   05 Jun 2027 13:21:48.184            75.056              Murmansk1          2345.500
       365   05 Jun 2027 13:25:37.338   05 Jun 2027 13:25:43.250             5.912              Murmansk2           184.750
       366   05 Jun 2027 13:26:32.496   05 Jun 2027 13:27:21.945            49.449              Murmansk1          1545.281
       367   05 Jun 2027 13:30:29.520   05 Jun 2027 13:32:47.805           138.285                Anadyr1          4321.406
       368   05 Jun 2027 13:33:36.462   05 Jun 2027 13:34:35.737            59.275                Anadyr2          1852.344
       369   05 Jun 2027 13:38:24.477   05 Jun 2027 13:40:01.123            96.646                Anadyr1          3020.188
       370   05 Jun 2027 14:56:31.829   05 Jun 2027 14:56:36.080             4.251              Murmansk2           132.844
       371   05 Jun 2027 14:57:46.550   05 Jun 2027 14:59:43.204           116.654              Murmansk1          3645.437
       372   05 Jun 2027 15:06:06.688   05 Jun 2027 15:06:13.049             6.361                Anadyr1           198.781
       373   05 Jun 2027 15:06:45.369   05 Jun 2027 15:07:33.260            47.891                Anadyr2          1496.594
       374   05 Jun 2027 15:08:32.186   05 Jun 2027 15:09:26.220            54.034                Anadyr1          1688.563
       375   05 Jun 2027 15:09:35.568   05 Jun 2027 15:16:38.515           422.947               Magadan2         13217.094
       376   05 Jun 2027 16:44:21.431   05 Jun 2027 16:46:01.445           100.014               Magadan1          3125.437
       377   05 Jun 2027 16:46:41.910   05 Jun 2027 16:47:13.807            31.897               Magadan2           996.781
       378   05 Jun 2027 16:52:51.086   05 Jun 2027 16:53:00.325             9.239               Magadan1           288.719
       379   05 Jun 2027 17:38:28.448   05 Jun 2027 17:41:05.495           157.047            RioGallegos          4907.719
       380   05 Jun 2027 18:17:50.647   05 Jun 2027 18:19:29.988            99.341                Anadyr1          3104.406
       381   05 Jun 2027 18:20:03.211   05 Jun 2027 18:24:11.421           248.210                Norilsk          7756.563
       382   05 Jun 2027 18:25:28.531   05 Jun 2027 18:26:32.622            64.091                Norilsk          2002.844
       383   05 Jun 2027 18:27:19.462   05 Jun 2027 18:29:43.581           144.119                Irkutsk          4503.719
       384   05 Jun 2027 18:40:05.682   05 Jun 2027 18:42:26.818           141.136                Sumatra          4410.500
       385   05 Jun 2027 18:44:00.960   05 Jun 2027 18:44:26.117            25.157                Sumatra           786.156
       386   05 Jun 2027 18:46:14.497   05 Jun 2027 18:47:57.333           102.836                Sumatra          3213.625
       387   05 Jun 2027 20:01:31.006   05 Jun 2027 20:03:12.411           101.405                Novosib          3168.906
       388   05 Jun 2027 20:03:47.629   05 Jun 2027 20:04:13.256            25.627                Novosib           800.844
       389   05 Jun 2027 20:05:34.373   05 Jun 2027 20:06:05.114            30.741                Novosib           960.656
       390   05 Jun 2027 20:10:43.471   05 Jun 2027 20:12:21.627            98.156                  Delhi          3067.375
       391   05 Jun 2027 20:12:49.191   05 Jun 2027 20:13:48.352            59.161                  Delhi          1848.781
       392   05 Jun 2027 21:34:49.115   05 Jun 2027 21:39:49.339           300.224              Murmansk1          9382.000
       393   05 Jun 2027 23:06:37.484   05 Jun 2027 23:07:29.162            51.678               Magadan1          1614.937
       394   05 Jun 2027 23:08:27.406   05 Jun 2027 23:08:55.315            27.909               Magadan2           872.156
       395   05 Jun 2027 23:09:07.547   05 Jun 2027 23:09:19.478            11.931               Magadan2           372.844
       396   05 Jun 2027 23:09:57.713   05 Jun 2027 23:11:59.003           121.290              Murmansk2          3790.312
       397   05 Jun 2027 23:11:59.003   05 Jun 2027 23:15:04.528           185.525              Murmansk1          5797.656
       398   05 Jun 2027 23:15:18.556   05 Jun 2027 23:17:40.483           141.927                 Moscow          4435.219
       399   05 Jun 2027 23:40:00.567   05 Jun 2027 23:42:21.328           140.761               CapeTown          4398.781
       400   05 Jun 2027 23:45:51.342   05 Jun 2027 23:47:56.784           125.442               CapeTown          3920.062
       401   06 Jun 2027 00:49:05.470   06 Jun 2027 00:49:51.285            45.815                 Moscow          1431.719
       402   06 Jun 2027 00:52:49.212   06 Jun 2027 00:52:59.437            10.225                 Moscow           319.531
       403   06 Jun 2027 00:54:35.993   06 Jun 2027 00:55:28.153            52.160              Murmansk1          1630.000
       404   06 Jun 2027 01:15:22.323   06 Jun 2027 01:15:52.790            30.467               CapeTown           952.094
       405   06 Jun 2027 01:16:30.727   06 Jun 2027 01:16:58.212            27.485               CapeTown           858.906
       406   06 Jun 2027 01:20:33.551   06 Jun 2027 01:21:31.297            57.746               CapeTown          1804.563
       407   06 Jun 2027 02:09:43.877   06 Jun 2027 02:10:11.212            27.335                Anadyr1           854.219
       408   06 Jun 2027 02:10:23.791   06 Jun 2027 02:10:25.976             2.185                Anadyr1            68.281
       409   06 Jun 2027 02:10:49.275   06 Jun 2027 02:11:25.751            36.476               Magadan2          1139.875
       410   06 Jun 2027 02:11:42.187   06 Jun 2027 02:12:37.070            54.883               Magadan1          1715.094
       411   06 Jun 2027 02:13:56.463   06 Jun 2027 02:14:05.710             9.247               Magadan2           288.969
       412   06 Jun 2027 02:16:49.765   06 Jun 2027 02:16:55.650             5.885               Magadan1           183.906
       413   06 Jun 2027 02:16:58.712   06 Jun 2027 02:16:59.140             0.428               Magadan2            13.375
       414   06 Jun 2027 02:17:58.562   06 Jun 2027 02:18:04.029             5.467               Magadan2           170.844
       415   06 Jun 2027 02:18:12.946   06 Jun 2027 02:19:24.404            71.458               Magadan1          2233.062
       416   06 Jun 2027 02:21:49.210   06 Jun 2027 02:22:11.554            22.344              Murmansk1           698.250
       417   06 Jun 2027 02:22:57.336   06 Jun 2027 02:23:02.305             4.969              Murmansk1           155.281
       418   06 Jun 2027 02:23:51.191   06 Jun 2027 02:24:23.579            32.388              Murmansk1          1012.125
       419   06 Jun 2027 02:25:06.128   06 Jun 2027 02:25:11.852             5.724              Murmansk2           178.875
       420   06 Jun 2027 02:25:13.088   06 Jun 2027 02:25:39.899            26.811                 Moscow           837.844
       421   06 Jun 2027 02:26:01.275   06 Jun 2027 02:26:21.678            20.403                 Moscow           637.594
       422   06 Jun 2027 02:29:33.387   06 Jun 2027 02:29:44.156            10.769                 Moscow           336.531
       423   06 Jun 2027 02:32:13.530   06 Jun 2027 02:32:55.606            42.076                 Moscow          1314.875
       424   06 Jun 2027 02:52:36.042   06 Jun 2027 02:53:02.765            26.723               CapeTown           835.094
       425   06 Jun 2027 02:53:12.937   06 Jun 2027 02:55:07.380           114.443               CapeTown          3576.344
       426   06 Jun 2027 03:52:23.058   06 Jun 2027 03:55:54.614           211.556                Anadyr2          6611.125
       427   06 Jun 2027 04:36:07.000   06 Jun 2027 04:37:33.318            86.318            RioGallegos          2697.437
       428   06 Jun 2027 05:28:05.152   06 Jun 2027 05:33:06.882           301.730                Irkutsk          9429.063
       429   06 Jun 2027 05:34:04.754   06 Jun 2027 05:34:35.296            30.542                Novosib           954.438
       430   06 Jun 2027 07:05:10.814   06 Jun 2027 07:05:31.093            20.279               Magadan1           633.719
       431   06 Jun 2027 07:05:32.807   06 Jun 2027 07:06:08.501            35.694                Novosib          1115.438
       432   06 Jun 2027 07:07:14.474   06 Jun 2027 07:08:19.825            65.351              Murmansk1          2042.219
       433   06 Jun 2027 07:10:59.304   06 Jun 2027 07:11:08.638             9.334              Murmansk1           291.687
       434   06 Jun 2027 07:46:41.750   06 Jun 2027 07:47:11.948            30.198            RioGallegos           943.687
       435   06 Jun 2027 08:26:15.476   06 Jun 2027 08:27:43.864            88.388                Sumatra          2762.125
       436   06 Jun 2027 08:43:32.482   06 Jun 2027 08:44:35.350            62.868                 Moscow          1964.625
       437   06 Jun 2027 08:44:59.147   06 Jun 2027 08:45:17.451            18.304                Irkutsk           572.000
       438   06 Jun 2027 08:45:36.995   06 Jun 2027 08:45:56.717            19.722                Norilsk           616.312
       439   06 Jun 2027 10:04:15.892   06 Jun 2027 10:06:28.116           132.224                  Delhi          4132.000
       440   06 Jun 2027 10:06:34.565   06 Jun 2027 10:08:10.467            95.902                  Delhi          2996.938
       441   06 Jun 2027 10:19:25.315   06 Jun 2027 10:20:31.764            66.449                Novosib          2076.531
       442   06 Jun 2027 10:20:42.320   06 Jun 2027 10:21:51.345            69.025                Novosib          2157.031
       443   06 Jun 2027 12:00:48.994   06 Jun 2027 12:01:02.468            13.474                Norilsk           421.063
       444   06 Jun 2027 13:02:03.818   06 Jun 2027 13:03:49.982           106.164               CapeTown          3317.625
       445   06 Jun 2027 13:07:26.179   06 Jun 2027 13:08:12.263            46.084               CapeTown          1440.125
       446   06 Jun 2027 13:09:41.452   06 Jun 2027 13:10:22.474            41.022               CapeTown          1281.937
       447   06 Jun 2027 13:11:23.235   06 Jun 2027 13:12:00.575            37.340               CapeTown          1166.875
       448   06 Jun 2027 13:13:18.231   06 Jun 2027 13:13:54.463            36.232               CapeTown          1132.250
       449   06 Jun 2027 13:29:10.955   06 Jun 2027 13:29:15.563             4.608              Murmansk1           144.000
       450   06 Jun 2027 13:29:46.952   06 Jun 2027 13:31:37.327           110.375              Murmansk1          3449.219
       451   06 Jun 2027 13:33:49.816   06 Jun 2027 13:34:15.480            25.664              Murmansk1           802.000
       452   06 Jun 2027 13:37:44.786   06 Jun 2027 13:38:27.801            43.015              Murmansk1          1344.219
       453   06 Jun 2027 13:39:34.737   06 Jun 2027 13:40:07.951            33.214              Murmansk1          1037.937
       454   06 Jun 2027 13:42:25.976   06 Jun 2027 13:45:37.717           191.741                Anadyr2          5991.906
       455   06 Jun 2027 13:50:27.448   06 Jun 2027 13:50:52.875            25.427                Anadyr2           794.594
       456   06 Jun 2027 13:51:20.815   06 Jun 2027 13:51:58.445            37.630                Anadyr1          1175.937
       457   06 Jun 2027 15:09:16.394   06 Jun 2027 15:09:48.031            31.637              Murmansk2           988.656
       458   06 Jun 2027 15:09:54.887   06 Jun 2027 15:10:04.534             9.647              Murmansk1           301.469
       459   06 Jun 2027 15:12:00.081   06 Jun 2027 15:12:26.770            26.689              Murmansk1           834.031
       460   06 Jun 2027 15:14:57.516   06 Jun 2027 15:15:33.172            35.656              Murmansk2          1114.250
       461   06 Jun 2027 15:18:07.564   06 Jun 2027 15:19:32.337            84.773                Anadyr2          2649.156
       462   06 Jun 2027 15:20:05.548   06 Jun 2027 15:20:30.524            24.976                Anadyr1           780.500
       463   06 Jun 2027 15:21:05.586   06 Jun 2027 15:24:58.164           232.578               Magadan2          7268.062
       464   06 Jun 2027 15:26:28.905   06 Jun 2027 15:27:04.116            35.211               Magadan1          1100.344
       465   06 Jun 2027 16:54:02.876   06 Jun 2027 16:55:30.407            87.531                Anadyr1          2735.344
       466   06 Jun 2027 16:56:21.067   06 Jun 2027 16:57:40.882            79.815               Magadan2          2494.219
       467   06 Jun 2027 16:58:38.864   06 Jun 2027 16:59:24.124            45.260               Magadan2          1414.375
       468   06 Jun 2027 16:59:57.794   06 Jun 2027 17:00:18.188            20.394               Magadan2           637.313
       469   06 Jun 2027 17:02:38.320   06 Jun 2027 17:03:18.407            40.087               Magadan2          1252.719
       470   06 Jun 2027 17:06:16.578   06 Jun 2027 17:06:45.937            29.359               Magadan1           917.469
       471   06 Jun 2027 17:49:43.074   06 Jun 2027 17:52:50.945           187.871            RioGallegos          5870.969
       472   06 Jun 2027 17:56:06.479   06 Jun 2027 17:56:36.595            30.116            RioGallegos           941.125
       473   06 Jun 2027 17:56:44.648   06 Jun 2027 17:56:46.997             2.349            RioGallegos            73.406
       474   06 Jun 2027 18:31:15.093   06 Jun 2027 18:31:54.212            39.119                Anadyr2          1222.469
       475   06 Jun 2027 18:32:00.346   06 Jun 2027 18:36:11.346           251.000                Norilsk          7843.750
       476   06 Jun 2027 18:36:43.048   06 Jun 2027 18:37:33.393            50.345                Irkutsk          1573.281
       477   06 Jun 2027 18:39:22.596   06 Jun 2027 18:40:23.436            60.840                Irkutsk          1901.250
       478   06 Jun 2027 18:42:40.679   06 Jun 2027 18:44:04.902            84.223                Irkutsk          2631.969
       479   06 Jun 2027 18:51:16.447   06 Jun 2027 18:54:09.841           173.394                Sumatra          5418.563
       480   06 Jun 2027 18:55:43.910   06 Jun 2027 18:56:44.982            61.072                Sumatra          1908.500
       481   06 Jun 2027 18:57:53.095   06 Jun 2027 18:59:04.232            71.137                Sumatra          2223.031
       482   06 Jun 2027 20:13:24.905   06 Jun 2027 20:13:50.067            25.162                Novosib           786.313
