uniorb/output/strategy_4/Drop/Drop_KinoSat_110608.txt

KinoSat_110608
-------------------------
    Access    *     Start Time (UTCG)     *     Stop Time (UTCG)  *   Duration (s)        *       Station  *  Data (Mbytes)
         1   01 Jun 2027 03:16:14.608   01 Jun 2027 03:16:26.047            11.439               Magadan2           357.469
         2   01 Jun 2027 03:16:33.932   01 Jun 2027 03:17:18.269            44.337               Magadan2          1385.531
         3   01 Jun 2027 03:17:18.269   01 Jun 2027 03:18:23.118            64.849               Magadan1          2026.531
         4   01 Jun 2027 03:18:30.523   01 Jun 2027 03:19:49.921            79.398               Magadan1          2481.188
         5   01 Jun 2027 03:19:49.921   01 Jun 2027 03:20:51.089            61.168               Magadan2          1911.500
         6   01 Jun 2027 03:21:07.416   01 Jun 2027 03:21:13.713             6.297                Anadyr1           196.781
         7   01 Jun 2027 03:21:13.713   01 Jun 2027 03:21:47.344            33.631                Anadyr2          1050.969
         8   01 Jun 2027 04:50:29.232   01 Jun 2027 04:50:35.350             6.118               Magadan1           191.188
         9   01 Jun 2027 04:50:44.825   01 Jun 2027 04:51:16.091            31.266               Magadan2           977.062
        10   01 Jun 2027 04:51:16.091   01 Jun 2027 04:52:21.077            64.986               Magadan1          2030.812
        11   01 Jun 2027 04:52:29.845   01 Jun 2027 04:54:30.482           120.637               Magadan1          3769.906
        12   01 Jun 2027 04:54:35.835   01 Jun 2027 04:55:29.141            53.306               Magadan1          1665.812
        13   01 Jun 2027 04:55:38.655   01 Jun 2027 04:56:14.753            36.098               Magadan1          1128.062
        14   01 Jun 2027 04:56:14.753   01 Jun 2027 04:56:17.878             3.125               Magadan2            97.656
        15   01 Jun 2027 04:56:23.844   01 Jun 2027 04:56:31.341             7.497               Magadan2           234.281
        16   01 Jun 2027 04:56:43.168   01 Jun 2027 04:56:57.512            14.344                Irkutsk           448.250
        17   01 Jun 2027 04:56:57.872   01 Jun 2027 04:57:18.073            20.201               Magadan2           631.281
        18   01 Jun 2027 04:57:20.278   01 Jun 2027 04:57:28.891             8.613              Murmansk1           269.156
        19   01 Jun 2027 04:57:28.891   01 Jun 2027 04:58:03.210            34.319              Murmansk2          1072.469
        20   01 Jun 2027 04:58:13.594   01 Jun 2027 04:59:24.190            70.596                Norilsk          2206.125
        21   01 Jun 2027 05:32:19.893   01 Jun 2027 05:33:53.655            93.762            RioGallegos          2930.063
        22   01 Jun 2027 05:34:35.389   01 Jun 2027 05:35:11.067            35.678            RioGallegos          1114.938
        23   01 Jun 2027 06:09:16.141   01 Jun 2027 06:11:48.967           152.826                Sumatra          4775.812
        24   01 Jun 2027 06:14:03.508   01 Jun 2027 06:15:51.264           107.756                Sumatra          3367.375
        25   01 Jun 2027 06:28:04.534   01 Jun 2027 06:30:08.554           124.020               Magadan1          3875.625
        26   01 Jun 2027 06:30:16.562   01 Jun 2027 06:30:34.197            17.635               Magadan1           551.094
        27   01 Jun 2027 06:30:43.963   01 Jun 2027 06:31:51.133            67.170                Irkutsk          2099.063
        28   01 Jun 2027 06:31:55.895   01 Jun 2027 06:33:15.819            79.924                Norilsk          2497.625
        29   01 Jun 2027 06:33:25.740   01 Jun 2027 06:33:31.191             5.451              Murmansk1           170.344
        30   01 Jun 2027 06:33:54.215   01 Jun 2027 06:34:28.252            34.037              Murmansk1          1063.656
        31   01 Jun 2027 06:34:28.541   01 Jun 2027 06:34:32.207             3.666                Norilsk           114.562
        32   01 Jun 2027 07:08:32.023   01 Jun 2027 07:09:03.892            31.869            RioGallegos           995.906
        33   01 Jun 2027 07:10:38.980   01 Jun 2027 07:11:16.622            37.642            RioGallegos          1176.312
        34   01 Jun 2027 07:42:57.128   01 Jun 2027 07:44:39.225           102.097                Sumatra          3190.531
        35   01 Jun 2027 07:46:29.436   01 Jun 2027 07:46:57.305            27.869                Sumatra           870.906
        36   01 Jun 2027 07:52:08.079   01 Jun 2027 07:53:36.780            88.701                  Delhi          2771.906
        37   01 Jun 2027 07:53:43.972   01 Jun 2027 07:55:37.086           113.114                  Delhi          3534.812
        38   01 Jun 2027 08:05:33.596   01 Jun 2027 08:05:41.810             8.214                Novosib           256.688
        39   01 Jun 2027 08:06:05.041   01 Jun 2027 08:06:32.849            27.808                Norilsk           869.000
        40   01 Jun 2027 08:06:38.852   01 Jun 2027 08:08:23.542           104.690              Murmansk2          3271.563
        41   01 Jun 2027 08:08:28.407   01 Jun 2027 08:09:11.290            42.883              Murmansk1          1340.094
        42   01 Jun 2027 08:09:16.662   01 Jun 2027 08:09:49.376            32.714                Novosib          1022.313
        43   01 Jun 2027 09:27:32.397   01 Jun 2027 09:28:20.483            48.086                  Delhi          1502.688
        44   01 Jun 2027 09:29:54.189   01 Jun 2027 09:31:16.865            82.676                  Delhi          2583.625
        45   01 Jun 2027 09:42:13.370   01 Jun 2027 09:42:24.061            10.691                Novosib           334.094
        46   01 Jun 2027 09:43:10.631   01 Jun 2027 09:44:24.328            73.697              Murmansk1          2303.031
        47   01 Jun 2027 09:44:24.328   01 Jun 2027 09:45:28.258            63.930              Murmansk2          1997.813
        48   01 Jun 2027 09:45:28.780   01 Jun 2027 09:46:06.035            37.255                Novosib          1164.219
        49   01 Jun 2027 09:46:36.446   01 Jun 2027 09:48:53.022           136.576                Norilsk          4268.000
        50   01 Jun 2027 09:51:04.844   01 Jun 2027 09:51:55.303            50.459              Murmansk2          1576.844
        51   01 Jun 2027 11:18:59.165   01 Jun 2027 11:19:02.985             3.820                 Moscow           119.375
        52   01 Jun 2027 11:19:19.824   01 Jun 2027 11:23:32.084           252.260              Murmansk2          7883.125
        53   01 Jun 2027 11:24:04.680   01 Jun 2027 11:24:27.771            23.091              Murmansk2           721.594
        54   01 Jun 2027 12:25:30.394   01 Jun 2027 12:29:24.341           233.947               CapeTown          7310.844
        55   01 Jun 2027 12:52:27.583   01 Jun 2027 12:54:12.062           104.479              Murmansk2          3264.969
        56   01 Jun 2027 12:55:49.225   01 Jun 2027 12:56:48.216            58.991              Murmansk1          1843.469
        57   01 Jun 2027 12:58:09.515   01 Jun 2027 12:58:33.736            24.221              Murmansk2           756.906
        58   01 Jun 2027 13:05:49.559   01 Jun 2027 13:07:49.392           119.833                Anadyr2          3744.781
        59   01 Jun 2027 13:08:02.556   01 Jun 2027 13:12:02.060           239.504                Anadyr1          7484.500
        60   01 Jun 2027 13:13:58.943   01 Jun 2027 13:15:21.803            82.860                Anadyr1          2589.375
        61   01 Jun 2027 14:41:29.954   01 Jun 2027 14:42:42.974            73.020                Anadyr2          2281.875
        62   01 Jun 2027 14:42:53.838   01 Jun 2027 14:43:44.263            50.425                Anadyr1          1575.781
        63   01 Jun 2027 14:44:06.582   01 Jun 2027 14:44:28.466            21.884                Anadyr1           683.875
        64   01 Jun 2027 14:44:31.304   01 Jun 2027 14:50:37.507           366.203               Magadan1         11443.844
        65   01 Jun 2027 14:50:37.507   01 Jun 2027 14:53:50.298           192.791               Magadan2          6024.719
        66   01 Jun 2027 16:19:43.777   01 Jun 2027 16:20:35.131            51.354               Magadan1          1604.813
        67   01 Jun 2027 16:29:18.275   01 Jun 2027 16:29:58.900            40.625               Magadan2          1269.531
        68   01 Jun 2027 17:13:16.373   01 Jun 2027 17:19:50.836           394.463            RioGallegos         12326.969
        69   01 Jun 2027 17:57:02.662   01 Jun 2027 18:03:32.095           389.433                Norilsk         12169.781
        70   01 Jun 2027 18:03:53.634   01 Jun 2027 18:07:55.528           241.894                Irkutsk          7559.188
        71   01 Jun 2027 18:14:51.374   01 Jun 2027 18:23:20.152           508.778                Sumatra         15899.313
        72   01 Jun 2027 19:39:38.113   01 Jun 2027 19:39:44.222             6.109                Novosib           190.906
        73   01 Jun 2027 19:45:07.772   01 Jun 2027 19:52:01.235           413.463                  Delhi         12920.719
        74   01 Jun 2027 21:10:01.743   01 Jun 2027 21:15:51.263           349.520              Murmansk1         10922.500
        75   01 Jun 2027 22:48:43.475   01 Jun 2027 22:49:19.936            36.461              Murmansk2          1139.406
        76   01 Jun 2027 22:52:21.520   01 Jun 2027 22:52:26.453             4.933              Murmansk1           154.156
        77   01 Jun 2027 22:57:00.235   01 Jun 2027 22:57:23.445            23.210                 Moscow           725.312
        78   01 Jun 2027 23:16:37.609   01 Jun 2027 23:22:29.061           351.452               CapeTown         10982.875
        79   02 Jun 2027 01:45:59.830   02 Jun 2027 01:47:12.254            72.424               Magadan2          2263.250
        80   02 Jun 2027 01:47:12.254   02 Jun 2027 01:47:28.191            15.937               Magadan1           498.031
        81   02 Jun 2027 01:47:38.239   02 Jun 2027 01:48:01.657            23.418               Magadan1           731.812
        82   02 Jun 2027 01:56:45.903   02 Jun 2027 01:57:04.092            18.189               Magadan2           568.406
        83   02 Jun 2027 01:57:12.470   02 Jun 2027 01:58:39.980            87.510              Murmansk2          2734.687
        84   02 Jun 2027 02:00:39.248   02 Jun 2027 02:01:32.773            53.525                 Moscow          1672.656
        85   02 Jun 2027 02:02:11.663   02 Jun 2027 02:02:20.301             8.638                 Moscow           269.938
        86   02 Jun 2027 02:04:41.365   02 Jun 2027 02:05:04.911            23.546                 Moscow           735.812
        87   02 Jun 2027 02:09:31.298   02 Jun 2027 02:10:18.049            46.751                 Moscow          1460.969
        88   02 Jun 2027 02:29:20.763   02 Jun 2027 02:30:07.056            46.293               CapeTown          1446.656
        89   02 Jun 2027 03:25:27.947   02 Jun 2027 03:27:00.357            92.410                Anadyr1          2887.813
        90   02 Jun 2027 03:27:23.435   02 Jun 2027 03:27:46.589            23.154                Anadyr2           723.563
        91   02 Jun 2027 03:28:04.478   02 Jun 2027 03:28:31.396            26.918               Magadan1           841.187
        92   02 Jun 2027 03:28:35.712   02 Jun 2027 03:30:54.771           139.059                Anadyr2          4345.594
        93   02 Jun 2027 03:30:54.771   02 Jun 2027 03:30:59.483             4.712                Anadyr1           147.250
        94   02 Jun 2027 03:31:33.310   02 Jun 2027 03:32:29.836            56.526               Magadan2          1766.437
        95   02 Jun 2027 03:32:29.836   02 Jun 2027 03:33:39.289            69.453               Magadan1          2170.406
        96   02 Jun 2027 04:16:13.791   02 Jun 2027 04:17:24.806            71.015            RioGallegos          2219.219
        97   02 Jun 2027 05:04:06.127   02 Jun 2027 05:04:46.465            40.338                Irkutsk          1260.562
        98   02 Jun 2027 05:04:50.970   02 Jun 2027 05:05:43.825            52.855                Anadyr1          1651.719
        99   02 Jun 2027 05:05:49.743   02 Jun 2027 05:06:43.762            54.019                Anadyr2          1688.094
       100   02 Jun 2027 05:06:43.762   02 Jun 2027 05:07:18.836            35.074                Anadyr1          1096.063
       101   02 Jun 2027 05:07:27.787   02 Jun 2027 05:07:37.378             9.591                Anadyr2           299.719
       102   02 Jun 2027 05:07:38.395   02 Jun 2027 05:08:02.206            23.811               Magadan1           744.094
       103   02 Jun 2027 05:08:02.206   02 Jun 2027 05:08:05.258             3.052               Magadan2            95.375
       104   02 Jun 2027 05:08:06.952   02 Jun 2027 05:08:17.158            10.206               Magadan2           318.937
       105   02 Jun 2027 05:08:52.417   02 Jun 2027 05:09:13.662            21.245               Magadan2           663.906
       106   02 Jun 2027 06:42:02.068   02 Jun 2027 06:42:37.290            35.222                Irkutsk          1100.687
       107   02 Jun 2027 06:43:01.674   02 Jun 2027 06:45:21.692           140.018                Irkutsk          4375.562
       108   02 Jun 2027 06:45:45.786   02 Jun 2027 06:46:15.266            29.480                Novosib           921.250
       109   02 Jun 2027 08:18:19.506   02 Jun 2027 08:19:23.037            63.531                Irkutsk          1985.344
       110   02 Jun 2027 08:19:55.299   02 Jun 2027 08:20:15.756            20.457                Irkutsk           639.281
       111   02 Jun 2027 08:20:25.566   02 Jun 2027 08:20:31.826             6.260                Irkutsk           195.625
       112   02 Jun 2027 08:21:05.789   02 Jun 2027 08:22:48.936           103.147                Novosib          3223.344
       113   02 Jun 2027 08:23:38.444   02 Jun 2027 08:23:45.290             6.846                 Moscow           213.937
       114   02 Jun 2027 09:44:22.697   02 Jun 2027 09:46:06.473           103.776                  Delhi          3243.000
       115   02 Jun 2027 09:53:40.529   02 Jun 2027 09:53:40.928             0.399              Murmansk2            12.469
       116   02 Jun 2027 09:53:44.750   02 Jun 2027 09:54:20.876            36.126              Murmansk2          1128.937
       117   02 Jun 2027 09:54:45.022   02 Jun 2027 09:55:11.516            26.494              Murmansk2           827.938
       118   02 Jun 2027 09:57:03.614   02 Jun 2027 09:57:37.026            33.412                Norilsk          1044.125
       119   02 Jun 2027 11:34:42.066   02 Jun 2027 11:34:55.911            13.845              Murmansk1           432.656
       120   02 Jun 2027 11:43:45.785   02 Jun 2027 11:46:48.012           182.227                Anadyr2          5694.594
       121   02 Jun 2027 13:04:49.721   02 Jun 2027 13:05:30.316            40.595              Murmansk1          1268.594
       122   02 Jun 2027 13:06:12.902   02 Jun 2027 13:06:27.679            14.777              Murmansk2           461.781
       123   02 Jun 2027 13:06:54.158   02 Jun 2027 13:07:20.003            25.845              Murmansk1           807.656
       124   02 Jun 2027 13:08:49.821   02 Jun 2027 13:09:20.139            30.318              Murmansk1           947.437
       125   02 Jun 2027 13:10:03.564   02 Jun 2027 13:10:33.127            29.563              Murmansk2           923.844
       126   02 Jun 2027 13:17:46.783   02 Jun 2027 13:19:33.414           106.631                Anadyr1          3332.219
       127   02 Jun 2027 13:19:43.799   02 Jun 2027 13:24:21.321           277.522                Anadyr2          8672.562
       128   02 Jun 2027 14:53:30.953   02 Jun 2027 14:56:03.078           152.125                Anadyr2          4753.906
       129   02 Jun 2027 14:56:21.531   02 Jun 2027 14:56:29.654             8.123                Anadyr1           253.844
       130   02 Jun 2027 14:56:49.353   02 Jun 2027 14:57:18.323            28.970                Anadyr2           905.313
       131   02 Jun 2027 14:57:59.366   02 Jun 2027 15:02:26.671           267.305               Magadan1          8353.281
       132   02 Jun 2027 15:02:39.268   02 Jun 2027 15:06:25.721           226.453               Magadan1          7076.656
       133   02 Jun 2027 16:31:43.781   02 Jun 2027 16:33:05.047            81.266               Magadan1          2539.562
       134   02 Jun 2027 17:24:44.091   02 Jun 2027 17:32:00.970           436.879            RioGallegos         13652.469
       135   02 Jun 2027 18:09:29.922   02 Jun 2027 18:12:49.290           199.368                Norilsk          6230.250
       136   02 Jun 2027 18:13:10.769   02 Jun 2027 18:15:07.135           116.366                Irkutsk          3636.437
       137   02 Jun 2027 18:15:27.301   02 Jun 2027 18:18:00.239           152.938                Irkutsk          4779.313
       138   02 Jun 2027 18:29:18.288   02 Jun 2027 18:33:29.743           251.455                Sumatra          7857.969
       139   02 Jun 2027 19:47:31.156   02 Jun 2027 19:48:36.157            65.001                Novosib          2031.281
       140   02 Jun 2027 19:51:01.953   02 Jun 2027 19:51:19.806            17.853                Novosib           557.906
       141   02 Jun 2027 19:56:16.463   02 Jun 2027 20:05:04.255           527.792                  Delhi         16493.500
       142   02 Jun 2027 21:21:51.995   02 Jun 2027 21:28:40.034           408.039              Murmansk2         12751.219
       143   02 Jun 2027 23:09:27.530   02 Jun 2027 23:10:26.706            59.176                 Moscow          1849.250
       144   02 Jun 2027 23:26:43.896   02 Jun 2027 23:28:53.531           129.635               CapeTown          4051.094
       145   02 Jun 2027 23:30:42.712   02 Jun 2027 23:33:17.634           154.922               CapeTown          4841.313
       146   03 Jun 2027 01:09:30.727   03 Jun 2027 01:09:56.542            25.815               CapeTown           806.719
       147   03 Jun 2027 01:57:44.691   03 Jun 2027 01:59:05.796            81.105               Magadan2          2534.531
       148   03 Jun 2027 01:59:05.796   03 Jun 2027 01:59:11.095             5.299               Magadan1           165.594
       149   03 Jun 2027 01:59:29.873   03 Jun 2027 02:00:04.268            34.395               Magadan1          1074.844
       150   03 Jun 2027 02:04:07.098   03 Jun 2027 02:04:08.914             1.816               Magadan2            56.750
       151   03 Jun 2027 02:05:19.021   03 Jun 2027 02:05:45.777            26.756               Magadan2           836.125
       152   03 Jun 2027 02:07:38.775   03 Jun 2027 02:08:01.400            22.625                Norilsk           707.031
       153   03 Jun 2027 02:09:13.137   03 Jun 2027 02:10:21.182            68.045              Murmansk2          2126.406
       154   03 Jun 2027 02:11:22.095   03 Jun 2027 02:11:25.224             3.129              Murmansk1            97.781
       155   03 Jun 2027 02:12:00.329   03 Jun 2027 02:12:22.729            22.400              Murmansk2           700.000
       156   03 Jun 2027 02:12:44.649   03 Jun 2027 02:13:34.227            49.578                 Moscow          1549.313
       157   03 Jun 2027 02:18:20.902   03 Jun 2027 02:19:03.677            42.775                 Moscow          1336.719
       158   03 Jun 2027 03:32:46.744   03 Jun 2027 03:32:50.090             3.346               Magadan2           104.563
       159   03 Jun 2027 03:33:54.690   03 Jun 2027 03:34:37.067            42.377               Magadan2          1324.281
       160   03 Jun 2027 03:34:49.690   03 Jun 2027 03:35:13.846            24.156               Magadan2           754.875
       161   03 Jun 2027 03:35:16.004   03 Jun 2027 03:36:04.940            48.936               Magadan2          1529.250
       162   03 Jun 2027 03:39:28.892   03 Jun 2027 03:40:08.112            39.220               Magadan2          1225.625
       163   03 Jun 2027 03:40:15.005   03 Jun 2027 03:41:25.557            70.552                Anadyr2          2204.750
       164   03 Jun 2027 03:41:25.557   03 Jun 2027 03:42:55.607            90.050                Anadyr1          2814.063
       165   03 Jun 2027 03:43:00.544   03 Jun 2027 03:43:50.753            50.209                Anadyr1          1569.031
       166   03 Jun 2027 03:44:42.820   03 Jun 2027 03:45:06.030            23.210                Anadyr1           725.313
       167   03 Jun 2027 04:26:54.516   03 Jun 2027 04:27:24.178            29.662            RioGallegos           926.938
       168   03 Jun 2027 04:27:34.925   03 Jun 2027 04:27:39.044             4.119            RioGallegos           128.719
       169   03 Jun 2027 05:16:32.532   03 Jun 2027 05:17:30.281            57.749                Irkutsk          1804.656
       170   03 Jun 2027 05:18:20.783   03 Jun 2027 05:18:42.677            21.894                Irkutsk           684.188
       171   03 Jun 2027 05:19:14.841   03 Jun 2027 05:20:16.120            61.279                Irkutsk          1914.969
       172   03 Jun 2027 05:20:19.380   03 Jun 2027 05:20:23.629             4.249               Magadan1           132.781
       173   03 Jun 2027 05:20:26.194   03 Jun 2027 05:21:07.729            41.535               Magadan1          1297.969
       174   03 Jun 2027 06:55:43.440   03 Jun 2027 06:56:11.699            28.259                Novosib           883.094
       175   03 Jun 2027 06:58:02.961   03 Jun 2027 06:58:16.849            13.888                Norilsk           434.000
       176   03 Jun 2027 07:38:26.199   03 Jun 2027 07:38:37.330            11.131            RioGallegos           347.844
       177   03 Jun 2027 08:11:32.682   03 Jun 2027 08:11:53.249            20.567                Sumatra           642.719
       178   03 Jun 2027 08:29:47.893   03 Jun 2027 08:30:07.100            19.207              Murmansk2           600.219
       179   03 Jun 2027 08:30:18.638   03 Jun 2027 08:30:33.119            14.481              Murmansk2           452.531
       180   03 Jun 2027 08:30:39.460   03 Jun 2027 08:30:55.270            15.810              Murmansk2           494.063
       181   03 Jun 2027 08:31:59.399   03 Jun 2027 08:32:02.980             3.581                Irkutsk           111.906
       182   03 Jun 2027 08:33:13.723   03 Jun 2027 08:33:18.321             4.598                Norilsk           143.688
       183   03 Jun 2027 09:55:15.950   03 Jun 2027 09:56:47.071            91.121                  Delhi          2847.531
       184   03 Jun 2027 09:57:54.097   03 Jun 2027 09:59:18.611            84.514                  Delhi          2641.062
       185   03 Jun 2027 10:05:04.802   03 Jun 2027 10:05:28.055            23.253                Novosib           726.656
       186   03 Jun 2027 10:06:21.583   03 Jun 2027 10:06:36.789            15.206              Murmansk1           475.188
       187   03 Jun 2027 10:09:11.798   03 Jun 2027 10:09:25.704            13.906                Novosib           434.562
       188   03 Jun 2027 13:15:07.140   03 Jun 2027 13:16:09.114            61.974                 Moscow          1936.687
       189   03 Jun 2027 13:17:07.027   03 Jun 2027 13:17:21.732            14.705                 Moscow           459.531
       190   03 Jun 2027 13:17:25.255   03 Jun 2027 13:18:13.411            48.156              Murmansk1          1504.875
       191   03 Jun 2027 13:19:21.614   03 Jun 2027 13:19:41.452            19.838              Murmansk1           619.938
       192   03 Jun 2027 13:31:58.855   03 Jun 2027 13:32:02.850             3.995                Anadyr1           124.844
       193   03 Jun 2027 13:33:07.129   03 Jun 2027 13:34:03.337            56.208                Anadyr1          1756.500
       194   03 Jun 2027 13:36:18.292   03 Jun 2027 13:36:37.961            19.669                Anadyr2           614.656
       195   03 Jun 2027 13:36:56.103   03 Jun 2027 13:37:22.890            26.787                Anadyr2           837.094
       196   03 Jun 2027 13:38:20.520   03 Jun 2027 13:38:32.692            12.172                Anadyr1           380.375
       197   03 Jun 2027 13:39:18.448   03 Jun 2027 13:39:36.324            17.876                Anadyr1           558.625
       198   03 Jun 2027 13:39:36.324   03 Jun 2027 13:40:50.234            73.910                Anadyr2          2309.688
       199   03 Jun 2027 14:25:37.460   03 Jun 2027 14:26:02.303            24.843               CapeTown           776.344
       200   03 Jun 2027 14:29:53.413   03 Jun 2027 14:30:25.747            32.334               CapeTown          1010.437
       201   03 Jun 2027 14:34:32.702   03 Jun 2027 14:34:39.043             6.341               CapeTown           198.156
       202   03 Jun 2027 14:58:10.356   03 Jun 2027 15:00:46.291           155.935              Murmansk2          4872.969
       203   03 Jun 2027 15:01:01.578   03 Jun 2027 15:01:32.461            30.883              Murmansk2           965.094
       204   03 Jun 2027 15:05:32.094   03 Jun 2027 15:06:42.040            69.946                Anadyr1          2185.813
       205   03 Jun 2027 15:07:57.397   03 Jun 2027 15:08:49.769            52.372                Anadyr2          1636.625
       206   03 Jun 2027 15:08:57.695   03 Jun 2027 15:14:40.047           342.352               Magadan2         10698.500
       207   03 Jun 2027 15:16:13.610   03 Jun 2027 15:18:56.212           162.602               Magadan1          5081.312
       208   03 Jun 2027 16:43:44.261   03 Jun 2027 16:44:00.232            15.971               Magadan1           499.094
       209   03 Jun 2027 16:46:01.772   03 Jun 2027 16:47:07.562            65.790               Magadan2          2055.938
       210   03 Jun 2027 16:47:07.923   03 Jun 2027 16:47:49.358            41.435               Magadan1          1294.844
       211   03 Jun 2027 17:36:21.736   03 Jun 2027 17:42:51.032           389.296            RioGallegos         12165.500
       212   03 Jun 2027 18:19:20.698   03 Jun 2027 18:24:37.442           316.744                Norilsk          9898.250
       213   03 Jun 2027 18:24:41.481   03 Jun 2027 18:25:43.576            62.095                Irkutsk          1940.469
       214   03 Jun 2027 18:27:09.437   03 Jun 2027 18:28:26.532            77.095                Irkutsk          2409.219
       215   03 Jun 2027 18:37:44.755   03 Jun 2027 18:41:24.177           219.422                Sumatra          6856.937
       216   03 Jun 2027 18:43:10.726   03 Jun 2027 18:44:27.674            76.948                Sumatra          2404.625
       217   03 Jun 2027 20:00:49.156   03 Jun 2027 20:03:04.287           135.131                Novosib          4222.844
       218   03 Jun 2027 20:08:57.170   03 Jun 2027 20:14:51.261           354.091                  Delhi         11065.344
       219   03 Jun 2027 21:33:45.480   03 Jun 2027 21:39:26.660           341.180              Murmansk2         10661.875
       220   03 Jun 2027 21:39:40.029   03 Jun 2027 21:41:23.493           103.464              Murmansk1          3233.250
       221   03 Jun 2027 23:12:51.239   03 Jun 2027 23:13:17.024            25.785                 Moscow           805.781
       222   03 Jun 2027 23:37:40.769   03 Jun 2027 23:41:03.558           202.789               CapeTown          6337.156
       223   03 Jun 2027 23:41:15.953   03 Jun 2027 23:43:11.613           115.660               CapeTown          3614.375
       224   03 Jun 2027 23:43:26.581   03 Jun 2027 23:44:24.905            58.324               CapeTown          1822.625
       225   04 Jun 2027 00:53:02.138   04 Jun 2027 00:53:49.350            47.212                 Moscow          1475.375
       226   04 Jun 2027 01:12:42.902   04 Jun 2027 01:13:48.352            65.450               CapeTown          2045.313
       227   04 Jun 2027 01:21:47.936   04 Jun 2027 01:22:31.910            43.974               CapeTown          1374.188
       228   04 Jun 2027 02:09:31.585   04 Jun 2027 02:10:33.309            61.724               Magadan2          1928.875
       229   04 Jun 2027 02:10:33.309   04 Jun 2027 02:11:09.159            35.850               Magadan1          1120.313
       230   04 Jun 2027 02:11:31.283   04 Jun 2027 02:12:06.795            35.512               Magadan1          1109.750
       231   04 Jun 2027 02:17:15.040   04 Jun 2027 02:17:40.217            25.177               Magadan2           786.781
       232   04 Jun 2027 02:20:01.438   04 Jun 2027 02:20:03.744             2.306                Norilsk            72.062
       233   04 Jun 2027 02:20:54.283   04 Jun 2027 02:21:03.571             9.288                Norilsk           290.250
       234   04 Jun 2027 02:21:13.551   04 Jun 2027 02:21:54.699            41.148              Murmansk1          1285.875
       235   04 Jun 2027 02:22:38.730   04 Jun 2027 02:23:29.514            50.784              Murmansk2          1587.000
       236   04 Jun 2027 02:24:50.636   04 Jun 2027 02:25:35.560            44.924                 Moscow          1403.875
       237   04 Jun 2027 02:28:18.763   04 Jun 2027 02:29:03.498            44.735                 Moscow          1397.969
       238   04 Jun 2027 03:44:51.971   04 Jun 2027 03:45:04.347            12.376               Magadan2           386.750
       239   04 Jun 2027 03:45:28.590   04 Jun 2027 03:45:53.799            25.209               Magadan2           787.781
       240   04 Jun 2027 03:46:05.918   04 Jun 2027 03:46:23.230            17.312               Magadan2           541.000
       241   04 Jun 2027 03:46:39.905   04 Jun 2027 03:46:53.484            13.579               Magadan2           424.344
       242   04 Jun 2027 03:48:07.158   04 Jun 2027 03:48:53.110            45.952                Anadyr1          1436.000
       243   04 Jun 2027 03:51:56.434   04 Jun 2027 03:52:09.410            12.976               Magadan1           405.500
       244   04 Jun 2027 03:52:09.410   04 Jun 2027 03:57:40.402           330.992               Magadan2         10343.500
       245   04 Jun 2027 04:37:04.152   04 Jun 2027 04:39:24.753           140.601            RioGallegos          4393.781
       246   04 Jun 2027 04:39:50.427   04 Jun 2027 04:40:36.185            45.758            RioGallegos          1429.937
       247   04 Jun 2027 05:30:26.548   04 Jun 2027 05:32:57.261           150.713               Magadan2          4709.781
       248   04 Jun 2027 07:03:27.528   04 Jun 2027 07:03:57.556            30.028                Irkutsk           938.375
       249   04 Jun 2027 07:04:00.226   04 Jun 2027 07:05:06.766            66.540                Irkutsk          2079.375
       250   04 Jun 2027 07:05:39.443   04 Jun 2027 07:05:39.904             0.461                Novosib            14.406
       251   04 Jun 2027 07:05:45.817   04 Jun 2027 07:06:19.751            33.934                Novosib          1060.438
       252   04 Jun 2027 07:07:25.555   04 Jun 2027 07:07:40.835            15.280                Irkutsk           477.500
       253   04 Jun 2027 07:09:25.081   04 Jun 2027 07:09:41.288            16.207                Norilsk           506.469
       254   04 Jun 2027 07:50:06.199   04 Jun 2027 07:50:24.749            18.550            RioGallegos           579.687
       255   04 Jun 2027 07:51:35.750   04 Jun 2027 07:52:19.903            44.153            RioGallegos          1379.781
       256   04 Jun 2027 08:28:22.964   04 Jun 2027 08:29:37.112            74.148                Sumatra          2317.125
       257   04 Jun 2027 08:42:07.212   04 Jun 2027 08:42:07.491             0.279              Murmansk1             8.719
       258   04 Jun 2027 08:42:20.342   04 Jun 2027 08:42:37.700            17.358              Murmansk1           542.438
       259   04 Jun 2027 08:42:42.737   04 Jun 2027 08:43:36.150            53.413                Novosib          1669.156
       260   04 Jun 2027 08:43:50.942   04 Jun 2027 08:43:51.368             0.426                Novosib            13.312
       261   04 Jun 2027 08:43:58.297   04 Jun 2027 08:43:58.967             0.670                Novosib            20.937
       262   04 Jun 2027 08:45:22.657   04 Jun 2027 08:45:40.617            17.960                Novosib           561.250
       263   04 Jun 2027 10:05:15.175   04 Jun 2027 10:08:28.447           193.272                  Delhi          6039.750
       264   04 Jun 2027 10:18:22.502   04 Jun 2027 10:19:05.784            43.282              Murmansk1          1352.563
       265   04 Jun 2027 10:22:15.581   04 Jun 2027 10:23:09.344            53.763                Norilsk          1680.094
       266   04 Jun 2027 12:06:45.209   04 Jun 2027 12:09:44.249           179.040                Anadyr2          5595.000
       267   04 Jun 2027 12:09:53.972   04 Jun 2027 12:10:32.053            38.081                Anadyr1          1190.031
       268   04 Jun 2027 13:35:33.650   04 Jun 2027 13:35:48.594            14.944              Murmansk2           467.000
       269   04 Jun 2027 13:38:33.846   04 Jun 2027 13:38:47.035            13.189              Murmansk1           412.156
       270   04 Jun 2027 13:39:22.769   04 Jun 2027 13:39:47.753            24.984              Murmansk1           780.750
       271   04 Jun 2027 13:41:43.727   04 Jun 2027 13:43:14.304            90.577                Anadyr2          2830.531
       272   04 Jun 2027 13:43:35.866   04 Jun 2027 13:43:54.377            18.511                Anadyr1           578.469
       273   04 Jun 2027 13:44:10.955   04 Jun 2027 13:45:36.232            85.277                Anadyr1          2664.906
       274   04 Jun 2027 13:47:59.045   04 Jun 2027 13:48:52.117            53.072                Anadyr2          1658.500
       275   04 Jun 2027 13:50:21.736   04 Jun 2027 13:50:33.804            12.068                Anadyr2           377.125
       276   04 Jun 2027 15:11:20.363   04 Jun 2027 15:14:25.434           185.071              Murmansk2          5783.469
       277   04 Jun 2027 15:17:33.342   04 Jun 2027 15:18:42.219            68.877                Anadyr1          2152.406
       278   04 Jun 2027 15:19:30.119   04 Jun 2027 15:19:51.033            20.914                Anadyr2           653.562
       279   04 Jun 2027 15:20:09.005   04 Jun 2027 15:22:21.940           132.935               Magadan1          4154.219
       280   04 Jun 2027 15:23:48.453   04 Jun 2027 15:25:45.356           116.903               Magadan1          3653.219
       281   04 Jun 2027 15:25:58.757   04 Jun 2027 15:26:57.333            58.576               Magadan2          1830.500
       282   04 Jun 2027 15:28:36.167   04 Jun 2027 15:29:22.745            46.578               Magadan2          1455.562
       283   04 Jun 2027 16:53:27.973   04 Jun 2027 16:53:52.755            24.782                Anadyr2           774.438
       284   04 Jun 2027 16:55:04.711   04 Jun 2027 16:55:55.394            50.683                Anadyr1          1583.844
       285   04 Jun 2027 16:56:30.099   04 Jun 2027 16:56:46.874            16.775                Norilsk           524.219
       286   04 Jun 2027 16:56:53.249   04 Jun 2027 16:56:59.709             6.460               Magadan1           201.875
       287   04 Jun 2027 16:57:51.948   04 Jun 2027 16:59:26.637            94.689               Magadan1          2959.031
       288   04 Jun 2027 17:04:12.327   04 Jun 2027 17:04:17.659             5.332               Magadan2           166.625
       289   04 Jun 2027 17:04:42.366   04 Jun 2027 17:07:17.110           154.744               Magadan1          4835.750
       290   04 Jun 2027 17:48:05.371   04 Jun 2027 17:49:15.465            70.094            RioGallegos          2190.438
       291   04 Jun 2027 17:49:42.979   04 Jun 2027 17:51:14.625            91.646            RioGallegos          2863.938
       292   04 Jun 2027 17:51:28.921   04 Jun 2027 17:54:13.919           164.998            RioGallegos          5156.188
       293   04 Jun 2027 18:32:27.125   04 Jun 2027 18:33:45.673            78.548                Norilsk          2454.625
       294   04 Jun 2027 18:35:14.086   04 Jun 2027 18:36:43.131            89.045                Norilsk          2782.656
       295   04 Jun 2027 18:37:48.645   04 Jun 2027 18:38:25.011            36.366                Irkutsk          1136.437
       296   04 Jun 2027 18:39:10.635   04 Jun 2027 18:41:38.992           148.357                Novosib          4636.156
       297   04 Jun 2027 18:49:24.927   04 Jun 2027 18:51:00.670            95.743                Sumatra          2991.969
       298   04 Jun 2027 18:53:24.339   04 Jun 2027 18:55:06.756           102.417                Sumatra          3200.531
       299   04 Jun 2027 20:11:19.568   04 Jun 2027 20:11:33.159            13.591                Novosib           424.719
       300   04 Jun 2027 20:12:34.121   04 Jun 2027 20:13:27.674            53.553                Novosib          1673.531
       301   04 Jun 2027 20:18:05.333   04 Jun 2027 20:18:37.697            32.364                Novosib          1011.375
       302   04 Jun 2027 20:19:16.779   04 Jun 2027 20:22:56.217           219.438                  Delhi          6857.438
       303   04 Jun 2027 20:23:38.224   04 Jun 2027 20:25:51.466           133.242                  Delhi          4163.812
       304   04 Jun 2027 21:45:41.089   04 Jun 2027 21:46:13.684            32.595              Murmansk1          1018.594
       305   04 Jun 2027 21:46:13.684   04 Jun 2027 21:49:55.547           221.863              Murmansk2          6933.219
       306   04 Jun 2027 21:49:55.547   04 Jun 2027 21:54:02.767           247.220              Murmansk1          7725.625
       307   04 Jun 2027 21:55:39.050   04 Jun 2027 21:56:25.748            46.698                 Moscow          1459.312
       308   04 Jun 2027 23:24:47.435   04 Jun 2027 23:25:45.216            57.781                 Moscow          1805.656
       309   04 Jun 2027 23:31:41.800   04 Jun 2027 23:32:15.004            33.204                 Moscow          1037.625
       310   04 Jun 2027 23:35:55.170   04 Jun 2027 23:36:48.539            53.369                 Moscow          1667.781
       311   04 Jun 2027 23:49:16.843   04 Jun 2027 23:50:59.560           102.717               CapeTown          3209.906
       312   04 Jun 2027 23:52:57.224   04 Jun 2027 23:53:46.094            48.870               CapeTown          1527.187
       313   05 Jun 2027 00:57:21.026   05 Jun 2027 00:58:26.124            65.098              Murmansk1          2034.313
       314   05 Jun 2027 01:00:34.444   05 Jun 2027 01:03:33.049           178.605                 Moscow          5581.406
       315   05 Jun 2027 01:25:01.675   05 Jun 2027 01:25:39.153            37.478               CapeTown          1171.188
       316   05 Jun 2027 02:21:20.564   05 Jun 2027 02:24:09.208           168.644               Magadan2          5270.125
       317   05 Jun 2027 02:26:14.718   05 Jun 2027 02:26:34.648            19.930               Magadan1           622.812
       318   05 Jun 2027 02:28:24.616   05 Jun 2027 02:28:36.269            11.653               Magadan1           364.156
       319   05 Jun 2027 02:29:14.247   05 Jun 2027 02:29:29.799            15.552                Norilsk           486.000
       320   05 Jun 2027 02:31:17.704   05 Jun 2027 02:31:38.785            21.081                Norilsk           658.781
       321   05 Jun 2027 02:33:13.677   05 Jun 2027 02:34:27.302            73.625              Murmansk1          2300.781
       322   05 Jun 2027 02:36:57.296   05 Jun 2027 02:38:26.786            89.490                 Moscow          2796.563
       323   05 Jun 2027 02:46:07.923   05 Jun 2027 02:46:20.621            12.698                 Moscow           396.812
       324   05 Jun 2027 03:15:34.827   05 Jun 2027 03:16:33.909            59.082            RioGallegos          1846.313
       325   05 Jun 2027 03:16:43.936   05 Jun 2027 03:17:05.838            21.902            RioGallegos           684.437
       326   05 Jun 2027 03:17:53.463   05 Jun 2027 03:18:38.847            45.384            RioGallegos          1418.250
       327   05 Jun 2027 04:03:44.941   05 Jun 2027 04:09:06.425           321.484                Anadyr2         10046.375
       328   05 Jun 2027 04:47:39.192   05 Jun 2027 04:48:16.010            36.818            RioGallegos          1150.563
       329   05 Jun 2027 05:41:20.962   05 Jun 2027 05:45:22.853           241.891                Irkutsk          7559.094
       330   05 Jun 2027 07:17:47.575   05 Jun 2027 07:18:31.151            43.576                Novosib          1361.750
       331   05 Jun 2027 07:19:00.336   05 Jun 2027 07:19:10.952            10.616              Murmansk1           331.750
       332   05 Jun 2027 07:19:37.689   05 Jun 2027 07:19:45.675             7.986                Irkutsk           249.563
       333   05 Jun 2027 07:22:05.010   05 Jun 2027 07:22:20.866            15.856                Norilsk           495.500
       334   05 Jun 2027 07:23:40.347   05 Jun 2027 07:23:40.903             0.556              Murmansk2            17.375
       335   05 Jun 2027 08:01:23.550   05 Jun 2027 08:01:57.026            33.476            RioGallegos          1046.125
       336   05 Jun 2027 08:04:13.570   05 Jun 2027 08:04:38.277            24.707            RioGallegos           772.094
       337   05 Jun 2027 08:32:40.756   05 Jun 2027 08:34:34.529           113.773                Sumatra          3555.406
       338   05 Jun 2027 08:53:49.016   05 Jun 2027 08:53:55.782             6.766              Murmansk2           211.438
       339   05 Jun 2027 08:54:06.929   05 Jun 2027 08:54:07.735             0.806              Murmansk2            25.187
       340   05 Jun 2027 08:54:14.833   05 Jun 2027 08:54:35.802            20.969              Murmansk2           655.281
       341   05 Jun 2027 08:54:55.641   05 Jun 2027 08:55:38.076            42.435                Novosib          1326.094
       342   05 Jun 2027 08:57:07.271   05 Jun 2027 08:57:24.056            16.785                Novosib           524.531
       343   05 Jun 2027 10:18:19.196   05 Jun 2027 10:21:02.275           163.079                  Delhi          5096.219
       344   05 Jun 2027 10:33:43.953   05 Jun 2027 10:33:59.608            15.655                Norilsk           489.219
       345   05 Jun 2027 12:02:31.318   05 Jun 2027 12:02:40.870             9.552                 Moscow           298.500
       346   05 Jun 2027 12:02:56.915   05 Jun 2027 12:03:19.356            22.441                 Moscow           701.281
       347   05 Jun 2027 12:03:57.541   05 Jun 2027 12:04:23.741            26.200                 Moscow           818.750
       348   05 Jun 2027 12:10:12.419   05 Jun 2027 12:10:38.880            26.461              Murmansk1           826.906
       349   05 Jun 2027 12:10:46.226   05 Jun 2027 12:11:04.787            18.561              Murmansk2           580.031
       350   05 Jun 2027 12:11:34.865   05 Jun 2027 12:11:58.720            23.855              Murmansk2           745.469
       351   05 Jun 2027 12:12:57.028   05 Jun 2027 12:13:20.645            23.617              Murmansk2           738.031
       352   05 Jun 2027 12:18:30.867   05 Jun 2027 12:21:44.343           193.476                Anadyr1          6046.125
       353   05 Jun 2027 13:44:47.459   05 Jun 2027 13:44:55.021             7.562              Murmansk1           236.312
       354   05 Jun 2027 13:45:05.135   05 Jun 2027 13:45:34.027            28.892              Murmansk1           902.875
       355   05 Jun 2027 13:46:44.539   05 Jun 2027 13:47:16.963            32.424              Murmansk1          1013.250
       356   05 Jun 2027 13:48:55.095   05 Jun 2027 13:49:12.035            16.940              Murmansk1           529.375
       357   05 Jun 2027 13:50:21.094   05 Jun 2027 13:50:54.462            33.368              Murmansk1          1042.750
       358   05 Jun 2027 13:50:54.462   05 Jun 2027 13:50:58.086             3.624              Murmansk2           113.250
       359   05 Jun 2027 13:53:43.130   05 Jun 2027 13:55:08.471            85.341                Anadyr2          2666.906
       360   05 Jun 2027 13:55:48.230   05 Jun 2027 13:56:16.948            28.718                Anadyr1           897.438
       361   05 Jun 2027 13:57:36.690   05 Jun 2027 13:58:59.106            82.416                Anadyr2          2575.500
       362   05 Jun 2027 13:59:45.621   05 Jun 2027 14:02:13.907           148.286               Magadan2          4633.937
       363   05 Jun 2027 15:29:34.660   05 Jun 2027 15:31:12.092            97.432                Anadyr1          3044.750
       364   05 Jun 2027 15:31:42.631   05 Jun 2027 15:32:21.435            38.804                Anadyr2          1212.625
       365   05 Jun 2027 15:33:09.331   05 Jun 2027 15:33:29.326            19.995                Anadyr1           624.844
       366   05 Jun 2027 15:33:49.957   05 Jun 2027 15:33:59.260             9.303                Anadyr2           290.719
       367   05 Jun 2027 15:33:59.260   05 Jun 2027 15:34:52.664            53.404                Anadyr1          1668.875
       368   05 Jun 2027 15:35:00.608   05 Jun 2027 15:37:41.792           161.184               Magadan1          5037.000
       369   05 Jun 2027 15:38:08.231   05 Jun 2027 15:39:04.761            56.530               Magadan1          1766.562
       370   05 Jun 2027 15:40:38.601   05 Jun 2027 15:40:46.900             8.299               Magadan2           259.344
       371   05 Jun 2027 17:05:28.486   05 Jun 2027 17:06:37.447            68.961                Anadyr2          2155.031
       372   05 Jun 2027 17:07:46.378   05 Jun 2027 17:09:40.005           113.627               Magadan2          3550.844
       373   05 Jun 2027 17:11:23.022   05 Jun 2027 17:12:35.189            72.167                Norilsk          2255.219
       374   05 Jun 2027 17:59:53.111   05 Jun 2027 18:03:49.401           236.290            RioGallegos          7384.063
       375   05 Jun 2027 18:09:20.067   05 Jun 2027 18:10:23.892            63.825            RioGallegos          1994.531
       376   05 Jun 2027 18:43:20.617   05 Jun 2027 18:44:41.830            81.213                Norilsk          2537.906
       377   05 Jun 2027 18:47:24.627   05 Jun 2027 18:47:44.282            19.655                Norilsk           614.219
       378   05 Jun 2027 18:48:24.606   05 Jun 2027 18:49:51.997            87.391                Irkutsk          2730.969
       379   05 Jun 2027 18:50:24.632   05 Jun 2027 18:50:44.716            20.084                Norilsk           627.625
       380   05 Jun 2027 18:51:13.467   05 Jun 2027 18:55:10.560           237.093                Novosib          7409.156
       381   05 Jun 2027 19:01:40.816   05 Jun 2027 19:02:39.314            58.498                Sumatra          1828.062
       382   05 Jun 2027 19:04:01.996   05 Jun 2027 19:05:19.835            77.839                Sumatra          2432.469
       383   05 Jun 2027 19:11:09.859   05 Jun 2027 19:11:50.760            40.901                Sumatra          1278.156
       384   05 Jun 2027 20:25:44.539   05 Jun 2027 20:27:10.434            85.895                Novosib          2684.219
       385   05 Jun 2027 20:29:55.484   05 Jun 2027 20:30:45.598            50.114                Novosib          1566.062
       386   05 Jun 2027 20:30:58.736   05 Jun 2027 20:34:52.577           233.841                  Delhi          7307.531
       387   05 Jun 2027 20:36:44.358   05 Jun 2027 20:37:03.396            19.038                  Delhi           594.938
       388   05 Jun 2027 21:57:38.178   05 Jun 2027 22:03:08.155           329.977              Murmansk2         10311.781
       389   05 Jun 2027 22:03:09.802   05 Jun 2027 22:09:32.807           383.005                 Moscow         11968.906
       390   05 Jun 2027 23:40:44.177   05 Jun 2027 23:41:03.064            18.887                 Moscow           590.219
       391   06 Jun 2027 00:00:58.723   06 Jun 2027 00:03:31.944           153.221               CapeTown          4788.156
       392   06 Jun 2027 00:04:55.831   06 Jun 2027 00:05:08.405            12.574               CapeTown           392.938
       393   06 Jun 2027 00:12:47.831   06 Jun 2027 00:13:13.551            25.720               CapeTown           803.750
       394   06 Jun 2027 01:09:22.519   06 Jun 2027 01:11:45.376           142.857              Murmansk2          4464.281
       395   06 Jun 2027 01:12:37.388   06 Jun 2027 01:13:04.599            27.211                 Moscow           850.344
       396   06 Jun 2027 01:15:50.540   06 Jun 2027 01:16:56.579            66.039                 Moscow          2063.719
       397   06 Jun 2027 01:37:27.427   06 Jun 2027 01:38:02.520            35.093               CapeTown          1096.656
       398   06 Jun 2027 01:40:38.729   06 Jun 2027 01:41:40.981            62.252               CapeTown          1945.375
       399   06 Jun 2027 02:33:11.686   06 Jun 2027 02:35:32.820           141.134               Magadan2          4410.437
       400   06 Jun 2027 02:35:33.080   06 Jun 2027 02:36:10.792            37.712               Magadan1          1178.500
       401   06 Jun 2027 02:40:57.301   06 Jun 2027 02:41:26.927            29.626               Magadan2           925.813
       402   06 Jun 2027 02:42:24.876   06 Jun 2027 02:42:58.055            33.179                Norilsk          1036.844
       403   06 Jun 2027 02:45:13.489   06 Jun 2027 02:45:41.619            28.130              Murmansk1           879.062
       404   06 Jun 2027 02:45:41.619   06 Jun 2027 02:47:02.487            80.868              Murmansk2          2527.125
       405   06 Jun 2027 02:51:03.428   06 Jun 2027 02:51:08.950             5.522                 Moscow           172.562
       406   06 Jun 2027 02:52:28.033   06 Jun 2027 02:53:58.467            90.434                 Moscow          2826.063
       407   06 Jun 2027 03:26:19.908   06 Jun 2027 03:27:22.767            62.859            RioGallegos          1964.344
       408   06 Jun 2027 03:28:43.591   06 Jun 2027 03:29:28.498            44.907            RioGallegos          1403.344
       409   06 Jun 2027 04:13:56.353   06 Jun 2027 04:14:10.967            14.614               Magadan2           456.687
       410   06 Jun 2027 04:14:10.967   06 Jun 2027 04:14:27.099            16.132               Magadan1           504.125
       411   06 Jun 2027 04:15:05.313   06 Jun 2027 04:17:31.631           146.318                Anadyr2          4572.437
       412   06 Jun 2027 04:17:55.020   06 Jun 2027 04:20:37.224           162.204               Magadan2          5068.875
       413   06 Jun 2027 04:57:18.204   06 Jun 2027 05:01:05.556           227.352            RioGallegos          7104.750
       414   06 Jun 2027 05:52:43.372   06 Jun 2027 05:55:19.986           156.614               Magadan2          4894.187
       415   06 Jun 2027 05:55:20.615   06 Jun 2027 05:56:09.691            49.076                Novosib          1533.625
       416   06 Jun 2027 05:56:23.501   06 Jun 2027 05:56:35.167            11.666               Magadan1           364.562
       417   06 Jun 2027 05:56:48.800   06 Jun 2027 05:57:27.085            38.285                Irkutsk          1196.406
       418   06 Jun 2027 07:30:35.878   06 Jun 2027 07:31:02.040            26.162                Novosib           817.562
       419   06 Jun 2027 07:31:22.880   06 Jun 2027 07:32:04.312            41.432                 Moscow          1294.750
       420   06 Jun 2027 07:32:54.240   06 Jun 2027 07:33:03.390             9.150                Irkutsk           285.938
       421   06 Jun 2027 07:34:09.344   06 Jun 2027 07:34:28.369            19.025                Norilsk           594.531
       422   06 Jun 2027 07:35:04.517   06 Jun 2027 07:35:18.593            14.076              Murmansk2           439.875
       423   06 Jun 2027 07:35:28.329   06 Jun 2027 07:35:41.567            13.238              Murmansk1           413.687
       424   06 Jun 2027 08:12:17.232   06 Jun 2027 08:13:08.348            51.116            RioGallegos          1597.375
       425   06 Jun 2027 08:45:43.677   06 Jun 2027 08:46:10.854            27.177                Sumatra           849.281
       426   06 Jun 2027 08:47:07.922   06 Jun 2027 08:48:14.079            66.157                Sumatra          2067.406
       427   06 Jun 2027 09:06:34.935   06 Jun 2027 09:07:06.400            31.465                Novosib           983.281
       428   06 Jun 2027 09:08:44.387   06 Jun 2027 09:08:46.086             1.699                Novosib            53.094
       429   06 Jun 2027 09:09:28.997   06 Jun 2027 09:10:37.712            68.715                Novosib          2147.344
       430   06 Jun 2027 10:32:11.129   06 Jun 2027 10:33:48.284            97.155                  Delhi          3036.094
       431   06 Jun 2027 10:46:50.133   06 Jun 2027 10:47:05.533            15.400              Murmansk1           481.250
       432   06 Jun 2027 12:15:49.036   06 Jun 2027 12:16:10.885            21.849              Murmansk2           682.781
       433   06 Jun 2027 12:16:54.963   06 Jun 2027 12:17:41.011            46.048              Murmansk2          1439.000
       434   06 Jun 2027 12:18:22.879   06 Jun 2027 12:19:10.162            47.283              Murmansk2          1477.594
       435   06 Jun 2027 12:25:20.378   06 Jun 2027 12:25:35.980            15.602              Murmansk1           487.562
       436   06 Jun 2027 12:30:20.753   06 Jun 2027 12:34:23.590           242.837                Anadyr2          7588.656
       437   06 Jun 2027 12:35:01.652   06 Jun 2027 12:36:11.941            70.289                Anadyr1          2196.531
       438   06 Jun 2027 13:54:43.237   06 Jun 2027 13:55:25.707            42.470              Murmansk1          1327.188
       439   06 Jun 2027 13:55:26.085   06 Jun 2027 13:55:34.453             8.368              Murmansk2           261.500
       440   06 Jun 2027 13:56:04.814   06 Jun 2027 13:56:56.783            51.969              Murmansk2          1624.031
       441   06 Jun 2027 13:58:42.679   06 Jun 2027 13:58:46.206             3.527              Murmansk1           110.219
       442   06 Jun 2027 13:59:16.300   06 Jun 2027 13:59:24.219             7.919              Murmansk1           247.469
       443   06 Jun 2027 14:00:56.644   06 Jun 2027 14:01:14.528            17.884              Murmansk2           558.875
       444   06 Jun 2027 14:02:43.822   06 Jun 2027 14:03:29.850            46.028              Murmansk2          1438.375
       445   06 Jun 2027 14:05:43.000   06 Jun 2027 14:07:04.230            81.230                Anadyr2          2538.438
       446   06 Jun 2027 14:07:22.796   06 Jun 2027 14:07:40.484            17.688                Anadyr1           552.750
       447   06 Jun 2027 14:09:36.849   06 Jun 2027 14:11:42.578           125.729                Anadyr1          3929.031
       448   06 Jun 2027 14:11:56.637   06 Jun 2027 14:15:35.276           218.639               Magadan1          6832.469
       449   06 Jun 2027 15:41:35.999   06 Jun 2027 15:42:59.873            83.874                Anadyr1          2621.063
       450   06 Jun 2027 15:44:02.101   06 Jun 2027 15:46:14.317           132.216               Magadan1          4131.750
       451   06 Jun 2027 15:46:31.826   06 Jun 2027 15:47:52.075            80.249               Magadan1          2507.781
       452   06 Jun 2027 15:49:22.901   06 Jun 2027 15:50:39.278            76.377               Magadan1          2386.781
       453   06 Jun 2027 17:19:25.632   06 Jun 2027 17:19:40.515            14.883                Anadyr1           465.094
       454   06 Jun 2027 17:19:47.914   06 Jun 2027 17:20:57.662            69.748               Magadan1          2179.625
       455   06 Jun 2027 17:22:13.080   06 Jun 2027 17:23:24.203            71.123                Norilsk          2222.594
       456   06 Jun 2027 17:23:58.008   06 Jun 2027 17:24:48.912            50.904                Norilsk          1590.750
       457   06 Jun 2027 17:26:01.866   06 Jun 2027 17:30:46.165           284.299                Irkutsk          8884.344
       458   06 Jun 2027 18:22:04.849   06 Jun 2027 18:23:13.537            68.688            RioGallegos          2146.500
       459   06 Jun 2027 18:59:23.585   06 Jun 2027 18:59:45.817            22.232                Norilsk           694.750
       460   06 Jun 2027 19:00:02.967   06 Jun 2027 19:00:21.434            18.467                Irkutsk           577.094
       461   06 Jun 2027 19:00:23.696   06 Jun 2027 19:00:41.316            17.620                Norilsk           550.625
       462   06 Jun 2027 19:00:43.357   06 Jun 2027 19:08:10.107           446.750                Novosib         13960.938
       463   06 Jun 2027 19:23:12.068   06 Jun 2027 19:23:55.120            43.052                Sumatra          1345.375
       464   06 Jun 2027 20:36:56.684   06 Jun 2027 20:37:41.751            45.067                Novosib          1408.344
       465   06 Jun 2027 20:39:14.228   06 Jun 2027 20:39:32.421            18.193                Novosib           568.531
       466   06 Jun 2027 20:42:45.985   06 Jun 2027 20:46:41.209           235.224                  Delhi          7350.750
       467   06 Jun 2027 20:53:59.578   06 Jun 2027 20:55:02.739            63.161                  Delhi          1973.781
       468   06 Jun 2027 22:09:36.371   06 Jun 2027 22:15:03.184           326.813              Murmansk1         10212.906
       469   06 Jun 2027 22:15:08.783   06 Jun 2027 22:21:47.433           398.650                 Moscow         12457.813
       470   06 Jun 2027 22:42:33.621   06 Jun 2027 22:46:05.764           212.143               CapeTown          6629.469
       471   07 Jun 2027 01:20:52.025   07 Jun 2027 01:21:02.000             9.975               Magadan1           311.719
       472   07 Jun 2027 01:21:23.909   07 Jun 2027 01:21:35.948            12.039              Murmansk1           376.219
       473   07 Jun 2027 01:22:14.534   07 Jun 2027 01:23:39.096            84.562              Murmansk2          2642.563
       474   07 Jun 2027 01:24:40.805   07 Jun 2027 01:25:29.080            48.275                 Moscow          1508.594
       475   07 Jun 2027 01:27:13.703   07 Jun 2027 01:27:22.104             8.401                 Moscow           262.531
       476   07 Jun 2027 01:27:35.671   07 Jun 2027 01:28:52.871            77.200                 Moscow          2412.500
       477   07 Jun 2027 01:50:01.729   07 Jun 2027 01:50:45.327            43.598               CapeTown          1362.437
       478   07 Jun 2027 01:58:17.240   07 Jun 2027 01:58:24.570             7.330               CapeTown           229.063
       479   07 Jun 2027 01:59:01.719   07 Jun 2027 01:59:09.023             7.304               CapeTown           228.250
       480   07 Jun 2027 02:45:05.003   07 Jun 2027 02:47:54.502           169.499               Magadan1          5296.844
       481   07 Jun 2027 02:48:13.590   07 Jun 2027 02:48:40.245            26.655               Magadan1           832.969
       482   07 Jun 2027 02:51:38.316   07 Jun 2027 02:52:03.343            25.027               Magadan1           782.094
