uniorb/output/strategy_4/Drop/Drop_KinoSat_111710.txt

KinoSat_111710
-------------------------
    Access    *     Start Time (UTCG)     *     Stop Time (UTCG)  *   Duration (s)        *       Station  *  Data (Mbytes)
         1   01 Jun 2027 04:00:20.508   01 Jun 2027 04:00:26.507             5.999                Irkutsk           187.469
         2   01 Jun 2027 04:01:16.044   01 Jun 2027 04:01:29.639            13.595                Irkutsk           424.844
         3   01 Jun 2027 04:01:34.439   01 Jun 2027 04:01:44.472            10.033              Murmansk2           313.531
         4   01 Jun 2027 04:01:46.449   01 Jun 2027 04:02:21.125            34.676                Novosib          1083.625
         5   01 Jun 2027 04:02:29.136   01 Jun 2027 04:04:58.196           149.060              Murmansk2          4658.125
         6   01 Jun 2027 04:05:20.719   01 Jun 2027 04:05:59.554            38.835              Murmansk1          1213.594
         7   01 Jun 2027 04:06:12.655   01 Jun 2027 04:07:27.578            74.923                Novosib          2341.344
         8   01 Jun 2027 04:07:41.517   01 Jun 2027 04:10:02.439           140.922                  Delhi          4403.812
         9   01 Jun 2027 05:39:53.221   01 Jun 2027 05:41:56.550           123.329              Murmansk2          3854.031
        10   01 Jun 2027 05:41:56.550   01 Jun 2027 05:42:10.189            13.639              Murmansk1           426.219
        11   01 Jun 2027 05:42:40.421   01 Jun 2027 05:42:50.103             9.682              Murmansk1           302.563
        12   01 Jun 2027 05:43:26.673   01 Jun 2027 05:43:32.300             5.627              Murmansk1           175.844
        13   01 Jun 2027 06:08:10.795   01 Jun 2027 06:09:25.595            74.800               CapeTown          2337.500
        14   01 Jun 2027 07:01:50.051   01 Jun 2027 07:02:57.300            67.249               Magadan2          2101.531
        15   01 Jun 2027 07:03:38.348   01 Jun 2027 07:04:19.687            41.339                Anadyr1          1291.844
        16   01 Jun 2027 07:04:37.057   01 Jun 2027 07:04:52.317            15.260               Magadan2           476.875
        17   01 Jun 2027 07:05:02.222   01 Jun 2027 07:05:27.894            25.672               Magadan2           802.250
        18   01 Jun 2027 07:06:01.618   01 Jun 2027 07:06:34.804            33.186                Anadyr2          1037.063
        19   01 Jun 2027 08:38:27.755   01 Jun 2027 08:39:28.050            60.295                Anadyr1          1884.219
        20   01 Jun 2027 08:39:47.646   01 Jun 2027 08:42:50.857           183.211               Magadan1          5725.344
        21   01 Jun 2027 08:42:50.857   01 Jun 2027 08:43:03.548            12.691               Magadan2           396.594
        22   01 Jun 2027 10:12:29.390   01 Jun 2027 10:15:06.322           156.932               Magadan2          4904.125
        23   01 Jun 2027 10:15:36.553   01 Jun 2027 10:16:59.064            82.511               Magadan1          2578.469
        24   01 Jun 2027 10:17:54.240   01 Jun 2027 10:18:16.805            22.565               Magadan2           705.156
        25   01 Jun 2027 11:49:40.557   01 Jun 2027 11:50:01.306            20.749                Irkutsk           648.406
        26   01 Jun 2027 11:50:57.428   01 Jun 2027 11:53:36.975           159.547                Novosib          4985.844
        27   01 Jun 2027 11:53:38.545   01 Jun 2027 11:55:23.657           105.112              Murmansk2          3284.750
        28   01 Jun 2027 11:55:23.657   01 Jun 2027 11:55:28.969             5.312              Murmansk1           166.000
        29   01 Jun 2027 11:55:36.769   01 Jun 2027 11:56:21.479            44.710                Norilsk          1397.188
        30   01 Jun 2027 12:30:36.690   01 Jun 2027 12:31:06.577            29.887            RioGallegos           933.969
        31   01 Jun 2027 12:32:15.778   01 Jun 2027 12:34:33.420           137.642            RioGallegos          4301.313
        32   01 Jun 2027 12:38:21.757   01 Jun 2027 12:40:15.982           114.225            RioGallegos          3569.531
        33   01 Jun 2027 13:04:51.485   01 Jun 2027 13:06:13.879            82.394                Sumatra          2574.812
        34   01 Jun 2027 13:09:16.122   01 Jun 2027 13:10:00.883            44.761                Sumatra          1398.781
        35   01 Jun 2027 13:14:47.262   01 Jun 2027 13:15:48.156            60.894                Sumatra          1902.937
        36   01 Jun 2027 13:20:06.561   01 Jun 2027 13:22:53.238           166.677                Irkutsk          5208.656
        37   01 Jun 2027 13:24:54.765   01 Jun 2027 13:25:49.541            54.776                Irkutsk          1711.750
        38   01 Jun 2027 14:49:48.828   01 Jun 2027 14:54:50.934           302.106                  Delhi          9440.813
        39   01 Jun 2027 14:58:13.892   01 Jun 2027 15:00:18.239           124.347                Novosib          3885.844
        40   01 Jun 2027 15:03:01.815   01 Jun 2027 15:04:12.589            70.774                Novosib          2211.687
        41   01 Jun 2027 15:06:05.757   01 Jun 2027 15:07:06.983            61.226                Novosib          1913.313
        42   01 Jun 2027 15:10:57.973   01 Jun 2027 15:11:32.279            34.306                Norilsk          1072.062
        43   01 Jun 2027 16:33:04.279   01 Jun 2027 16:36:08.658           184.379                 Moscow          5761.844
        44   01 Jun 2027 16:39:39.280   01 Jun 2027 16:39:41.782             2.502              Murmansk2            78.187
        45   01 Jun 2027 16:40:18.765   01 Jun 2027 16:41:55.930            97.165                 Moscow          3036.406
        46   01 Jun 2027 16:43:25.518   01 Jun 2027 16:46:32.906           187.388                Norilsk          5855.875
        47   01 Jun 2027 16:57:23.755   01 Jun 2027 16:57:24.883             1.128                Anadyr2            35.250
        48   01 Jun 2027 17:48:00.797   01 Jun 2027 17:48:19.689            18.892               CapeTown           590.375
        49   01 Jun 2027 17:50:08.962   01 Jun 2027 17:50:42.077            33.115               CapeTown          1034.844
        50   01 Jun 2027 17:53:22.542   01 Jun 2027 17:53:58.838            36.296               CapeTown          1134.250
        51   01 Jun 2027 17:54:37.252   01 Jun 2027 17:55:26.940            49.688               CapeTown          1552.750
        52   01 Jun 2027 17:58:53.830   01 Jun 2027 17:59:04.584            10.754               CapeTown           336.062
        53   01 Jun 2027 18:12:22.290   01 Jun 2027 18:17:00.630           278.340                 Moscow          8698.125
        54   01 Jun 2027 18:36:40.447   01 Jun 2027 18:37:33.098            52.651                Anadyr2          1645.344
        55   01 Jun 2027 18:38:14.636   01 Jun 2027 18:38:19.120             4.484                Anadyr2           140.125
        56   01 Jun 2027 19:23:00.151   01 Jun 2027 19:24:16.423            76.272               CapeTown          2383.500
        57   01 Jun 2027 19:27:23.873   01 Jun 2027 19:27:46.586            22.713               CapeTown           709.781
        58   01 Jun 2027 19:29:55.359   01 Jun 2027 19:30:43.080            47.721               CapeTown          1491.281
        59   01 Jun 2027 19:55:20.816   01 Jun 2027 19:59:46.956           266.140              Murmansk2          8316.875
        60   01 Jun 2027 20:06:34.094   01 Jun 2027 20:07:29.081            54.987               Magadan1          1718.344
        61   01 Jun 2027 20:13:54.823   01 Jun 2027 20:14:14.655            19.832               Magadan2           619.750
        62   01 Jun 2027 20:15:30.027   01 Jun 2027 20:15:36.368             6.341               Magadan2           198.156
        63   01 Jun 2027 21:38:51.326   01 Jun 2027 21:44:00.698           309.372                Anadyr1          9667.875
        64   01 Jun 2027 21:44:23.534   01 Jun 2027 21:46:37.834           134.300               Magadan1          4196.875
        65   01 Jun 2027 21:47:06.400   01 Jun 2027 21:47:13.598             7.198               Magadan2           224.937
        66   01 Jun 2027 21:50:46.017   01 Jun 2027 21:51:08.710            22.693               Magadan2           709.156
        67   01 Jun 2027 21:51:46.323   01 Jun 2027 21:52:00.856            14.533               Magadan2           454.156
        68   01 Jun 2027 21:52:04.061   01 Jun 2027 21:52:06.908             2.847               Magadan2            88.969
        69   01 Jun 2027 21:53:03.363   01 Jun 2027 21:53:42.742            39.379               Magadan1          1230.594
        70   01 Jun 2027 22:33:44.631   01 Jun 2027 22:35:31.495           106.864            RioGallegos          3339.500
        71   01 Jun 2027 22:36:53.387   01 Jun 2027 22:36:55.278             1.891            RioGallegos            59.094
        72   01 Jun 2027 22:38:49.025   01 Jun 2027 22:39:17.430            28.405            RioGallegos           887.656
        73   01 Jun 2027 22:40:12.470   01 Jun 2027 22:40:14.817             2.347            RioGallegos            73.344
        74   01 Jun 2027 22:42:24.664   01 Jun 2027 22:42:58.115            33.451            RioGallegos          1045.344
        75   01 Jun 2027 23:14:34.609   01 Jun 2027 23:15:55.250            80.641                Anadyr2          2520.031
        76   01 Jun 2027 23:16:09.965   01 Jun 2027 23:16:25.856            15.891                Anadyr1           496.594
        77   01 Jun 2027 23:16:40.488   01 Jun 2027 23:16:48.203             7.715                Anadyr1           241.094
        78   01 Jun 2027 23:16:48.936   01 Jun 2027 23:18:19.257            90.321                Norilsk          2822.531
        79   01 Jun 2027 23:18:22.148   01 Jun 2027 23:19:58.731            96.583               Magadan1          3018.219
        80   01 Jun 2027 23:20:58.557   01 Jun 2027 23:21:48.856            50.299               Magadan1          1571.844
        81   01 Jun 2027 23:22:02.308   01 Jun 2027 23:22:13.056            10.748                Irkutsk           335.875
        82   01 Jun 2027 23:23:16.975   01 Jun 2027 23:24:28.339            71.364                Irkutsk          2230.125
        83   01 Jun 2027 23:35:10.395   01 Jun 2027 23:36:14.506            64.111                Sumatra          2003.469
        84   01 Jun 2027 23:38:54.868   01 Jun 2027 23:40:51.721           116.853                Sumatra          3651.656
        85   02 Jun 2027 00:17:21.272   02 Jun 2027 00:17:41.953            20.681            RioGallegos           646.281
        86   02 Jun 2027 00:18:08.857   02 Jun 2027 00:18:25.494            16.637            RioGallegos           519.906
        87   02 Jun 2027 00:49:34.022   02 Jun 2027 00:50:52.806            78.784                Anadyr1          2462.000
        88   02 Jun 2027 00:50:52.806   02 Jun 2027 00:51:52.421            59.615                Anadyr2          1862.969
        89   02 Jun 2027 00:52:35.947   02 Jun 2027 00:53:39.347            63.400                Norilsk          1981.250
        90   02 Jun 2027 00:53:45.456   02 Jun 2027 00:54:19.829            34.373                Norilsk          1074.156
        91   02 Jun 2027 00:55:06.399   02 Jun 2027 00:55:10.805             4.406               Magadan2           137.688
        92   02 Jun 2027 00:55:37.171   02 Jun 2027 00:55:59.346            22.175               Magadan2           692.969
        93   02 Jun 2027 00:56:28.278   02 Jun 2027 00:58:31.025           122.747                Irkutsk          3835.844
        94   02 Jun 2027 00:59:13.467   02 Jun 2027 00:59:32.579            19.112                Novosib           597.250
        95   02 Jun 2027 00:59:46.354   02 Jun 2027 01:00:15.394            29.040                Irkutsk           907.500
        96   02 Jun 2027 01:05:06.793   02 Jun 2027 01:05:26.748            19.955                  Delhi           623.594
        97   02 Jun 2027 01:05:51.619   02 Jun 2027 01:08:00.506           128.887                  Delhi          4027.719
        98   02 Jun 2027 01:12:13.495   02 Jun 2027 01:14:51.169           157.674                Sumatra          4927.313
        99   02 Jun 2027 02:25:34.579   02 Jun 2027 02:25:55.572            20.993                Anadyr1           656.031
       100   02 Jun 2027 02:28:36.694   02 Jun 2027 02:30:14.386            97.692                Norilsk          3052.875
       101   02 Jun 2027 02:31:05.569   02 Jun 2027 02:31:45.443            39.874              Murmansk1          1246.062
       102   02 Jun 2027 02:32:23.060   02 Jun 2027 02:33:04.357            41.297                Novosib          1290.531
       103   02 Jun 2027 02:33:21.471   02 Jun 2027 02:34:42.716            81.245                Irkutsk          2538.906
       104   02 Jun 2027 02:39:47.670   02 Jun 2027 02:41:11.254            83.584                  Delhi          2612.000
       105   02 Jun 2027 02:48:33.750   02 Jun 2027 02:48:42.975             9.225                  Delhi           288.281
       106   02 Jun 2027 02:51:18.884   02 Jun 2027 02:52:12.247            53.363                  Delhi          1667.594
       107   02 Jun 2027 03:22:48.894   02 Jun 2027 03:24:14.104            85.210            RioGallegos          2662.812
       108   02 Jun 2027 04:12:57.590   02 Jun 2027 04:13:38.885            41.295              Murmansk1          1290.469
       109   02 Jun 2027 04:13:44.915   02 Jun 2027 04:14:27.131            42.216              Murmansk1          1319.250
       110   02 Jun 2027 04:14:28.561   02 Jun 2027 04:16:16.251           107.690                Norilsk          3365.313
       111   02 Jun 2027 04:16:19.456   02 Jun 2027 04:17:10.767            51.311              Murmansk2          1603.469
       112   02 Jun 2027 04:17:23.958   02 Jun 2027 04:18:19.225            55.267                Novosib          1727.094
       113   02 Jun 2027 04:20:44.819   02 Jun 2027 04:21:14.146            29.327                 Moscow           916.469
       114   02 Jun 2027 07:13:36.747   02 Jun 2027 07:15:40.056           123.309                Anadyr1          3853.406
       115   02 Jun 2027 07:15:40.056   02 Jun 2027 07:17:28.255           108.199                Anadyr2          3381.219
       116   02 Jun 2027 08:51:27.051   02 Jun 2027 08:52:09.422            42.371                Anadyr1          1324.094
       117   02 Jun 2027 08:52:50.834   02 Jun 2027 08:53:36.506            45.672               Magadan1          1427.250
       118   02 Jun 2027 10:26:02.670   02 Jun 2027 10:26:56.550            53.880               Magadan2          1683.750
       119   02 Jun 2027 10:27:10.420   02 Jun 2027 10:30:26.785           196.365               Magadan2          6136.406
       120   02 Jun 2027 10:30:43.454   02 Jun 2027 10:30:56.815            13.361                Norilsk           417.531
       121   02 Jun 2027 11:05:28.293   02 Jun 2027 11:06:22.472            54.179            RioGallegos          1693.094
       122   02 Jun 2027 11:06:34.874   02 Jun 2027 11:07:12.262            37.388            RioGallegos          1168.375
       123   02 Jun 2027 11:40:59.263   02 Jun 2027 11:41:26.235            26.972                Sumatra           842.875
       124   02 Jun 2027 11:57:14.466   02 Jun 2027 11:57:21.652             7.186                  Delhi           224.563
       125   02 Jun 2027 12:04:20.968   02 Jun 2027 12:05:09.677            48.709                Novosib          1522.156
       126   02 Jun 2027 12:07:42.889   02 Jun 2027 12:07:58.674            15.785                Novosib           493.281
       127   02 Jun 2027 12:10:42.777   02 Jun 2027 12:11:24.970            42.193                Norilsk          1318.531
       128   02 Jun 2027 12:48:11.113   02 Jun 2027 12:48:29.000            17.887            RioGallegos           558.969
       129   02 Jun 2027 12:49:39.219   02 Jun 2027 12:50:09.991            30.772            RioGallegos           961.625
       130   02 Jun 2027 12:53:09.795   02 Jun 2027 12:53:24.048            14.253            RioGallegos           445.406
       131   02 Jun 2027 13:20:20.963   02 Jun 2027 13:21:23.255            62.292                Sumatra          1946.625
       132   02 Jun 2027 13:23:13.984   02 Jun 2027 13:24:00.449            46.465                Sumatra          1452.031
       133   02 Jun 2027 13:26:59.528   02 Jun 2027 13:27:25.340            25.812                Sumatra           806.625
       134   02 Jun 2027 13:32:50.388   02 Jun 2027 13:34:47.692           117.304                Irkutsk          3665.750
       135   02 Jun 2027 13:40:38.416   02 Jun 2027 13:41:26.353            47.937                Irkutsk          1498.031
       136   02 Jun 2027 13:45:41.966   02 Jun 2027 13:46:32.594            50.628                Norilsk          1582.125
       137   02 Jun 2027 15:02:32.879   02 Jun 2027 15:05:30.803           177.924                  Delhi          5560.125
       138   02 Jun 2027 15:11:02.964   02 Jun 2027 15:15:34.956           271.992                Novosib          8499.750
       139   02 Jun 2027 16:26:42.628   02 Jun 2027 16:27:52.507            69.879               CapeTown          2183.719
       140   02 Jun 2027 16:45:16.303   02 Jun 2027 16:46:11.096            54.793                 Moscow          1712.281
       141   02 Jun 2027 16:48:45.455   02 Jun 2027 16:49:24.982            39.527              Murmansk1          1235.219
       142   02 Jun 2027 16:51:56.192   02 Jun 2027 16:52:01.958             5.766              Murmansk2           180.187
       143   02 Jun 2027 16:53:38.214   02 Jun 2027 16:54:20.127            41.913              Murmansk1          1309.781
       144   02 Jun 2027 16:57:06.609   02 Jun 2027 16:57:21.456            14.847              Murmansk1           463.969
       145   02 Jun 2027 16:59:15.488   02 Jun 2027 16:59:55.873            40.385              Murmansk1          1262.031
       146   02 Jun 2027 17:04:05.816   02 Jun 2027 17:04:50.809            44.993                Anadyr2          1406.031
       147   02 Jun 2027 17:05:58.980   02 Jun 2027 17:06:27.005            28.025                Anadyr1           875.781
       148   02 Jun 2027 17:08:11.551   02 Jun 2027 17:08:34.727            23.176                Anadyr2           724.250
       149   02 Jun 2027 17:10:01.257   02 Jun 2027 17:10:08.973             7.716                Anadyr1           241.125
       150   02 Jun 2027 17:10:08.973   02 Jun 2027 17:10:27.068            18.095                Anadyr2           565.469
       151   02 Jun 2027 17:58:28.547   02 Jun 2027 17:58:48.924            20.377               CapeTown           636.781
       152   02 Jun 2027 18:00:33.332   02 Jun 2027 18:01:15.147            41.815               CapeTown          1306.719
       153   02 Jun 2027 18:05:06.304   02 Jun 2027 18:05:22.472            16.168               CapeTown           505.250
       154   02 Jun 2027 18:08:43.848   02 Jun 2027 18:10:21.534            97.686               CapeTown          3052.688
       155   02 Jun 2027 18:25:20.542   02 Jun 2027 18:29:02.924           222.382                 Moscow          6949.437
       156   02 Jun 2027 18:47:46.844   02 Jun 2027 18:48:40.204            53.360                Anadyr1          1667.500
       157   02 Jun 2027 19:35:22.360   02 Jun 2027 19:36:23.066            60.706               CapeTown          1897.062
       158   02 Jun 2027 19:38:42.374   02 Jun 2027 19:40:35.676           113.302               CapeTown          3540.687
       159   02 Jun 2027 20:08:26.103   02 Jun 2027 20:12:03.288           217.185              Murmansk2          6787.031
       160   02 Jun 2027 20:17:52.504   02 Jun 2027 20:17:58.705             6.201               Magadan2           193.781
       161   02 Jun 2027 20:19:34.420   02 Jun 2027 20:20:06.520            32.100               Magadan2          1003.125
       162   02 Jun 2027 20:23:14.411   02 Jun 2027 20:23:26.473            12.062               Magadan2           376.937
       163   02 Jun 2027 20:23:48.467   02 Jun 2027 20:24:01.097            12.630               Magadan1           394.688
       164   02 Jun 2027 20:25:08.877   02 Jun 2027 20:25:44.827            35.950               Magadan1          1123.437
       165   02 Jun 2027 21:50:52.555   02 Jun 2027 21:54:47.414           234.859                Anadyr2          7339.344
       166   02 Jun 2027 21:55:10.600   02 Jun 2027 21:56:01.792            51.192               Magadan1          1599.750
       167   02 Jun 2027 21:56:01.792   02 Jun 2027 21:57:55.637           113.845               Magadan2          3557.656
       168   02 Jun 2027 21:58:35.172   02 Jun 2027 21:59:13.609            38.437               Magadan2          1201.156
       169   02 Jun 2027 22:04:02.798   02 Jun 2027 22:04:46.289            43.491               Magadan1          1359.094
       170   02 Jun 2027 22:45:28.409   02 Jun 2027 22:47:29.116           120.707            RioGallegos          3772.094
       171   02 Jun 2027 23:26:32.396   02 Jun 2027 23:28:40.635           128.239                Anadyr2          4007.469
       172   02 Jun 2027 23:28:41.620   02 Jun 2027 23:30:21.244            99.624                Norilsk          3113.250
       173   02 Jun 2027 23:30:24.466   02 Jun 2027 23:31:02.446            37.980               Magadan1          1186.875
       174   02 Jun 2027 23:31:40.296   02 Jun 2027 23:31:52.886            12.590               Magadan2           393.437
       175   02 Jun 2027 23:32:09.976   02 Jun 2027 23:32:13.189             3.213                Norilsk           100.406
       176   02 Jun 2027 23:32:28.225   02 Jun 2027 23:32:52.072            23.847               Magadan2           745.219
       177   02 Jun 2027 23:32:58.353   02 Jun 2027 23:34:13.676            75.323                Irkutsk          2353.844
       178   02 Jun 2027 23:37:23.772   02 Jun 2027 23:37:40.423            16.651                Novosib           520.344
       179   02 Jun 2027 23:46:50.033   02 Jun 2027 23:47:59.369            69.336                Sumatra          2166.750
       180   02 Jun 2027 23:49:08.795   02 Jun 2027 23:50:10.404            61.609                Sumatra          1925.281
       181   02 Jun 2027 23:58:42.430   02 Jun 2027 23:58:56.252            13.822                Sumatra           431.937
       182   03 Jun 2027 00:24:52.221   03 Jun 2027 00:25:10.710            18.489            RioGallegos           577.781
       183   03 Jun 2027 00:32:07.562   03 Jun 2027 00:33:22.771            75.209            RioGallegos          2350.281
       184   03 Jun 2027 01:01:50.882   03 Jun 2027 01:02:14.022            23.140                Anadyr1           723.125
       185   03 Jun 2027 01:02:54.122   03 Jun 2027 01:03:38.499            44.377                Anadyr2          1386.781
       186   03 Jun 2027 01:04:00.489   03 Jun 2027 01:04:02.144             1.655                Anadyr2            51.719
       187   03 Jun 2027 01:04:38.257   03 Jun 2027 01:06:21.792           103.535                Norilsk          3235.469
       188   03 Jun 2027 01:06:31.234   03 Jun 2027 01:07:39.396            68.162               Magadan1          2130.063
       189   03 Jun 2027 01:08:30.580   03 Jun 2027 01:09:57.417            86.837                Irkutsk          2713.656
       190   03 Jun 2027 01:10:41.190   03 Jun 2027 01:10:49.930             8.740                Novosib           273.125
       191   03 Jun 2027 01:11:00.454   03 Jun 2027 01:12:19.130            78.676                Novosib          2458.625
       192   03 Jun 2027 01:22:26.513   03 Jun 2027 01:22:39.530            13.017                  Delhi           406.781
       193   03 Jun 2027 01:24:07.683   03 Jun 2027 01:24:16.993             9.310                Sumatra           290.937
       194   03 Jun 2027 01:26:31.667   03 Jun 2027 01:27:08.722            37.055                  Delhi          1157.969
       195   03 Jun 2027 01:28:39.200   03 Jun 2027 01:29:57.874            78.674                Sumatra          2458.562
       196   03 Jun 2027 02:02:32.746   03 Jun 2027 02:03:01.637            28.891            RioGallegos           902.844
       197   03 Jun 2027 02:07:20.780   03 Jun 2027 02:07:34.130            13.350            RioGallegos           417.188
       198   03 Jun 2027 02:35:49.243   03 Jun 2027 02:35:54.751             5.508                Anadyr2           172.125
       199   03 Jun 2027 02:37:22.670   03 Jun 2027 02:37:41.087            18.417                Anadyr2           575.531
       200   03 Jun 2027 02:37:58.332   03 Jun 2027 02:38:15.910            17.578                Anadyr2           549.313
       201   03 Jun 2027 02:40:38.587   03 Jun 2027 02:42:34.942           116.355                Norilsk          3636.094
       202   03 Jun 2027 02:43:01.807   03 Jun 2027 02:43:52.832            51.025              Murmansk2          1594.531
       203   03 Jun 2027 02:43:52.832   03 Jun 2027 02:44:43.177            50.345              Murmansk1          1573.281
       204   03 Jun 2027 02:45:28.583   03 Jun 2027 02:45:33.725             5.142                Irkutsk           160.688
       205   03 Jun 2027 02:46:19.732   03 Jun 2027 02:46:21.069             1.337                Novosib            41.781
       206   03 Jun 2027 02:46:49.782   03 Jun 2027 02:47:54.522            64.740                Irkutsk          2023.125
       207   03 Jun 2027 02:56:16.722   03 Jun 2027 02:56:49.509            32.787                  Delhi          1024.594
       208   03 Jun 2027 02:59:35.198   03 Jun 2027 03:00:40.546            65.348                  Delhi          2042.125
       209   03 Jun 2027 04:22:16.228   03 Jun 2027 04:22:25.821             9.593                Novosib           299.781
       210   03 Jun 2027 04:25:12.779   03 Jun 2027 04:25:29.079            16.300              Murmansk1           509.375
       211   03 Jun 2027 04:25:55.494   03 Jun 2027 04:27:59.394           123.900                Norilsk          3871.875
       212   03 Jun 2027 04:28:01.351   03 Jun 2027 04:28:13.515            12.164                Novosib           380.125
       213   03 Jun 2027 04:28:15.764   03 Jun 2027 04:29:11.189            55.425              Murmansk1          1732.031
       214   03 Jun 2027 04:29:11.189   03 Jun 2027 04:29:21.460            10.271              Murmansk2           320.969
       215   03 Jun 2027 04:29:26.254   03 Jun 2027 04:30:26.500            60.246                Novosib          1882.688
       216   03 Jun 2027 04:30:28.798   03 Jun 2027 04:31:21.197            52.399                 Moscow          1637.469
       217   03 Jun 2027 05:58:37.136   03 Jun 2027 05:59:07.270            30.134                Novosib           941.687
       218   03 Jun 2027 06:03:08.699   03 Jun 2027 06:03:54.413            45.714                 Moscow          1428.563
       219   03 Jun 2027 06:22:49.123   03 Jun 2027 06:23:46.379            57.256               CapeTown          1789.250
       220   03 Jun 2027 07:25:24.658   03 Jun 2027 07:25:46.587            21.929               Magadan1           685.281
       221   03 Jun 2027 07:26:10.321   03 Jun 2027 07:27:41.640            91.319                Anadyr2          2853.719
       222   03 Jun 2027 09:01:11.931   03 Jun 2027 09:01:58.711            46.780               Magadan2          1461.875
       223   03 Jun 2027 09:02:11.797   03 Jun 2027 09:02:57.747            45.950               Magadan2          1435.937
       224   03 Jun 2027 09:03:01.794   03 Jun 2027 09:03:18.927            17.133               Magadan1           535.406
       225   03 Jun 2027 09:03:25.248   03 Jun 2027 09:03:59.822            34.574                Anadyr2          1080.438
       226   03 Jun 2027 09:03:59.822   03 Jun 2027 09:05:24.308            84.486                Anadyr1          2640.188
       227   03 Jun 2027 10:36:02.356   03 Jun 2027 10:37:57.231           114.875               Magadan2          3589.844
       228   03 Jun 2027 10:38:16.582   03 Jun 2027 10:38:24.882             8.300               Magadan1           259.375
       229   03 Jun 2027 10:38:39.926   03 Jun 2027 10:38:52.070            12.144               Magadan1           379.500
       230   03 Jun 2027 10:39:31.078   03 Jun 2027 10:39:57.976            26.898                Irkutsk           840.562
       231   03 Jun 2027 10:40:09.145   03 Jun 2027 10:40:37.562            28.417                Irkutsk           888.031
       232   03 Jun 2027 10:40:42.961   03 Jun 2027 10:41:44.850            61.889                Norilsk          1934.031
       233   03 Jun 2027 10:41:56.976   03 Jun 2027 10:42:13.756            16.780                Irkutsk           524.375
       234   03 Jun 2027 10:42:55.129   03 Jun 2027 10:43:07.208            12.079                Norilsk           377.469
       235   03 Jun 2027 11:17:29.552   03 Jun 2027 11:18:48.875            79.323            RioGallegos          2478.844
       236   03 Jun 2027 11:52:42.543   03 Jun 2027 11:53:21.917            39.374                Sumatra          1230.437
       237   03 Jun 2027 11:55:17.616   03 Jun 2027 11:56:09.934            52.318                Sumatra          1634.937
       238   03 Jun 2027 12:06:06.484   03 Jun 2027 12:06:46.049            39.565                Irkutsk          1236.406
       239   03 Jun 2027 12:10:03.896   03 Jun 2027 12:10:23.225            19.329                Irkutsk           604.031
       240   03 Jun 2027 12:16:45.861   03 Jun 2027 12:17:28.469            42.608                Irkutsk          1331.500
       241   03 Jun 2027 12:55:43.751   03 Jun 2027 12:58:29.629           165.878            RioGallegos          5183.687
       242   03 Jun 2027 13:30:00.773   03 Jun 2027 13:30:20.922            20.149                Sumatra           629.656
       243   03 Jun 2027 13:30:51.905   03 Jun 2027 13:33:19.235           147.330                Sumatra          4604.063
       244   03 Jun 2027 13:45:44.816   03 Jun 2027 13:46:43.918            59.102                Irkutsk          1846.937
       245   03 Jun 2027 13:54:17.932   03 Jun 2027 13:54:56.249            38.317                Novosib          1197.406
       246   03 Jun 2027 15:15:34.746   03 Jun 2027 15:19:54.782           260.036                  Delhi          8126.125
       247   03 Jun 2027 15:24:04.360   03 Jun 2027 15:27:29.345           204.985                Novosib          6405.781
       248   03 Jun 2027 15:31:55.922   03 Jun 2027 15:31:58.748             2.826                Norilsk            88.312
       249   03 Jun 2027 16:37:11.529   03 Jun 2027 16:38:19.509            67.980               CapeTown          2124.375
       250   03 Jun 2027 16:57:34.137   03 Jun 2027 16:58:14.219            40.082                 Moscow          1252.563
       251   03 Jun 2027 17:00:57.436   03 Jun 2027 17:01:41.438            44.002              Murmansk2          1375.062
       252   03 Jun 2027 17:03:12.948   03 Jun 2027 17:03:46.017            33.069              Murmansk1          1033.406
       253   03 Jun 2027 17:07:00.306   03 Jun 2027 17:07:04.651             4.345                 Moscow           135.781
       254   03 Jun 2027 17:09:06.172   03 Jun 2027 17:09:18.034            11.862              Murmansk1           370.688
       255   03 Jun 2027 17:09:32.815   03 Jun 2027 17:10:06.227            33.412              Murmansk2          1044.125
       256   03 Jun 2027 17:15:52.067   03 Jun 2027 17:16:53.544            61.477                Anadyr1          1921.156
       257   03 Jun 2027 17:17:49.558   03 Jun 2027 17:18:18.399            28.841                Anadyr1           901.281
       258   03 Jun 2027 17:20:55.302   03 Jun 2027 17:21:44.955            49.653                Anadyr1          1551.656
       259   03 Jun 2027 18:13:39.297   03 Jun 2027 18:13:47.264             7.967               CapeTown           248.969
       260   03 Jun 2027 18:13:55.519   03 Jun 2027 18:14:15.746            20.227               CapeTown           632.094
       261   03 Jun 2027 18:16:04.642   03 Jun 2027 18:16:21.115            16.473               CapeTown           514.781
       262   03 Jun 2027 18:19:15.754   03 Jun 2027 18:20:01.736            45.982               CapeTown          1436.938
       263   03 Jun 2027 18:38:38.822   03 Jun 2027 18:41:45.163           186.341                 Moscow          5823.156
       264   03 Jun 2027 18:43:07.225   03 Jun 2027 18:43:53.644            46.419              Murmansk2          1450.594
       265   03 Jun 2027 18:52:02.965   03 Jun 2027 18:52:09.699             6.734                Anadyr1           210.438
       266   03 Jun 2027 18:52:42.014   03 Jun 2027 18:52:51.393             9.379                Anadyr1           293.094
       267   03 Jun 2027 18:53:39.038   03 Jun 2027 18:53:55.086            16.048                Anadyr1           501.500
       268   03 Jun 2027 18:55:48.506   03 Jun 2027 18:57:15.448            86.942               Magadan1          2716.937
       269   03 Jun 2027 19:47:52.043   03 Jun 2027 19:48:17.299            25.256               CapeTown           789.250
       270   03 Jun 2027 19:51:03.727   03 Jun 2027 19:51:37.444            33.717               CapeTown          1053.656
       271   03 Jun 2027 20:22:15.166   03 Jun 2027 20:23:00.059            44.893              Murmansk1          1402.906
       272   03 Jun 2027 20:26:58.555   03 Jun 2027 20:27:08.006             9.451                Anadyr1           295.344
       273   03 Jun 2027 20:27:36.215   03 Jun 2027 20:27:59.314            23.099                Anadyr1           721.844
       274   03 Jun 2027 20:28:14.542   03 Jun 2027 20:28:37.784            23.242                Anadyr1           726.312
       275   03 Jun 2027 20:28:45.741   03 Jun 2027 20:30:41.925           116.184                Anadyr2          3630.750
       276   03 Jun 2027 20:31:02.633   03 Jun 2027 20:32:37.845            95.212               Magadan1          2975.375
       277   03 Jun 2027 20:34:32.852   03 Jun 2027 20:35:12.249            39.397               Magadan1          1231.156
       278   03 Jun 2027 20:41:06.147   03 Jun 2027 20:41:07.587             1.440               Magadan2            45.000
       279   03 Jun 2027 22:02:53.557   03 Jun 2027 22:04:51.178           117.621                Anadyr1          3675.656
       280   03 Jun 2027 22:04:51.854   03 Jun 2027 22:06:36.542           104.688                Anadyr2          3271.500
       281   03 Jun 2027 22:07:12.033   03 Jun 2027 22:10:05.238           173.205               Magadan2          5412.656
       282   03 Jun 2027 22:10:05.238   03 Jun 2027 22:11:12.929            67.691               Magadan1          2115.344
       283   03 Jun 2027 22:15:19.420   03 Jun 2027 22:15:26.782             7.362               Magadan2           230.062
       284   03 Jun 2027 22:15:30.507   03 Jun 2027 22:16:04.204            33.697               Magadan1          1053.031
       285   03 Jun 2027 22:57:16.399   03 Jun 2027 22:59:06.540           110.141            RioGallegos          3441.906
       286   03 Jun 2027 22:59:31.195   03 Jun 2027 23:00:18.277            47.082            RioGallegos          1471.312
       287   03 Jun 2027 23:05:21.414   03 Jun 2027 23:05:44.114            22.700            RioGallegos           709.375
       288   03 Jun 2027 23:38:29.426   03 Jun 2027 23:39:16.755            47.329                Anadyr2          1479.031
       289   03 Jun 2027 23:40:20.107   03 Jun 2027 23:40:40.340            20.233                Anadyr2           632.281
       290   03 Jun 2027 23:40:42.131   03 Jun 2027 23:41:35.708            53.577                Anadyr1          1674.281
       291   03 Jun 2027 23:41:56.058   03 Jun 2027 23:42:23.337            27.279                Norilsk           852.469
       292   03 Jun 2027 23:42:32.331   03 Jun 2027 23:43:02.169            29.838               Magadan1           932.438
       293   03 Jun 2027 23:43:49.354   03 Jun 2027 23:43:58.954             9.600               Magadan2           300.000
       294   03 Jun 2027 23:44:11.997   03 Jun 2027 23:44:15.055             3.058                Norilsk            95.562
       295   03 Jun 2027 23:44:40.030   03 Jun 2027 23:45:15.864            35.834               Magadan1          1119.813
       296   03 Jun 2027 23:45:43.888   03 Jun 2027 23:46:39.710            55.822                Irkutsk          1744.437
       297   03 Jun 2027 23:47:17.943   03 Jun 2027 23:48:12.684            54.741                Novosib          1710.656
       298   03 Jun 2027 23:49:14.846   03 Jun 2027 23:49:55.382            40.536                Novosib          1266.750
       299   03 Jun 2027 23:53:05.213   03 Jun 2027 23:55:16.593           131.380                Irkutsk          4105.625
       300   04 Jun 2027 00:37:27.654   04 Jun 2027 00:37:38.817            11.163            RioGallegos           348.844
       301   04 Jun 2027 00:38:24.282   04 Jun 2027 00:38:37.426            13.144            RioGallegos           410.750
       302   04 Jun 2027 00:40:17.985   04 Jun 2027 00:40:29.011            11.026            RioGallegos           344.563
       303   04 Jun 2027 00:41:30.619   04 Jun 2027 00:41:39.640             9.021            RioGallegos           281.906
       304   04 Jun 2027 00:42:12.515   04 Jun 2027 00:42:37.920            25.405            RioGallegos           793.906
       305   04 Jun 2027 01:13:11.325   04 Jun 2027 01:14:14.712            63.387                Anadyr1          1980.844
       306   04 Jun 2027 01:14:55.466   04 Jun 2027 01:15:25.853            30.387                Anadyr2           949.594
       307   04 Jun 2027 01:15:25.853   04 Jun 2027 01:15:47.792            21.939                Anadyr1           685.594
       308   04 Jun 2027 01:16:40.616   04 Jun 2027 01:18:23.629           103.013                Norilsk          3219.156
       309   04 Jun 2027 01:20:33.683   04 Jun 2027 01:22:29.066           115.383                Irkutsk          3605.719
       310   04 Jun 2027 01:22:34.064   04 Jun 2027 01:22:49.121            15.057                Novosib           470.531
       311   04 Jun 2027 01:25:00.691   04 Jun 2027 01:25:41.007            40.316                Irkutsk          1259.875
       312   04 Jun 2027 01:28:23.287   04 Jun 2027 01:28:32.742             9.455                  Delhi           295.469
       313   04 Jun 2027 01:29:35.916   04 Jun 2027 01:30:14.298            38.382                  Delhi          1199.437
       314   04 Jun 2027 01:34:17.455   04 Jun 2027 01:34:40.869            23.414                  Delhi           731.687
       315   04 Jun 2027 01:36:27.839   04 Jun 2027 01:39:15.021           167.182                Sumatra          5224.438
       316   04 Jun 2027 02:46:49.360   04 Jun 2027 02:47:20.974            31.614                Anadyr2           987.938
       317   04 Jun 2027 02:49:12.102   04 Jun 2027 02:49:35.270            23.168                Anadyr1           724.000
       318   04 Jun 2027 02:52:40.308   04 Jun 2027 02:53:39.686            59.378                Norilsk          1855.563
       319   04 Jun 2027 02:54:25.207   04 Jun 2027 02:54:35.930            10.723                Norilsk           335.094
       320   04 Jun 2027 02:54:59.503   04 Jun 2027 02:55:58.539            59.036              Murmansk2          1844.875
       321   04 Jun 2027 02:55:58.539   04 Jun 2027 02:56:13.101            14.562              Murmansk1           455.062
       322   04 Jun 2027 02:56:28.572   04 Jun 2027 02:56:48.801            20.229                Novosib           632.156
       323   04 Jun 2027 02:57:11.921   04 Jun 2027 02:58:13.248            61.327                Irkutsk          1916.469
       324   04 Jun 2027 03:00:02.282   04 Jun 2027 03:00:19.506            17.224                Novosib           538.250
       325   04 Jun 2027 03:00:30.916   04 Jun 2027 03:01:07.505            36.589                Norilsk          1143.406
       326   04 Jun 2027 03:01:14.848   04 Jun 2027 03:01:49.270            34.422                Norilsk          1075.688
       327   04 Jun 2027 03:02:09.111   04 Jun 2027 03:03:49.120           100.009                Novosib          3125.281
       328   04 Jun 2027 04:38:09.280   04 Jun 2027 04:39:15.930            66.650                Novosib          2082.812
       329   04 Jun 2027 04:39:29.416   04 Jun 2027 04:41:04.621            95.205                Novosib          2975.156
       330   04 Jun 2027 04:41:28.013   04 Jun 2027 04:42:08.712            40.699                Novosib          1271.844
       331   04 Jun 2027 04:43:25.762   04 Jun 2027 04:44:27.740            61.978                 Moscow          1936.813
       332   04 Jun 2027 04:58:24.541   04 Jun 2027 05:01:43.920           199.379               CapeTown          6230.594
       333   04 Jun 2027 05:54:42.710   04 Jun 2027 05:59:38.814           296.104                Anadyr2          9253.250
       334   04 Jun 2027 06:00:00.485   04 Jun 2027 06:00:54.981            54.496               Magadan2          1703.000
       335   04 Jun 2027 06:01:56.458   04 Jun 2027 06:03:04.636            68.178               Magadan2          2130.562
       336   04 Jun 2027 06:15:18.480   04 Jun 2027 06:15:27.027             8.547              Murmansk1           267.094
       337   04 Jun 2027 06:18:57.956   04 Jun 2027 06:19:09.946            11.990                 Moscow           374.687
       338   04 Jun 2027 06:34:48.579   04 Jun 2027 06:35:47.840            59.261               CapeTown          1851.906
       339   04 Jun 2027 06:36:21.354   04 Jun 2027 06:39:00.625           159.271               CapeTown          4977.219
       340   04 Jun 2027 07:35:46.688   04 Jun 2027 07:35:52.153             5.465                Anadyr2           170.781
       341   04 Jun 2027 07:36:09.113   04 Jun 2027 07:36:21.041            11.928               Magadan2           372.750
       342   04 Jun 2027 07:36:40.934   04 Jun 2027 07:36:42.602             1.668               Magadan1            52.125
       343   04 Jun 2027 07:36:44.445   04 Jun 2027 07:37:22.686            38.241               Magadan2          1195.031
       344   04 Jun 2027 07:37:37.242   04 Jun 2027 07:38:11.265            34.023                Anadyr1          1063.219
       345   04 Jun 2027 07:38:46.913   04 Jun 2027 07:39:43.053            56.140                Anadyr2          1754.375
       346   04 Jun 2027 07:39:45.568   04 Jun 2027 07:40:05.775            20.207               Magadan2           631.469
       347   04 Jun 2027 07:40:12.021   04 Jun 2027 07:40:16.979             4.958                Anadyr1           154.937
       348   04 Jun 2027 07:40:17.064   04 Jun 2027 07:40:35.085            18.021               Magadan2           563.156
       349   04 Jun 2027 07:42:00.966   04 Jun 2027 07:42:13.704            12.738                Anadyr1           398.062
       350   04 Jun 2027 08:23:55.427   04 Jun 2027 08:24:01.379             5.952            RioGallegos           186.000
       351   04 Jun 2027 08:26:07.177   04 Jun 2027 08:26:29.652            22.475            RioGallegos           702.344
       352   04 Jun 2027 09:11:53.790   04 Jun 2027 09:12:44.152            50.362                Anadyr1          1573.813
       353   04 Jun 2027 09:13:10.606   04 Jun 2027 09:13:54.518            43.912               Magadan2          1372.250
       354   04 Jun 2027 09:13:59.223   04 Jun 2027 09:15:20.040            80.817               Magadan2          2525.531
       355   04 Jun 2027 09:15:27.901   04 Jun 2027 09:15:45.142            17.241               Magadan1           538.781
       356   04 Jun 2027 09:16:17.993   04 Jun 2027 09:16:44.477            26.484               Magadan2           827.625
       357   04 Jun 2027 09:17:08.848   04 Jun 2027 09:17:45.646            36.798               Magadan2          1149.937
       358   04 Jun 2027 09:54:45.006   04 Jun 2027 09:55:14.639            29.633            RioGallegos           926.031
       359   04 Jun 2027 09:56:22.325   04 Jun 2027 09:56:34.312            11.987            RioGallegos           374.594
       360   04 Jun 2027 10:47:11.165   04 Jun 2027 10:47:39.700            28.535               Magadan2           891.719
       361   04 Jun 2027 10:49:04.062   04 Jun 2027 10:49:32.134            28.072                Irkutsk           877.250
       362   04 Jun 2027 10:50:35.713   04 Jun 2027 10:50:53.008            17.295                Irkutsk           540.469
       363   04 Jun 2027 10:51:49.008   04 Jun 2027 10:52:18.303            29.295               Magadan1           915.469
       364   04 Jun 2027 10:52:25.154   04 Jun 2027 10:52:31.362             6.208                Irkutsk           194.000
       365   04 Jun 2027 10:52:50.255   04 Jun 2027 10:53:27.735            37.480                Irkutsk          1171.250
       366   04 Jun 2027 10:53:36.050   04 Jun 2027 10:54:07.540            31.490                Irkutsk           984.062
       367   04 Jun 2027 10:54:26.204   04 Jun 2027 10:54:52.244            26.040                Norilsk           813.750
       368   04 Jun 2027 11:29:34.235   04 Jun 2027 11:30:14.527            40.292            RioGallegos          1259.125
       369   04 Jun 2027 11:36:54.749   04 Jun 2027 11:37:40.117            45.368            RioGallegos          1417.750
       370   04 Jun 2027 12:04:32.345   04 Jun 2027 12:05:11.702            39.357                Sumatra          1229.906
       371   04 Jun 2027 12:18:18.632   04 Jun 2027 12:19:54.149            95.517                Irkutsk          2984.906
       372   04 Jun 2027 12:21:09.651   04 Jun 2027 12:21:48.024            38.373                Irkutsk          1199.156
       373   04 Jun 2027 12:33:46.578   04 Jun 2027 12:33:49.519             2.941                Norilsk            91.906
       374   04 Jun 2027 12:34:23.478   04 Jun 2027 12:34:38.509            15.031                Norilsk           469.719
       375   04 Jun 2027 12:35:42.558   04 Jun 2027 12:35:54.456            11.898              Murmansk2           371.812
       376   04 Jun 2027 13:08:28.751   04 Jun 2027 13:10:15.010           106.259            RioGallegos          3320.594
       377   04 Jun 2027 13:43:01.981   04 Jun 2027 13:47:24.754           262.773                Sumatra          8211.656
       378   04 Jun 2027 13:56:44.314   04 Jun 2027 13:57:06.212            21.898                Novosib           684.313
       379   04 Jun 2027 13:58:56.691   04 Jun 2027 14:01:50.523           173.832                Irkutsk          5432.250
       380   04 Jun 2027 15:29:17.508   04 Jun 2027 15:31:59.958           162.450                  Delhi          5076.562
       381   04 Jun 2027 15:37:29.917   04 Jun 2027 15:39:11.947           102.030                Novosib          3188.438
       382   04 Jun 2027 15:39:32.227   04 Jun 2027 15:40:22.668            50.441                Norilsk          1576.281
       383   04 Jun 2027 15:43:56.394   04 Jun 2027 15:44:20.974            24.580                Norilsk           768.125
       384   04 Jun 2027 16:48:22.855   04 Jun 2027 16:49:04.244            41.389               CapeTown          1293.406
       385   04 Jun 2027 16:55:07.516   04 Jun 2027 16:55:31.043            23.527               CapeTown           735.219
       386   04 Jun 2027 17:09:51.148   04 Jun 2027 17:10:16.807            25.659                 Moscow           801.844
       387   04 Jun 2027 17:12:03.206   04 Jun 2027 17:12:53.996            50.790                 Moscow          1587.187
       388   04 Jun 2027 17:13:11.336   04 Jun 2027 17:13:42.726            31.390              Murmansk1           980.938
       389   04 Jun 2027 17:14:11.562   04 Jun 2027 17:14:35.540            23.978                 Moscow           749.312
       390   04 Jun 2027 17:17:24.963   04 Jun 2027 17:17:33.931             8.968              Murmansk2           280.250
       391   04 Jun 2027 17:21:04.989   04 Jun 2027 17:21:29.885            24.896              Murmansk2           778.000
       392   04 Jun 2027 17:27:42.509   04 Jun 2027 17:28:52.120            69.611                Anadyr1          2175.344
       393   04 Jun 2027 17:28:52.120   04 Jun 2027 17:28:52.808             0.688                Anadyr2            21.500
       394   04 Jun 2027 17:29:38.863   04 Jun 2027 17:30:08.311            29.448                Anadyr1           920.250
       395   04 Jun 2027 17:30:32.050   04 Jun 2027 17:30:35.455             3.405                Anadyr1           106.406
       396   04 Jun 2027 17:30:49.843   04 Jun 2027 17:31:09.788            19.945                Anadyr2           623.281
       397   04 Jun 2027 18:22:27.913   04 Jun 2027 18:24:45.061           137.148               CapeTown          4285.875
       398   04 Jun 2027 18:52:02.315   04 Jun 2027 18:55:16.036           193.721              Murmansk2          6053.781
       399   04 Jun 2027 18:56:28.679   04 Jun 2027 18:56:52.927            24.248              Murmansk1           757.750
       400   04 Jun 2027 19:04:11.554   04 Jun 2027 19:04:36.011            24.457                Anadyr1           764.281
       401   04 Jun 2027 19:07:04.345   04 Jun 2027 19:07:24.616            20.271               Magadan2           633.469
       402   04 Jun 2027 19:07:51.443   04 Jun 2027 19:08:34.264            42.821               Magadan2          1338.156
       403   04 Jun 2027 19:09:09.427   04 Jun 2027 19:09:39.795            30.368               Magadan2           949.000
       404   04 Jun 2027 19:12:57.579   04 Jun 2027 19:12:57.725             0.146               Magadan1             4.563
       405   04 Jun 2027 20:00:34.318   04 Jun 2027 20:00:45.282            10.964               CapeTown           342.625
       406   04 Jun 2027 20:02:45.487   04 Jun 2027 20:04:12.934            87.447               CapeTown          2732.719
       407   04 Jun 2027 20:05:20.203   04 Jun 2027 20:05:23.463             3.260               CapeTown           101.875
       408   04 Jun 2027 20:39:00.360   04 Jun 2027 20:40:38.793            98.433                Anadyr2          3076.031
       409   04 Jun 2027 20:40:40.511   04 Jun 2027 20:42:14.372            93.861                Anadyr1          2933.156
       410   04 Jun 2027 20:42:21.517   04 Jun 2027 20:43:57.229            95.712               Magadan1          2991.000
       411   04 Jun 2027 20:45:00.590   04 Jun 2027 20:46:01.327            60.737               Magadan1          1898.031
       412   04 Jun 2027 22:14:54.274   04 Jun 2027 22:18:36.330           222.056                Anadyr2          6939.250
       413   04 Jun 2027 22:18:38.458   04 Jun 2027 22:20:53.925           135.467               Magadan2          4233.344
       414   04 Jun 2027 22:21:37.406   04 Jun 2027 22:22:18.803            41.397               Magadan1          1293.656
       415   04 Jun 2027 22:23:03.495   04 Jun 2027 22:23:10.714             7.219               Magadan1           225.594
       416   04 Jun 2027 22:23:25.503   04 Jun 2027 22:24:07.840            42.337                Irkutsk          1323.031
       417   04 Jun 2027 22:25:13.242   04 Jun 2027 22:25:43.648            30.406                Irkutsk           950.188
       418   04 Jun 2027 22:27:26.648   04 Jun 2027 22:28:05.103            38.455                Irkutsk          1201.719
       419   04 Jun 2027 23:09:07.488   04 Jun 2027 23:10:41.594            94.106            RioGallegos          2940.812
       420   04 Jun 2027 23:11:18.934   04 Jun 2027 23:12:11.221            52.287            RioGallegos          1633.969
       421   04 Jun 2027 23:50:25.600   04 Jun 2027 23:51:05.634            40.034                Anadyr1          1251.063
       422   04 Jun 2027 23:52:18.244   04 Jun 2027 23:53:02.137            43.893                Anadyr1          1371.656
       423   04 Jun 2027 23:53:08.130   04 Jun 2027 23:54:00.067            51.937                Norilsk          1623.031
       424   04 Jun 2027 23:54:19.778   04 Jun 2027 23:54:35.018            15.240               Magadan2           476.250
       425   04 Jun 2027 23:54:48.311   04 Jun 2027 23:54:52.616             4.305               Magadan2           134.531
       426   04 Jun 2027 23:55:30.917   04 Jun 2027 23:55:47.540            16.623               Magadan1           519.469
       427   04 Jun 2027 23:56:16.092   04 Jun 2027 23:56:16.811             0.719                Norilsk            22.469
       428   04 Jun 2027 23:56:19.145   04 Jun 2027 23:56:30.105            10.960               Magadan2           342.500
       429   04 Jun 2027 23:56:47.305   04 Jun 2027 23:57:41.096            53.791               Magadan1          1680.969
       430   04 Jun 2027 23:57:49.560   04 Jun 2027 23:58:17.496            27.936                Irkutsk           873.000
       431   04 Jun 2027 23:59:18.846   04 Jun 2027 23:59:25.552             6.706                Irkutsk           209.562
       432   04 Jun 2027 23:59:26.473   05 Jun 2027 00:00:41.520            75.047                Novosib          2345.219
       433   05 Jun 2027 00:01:03.928   05 Jun 2027 00:01:07.678             3.750                Novosib           117.187
       434   05 Jun 2027 00:02:04.310   05 Jun 2027 00:02:04.917             0.607                Novosib            18.969
       435   05 Jun 2027 00:04:19.078   05 Jun 2027 00:04:56.501            37.423                Novosib          1169.469
       436   05 Jun 2027 00:10:29.489   05 Jun 2027 00:11:04.216            34.727                Sumatra          1085.219
       437   05 Jun 2027 00:14:11.638   05 Jun 2027 00:15:05.276            53.638                Sumatra          1676.188
       438   05 Jun 2027 00:18:37.114   05 Jun 2027 00:19:06.084            28.970                Sumatra           905.312
       439   05 Jun 2027 00:45:36.888   05 Jun 2027 00:46:37.615            60.727            RioGallegos          1897.719
       440   05 Jun 2027 00:54:58.285   05 Jun 2027 00:55:11.097            12.812            RioGallegos           400.375
       441   05 Jun 2027 00:57:14.154   05 Jun 2027 00:57:23.044             8.890            RioGallegos           277.813
       442   05 Jun 2027 01:24:58.009   05 Jun 2027 01:25:44.153            46.144                Anadyr2          1442.000
       443   05 Jun 2027 01:25:54.774   05 Jun 2027 01:26:15.124            20.350                Anadyr1           635.938
       444   05 Jun 2027 01:26:56.796   05 Jun 2027 01:27:08.221            11.425                Anadyr1           357.031
       445   05 Jun 2027 01:27:14.523   05 Jun 2027 01:27:33.380            18.857                Anadyr2           589.281
       446   05 Jun 2027 01:28:42.975   05 Jun 2027 01:31:07.012           144.037                Norilsk          4501.156
       447   05 Jun 2027 01:32:37.447   05 Jun 2027 01:34:35.122           117.675                Novosib          3677.344
       448   05 Jun 2027 01:37:31.625   05 Jun 2027 01:37:46.847            15.222                Irkutsk           475.687
       449   05 Jun 2027 01:40:10.572   05 Jun 2027 01:40:57.881            47.309                  Delhi          1478.406
       450   05 Jun 2027 01:46:23.514   05 Jun 2027 01:46:49.227            25.713                  Delhi           803.531
       451   05 Jun 2027 01:47:25.694   05 Jun 2027 01:47:46.193            20.499                  Delhi           640.594
       452   05 Jun 2027 01:49:48.291   05 Jun 2027 01:51:01.909            73.618                Sumatra          2300.562
       453   05 Jun 2027 02:21:40.044   05 Jun 2027 02:22:22.778            42.734            RioGallegos          1335.438
       454   05 Jun 2027 02:27:30.544   05 Jun 2027 02:27:59.698            29.154            RioGallegos           911.063
       455   05 Jun 2027 02:28:15.923   05 Jun 2027 02:30:01.253           105.330            RioGallegos          3291.562
       456   05 Jun 2027 03:10:22.656   05 Jun 2027 03:12:01.478            98.822              Murmansk2          3088.187
       457   05 Jun 2027 03:12:10.249   05 Jun 2027 03:12:15.929             5.680                Novosib           177.500
       458   05 Jun 2027 03:12:18.725   05 Jun 2027 03:12:45.061            26.336              Murmansk2           823.000
       459   05 Jun 2027 03:13:01.703   05 Jun 2027 03:14:23.872            82.169                 Moscow          2567.781
       460   05 Jun 2027 03:14:27.426   05 Jun 2027 03:14:29.951             2.525                 Moscow            78.906
       461   05 Jun 2027 03:14:39.340   05 Jun 2027 03:15:53.361            74.021              Murmansk1          2313.156
       462   05 Jun 2027 03:15:53.361   05 Jun 2027 03:15:55.059             1.698              Murmansk2            53.062
       463   05 Jun 2027 03:16:00.590   05 Jun 2027 03:16:17.388            16.798                Irkutsk           524.937
       464   05 Jun 2027 03:16:27.463   05 Jun 2027 03:17:05.806            38.343                  Delhi          1198.219
       465   05 Jun 2027 04:51:03.302   05 Jun 2027 04:52:10.298            66.996                Novosib          2093.625
       466   05 Jun 2027 04:53:07.399   05 Jun 2027 04:53:23.580            16.181                 Moscow           505.656
       467   05 Jun 2027 04:53:27.310   05 Jun 2027 04:53:36.641             9.331                Novosib           291.594
       468   05 Jun 2027 04:54:01.823   05 Jun 2027 04:54:07.837             6.014                 Moscow           187.938
       469   05 Jun 2027 04:54:10.659   05 Jun 2027 04:54:18.574             7.915                 Moscow           247.344
       470   05 Jun 2027 04:54:34.057   05 Jun 2027 04:55:11.391            37.334                 Moscow          1166.688
       471   05 Jun 2027 04:55:30.838   05 Jun 2027 04:56:39.701            68.863                 Moscow          2151.969
       472   05 Jun 2027 05:10:11.428   05 Jun 2027 05:12:15.300           123.872               CapeTown          3871.000
       473   05 Jun 2027 06:06:41.551   05 Jun 2027 06:07:49.136            67.585                Anadyr2          2112.031
       474   05 Jun 2027 06:13:06.448   05 Jun 2027 06:13:47.425            40.977                Anadyr1          1280.531
       475   05 Jun 2027 06:14:05.808   05 Jun 2027 06:14:40.146            34.338               Magadan2          1073.062
       476   05 Jun 2027 06:14:59.011   05 Jun 2027 06:16:16.247            77.236                Anadyr1          2413.625
       477   05 Jun 2027 06:16:58.778   05 Jun 2027 06:17:08.460             9.682               Magadan1           302.563
       478   05 Jun 2027 06:26:19.120   05 Jun 2027 06:26:22.329             3.209              Murmansk2           100.281
       479   05 Jun 2027 06:47:22.459   05 Jun 2027 06:47:54.478            32.019               CapeTown          1000.594
       480   05 Jun 2027 06:50:42.149   05 Jun 2027 06:52:22.524           100.375               CapeTown          3136.719
       481   05 Jun 2027 07:47:28.570   05 Jun 2027 07:47:59.164            30.594               Magadan1           956.062
       482   05 Jun 2027 07:48:24.385   05 Jun 2027 07:48:32.346             7.961               Magadan1           248.781
