uniorb/output/strategy_4/Drop/Drop_KinoSat_111906.txt

KinoSat_111906
-------------------------
    Access    *     Start Time (UTCG)     *     Stop Time (UTCG)  *   Duration (s)        *       Station  *  Data (Mbytes)
         1   01 Jun 2027 04:31:39.969   01 Jun 2027 04:32:07.166            27.197                 Moscow           849.906
         2   01 Jun 2027 04:32:11.206   01 Jun 2027 04:32:43.507            32.301                Norilsk          1009.406
         3   01 Jun 2027 04:32:45.339   01 Jun 2027 04:34:08.098            82.759              Murmansk1          2586.219
         4   01 Jun 2027 04:34:08.098   01 Jun 2027 04:34:47.298            39.200              Murmansk2          1225.000
         5   01 Jun 2027 04:35:00.999   01 Jun 2027 04:35:06.428             5.429              Murmansk2           169.656
         6   01 Jun 2027 04:35:26.008   01 Jun 2027 04:35:53.877            27.869                Norilsk           870.906
         7   01 Jun 2027 04:36:00.988   01 Jun 2027 04:40:49.094           288.106                  Delhi          9003.312
         8   01 Jun 2027 06:10:05.663   01 Jun 2027 06:10:41.058            35.395                Novosib          1106.094
         9   01 Jun 2027 06:10:41.527   01 Jun 2027 06:11:18.486            36.959              Murmansk1          1154.969
        10   01 Jun 2027 06:11:30.213   01 Jun 2027 06:16:11.793           281.580                 Moscow          8799.375
        11   01 Jun 2027 06:28:29.021   01 Jun 2027 06:29:21.495            52.474               CapeTown          1639.812
        12   01 Jun 2027 06:32:18.737   01 Jun 2027 06:32:34.169            15.432               CapeTown           482.250
        13   01 Jun 2027 07:33:06.069   01 Jun 2027 07:33:42.946            36.877               Magadan1          1152.406
        14   01 Jun 2027 07:33:59.792   01 Jun 2027 07:34:13.553            13.761                Anadyr2           430.031
        15   01 Jun 2027 07:34:13.553   01 Jun 2027 07:34:34.810            21.257                Anadyr1           664.281
        16   01 Jun 2027 07:36:11.801   01 Jun 2027 07:37:28.246            76.445                Anadyr2          2388.906
        17   01 Jun 2027 07:37:34.909   01 Jun 2027 07:38:09.367            34.458                Anadyr2          1076.812
        18   01 Jun 2027 08:07:55.483   01 Jun 2027 08:11:52.391           236.908               CapeTown          7403.375
        19   01 Jun 2027 09:08:14.060   01 Jun 2027 09:08:32.210            18.150                Anadyr2           567.188
        20   01 Jun 2027 09:09:07.707   01 Jun 2027 09:12:34.158           206.451                Anadyr2          6451.594
        21   01 Jun 2027 10:43:32.758   01 Jun 2027 10:45:41.650           128.892               Magadan1          4027.875
        22   01 Jun 2027 10:45:43.287   01 Jun 2027 10:48:32.920           169.633                Anadyr2          5301.031
        23   01 Jun 2027 12:20:03.464   01 Jun 2027 12:22:40.473           157.009               Magadan2          4906.531
        24   01 Jun 2027 13:05:32.336   01 Jun 2027 13:06:42.492            70.156            RioGallegos          2192.375
        25   01 Jun 2027 13:12:24.001   01 Jun 2027 13:12:41.606            17.605            RioGallegos           550.156
        26   01 Jun 2027 13:37:58.921   01 Jun 2027 13:39:45.644           106.723                Sumatra          3335.094
        27   01 Jun 2027 13:41:02.887   01 Jun 2027 13:44:53.065           230.178                Sumatra          7193.062
        28   01 Jun 2027 13:54:44.019   01 Jun 2027 13:57:17.092           153.073                Irkutsk          4783.531
        29   01 Jun 2027 13:57:30.161   01 Jun 2027 13:59:53.218           143.057                Irkutsk          4470.531
        30   01 Jun 2027 15:24:54.474   01 Jun 2027 15:24:58.485             4.011                  Delhi           125.344
        31   01 Jun 2027 15:25:02.053   01 Jun 2027 15:29:38.748           276.695                  Delhi          8646.719
        32   01 Jun 2027 15:34:45.358   01 Jun 2027 15:37:06.919           141.561                Novosib          4423.781
        33   01 Jun 2027 17:12:35.565   01 Jun 2027 17:17:50.632           315.067                Norilsk          9845.844
        34   01 Jun 2027 18:47:27.608   01 Jun 2027 18:47:38.609            11.001                 Moscow           343.781
        35   01 Jun 2027 19:53:19.543   01 Jun 2027 19:55:40.268           140.725               CapeTown          4397.656
        36   01 Jun 2027 20:00:21.108   01 Jun 2027 20:01:45.957            84.849               CapeTown          2651.531
        37   01 Jun 2027 20:24:37.734   01 Jun 2027 20:31:29.620           411.886              Murmansk1         12871.438
        38   01 Jun 2027 22:09:34.518   01 Jun 2027 22:09:55.925            21.407                Anadyr1           668.969
        39   01 Jun 2027 22:10:00.025   01 Jun 2027 22:10:04.493             4.468                Anadyr1           139.625
        40   01 Jun 2027 22:10:37.922   01 Jun 2027 22:12:35.712           117.790                Anadyr1          3680.937
        41   01 Jun 2027 22:13:03.180   01 Jun 2027 22:13:53.767            50.587               Magadan2          1580.844
        42   01 Jun 2027 22:14:37.497   01 Jun 2027 22:15:55.804            78.307               Magadan2          2447.094
        43   01 Jun 2027 22:20:48.476   01 Jun 2027 22:20:56.998             8.522               Magadan1           266.312
        44   01 Jun 2027 23:05:13.190   01 Jun 2027 23:08:04.321           171.131            RioGallegos          5347.844
        45   01 Jun 2027 23:45:22.807   01 Jun 2027 23:46:41.372            78.565                Anadyr2          2455.156
        46   01 Jun 2027 23:46:45.067   01 Jun 2027 23:47:08.008            22.941                Anadyr1           716.906
        47   01 Jun 2027 23:47:27.595   01 Jun 2027 23:48:59.122            91.527                Norilsk          2860.219
        48   01 Jun 2027 23:49:19.406   01 Jun 2027 23:49:27.194             7.788               Magadan2           243.375
        49   01 Jun 2027 23:49:40.733   01 Jun 2027 23:50:01.816            21.083                Norilsk           658.844
        50   01 Jun 2027 23:50:38.062   01 Jun 2027 23:51:30.021            51.959               Magadan1          1623.719
        51   01 Jun 2027 23:52:12.960   01 Jun 2027 23:54:39.887           146.927                Irkutsk          4591.469
        52   02 Jun 2027 00:06:51.326   02 Jun 2027 00:08:40.158           108.832                Sumatra          3401.000
        53   02 Jun 2027 00:11:37.031   02 Jun 2027 00:11:57.037            20.006                Sumatra           625.188
        54   02 Jun 2027 00:39:21.211   02 Jun 2027 00:40:36.577            75.366            RioGallegos          2355.188
        55   02 Jun 2027 01:20:35.323   02 Jun 2027 01:22:22.066           106.743                Anadyr1          3335.719
        56   02 Jun 2027 01:22:47.075   02 Jun 2027 01:23:06.879            19.804                Anadyr2           618.875
        57   02 Jun 2027 01:23:17.514   02 Jun 2027 01:25:11.964           114.450                Norilsk          3576.563
        58   02 Jun 2027 01:26:53.846   02 Jun 2027 01:27:10.522            16.676                Norilsk           521.125
        59   02 Jun 2027 01:27:11.868   02 Jun 2027 01:29:25.514           133.646                Irkutsk          4176.438
        60   02 Jun 2027 01:36:21.377   02 Jun 2027 01:36:46.776            25.399                Irkutsk           793.719
        61   02 Jun 2027 01:37:02.229   02 Jun 2027 01:38:37.680            95.451                  Delhi          2982.844
        62   02 Jun 2027 01:41:14.186   02 Jun 2027 01:41:35.628            21.442                Sumatra           670.062
        63   02 Jun 2027 01:43:53.575   02 Jun 2027 01:46:02.769           129.194                Sumatra          4037.313
        64   02 Jun 2027 02:25:55.992   02 Jun 2027 02:26:47.644            51.652            RioGallegos          1614.125
        65   02 Jun 2027 02:59:18.721   02 Jun 2027 03:00:23.434            64.713                Norilsk          2022.281
        66   02 Jun 2027 03:03:21.191   02 Jun 2027 03:03:33.309            12.118               Magadan2           378.688
        67   02 Jun 2027 03:03:33.309   02 Jun 2027 03:03:39.478             6.169               Magadan1           192.781
        68   02 Jun 2027 03:03:51.792   02 Jun 2027 03:05:00.578            68.786               Magadan2          2149.563
        69   02 Jun 2027 03:05:10.586   02 Jun 2027 03:05:31.699            21.113                Norilsk           659.781
        70   02 Jun 2027 03:05:46.391   02 Jun 2027 03:05:55.703             9.312                Norilsk           291.000
        71   02 Jun 2027 03:06:16.259   02 Jun 2027 03:07:06.069            49.810              Murmansk1          1556.563
        72   02 Jun 2027 03:07:11.807   02 Jun 2027 03:07:29.567            17.760                Novosib           555.000
        73   02 Jun 2027 03:07:36.341   02 Jun 2027 03:08:11.003            34.662              Murmansk1          1083.188
        74   02 Jun 2027 03:08:24.457   02 Jun 2027 03:08:47.694            23.237                Novosib           726.156
        75   02 Jun 2027 03:08:56.347   02 Jun 2027 03:12:37.989           221.642                Irkutsk          6926.312
        76   02 Jun 2027 03:13:21.625   02 Jun 2027 03:13:37.921            16.296                  Delhi           509.250
        77   02 Jun 2027 03:52:37.200   02 Jun 2027 03:57:46.822           309.622            RioGallegos          9675.687
        78   02 Jun 2027 04:43:17.940   02 Jun 2027 04:43:32.369            14.429                Novosib           450.906
        79   02 Jun 2027 04:43:38.410   02 Jun 2027 04:45:11.657            93.247                Irkutsk          2913.969
        80   02 Jun 2027 04:46:12.049   02 Jun 2027 04:47:50.843            98.794                Novosib          3087.312
        81   02 Jun 2027 04:48:53.080   02 Jun 2027 04:53:16.415           263.335                  Delhi          8229.219
        82   02 Jun 2027 06:22:00.449   02 Jun 2027 06:24:56.533           176.084                 Moscow          5502.625
        83   02 Jun 2027 06:40:32.396   02 Jun 2027 06:44:51.276           258.880               CapeTown          8090.000
        84   02 Jun 2027 07:44:56.366   02 Jun 2027 07:45:46.366            50.000               Magadan1          1562.500
        85   02 Jun 2027 07:45:46.366   02 Jun 2027 07:45:47.764             1.398               Magadan2            43.688
        86   02 Jun 2027 07:45:58.040   02 Jun 2027 07:48:12.388           134.348                Anadyr1          4198.375
        87   02 Jun 2027 08:21:56.304   02 Jun 2027 08:24:44.184           167.880               CapeTown          5246.250
        88   02 Jun 2027 09:21:52.365   02 Jun 2027 09:23:47.296           114.931               Magadan2          3591.594
        89   02 Jun 2027 10:55:23.427   02 Jun 2027 10:57:05.158           101.731               Magadan1          3179.094
        90   02 Jun 2027 10:57:34.219   02 Jun 2027 10:58:41.032            66.813               Magadan1          2087.906
        91   02 Jun 2027 10:58:47.381   02 Jun 2027 10:58:47.855             0.474                Irkutsk            14.813
        92   02 Jun 2027 10:59:34.287   02 Jun 2027 11:00:17.686            43.399                Norilsk          1356.219
        93   02 Jun 2027 11:00:17.734   02 Jun 2027 11:01:04.313            46.579               Magadan1          1455.594
        94   02 Jun 2027 11:01:11.262   02 Jun 2027 11:01:23.581            12.319               Magadan1           384.969
        95   02 Jun 2027 11:01:27.803   02 Jun 2027 11:02:22.043            54.240                Norilsk          1695.000
        96   02 Jun 2027 11:36:19.398   02 Jun 2027 11:37:30.839            71.441            RioGallegos          2232.531
        97   02 Jun 2027 12:12:49.027   02 Jun 2027 12:12:58.945             9.918                Sumatra           309.937
        98   02 Jun 2027 12:13:59.514   02 Jun 2027 12:15:18.613            79.099                Sumatra          2471.844
        99   02 Jun 2027 12:24:37.035   02 Jun 2027 12:26:23.617           106.582                Irkutsk          3330.688
       100   02 Jun 2027 12:32:33.240   02 Jun 2027 12:32:40.281             7.041                Norilsk           220.031
       101   02 Jun 2027 12:34:27.631   02 Jun 2027 12:34:44.260            16.629                Norilsk           519.656
       102   02 Jun 2027 12:42:16.311   02 Jun 2027 12:42:27.604            11.293                Norilsk           352.906
       103   02 Jun 2027 12:44:45.290   02 Jun 2027 12:45:10.761            25.471              Murmansk2           795.969
       104   02 Jun 2027 13:13:04.374   02 Jun 2027 13:13:31.308            26.934            RioGallegos           841.688
       105   02 Jun 2027 13:14:38.533   02 Jun 2027 13:18:07.563           209.030            RioGallegos          6532.187
       106   02 Jun 2027 13:57:13.819   02 Jun 2027 13:59:06.310           112.491                Sumatra          3515.344
       107   02 Jun 2027 14:02:26.103   02 Jun 2027 14:03:15.446            49.343                Irkutsk          1541.969
       108   02 Jun 2027 14:05:23.418   02 Jun 2027 14:05:44.067            20.649                Novosib           645.281
       109   02 Jun 2027 14:06:25.739   02 Jun 2027 14:07:16.948            51.209                Irkutsk          1600.281
       110   02 Jun 2027 15:32:10.724   02 Jun 2027 15:35:37.528           206.804                  Delhi          6462.625
       111   02 Jun 2027 15:36:23.554   02 Jun 2027 15:37:51.410            87.856                  Delhi          2745.500
       112   02 Jun 2027 15:40:30.125   02 Jun 2027 15:43:46.511           196.386                Novosib          6137.063
       113   02 Jun 2027 17:15:43.463   02 Jun 2027 17:16:44.617            61.154                 Moscow          1911.063
       114   02 Jun 2027 17:18:54.435   02 Jun 2027 17:19:31.175            36.740                 Moscow          1148.125
       115   02 Jun 2027 17:19:51.712   02 Jun 2027 17:20:31.654            39.942              Murmansk2          1248.187
       116   02 Jun 2027 17:25:21.313   02 Jun 2027 17:29:15.355           234.042                Norilsk          7313.813
       117   02 Jun 2027 18:36:11.135   02 Jun 2027 18:36:36.184            25.049               CapeTown           782.781
       118   02 Jun 2027 18:39:53.739   02 Jun 2027 18:40:10.967            17.228               CapeTown           538.375
       119   02 Jun 2027 18:54:33.812   02 Jun 2027 18:59:08.252           274.440                 Moscow          8576.250
       120   02 Jun 2027 19:06:32.447   02 Jun 2027 19:07:59.039            86.592              Murmansk1          2706.000
       121   02 Jun 2027 20:05:33.752   02 Jun 2027 20:07:19.867           106.115               CapeTown          3316.094
       122   02 Jun 2027 20:09:47.711   02 Jun 2027 20:10:17.674            29.963               CapeTown           936.344
       123   02 Jun 2027 20:37:26.921   02 Jun 2027 20:41:46.340           259.419              Murmansk2          8106.844
       124   02 Jun 2027 20:42:11.034   02 Jun 2027 20:43:20.874            69.840              Murmansk1          2182.500
       125   02 Jun 2027 22:21:36.150   02 Jun 2027 22:26:26.972           290.822                Anadyr1          9088.187
       126   02 Jun 2027 22:27:04.570   02 Jun 2027 22:29:25.131           140.561               Magadan2          4392.531
       127   02 Jun 2027 23:16:44.437   02 Jun 2027 23:18:52.880           128.443            RioGallegos          4013.844
       128   02 Jun 2027 23:21:51.149   02 Jun 2027 23:22:47.601            56.452            RioGallegos          1764.125
       129   02 Jun 2027 23:57:21.782   02 Jun 2027 23:58:34.690            72.908                Anadyr1          2278.375
       130   02 Jun 2027 23:58:41.817   02 Jun 2027 23:58:53.392            11.575                Anadyr2           361.719
       131   02 Jun 2027 23:58:59.778   02 Jun 2027 23:59:38.247            38.469                Anadyr2          1202.156
       132   02 Jun 2027 23:59:51.978   03 Jun 2027 00:02:15.097           143.119               Magadan2          4472.469
       133   03 Jun 2027 00:03:17.611   03 Jun 2027 00:03:52.417            34.806               Magadan2          1087.688
       134   03 Jun 2027 00:03:59.330   03 Jun 2027 00:04:23.162            23.832                Irkutsk           744.750
       135   03 Jun 2027 00:04:46.419   03 Jun 2027 00:04:56.608            10.189               Magadan1           318.406
       136   03 Jun 2027 00:05:08.370   03 Jun 2027 00:06:12.418            64.048                Irkutsk          2001.500
       137   03 Jun 2027 00:18:15.024   03 Jun 2027 00:21:12.042           177.018                Sumatra          5531.813
       138   03 Jun 2027 00:58:26.782   03 Jun 2027 00:58:31.191             4.409            RioGallegos           137.781
       139   03 Jun 2027 00:59:00.808   03 Jun 2027 00:59:15.129            14.321            RioGallegos           447.531
       140   03 Jun 2027 00:59:47.358   03 Jun 2027 01:00:03.063            15.705            RioGallegos           490.781
       141   03 Jun 2027 01:01:46.830   03 Jun 2027 01:02:03.474            16.644            RioGallegos           520.125
       142   03 Jun 2027 01:03:11.625   03 Jun 2027 01:04:07.657            56.032            RioGallegos          1751.000
       143   03 Jun 2027 01:33:40.338   03 Jun 2027 01:34:14.956            34.618                Anadyr2          1081.813
       144   03 Jun 2027 01:34:22.041   03 Jun 2027 01:34:30.713             8.672                Anadyr1           271.000
       145   03 Jun 2027 01:35:14.629   03 Jun 2027 01:35:14.738             0.109                Anadyr2             3.406
       146   03 Jun 2027 01:35:19.788   03 Jun 2027 01:37:14.170           114.382                Norilsk          3574.437
       147   03 Jun 2027 01:37:43.678   03 Jun 2027 01:38:18.212            34.534               Magadan2          1079.187
       148   03 Jun 2027 01:39:12.819   03 Jun 2027 01:41:59.637           166.818                Irkutsk          5213.063
       149   03 Jun 2027 01:48:21.869   03 Jun 2027 01:48:54.410            32.541                  Delhi          1016.906
       150   03 Jun 2027 01:53:32.720   03 Jun 2027 01:55:24.740           112.020                Sumatra          3500.625
       151   03 Jun 2027 01:58:10.378   03 Jun 2027 01:58:47.828            37.450                Sumatra          1170.312
       152   03 Jun 2027 02:29:38.108   03 Jun 2027 02:30:21.175            43.067            RioGallegos          1345.844
       153   03 Jun 2027 02:35:05.286   03 Jun 2027 02:35:16.116            10.830            RioGallegos           338.437
       154   03 Jun 2027 02:38:41.350   03 Jun 2027 02:38:57.883            16.533            RioGallegos           516.656
       155   03 Jun 2027 03:15:25.565   03 Jun 2027 03:15:55.593            30.028               Magadan1           938.375
       156   03 Jun 2027 03:16:08.113   03 Jun 2027 03:16:28.647            20.534               Magadan2           641.688
       157   03 Jun 2027 03:18:42.866   03 Jun 2027 03:20:23.923           101.057                Irkutsk          3158.031
       158   03 Jun 2027 03:20:25.982   03 Jun 2027 03:20:31.966             5.984              Murmansk2           187.000
       159   03 Jun 2027 03:20:44.789   03 Jun 2027 03:22:31.195           106.406                Irkutsk          3325.188
       160   03 Jun 2027 03:22:35.769   03 Jun 2027 03:22:44.399             8.630                Norilsk           269.688
       161   03 Jun 2027 03:22:48.995   03 Jun 2027 03:26:12.221           203.226                Irkutsk          6350.812
       162   03 Jun 2027 04:05:06.029   03 Jun 2027 04:09:48.573           282.544            RioGallegos          8829.500
       163   03 Jun 2027 04:54:51.908   03 Jun 2027 04:55:33.395            41.487                Irkutsk          1296.469
       164   03 Jun 2027 04:57:04.889   03 Jun 2027 04:57:26.488            21.599                Norilsk           674.969
       165   03 Jun 2027 04:58:04.172   03 Jun 2027 04:59:44.924           100.752                Novosib          3148.500
       166   03 Jun 2027 05:02:00.618   03 Jun 2027 05:02:06.171             5.553                Novosib           173.531
       167   03 Jun 2027 05:02:52.867   03 Jun 2027 05:04:19.236            86.369                  Delhi          2699.031
       168   03 Jun 2027 06:35:08.914   03 Jun 2027 06:35:13.932             5.018              Murmansk2           156.812
       169   03 Jun 2027 06:35:26.575   03 Jun 2027 06:36:08.519            41.944              Murmansk2          1310.750
       170   03 Jun 2027 06:52:47.805   03 Jun 2027 06:55:05.786           137.981               CapeTown          4311.906
       171   03 Jun 2027 07:55:39.721   03 Jun 2027 07:56:02.640            22.919               Magadan1           716.219
       172   03 Jun 2027 07:56:07.115   03 Jun 2027 07:56:42.466            35.351               Magadan1          1104.719
       173   03 Jun 2027 07:57:36.590   03 Jun 2027 07:57:55.342            18.752                Anadyr1           586.000
       174   03 Jun 2027 07:58:06.516   03 Jun 2027 07:58:08.013             1.497                Anadyr2            46.781
       175   03 Jun 2027 07:58:17.367   03 Jun 2027 07:59:08.258            50.891                Anadyr2          1590.344
       176   03 Jun 2027 08:00:12.564   03 Jun 2027 08:01:24.215            71.651                Anadyr2          2239.094
       177   03 Jun 2027 09:32:03.582   03 Jun 2027 09:32:54.124            50.542               Magadan2          1579.437
       178   03 Jun 2027 09:33:19.869   03 Jun 2027 09:33:51.988            32.119               Magadan2          1003.719
       179   03 Jun 2027 09:33:54.563   03 Jun 2027 09:34:35.235            40.672               Magadan1          1271.000
       180   03 Jun 2027 09:35:46.169   03 Jun 2027 09:36:37.649            51.480               Magadan1          1608.750
       181   03 Jun 2027 10:15:17.069   03 Jun 2027 10:15:35.198            18.129            RioGallegos           566.531
       182   03 Jun 2027 11:02:49.834   03 Jun 2027 11:03:23.934            34.100               Magadan2          1065.625
       183   03 Jun 2027 11:07:16.458   03 Jun 2027 11:09:38.345           141.887               Magadan1          4433.969
       184   03 Jun 2027 11:09:38.345   03 Jun 2027 11:10:20.034            41.689               Magadan2          1302.781
       185   03 Jun 2027 11:10:38.424   03 Jun 2027 11:11:21.262            42.838                Irkutsk          1338.688
       186   03 Jun 2027 11:11:28.891   03 Jun 2027 11:12:28.372            59.481                Norilsk          1858.781
       187   03 Jun 2027 11:12:49.903   03 Jun 2027 11:13:08.337            18.434               Magadan1           576.062
       188   03 Jun 2027 11:13:11.960   03 Jun 2027 11:13:20.726             8.766                Irkutsk           273.937
       189   03 Jun 2027 11:14:50.252   03 Jun 2027 11:15:00.247             9.995                Norilsk           312.344
       190   03 Jun 2027 11:48:15.103   03 Jun 2027 11:49:30.060            74.957            RioGallegos          2342.406
       191   03 Jun 2027 12:24:00.912   03 Jun 2027 12:25:05.389            64.477                Sumatra          2014.906
       192   03 Jun 2027 12:36:39.802   03 Jun 2027 12:39:56.699           196.897                Irkutsk          6153.031
       193   03 Jun 2027 12:47:51.630   03 Jun 2027 12:47:59.788             8.158                Norilsk           254.938
       194   03 Jun 2027 13:25:30.813   03 Jun 2027 13:26:33.751            62.938            RioGallegos          1966.812
       195   03 Jun 2027 13:30:17.336   03 Jun 2027 13:30:50.527            33.191            RioGallegos          1037.219
       196   03 Jun 2027 13:59:44.972   03 Jun 2027 14:04:53.629           308.657                Sumatra          9645.531
       197   03 Jun 2027 14:15:04.382   03 Jun 2027 14:17:59.909           175.527                Irkutsk          5485.219
       198   03 Jun 2027 15:44:46.477   03 Jun 2027 15:49:32.875           286.398                  Delhi          8949.937
       199   03 Jun 2027 15:53:13.113   03 Jun 2027 15:59:39.301           386.188                Novosib         12068.375
       200   03 Jun 2027 17:38:33.811   03 Jun 2027 17:40:57.470           143.659                Norilsk          4489.344
       201   03 Jun 2027 19:07:23.821   03 Jun 2027 19:11:44.398           260.577                 Moscow          8143.031
       202   03 Jun 2027 19:18:28.617   03 Jun 2027 19:19:35.711            67.094              Murmansk1          2096.687
       203   03 Jun 2027 20:17:52.326   03 Jun 2027 20:19:45.101           112.775               CapeTown          3524.219
       204   03 Jun 2027 20:20:24.821   03 Jun 2027 20:21:30.455            65.634               CapeTown          2051.063
       205   03 Jun 2027 20:50:23.509   03 Jun 2027 20:55:06.826           283.317              Murmansk1          8853.656
       206   03 Jun 2027 21:04:06.448   03 Jun 2027 21:04:25.745            19.297               Magadan2           603.031
       207   03 Jun 2027 21:06:50.191   03 Jun 2027 21:07:04.379            14.188               Magadan2           443.375
       208   03 Jun 2027 21:08:18.387   03 Jun 2027 21:08:33.381            14.994               Magadan1           468.562
       209   03 Jun 2027 22:33:37.624   03 Jun 2027 22:37:27.239           229.615                Anadyr1          7175.469
       210   03 Jun 2027 22:37:29.425   03 Jun 2027 22:38:50.033            80.608                Norilsk          2519.000
       211   03 Jun 2027 22:39:04.139   03 Jun 2027 22:41:14.566           130.427               Magadan1          4075.844
       212   03 Jun 2027 22:47:06.018   03 Jun 2027 22:47:16.657            10.639               Magadan2           332.469
       213   03 Jun 2027 23:28:24.357   03 Jun 2027 23:30:56.832           152.475            RioGallegos          4764.844
       214   03 Jun 2027 23:33:35.096   03 Jun 2027 23:33:50.616            15.520            RioGallegos           485.000
       215   03 Jun 2027 23:36:43.572   03 Jun 2027 23:37:02.103            18.531            RioGallegos           579.094
       216   04 Jun 2027 00:09:20.147   04 Jun 2027 00:10:37.655            77.508                Anadyr2          2422.125
       217   04 Jun 2027 00:10:48.026   04 Jun 2027 00:11:36.899            48.873                Anadyr2          1527.281
       218   04 Jun 2027 00:11:55.094   04 Jun 2027 00:14:45.736           170.642               Magadan2          5332.562
       219   04 Jun 2027 00:15:49.234   04 Jun 2027 00:16:58.219            68.985                Irkutsk          2155.781
       220   04 Jun 2027 00:18:06.160   04 Jun 2027 00:19:21.716            75.556                Irkutsk          2361.125
       221   04 Jun 2027 00:29:49.009   04 Jun 2027 00:31:18.669            89.660                Sumatra          2801.875
       222   04 Jun 2027 00:36:19.977   04 Jun 2027 00:36:25.073             5.096                Sumatra           159.250
       223   04 Jun 2027 00:39:08.380   04 Jun 2027 00:39:51.817            43.437                Sumatra          1357.406
       224   04 Jun 2027 01:06:34.735   04 Jun 2027 01:07:11.182            36.447            RioGallegos          1138.969
       225   04 Jun 2027 01:12:54.878   04 Jun 2027 01:13:17.025            22.147            RioGallegos           692.094
       226   04 Jun 2027 01:44:17.226   04 Jun 2027 01:45:39.620            82.394                Anadyr2          2574.813
       227   04 Jun 2027 01:46:04.930   04 Jun 2027 01:46:22.354            17.424                Anadyr2           544.500
       228   04 Jun 2027 01:46:36.574   04 Jun 2027 01:47:07.937            31.363                Anadyr2           980.094
       229   04 Jun 2027 01:47:22.156   04 Jun 2027 01:48:38.085            75.929                Norilsk          2372.781
       230   04 Jun 2027 01:50:45.969   04 Jun 2027 01:51:29.041            43.072               Magadan1          1346.000
       231   04 Jun 2027 01:51:30.981   04 Jun 2027 01:53:19.461           108.480                Novosib          3390.000
       232   04 Jun 2027 01:54:32.100   04 Jun 2027 01:54:43.286            11.186                Irkutsk           349.563
       233   04 Jun 2027 01:54:59.004   04 Jun 2027 01:55:09.658            10.654                Irkutsk           332.937
       234   04 Jun 2027 01:59:43.576   04 Jun 2027 02:00:23.364            39.788                  Delhi          1243.375
       235   04 Jun 2027 02:02:45.902   04 Jun 2027 02:02:56.823            10.921                  Delhi           341.281
       236   04 Jun 2027 02:04:02.420   04 Jun 2027 02:04:20.729            18.309                  Delhi           572.156
       237   04 Jun 2027 02:05:59.572   04 Jun 2027 02:09:16.693           197.121                Sumatra          6160.031
       238   04 Jun 2027 02:46:22.256   04 Jun 2027 02:47:33.361            71.105            RioGallegos          2222.031
       239   04 Jun 2027 03:27:49.477   04 Jun 2027 03:27:58.073             8.596               Magadan2           268.625
       240   04 Jun 2027 03:31:05.620   04 Jun 2027 03:31:21.235            15.615                Irkutsk           487.969
       241   04 Jun 2027 03:31:31.254   04 Jun 2027 03:31:49.335            18.081                Novosib           565.031
       242   04 Jun 2027 03:31:54.988   04 Jun 2027 03:33:09.231            74.243                Irkutsk          2320.094
       243   04 Jun 2027 03:33:12.415   04 Jun 2027 03:37:45.560           273.145                Irkutsk          8535.781
       244   04 Jun 2027 04:17:56.663   04 Jun 2027 04:20:25.238           148.575            RioGallegos          4642.969
       245   04 Jun 2027 05:07:33.464   04 Jun 2027 05:07:37.169             3.705                Novosib           115.781
       246   04 Jun 2027 05:09:00.195   04 Jun 2027 05:09:15.047            14.852                Norilsk           464.125
       247   04 Jun 2027 05:09:30.074   04 Jun 2027 05:11:03.867            93.793                Novosib          2931.031
       248   04 Jun 2027 05:11:31.364   04 Jun 2027 05:12:41.983            70.619                Novosib          2206.844
       249   04 Jun 2027 05:14:10.812   04 Jun 2027 05:14:30.072            19.260                 Moscow           601.875
       250   04 Jun 2027 05:29:45.375   04 Jun 2027 05:30:32.361            46.986               CapeTown          1468.312
       251   04 Jun 2027 05:33:25.956   04 Jun 2027 05:34:48.537            82.581               CapeTown          2580.656
       252   04 Jun 2027 06:43:53.946   04 Jun 2027 06:44:10.552            16.606                 Moscow           518.938
       253   04 Jun 2027 06:44:56.872   04 Jun 2027 06:45:34.661            37.789                Norilsk          1180.906
       254   04 Jun 2027 06:47:05.114   04 Jun 2027 06:47:14.301             9.187              Murmansk2           287.094
       255   04 Jun 2027 06:50:32.892   04 Jun 2027 06:50:46.694            13.802                 Moscow           431.313
       256   04 Jun 2027 07:04:55.338   04 Jun 2027 07:07:34.820           159.482               CapeTown          4983.812
       257   04 Jun 2027 08:07:37.665   04 Jun 2027 08:07:46.369             8.704               Magadan2           272.000
       258   04 Jun 2027 08:08:09.835   04 Jun 2027 08:08:25.114            15.279               Magadan2           477.469
       259   04 Jun 2027 08:08:28.164   04 Jun 2027 08:09:51.418            83.254                Anadyr1          2601.687
       260   04 Jun 2027 08:10:11.179   04 Jun 2027 08:10:19.152             7.973                Anadyr1           249.156
       261   04 Jun 2027 08:10:28.215   04 Jun 2027 08:12:12.235           104.020                Anadyr2          3250.625
       262   04 Jun 2027 09:44:03.480   04 Jun 2027 09:45:11.973            68.493               Magadan2          2140.406
       263   04 Jun 2027 09:45:31.457   04 Jun 2027 09:45:44.366            12.909               Magadan1           403.406
       264   04 Jun 2027 09:45:56.469   04 Jun 2027 09:46:43.436            46.967               Magadan2          1467.719
       265   04 Jun 2027 09:47:20.517   04 Jun 2027 09:47:44.185            23.668               Magadan2           739.625
       266   04 Jun 2027 10:26:09.456   04 Jun 2027 10:26:13.149             3.693            RioGallegos           115.406
       267   04 Jun 2027 10:27:05.026   04 Jun 2027 10:28:12.588            67.562            RioGallegos          2111.313
       268   04 Jun 2027 11:15:23.017   04 Jun 2027 11:15:30.315             7.298               Magadan1           228.062
       269   04 Jun 2027 11:19:03.632   04 Jun 2027 11:20:57.886           114.254               Magadan2          3570.438
       270   04 Jun 2027 11:21:33.621   04 Jun 2027 11:22:25.844            52.223                Irkutsk          1631.969
       271   04 Jun 2027 11:22:37.013   04 Jun 2027 11:22:46.479             9.466                Irkutsk           295.812
       272   04 Jun 2027 11:22:49.214   04 Jun 2027 11:23:13.434            24.220                Norilsk           756.875
       273   04 Jun 2027 11:23:32.786   04 Jun 2027 11:24:52.982            80.196               Magadan2          2506.125
       274   04 Jun 2027 11:25:08.506   04 Jun 2027 11:25:17.504             8.998                Irkutsk           281.187
       275   04 Jun 2027 11:25:21.788   04 Jun 2027 11:25:29.033             7.245                Norilsk           226.406
       276   04 Jun 2027 12:00:14.094   04 Jun 2027 12:01:28.046            73.952            RioGallegos          2311.000
       277   04 Jun 2027 12:01:55.538   04 Jun 2027 12:03:13.304            77.766            RioGallegos          2430.188
       278   04 Jun 2027 12:48:45.936   04 Jun 2027 12:51:57.204           191.268                Irkutsk          5977.125
       279   04 Jun 2027 13:38:03.003   04 Jun 2027 13:40:03.924           120.921            RioGallegos          3778.781
       280   04 Jun 2027 14:12:16.931   04 Jun 2027 14:17:10.257           293.326                Sumatra          9166.438
       281   04 Jun 2027 14:27:51.081   04 Jun 2027 14:28:44.007            52.926                Irkutsk          1653.938
       282   04 Jun 2027 14:29:19.997   04 Jun 2027 14:31:20.934           120.937                Irkutsk          3779.281
       283   04 Jun 2027 14:32:56.486   04 Jun 2027 14:34:53.617           117.131                Irkutsk          3660.344
       284   04 Jun 2027 15:57:35.107   04 Jun 2027 15:58:13.370            38.263                  Delhi          1195.719
       285   04 Jun 2027 16:06:05.382   04 Jun 2027 16:10:22.449           257.067                Novosib          8033.344
       286   04 Jun 2027 16:12:51.619   04 Jun 2027 16:13:25.908            34.289                Novosib          1071.531
       287   04 Jun 2027 17:42:53.397   04 Jun 2027 17:44:41.850           108.453                 Moscow          3389.156
       288   04 Jun 2027 17:46:06.569   04 Jun 2027 17:46:30.499            23.930              Murmansk1           747.812
       289   04 Jun 2027 17:49:40.791   04 Jun 2027 17:50:22.693            41.902              Murmansk1          1309.438
       290   04 Jun 2027 17:58:45.873   04 Jun 2027 17:59:10.960            25.087                Anadyr1           783.969
       291   04 Jun 2027 17:59:19.298   04 Jun 2027 17:59:22.194             2.896                Anadyr1            90.500
       292   04 Jun 2027 18:00:15.839   04 Jun 2027 18:00:41.171            25.332                Anadyr2           791.625
       293   04 Jun 2027 18:01:10.729   04 Jun 2027 18:01:20.236             9.507                Anadyr2           297.094
       294   04 Jun 2027 18:04:39.938   04 Jun 2027 18:05:07.290            27.352                Anadyr2           854.750
       295   04 Jun 2027 18:53:13.417   04 Jun 2027 18:54:07.646            54.229               CapeTown          1694.656
       296   04 Jun 2027 18:59:05.426   04 Jun 2027 19:00:11.849            66.423               CapeTown          2075.719
       297   04 Jun 2027 19:20:26.660   04 Jun 2027 19:24:27.539           240.879                 Moscow          7527.469
       298   04 Jun 2027 19:26:24.043   04 Jun 2027 19:27:51.763            87.720              Murmansk2          2741.250
       299   04 Jun 2027 20:30:16.710   04 Jun 2027 20:35:20.957           304.247               CapeTown          9507.719
       300   04 Jun 2027 21:03:33.903   04 Jun 2027 21:06:41.048           187.145              Murmansk1          5848.281
       301   04 Jun 2027 21:18:29.162   04 Jun 2027 21:18:35.981             6.819               Magadan1           213.094
       302   04 Jun 2027 21:18:54.573   04 Jun 2027 21:20:01.795            67.222               Magadan1          2100.688
       303   04 Jun 2027 22:45:38.883   04 Jun 2027 22:49:27.752           228.869                Anadyr2          7152.156
       304   04 Jun 2027 22:49:27.937   04 Jun 2027 22:52:08.510           160.573               Magadan1          5017.906
       305   04 Jun 2027 22:52:08.510   04 Jun 2027 22:52:13.797             5.287               Magadan2           165.219
       306   04 Jun 2027 22:53:02.734   04 Jun 2027 22:53:35.789            33.055               Magadan1          1032.969
       307   04 Jun 2027 23:40:09.712   04 Jun 2027 23:43:01.646           171.934            RioGallegos          5372.938
       308   04 Jun 2027 23:44:50.447   04 Jun 2027 23:44:59.328             8.881            RioGallegos           277.531
       309   04 Jun 2027 23:45:48.784   04 Jun 2027 23:46:22.212            33.428            RioGallegos          1044.625
       310   05 Jun 2027 00:21:17.802   05 Jun 2027 00:22:17.683            59.881                Anadyr1          1871.281
       311   05 Jun 2027 00:22:44.599   05 Jun 2027 00:23:34.781            50.182                Anadyr1          1568.187
       312   05 Jun 2027 00:23:58.318   05 Jun 2027 00:26:03.053           124.735               Magadan2          3897.969
       313   05 Jun 2027 00:26:03.053   05 Jun 2027 00:26:29.328            26.275               Magadan1           821.094
       314   05 Jun 2027 00:26:49.249   05 Jun 2027 00:27:53.394            64.145               Magadan1          2004.531
       315   05 Jun 2027 00:28:34.148   05 Jun 2027 00:29:09.896            35.748                Irkutsk          1117.125
       316   05 Jun 2027 00:29:57.023   05 Jun 2027 00:30:33.905            36.882                Novosib          1152.562
       317   05 Jun 2027 00:31:16.646   05 Jun 2027 00:31:38.881            22.235                Novosib           694.844
       318   05 Jun 2027 00:39:18.950   05 Jun 2027 00:39:20.727             1.777                Irkutsk            55.531
       319   05 Jun 2027 00:41:30.970   05 Jun 2027 00:43:40.836           129.866                Sumatra          4058.312
       320   05 Jun 2027 00:53:39.282   05 Jun 2027 00:53:45.955             6.673                Sumatra           208.531
       321   05 Jun 2027 01:19:14.402   05 Jun 2027 01:19:21.048             6.646            RioGallegos           207.688
       322   05 Jun 2027 01:19:52.889   05 Jun 2027 01:20:10.726            17.837            RioGallegos           557.406
       323   05 Jun 2027 01:22:14.556   05 Jun 2027 01:23:09.612            55.056            RioGallegos          1720.500
       324   05 Jun 2027 01:56:06.190   05 Jun 2027 01:56:50.337            44.147                Anadyr2          1379.594
       325   05 Jun 2027 01:56:50.337   05 Jun 2027 01:57:09.999            19.662                Anadyr1           614.437
       326   05 Jun 2027 01:57:24.569   05 Jun 2027 01:57:40.776            16.207                Anadyr1           506.469
       327   05 Jun 2027 01:58:22.954   05 Jun 2027 01:58:41.299            18.345                Anadyr2           573.281
       328   05 Jun 2027 01:59:24.587   05 Jun 2027 02:00:34.447            69.860                Norilsk          2183.125
       329   05 Jun 2027 02:01:02.043   05 Jun 2027 02:01:16.540            14.497               Magadan2           453.031
       330   05 Jun 2027 02:01:36.825   05 Jun 2027 02:01:47.634            10.809               Magadan2           337.781
       331   05 Jun 2027 02:03:17.306   05 Jun 2027 02:06:30.132           192.826                Irkutsk          6025.813
       332   05 Jun 2027 02:12:28.182   05 Jun 2027 02:12:38.775            10.593                  Delhi           331.031
       333   05 Jun 2027 02:15:29.957   05 Jun 2027 02:16:17.415            47.458                  Delhi          1483.062
       334   05 Jun 2027 02:18:37.679   05 Jun 2027 02:25:16.658           398.979                Sumatra         12468.094
       335   05 Jun 2027 03:42:28.427   05 Jun 2027 03:46:17.580           229.153                Irkutsk          7161.031
       336   05 Jun 2027 03:46:22.684   05 Jun 2027 03:46:44.595            21.911                Norilsk           684.719
       337   05 Jun 2027 03:48:08.790   05 Jun 2027 03:48:50.396            41.606                Irkutsk          1300.187
       338   05 Jun 2027 03:48:58.592   05 Jun 2027 03:49:53.776            55.184                Novosib          1724.500
       339   05 Jun 2027 03:55:18.636   05 Jun 2027 03:56:31.620            72.984                  Delhi          2280.750
       340   05 Jun 2027 05:20:49.935   05 Jun 2027 05:24:54.269           244.334                Novosib          7635.438
       341   05 Jun 2027 05:25:19.114   05 Jun 2027 05:26:15.237            56.123                 Moscow          1753.844
       342   05 Jun 2027 05:27:33.409   05 Jun 2027 05:27:35.750             2.341                 Moscow            73.156
       343   05 Jun 2027 05:27:50.202   05 Jun 2027 05:28:13.411            23.209                 Moscow           725.281
       344   05 Jun 2027 05:41:22.691   05 Jun 2027 05:42:43.609            80.918               CapeTown          2528.687
       345   05 Jun 2027 05:44:35.474   05 Jun 2027 05:44:37.856             2.382               CapeTown            74.438
       346   05 Jun 2027 05:47:14.734   05 Jun 2027 05:47:42.087            27.353               CapeTown           854.781
       347   05 Jun 2027 05:47:50.569   05 Jun 2027 05:48:20.754            30.185               CapeTown           943.281
       348   05 Jun 2027 06:45:07.748   05 Jun 2027 06:46:17.146            69.398                Anadyr2          2168.688
       349   05 Jun 2027 06:46:17.146   05 Jun 2027 06:46:24.096             6.950                Anadyr1           217.188
       350   05 Jun 2027 06:59:01.924   05 Jun 2027 06:59:06.713             4.789              Murmansk1           149.656
       351   05 Jun 2027 07:01:39.518   05 Jun 2027 07:02:14.188            34.670                 Moscow          1083.437
       352   05 Jun 2027 07:02:57.662   05 Jun 2027 07:03:54.455            56.793                 Moscow          1774.781
       353   05 Jun 2027 07:17:15.931   05 Jun 2027 07:18:23.357            67.426               CapeTown          2107.062
       354   05 Jun 2027 08:20:12.355   05 Jun 2027 08:20:41.536            29.181               Magadan2           911.906
       355   05 Jun 2027 08:21:45.898   05 Jun 2027 08:22:20.808            34.910                Anadyr2          1090.937
       356   05 Jun 2027 08:22:20.808   05 Jun 2027 08:22:50.199            29.391                Anadyr1           918.469
       357   05 Jun 2027 09:56:02.710   05 Jun 2027 09:57:01.314            58.604               Magadan2          1831.375
       358   05 Jun 2027 09:57:58.018   05 Jun 2027 09:58:15.120            17.102               Magadan1           534.438
       359   05 Jun 2027 09:58:54.436   05 Jun 2027 09:59:41.154            46.718               Magadan1          1459.937
       360   05 Jun 2027 10:37:45.525   05 Jun 2027 10:38:10.400            24.875            RioGallegos           777.344
       361   05 Jun 2027 11:30:45.633   05 Jun 2027 11:32:40.213           114.580               Magadan2          3580.625
       362   05 Jun 2027 11:33:30.559   05 Jun 2027 11:33:57.497            26.938               Magadan2           841.812
       363   05 Jun 2027 11:33:57.497   05 Jun 2027 11:36:16.741           139.244               Magadan1          4351.375
       364   05 Jun 2027 11:36:32.608   05 Jun 2027 11:36:53.428            20.820                Norilsk           650.625
       365   05 Jun 2027 11:37:03.452   05 Jun 2027 11:37:32.676            29.224                Irkutsk           913.250
       366   05 Jun 2027 11:38:03.818   05 Jun 2027 11:38:31.495            27.677                Norilsk           864.906
       367   05 Jun 2027 12:12:16.443   05 Jun 2027 12:13:24.591            68.148            RioGallegos          2129.625
       368   05 Jun 2027 12:47:24.523   05 Jun 2027 12:48:11.847            47.324                Sumatra          1478.875
       369   05 Jun 2027 12:51:11.229   05 Jun 2027 12:53:16.485           125.256                Sumatra          3914.250
       370   05 Jun 2027 13:01:36.991   05 Jun 2027 13:03:56.695           139.704                Irkutsk          4365.750
       371   05 Jun 2027 13:50:42.141   05 Jun 2027 13:51:13.341            31.200            RioGallegos           975.000
       372   05 Jun 2027 13:53:29.407   05 Jun 2027 13:55:20.890           111.483            RioGallegos          3483.844
       373   05 Jun 2027 14:25:02.781   05 Jun 2027 14:29:34.720           271.939                Sumatra          8498.094
       374   05 Jun 2027 14:40:49.761   05 Jun 2027 14:44:57.464           247.703                Irkutsk          7740.719
       375   05 Jun 2027 16:10:45.255   05 Jun 2027 16:17:05.829           380.574                  Delhi         11892.938
       376   05 Jun 2027 16:19:12.013   05 Jun 2027 16:24:52.520           340.507                Novosib         10640.844
       377   05 Jun 2027 19:12:04.638   05 Jun 2027 19:13:02.087            57.449               CapeTown          1795.281
       378   05 Jun 2027 19:33:55.750   05 Jun 2027 19:37:20.008           204.258                 Moscow          6383.062
       379   05 Jun 2027 19:37:35.771   05 Jun 2027 19:40:08.645           152.874              Murmansk2          4777.312
       380   05 Jun 2027 20:42:49.745   05 Jun 2027 20:47:40.792           291.047               CapeTown          9095.219
       381   05 Jun 2027 20:49:43.929   05 Jun 2027 20:50:27.999            44.070               CapeTown          1377.188
       382   05 Jun 2027 21:24:12.602   05 Jun 2027 21:24:37.191            24.589               Magadan1           768.406
       383   05 Jun 2027 21:25:10.194   05 Jun 2027 21:25:40.095            29.901               Magadan1           934.406
       384   05 Jun 2027 21:26:52.086   05 Jun 2027 21:27:10.425            18.339               Magadan1           573.094
       385   05 Jun 2027 21:28:07.075   05 Jun 2027 21:28:42.577            35.502               Magadan1          1109.438
       386   05 Jun 2027 21:34:52.709   05 Jun 2027 21:35:31.069            38.360               Magadan1          1198.750
       387   05 Jun 2027 22:57:39.897   05 Jun 2027 23:01:27.884           227.987                Anadyr2          7124.594
       388   05 Jun 2027 23:01:55.773   05 Jun 2027 23:02:47.266            51.493                Anadyr1          1609.156
       389   05 Jun 2027 23:02:47.814   05 Jun 2027 23:03:38.027            50.213                Norilsk          1569.156
       390   05 Jun 2027 23:04:07.142   05 Jun 2027 23:05:02.796            55.654               Magadan2          1739.187
       391   05 Jun 2027 23:05:28.565   05 Jun 2027 23:05:36.934             8.369               Magadan1           261.531
       392   05 Jun 2027 23:06:21.260   05 Jun 2027 23:06:37.484            16.224               Magadan1           507.000
       393   05 Jun 2027 23:07:17.995   05 Jun 2027 23:08:27.406            69.411               Magadan2          2169.094
       394   05 Jun 2027 23:12:43.793   05 Jun 2027 23:12:49.348             5.555               Magadan1           173.594
       395   05 Jun 2027 23:51:58.871   05 Jun 2027 23:54:11.892           133.021            RioGallegos          4156.906
       396   05 Jun 2027 23:55:07.358   05 Jun 2027 23:55:30.200            22.842            RioGallegos           713.812
       397   05 Jun 2027 23:56:06.143   05 Jun 2027 23:56:33.361            27.218            RioGallegos           850.563
       398   05 Jun 2027 23:57:24.837   05 Jun 2027 23:57:39.834            14.997            RioGallegos           468.656
       399   06 Jun 2027 00:00:20.573   06 Jun 2027 00:00:51.509            30.936            RioGallegos           966.750
       400   06 Jun 2027 00:33:14.668   06 Jun 2027 00:33:45.963            31.295                Anadyr2           977.969
       401   06 Jun 2027 00:34:03.377   06 Jun 2027 00:34:07.235             3.858                Anadyr1           120.562
       402   06 Jun 2027 00:34:24.244   06 Jun 2027 00:34:41.934            17.690                Anadyr2           552.813
       403   06 Jun 2027 00:35:16.120   06 Jun 2027 00:35:46.796            30.676                Anadyr1           958.625
       404   06 Jun 2027 00:36:00.805   06 Jun 2027 00:37:19.849            79.044                Norilsk          2470.125
       405   06 Jun 2027 00:37:45.440   06 Jun 2027 00:39:28.367           102.927               Magadan2          3216.469
       406   06 Jun 2027 00:39:36.433   06 Jun 2027 00:40:45.957            69.524                Irkutsk          2172.625
       407   06 Jun 2027 00:41:11.442   06 Jun 2027 00:42:14.036            62.594                Novosib          1956.063
       408   06 Jun 2027 00:50:19.305   06 Jun 2027 00:51:06.703            47.398                Irkutsk          1481.187
       409   06 Jun 2027 00:54:05.991   06 Jun 2027 00:56:12.435           126.444                Sumatra          3951.375
       410   06 Jun 2027 01:30:39.654   06 Jun 2027 01:30:42.331             2.677            RioGallegos            83.656
       411   06 Jun 2027 01:31:05.616   06 Jun 2027 01:31:18.501            12.885            RioGallegos           402.656
       412   06 Jun 2027 01:35:15.788   06 Jun 2027 01:36:04.514            48.726            RioGallegos          1522.687
       413   06 Jun 2027 01:39:59.244   06 Jun 2027 01:40:11.016            11.772            RioGallegos           367.875
       414   06 Jun 2027 02:08:36.394   06 Jun 2027 02:09:40.011            63.617                Anadyr1          1988.031
       415   06 Jun 2027 02:11:27.046   06 Jun 2027 02:12:27.836            60.790                Norilsk          1899.687
       416   06 Jun 2027 02:12:37.070   06 Jun 2027 02:13:03.100            26.030               Magadan2           813.437
       417   06 Jun 2027 02:15:20.763   06 Jun 2027 02:18:16.374           175.611                Irkutsk          5487.844
       418   06 Jun 2027 02:23:52.939   06 Jun 2027 02:24:36.472            43.533                  Delhi          1360.406
       419   06 Jun 2027 02:30:17.434   06 Jun 2027 02:32:28.115           130.681                  Delhi          4083.781
       420   06 Jun 2027 02:37:46.709   06 Jun 2027 02:38:41.111            54.402                Sumatra          1700.062
       421   06 Jun 2027 03:06:11.520   06 Jun 2027 03:06:58.830            47.310            RioGallegos          1478.437
       422   06 Jun 2027 03:07:20.669   06 Jun 2027 03:08:03.876            43.207            RioGallegos          1350.219
       423   06 Jun 2027 03:12:20.833   06 Jun 2027 03:12:51.310            30.477            RioGallegos           952.406
       424   06 Jun 2027 03:55:20.828   06 Jun 2027 03:55:45.724            24.896                Norilsk           778.000
       425   06 Jun 2027 03:55:50.629   06 Jun 2027 03:57:09.467            78.838                 Moscow          2463.687
       426   06 Jun 2027 03:57:14.526   06 Jun 2027 03:57:23.003             8.477                 Moscow           264.906
       427   06 Jun 2027 03:57:26.115   06 Jun 2027 04:00:40.959           194.844                Irkutsk          6088.875
       428   06 Jun 2027 04:02:53.570   06 Jun 2027 04:03:43.877            50.307                Novosib          1572.094
       429   06 Jun 2027 04:04:43.335   06 Jun 2027 04:07:10.085           146.750                  Delhi          4585.937
       430   06 Jun 2027 04:08:53.664   06 Jun 2027 04:10:12.218            78.554                  Delhi          2454.813
       431   06 Jun 2027 05:32:52.173   06 Jun 2027 05:35:18.021           145.848                Norilsk          4557.750
       432   06 Jun 2027 05:35:43.884   06 Jun 2027 05:36:44.603            60.719                Novosib          1897.469
       433   06 Jun 2027 05:36:56.691   06 Jun 2027 05:37:08.626            11.935                 Moscow           372.969
       434   06 Jun 2027 05:38:20.150   06 Jun 2027 05:39:01.169            41.019                 Moscow          1281.844
       435   06 Jun 2027 05:39:45.344   06 Jun 2027 05:39:46.245             0.901                 Moscow            28.156
       436   06 Jun 2027 05:40:14.863   06 Jun 2027 05:40:16.563             1.700                 Moscow            53.125
       437   06 Jun 2027 05:40:30.117   06 Jun 2027 05:40:44.282            14.165                 Moscow           442.656
       438   06 Jun 2027 05:41:07.132   06 Jun 2027 05:41:28.392            21.260                 Moscow           664.375
       439   06 Jun 2027 05:53:05.848   06 Jun 2027 05:54:57.258           111.410               CapeTown          3481.563
       440   06 Jun 2027 06:56:37.582   06 Jun 2027 06:56:47.114             9.532                Anadyr2           297.875
       441   06 Jun 2027 06:56:59.255   06 Jun 2027 06:57:37.878            38.623               Magadan2          1206.969
       442   06 Jun 2027 06:58:17.636   06 Jun 2027 06:58:25.885             8.249                Anadyr2           257.781
       443   06 Jun 2027 06:59:37.174   06 Jun 2027 07:00:12.108            34.934                Anadyr1          1091.688
       444   06 Jun 2027 07:08:50.948   06 Jun 2027 07:09:00.644             9.696                Norilsk           303.000
       445   06 Jun 2027 07:13:36.198   06 Jun 2027 07:13:52.775            16.577                 Moscow           518.031
       446   06 Jun 2027 07:16:33.935   06 Jun 2027 07:16:43.308             9.373                 Moscow           292.906
       447   06 Jun 2027 07:29:43.861   06 Jun 2027 07:32:53.734           189.873               CapeTown          5933.531
       448   06 Jun 2027 08:30:24.777   06 Jun 2027 08:31:08.290            43.513               Magadan1          1359.781
       449   06 Jun 2027 08:31:11.115   06 Jun 2027 08:31:20.070             8.955               Magadan1           279.844
       450   06 Jun 2027 08:31:21.980   06 Jun 2027 08:32:28.503            66.523                Anadyr2          2078.844
       451   06 Jun 2027 08:32:44.795   06 Jun 2027 08:33:52.658            67.863               Magadan1          2120.719
       452   06 Jun 2027 08:33:59.521   06 Jun 2027 08:34:49.961            50.440               Magadan1          1576.250
       453   06 Jun 2027 08:34:56.254   06 Jun 2027 08:35:33.547            37.293               Magadan2          1165.406
       454   06 Jun 2027 09:18:22.447   06 Jun 2027 09:18:36.795            14.348            RioGallegos           448.375
       455   06 Jun 2027 09:22:58.630   06 Jun 2027 09:23:30.796            32.166            RioGallegos          1005.187
       456   06 Jun 2027 10:05:34.120   06 Jun 2027 10:05:51.696            17.576               Magadan1           549.250
       457   06 Jun 2027 10:08:01.134   06 Jun 2027 10:08:46.716            45.582               Magadan1          1424.437
       458   06 Jun 2027 10:09:59.168   06 Jun 2027 10:10:36.902            37.734               Magadan1          1179.187
       459   06 Jun 2027 10:11:07.145   06 Jun 2027 10:11:18.465            11.320               Magadan2           353.750
       460   06 Jun 2027 10:11:36.832   06 Jun 2027 10:13:50.570           133.738               Magadan2          4179.312
       461   06 Jun 2027 11:42:18.673   06 Jun 2027 11:48:33.284           374.611               Magadan2         11706.594
       462   06 Jun 2027 11:49:20.820   06 Jun 2027 11:49:46.088            25.268                Norilsk           789.625
       463   06 Jun 2027 12:24:22.254   06 Jun 2027 12:25:19.443            57.189            RioGallegos          1787.156
       464   06 Jun 2027 12:27:33.975   06 Jun 2027 12:28:17.657            43.682            RioGallegos          1365.063
       465   06 Jun 2027 12:59:16.274   06 Jun 2027 12:59:58.509            42.235                Sumatra          1319.844
       466   06 Jun 2027 13:02:18.688   06 Jun 2027 13:02:32.952            14.264                Sumatra           445.750
       467   06 Jun 2027 13:07:31.888   06 Jun 2027 13:08:48.121            76.233                Sumatra          2382.281
       468   06 Jun 2027 13:13:08.979   06 Jun 2027 13:13:27.877            18.898                Irkutsk           590.562
       469   06 Jun 2027 13:14:25.587   06 Jun 2027 13:15:37.851            72.264                Novosib          2258.250
       470   06 Jun 2027 13:15:55.041   06 Jun 2027 13:16:33.584            38.543                Irkutsk          1204.469
       471   06 Jun 2027 13:28:32.787   06 Jun 2027 13:28:42.318             9.531                Norilsk           297.844
       472   06 Jun 2027 14:03:30.256   06 Jun 2027 14:07:34.734           244.478            RioGallegos          7639.938
       473   06 Jun 2027 14:38:14.756   06 Jun 2027 14:42:09.438           234.682                Sumatra          7333.813
       474   06 Jun 2027 14:54:10.174   06 Jun 2027 14:58:48.778           278.604                Irkutsk          8706.375
       475   06 Jun 2027 16:25:07.094   06 Jun 2027 16:26:59.431           112.337                  Delhi          3510.531
       476   06 Jun 2027 16:32:52.763   06 Jun 2027 16:35:48.196           175.433                Novosib          5482.281
       477   06 Jun 2027 16:39:46.695   06 Jun 2027 16:40:06.079            19.384                Norilsk           605.750
       478   06 Jun 2027 18:04:43.710   06 Jun 2027 18:04:55.434            11.724                 Moscow           366.375
       479   06 Jun 2027 18:06:48.213   06 Jun 2027 18:09:40.961           172.748                 Moscow          5398.375
       480   06 Jun 2027 18:13:33.336   06 Jun 2027 18:14:37.241            63.905                 Moscow          1997.031
       481   06 Jun 2027 18:25:56.701   06 Jun 2027 18:26:00.985             4.284                Anadyr1           133.875
       482   06 Jun 2027 18:26:41.159   06 Jun 2027 18:26:59.045            17.886                Anadyr1           558.937
