uniorb/output/strategy_4/Drop/Drop_KinoSat_112007.txt

KinoSat_112007
-------------------------
    Access    *     Start Time (UTCG)     *     Stop Time (UTCG)  *   Duration (s)        *       Station  *  Data (Mbytes)
         1   01 Jun 2027 04:16:22.093   01 Jun 2027 04:17:58.971            96.878                Irkutsk          3027.437
         2   01 Jun 2027 04:18:11.052   01 Jun 2027 04:21:58.761           227.709                Irkutsk          7115.906
         3   01 Jun 2027 04:22:50.694   01 Jun 2027 04:23:13.469            22.775                Irkutsk           711.719
         4   01 Jun 2027 05:55:04.519   01 Jun 2027 05:55:44.534            40.015                Norilsk          1250.469
         5   01 Jun 2027 05:55:47.238   01 Jun 2027 05:58:32.519           165.281                Novosib          5165.031
         6   01 Jun 2027 05:58:43.930   01 Jun 2027 05:59:57.933            74.003              Murmansk2          2312.594
         7   01 Jun 2027 06:00:42.363   01 Jun 2027 06:03:40.053           177.690                 Moscow          5552.813
         8   01 Jun 2027 06:15:29.639   01 Jun 2027 06:22:06.283           396.644               CapeTown         12395.125
         9   01 Jun 2027 07:31:02.566   01 Jun 2027 07:31:17.286            14.720                Norilsk           460.000
        10   01 Jun 2027 07:31:38.252   01 Jun 2027 07:31:56.516            18.264                Norilsk           570.750
        11   01 Jun 2027 07:32:00.126   01 Jun 2027 07:32:46.441            46.315              Murmansk2          1447.344
        12   01 Jun 2027 07:32:46.441   01 Jun 2027 07:34:14.224            87.783              Murmansk1          2743.219
        13   01 Jun 2027 07:34:14.224   01 Jun 2027 07:34:34.844            20.620              Murmansk2           644.375
        14   01 Jun 2027 07:34:41.235   01 Jun 2027 07:34:49.424             8.189                 Moscow           255.906
        15   01 Jun 2027 07:35:47.305   01 Jun 2027 07:36:23.456            36.151              Murmansk1          1129.719
        16   01 Jun 2027 07:36:32.402   01 Jun 2027 07:38:06.758            94.356                 Moscow          2948.625
        17   01 Jun 2027 07:51:47.485   01 Jun 2027 07:57:25.660           338.175               CapeTown         10567.969
        18   01 Jun 2027 07:57:42.388   01 Jun 2027 08:01:46.814           244.426               CapeTown          7638.312
        19   01 Jun 2027 08:55:07.974   01 Jun 2027 08:56:20.886            72.912               Magadan2          2278.500
        20   01 Jun 2027 08:56:20.886   01 Jun 2027 08:57:09.574            48.688               Magadan1          1521.500
        21   01 Jun 2027 08:57:37.037   01 Jun 2027 08:59:17.875           100.838                Anadyr2          3151.188
        22   01 Jun 2027 10:27:18.956   01 Jun 2027 10:35:58.211           519.255                Anadyr1         16226.719
        23   01 Jun 2027 12:02:42.610   01 Jun 2027 12:11:10.160           507.550               Magadan2         15860.937
        24   01 Jun 2027 14:27:24.606   01 Jun 2027 14:32:20.640           296.034            RioGallegos          9251.063
        25   01 Jun 2027 14:59:55.178   01 Jun 2027 15:06:53.760           418.582                Sumatra         13080.687
        26   01 Jun 2027 15:15:47.277   01 Jun 2027 15:21:31.015           343.738                Irkutsk         10741.812
        27   01 Jun 2027 16:46:00.875   01 Jun 2027 16:50:32.786           271.911                  Delhi          8497.219
        28   01 Jun 2027 16:54:17.047   01 Jun 2027 16:58:41.565           264.518                Novosib          8266.188
        29   01 Jun 2027 20:09:43.281   01 Jun 2027 20:10:00.100            16.819              Murmansk1           525.594
        30   01 Jun 2027 20:10:03.471   01 Jun 2027 20:10:26.040            22.569                 Moscow           705.281
        31   01 Jun 2027 20:12:29.087   01 Jun 2027 20:14:28.341           119.254              Murmansk2          3726.687
        32   01 Jun 2027 20:16:00.233   01 Jun 2027 20:16:24.542            24.309              Murmansk1           759.656
        33   01 Jun 2027 21:17:31.511   01 Jun 2027 21:24:08.260           396.749               CapeTown         12398.406
        34   02 Jun 2027 03:06:37.602   02 Jun 2027 03:12:08.520           330.918                Sumatra         10341.187
        35   02 Jun 2027 03:42:35.342   02 Jun 2027 03:42:46.028            10.686            RioGallegos           333.937
        36   02 Jun 2027 04:28:31.096   02 Jun 2027 04:30:10.643            99.547                Irkutsk          3110.844
        37   02 Jun 2027 04:30:44.360   02 Jun 2027 04:31:46.801            62.441                Irkutsk          1951.281
        38   02 Jun 2027 04:37:29.763   02 Jun 2027 04:38:35.768            66.005                  Delhi          2062.656
        39   02 Jun 2027 06:09:51.944   02 Jun 2027 06:10:54.157            62.213                 Moscow          1944.156
        40   02 Jun 2027 06:13:56.798   02 Jun 2027 06:15:51.277           114.479                 Moscow          3577.469
        41   02 Jun 2027 06:27:15.848   02 Jun 2027 06:34:41.455           445.607               CapeTown         13925.219
        42   02 Jun 2027 06:34:54.640   02 Jun 2027 06:35:02.965             8.325               CapeTown           260.156
        43   02 Jun 2027 07:23:44.580   02 Jun 2027 07:24:29.104            44.524                Anadyr1          1391.375
        44   02 Jun 2027 07:25:45.291   02 Jun 2027 07:26:01.677            16.386               Magadan2           512.062
        45   02 Jun 2027 07:26:01.677   02 Jun 2027 07:26:32.548            30.871               Magadan1           964.719
        46   02 Jun 2027 07:30:24.366   02 Jun 2027 07:31:27.405            63.039               Magadan2          1969.969
        47   02 Jun 2027 07:31:45.806   02 Jun 2027 07:33:58.716           132.910                Anadyr2          4153.438
        48   02 Jun 2027 07:34:07.015   02 Jun 2027 07:34:27.581            20.566               Magadan1           642.688
        49   02 Jun 2027 07:45:13.281   02 Jun 2027 07:46:49.343            96.062                 Moscow          3001.938
        50   02 Jun 2027 08:04:20.243   02 Jun 2027 08:14:27.747           607.504               CapeTown         18984.500
        51   02 Jun 2027 09:02:58.388   02 Jun 2027 09:03:23.965            25.577                Anadyr1           799.281
        52   02 Jun 2027 09:04:35.487   02 Jun 2027 09:05:11.241            35.754                Anadyr1          1117.312
        53   02 Jun 2027 09:06:49.429   02 Jun 2027 09:07:58.124            68.695                Anadyr1          2146.719
        54   02 Jun 2027 09:09:13.653   02 Jun 2027 09:10:33.544            79.891               Magadan2          2496.594
        55   02 Jun 2027 09:12:04.870   02 Jun 2027 09:12:33.001            28.131                Anadyr2           879.094
        56   02 Jun 2027 10:40:01.938   02 Jun 2027 10:44:48.979           287.041                Anadyr2          8970.031
        57   02 Jun 2027 10:45:24.748   02 Jun 2027 10:45:34.511             9.763               Magadan2           305.094
        58   02 Jun 2027 10:45:57.225   02 Jun 2027 10:46:26.606            29.381               Magadan2           918.156
        59   02 Jun 2027 10:46:26.606   02 Jun 2027 10:46:46.389            19.783               Magadan1           618.219
        60   02 Jun 2027 10:47:15.224   02 Jun 2027 10:47:32.020            16.796                Norilsk           524.875
        61   02 Jun 2027 11:23:32.277   02 Jun 2027 11:24:07.855            35.578            RioGallegos          1111.813
        62   02 Jun 2027 11:25:43.140   02 Jun 2027 11:26:50.864            67.724            RioGallegos          2116.375
        63   02 Jun 2027 12:11:25.928   02 Jun 2027 12:13:14.555           108.627                Irkutsk          3394.594
        64   02 Jun 2027 12:14:19.129   02 Jun 2027 12:15:02.929            43.800                Irkutsk          1368.750
        65   02 Jun 2027 12:15:32.315   02 Jun 2027 12:22:53.074           440.759               Magadan2         13773.719
        66   02 Jun 2027 13:52:26.334   02 Jun 2027 13:53:32.467            66.133                Irkutsk          2066.656
        67   02 Jun 2027 14:38:19.200   02 Jun 2027 14:45:38.224           439.024            RioGallegos         13719.500
        68   02 Jun 2027 15:13:43.738   02 Jun 2027 15:16:59.281           195.543                Sumatra          6110.719
        69   02 Jun 2027 15:29:36.678   02 Jun 2027 15:32:16.146           159.468                Irkutsk          4983.375
        70   02 Jun 2027 17:09:08.780   02 Jun 2027 17:11:03.783           115.003                Norilsk          3593.844
        71   02 Jun 2027 18:39:14.010   02 Jun 2027 18:39:56.383            42.373                 Moscow          1324.156
        72   02 Jun 2027 18:40:57.633   02 Jun 2027 18:41:02.993             5.360                 Moscow           167.500
        73   02 Jun 2027 18:42:27.774   02 Jun 2027 18:42:47.138            19.364              Murmansk1           605.125
        74   02 Jun 2027 18:43:44.560   02 Jun 2027 18:44:26.259            41.699                 Moscow          1303.094
        75   02 Jun 2027 18:44:53.084   02 Jun 2027 18:46:47.945           114.861              Murmansk2          3589.406
        76   02 Jun 2027 18:47:42.899   02 Jun 2027 18:49:09.558            86.659                 Moscow          2708.094
        77   02 Jun 2027 19:51:34.203   02 Jun 2027 19:53:45.409           131.206               CapeTown          4100.187
        78   02 Jun 2027 20:21:35.235   02 Jun 2027 20:22:55.726            80.491              Murmansk1          2515.344
        79   02 Jun 2027 20:23:00.529   02 Jun 2027 20:27:13.300           252.771              Murmansk2          7899.094
        80   02 Jun 2027 20:27:46.808   02 Jun 2027 20:30:14.768           147.960              Murmansk1          4623.750
        81   02 Jun 2027 21:30:39.423   02 Jun 2027 21:34:36.217           236.794               CapeTown          7399.813
        82   02 Jun 2027 22:12:21.342   02 Jun 2027 22:12:41.614            20.272               Magadan1           633.500
        83   02 Jun 2027 22:12:43.185   02 Jun 2027 22:12:57.364            14.179               Magadan1           443.094
        84   02 Jun 2027 22:13:38.418   02 Jun 2027 22:13:46.347             7.929               Magadan1           247.781
        85   02 Jun 2027 22:14:19.746   02 Jun 2027 22:14:21.623             1.877               Magadan2            58.656
        86   02 Jun 2027 22:19:11.796   02 Jun 2027 22:19:58.212            46.416               Magadan1          1450.500
        87   02 Jun 2027 23:43:58.041   02 Jun 2027 23:48:49.163           291.122                Anadyr2          9097.562
        88   02 Jun 2027 23:49:05.966   02 Jun 2027 23:49:33.340            27.374                Norilsk           855.438
        89   02 Jun 2027 23:49:42.994   02 Jun 2027 23:50:12.422            29.428               Magadan2           919.625
        90   02 Jun 2027 23:50:44.314   02 Jun 2027 23:51:25.023            40.709                Norilsk          1272.156
        91   02 Jun 2027 23:51:40.712   02 Jun 2027 23:52:08.143            27.431               Magadan2           857.219
        92   02 Jun 2027 23:52:56.317   02 Jun 2027 23:53:25.190            28.873                Irkutsk           902.281
        93   02 Jun 2027 23:53:59.282   02 Jun 2027 23:54:46.559            47.277                Irkutsk          1477.406
        94   02 Jun 2027 23:57:00.978   02 Jun 2027 23:57:56.980            56.002                Irkutsk          1750.062
        95   03 Jun 2027 00:08:21.240   03 Jun 2027 00:09:08.489            47.249                Sumatra          1476.531
        96   03 Jun 2027 00:09:22.422   03 Jun 2027 00:10:50.430            88.008                Sumatra          2750.250
        97   03 Jun 2027 00:38:04.343   03 Jun 2027 00:39:12.663            68.320            RioGallegos          2135.000
        98   03 Jun 2027 00:48:50.803   03 Jun 2027 00:49:07.520            16.717            RioGallegos           522.406
        99   03 Jun 2027 00:49:56.141   03 Jun 2027 00:49:58.736             2.595            RioGallegos            81.094
       100   03 Jun 2027 01:19:25.264   03 Jun 2027 01:19:58.027            32.763                Anadyr1          1023.844
       101   03 Jun 2027 01:20:49.943   03 Jun 2027 01:21:24.066            34.123                Anadyr2          1066.344
       102   03 Jun 2027 01:21:47.386   03 Jun 2027 01:23:50.562           123.176                Norilsk          3849.250
       103   03 Jun 2027 01:24:11.464   03 Jun 2027 01:24:58.000            46.536               Magadan2          1454.250
       104   03 Jun 2027 01:25:48.348   03 Jun 2027 01:27:31.092           102.744                Irkutsk          3210.750
       105   03 Jun 2027 01:28:53.260   03 Jun 2027 01:29:50.007            56.747                Novosib          1773.344
       106   03 Jun 2027 01:39:30.939   03 Jun 2027 01:42:04.055           153.116                Sumatra          4784.875
       107   03 Jun 2027 01:42:40.599   03 Jun 2027 01:43:43.224            62.625                Sumatra          1957.031
       108   03 Jun 2027 02:19:43.899   03 Jun 2027 02:20:16.249            32.350            RioGallegos          1010.937
       109   03 Jun 2027 02:55:02.291   03 Jun 2027 02:56:15.020            72.729                Anadyr1          2272.781
       110   03 Jun 2027 02:57:47.862   03 Jun 2027 02:58:28.613            40.751                Norilsk          1273.469
       111   03 Jun 2027 02:58:50.791   03 Jun 2027 02:59:08.969            18.178                Norilsk           568.062
       112   03 Jun 2027 03:01:54.386   03 Jun 2027 03:02:07.167            12.781               Magadan1           399.406
       113   03 Jun 2027 03:02:12.206   03 Jun 2027 03:02:16.230             4.024                Anadyr1           125.750
       114   03 Jun 2027 03:02:18.028   03 Jun 2027 03:02:48.224            30.196                Norilsk           943.625
       115   03 Jun 2027 03:02:58.425   03 Jun 2027 03:04:51.623           113.198               Magadan2          3537.438
       116   03 Jun 2027 03:05:07.086   03 Jun 2027 03:05:31.429            24.343                Irkutsk           760.719
       117   03 Jun 2027 03:05:51.494   03 Jun 2027 03:07:53.687           122.193                Irkutsk          3818.531
       118   03 Jun 2027 03:08:09.562   03 Jun 2027 03:08:58.930            49.368                Norilsk          1542.750
       119   03 Jun 2027 03:09:06.029   03 Jun 2027 03:11:28.078           142.049                  Delhi          4439.031
       120   03 Jun 2027 03:51:37.620   03 Jun 2027 03:55:08.129           210.509            RioGallegos          6578.406
       121   03 Jun 2027 04:42:09.656   03 Jun 2027 04:45:55.019           225.363                Irkutsk          7042.594
       122   03 Jun 2027 04:45:57.189   03 Jun 2027 04:46:04.804             7.615              Murmansk2           237.969
       123   03 Jun 2027 04:46:21.106   03 Jun 2027 04:51:33.792           312.686                  Delhi          9771.438
       124   03 Jun 2027 06:19:01.618   03 Jun 2027 06:19:01.884             0.266                Norilsk             8.313
       125   03 Jun 2027 06:19:43.621   03 Jun 2027 06:19:43.639             0.018                Norilsk             0.562
       126   03 Jun 2027 06:19:53.077   03 Jun 2027 06:20:42.745            49.668                Novosib          1552.125
       127   03 Jun 2027 06:20:52.416   03 Jun 2027 06:21:16.392            23.976                Novosib           749.250
       128   03 Jun 2027 06:21:31.003   03 Jun 2027 06:21:55.291            24.288              Murmansk2           759.000
       129   03 Jun 2027 06:22:04.479   03 Jun 2027 06:22:57.120            52.641                 Moscow          1645.031
       130   03 Jun 2027 06:26:01.840   03 Jun 2027 06:26:03.441             1.601                 Moscow            50.031
       131   03 Jun 2027 06:39:07.301   03 Jun 2027 06:42:12.575           185.274               CapeTown          5789.812
       132   03 Jun 2027 07:42:24.505   03 Jun 2027 07:42:33.970             9.465                Anadyr2           295.781
       133   03 Jun 2027 07:42:55.255   03 Jun 2027 07:43:26.567            31.312               Magadan1           978.500
       134   03 Jun 2027 07:43:44.864   03 Jun 2027 07:44:27.113            42.249               Magadan2          1320.281
       135   03 Jun 2027 07:46:06.350   03 Jun 2027 07:46:30.581            24.231               Magadan2           757.219
       136   03 Jun 2027 07:56:41.454   03 Jun 2027 07:57:04.184            22.730              Murmansk1           710.313
       137   03 Jun 2027 07:57:08.270   03 Jun 2027 07:57:52.330            44.060                 Moscow          1376.875
       138   03 Jun 2027 08:17:03.718   03 Jun 2027 08:18:26.200            82.482               CapeTown          2577.563
       139   03 Jun 2027 08:23:08.755   03 Jun 2027 08:25:41.563           152.808               CapeTown          4775.250
       140   03 Jun 2027 08:25:55.985   03 Jun 2027 08:26:06.127            10.142               CapeTown           316.938
       141   03 Jun 2027 09:16:29.196   03 Jun 2027 09:17:36.719            67.523                Anadyr2          2110.094
       142   03 Jun 2027 09:18:12.640   03 Jun 2027 09:18:38.953            26.313               Magadan2           822.281
       143   03 Jun 2027 09:19:21.005   03 Jun 2027 09:19:35.504            14.499               Magadan1           453.094
       144   03 Jun 2027 09:19:43.592   03 Jun 2027 09:20:54.667            71.075                Anadyr2          2221.094
       145   03 Jun 2027 09:20:58.469   03 Jun 2027 09:21:01.582             3.113               Magadan1            97.281
       146   03 Jun 2027 09:21:47.921   03 Jun 2027 09:22:28.742            40.821                Anadyr2          1275.656
       147   03 Jun 2027 09:23:33.616   03 Jun 2027 09:23:42.922             9.306                Anadyr2           290.813
       148   03 Jun 2027 10:03:16.742   03 Jun 2027 10:03:29.312            12.570            RioGallegos           392.813
       149   03 Jun 2027 10:03:53.729   03 Jun 2027 10:04:51.878            58.149            RioGallegos          1817.156
       150   03 Jun 2027 10:51:41.628   03 Jun 2027 10:52:52.632            71.004               Magadan1          2218.875
       151   03 Jun 2027 10:53:10.323   03 Jun 2027 10:56:28.597           198.274                Anadyr1          6196.062
       152   03 Jun 2027 10:57:28.047   03 Jun 2027 10:57:46.321            18.274                Norilsk           571.063
       153   03 Jun 2027 10:57:49.852   03 Jun 2027 10:58:01.420            11.568               Magadan2           361.500
       154   03 Jun 2027 10:58:01.420   03 Jun 2027 10:59:52.012           110.592               Magadan1          3456.000
       155   03 Jun 2027 12:13:22.287   03 Jun 2027 12:14:43.242            80.955                Sumatra          2529.844
       156   03 Jun 2027 12:23:18.030   03 Jun 2027 12:24:35.791            77.761                Irkutsk          2430.031
       157   03 Jun 2027 12:28:33.139   03 Jun 2027 12:34:27.748           354.609               Magadan2         11081.531
       158   03 Jun 2027 13:48:40.684   03 Jun 2027 13:49:52.317            71.633                Sumatra          2238.531
       159   03 Jun 2027 13:59:54.943   03 Jun 2027 14:00:23.944            29.001                Irkutsk           906.281
       160   03 Jun 2027 14:02:04.325   03 Jun 2027 14:05:39.068           214.743                Irkutsk          6710.719
       161   03 Jun 2027 14:51:31.823   03 Jun 2027 14:56:56.647           324.824            RioGallegos         10150.750
       162   03 Jun 2027 15:43:02.334   03 Jun 2027 15:43:04.236             1.902                Novosib            59.438
       163   03 Jun 2027 15:45:39.097   03 Jun 2027 15:46:14.298            35.201                Novosib          1100.031
       164   03 Jun 2027 15:47:22.235   03 Jun 2027 15:47:45.334            23.099                Novosib           721.844
       165   03 Jun 2027 17:15:32.102   03 Jun 2027 17:16:24.324            52.222                 Moscow          1631.938
       166   03 Jun 2027 17:18:39.707   03 Jun 2027 17:19:08.795            29.088              Murmansk2           909.000
       167   03 Jun 2027 17:21:20.249   03 Jun 2027 17:22:04.143            43.894                 Moscow          1371.688
       168   03 Jun 2027 17:22:37.371   03 Jun 2027 17:25:42.584           185.213                Norilsk          5787.906
       169   03 Jun 2027 17:27:11.398   03 Jun 2027 17:28:00.479            49.081                Norilsk          1533.781
       170   03 Jun 2027 18:51:41.513   03 Jun 2027 18:52:57.392            75.879                 Moscow          2371.219
       171   03 Jun 2027 18:54:45.558   03 Jun 2027 18:55:54.219            68.661              Murmansk2          2145.656
       172   03 Jun 2027 18:56:22.908   03 Jun 2027 18:57:09.215            46.307                 Moscow          1447.094
       173   03 Jun 2027 18:58:39.226   03 Jun 2027 18:58:47.075             7.849              Murmansk1           245.281
       174   03 Jun 2027 18:59:18.688   03 Jun 2027 19:00:49.939            91.251              Murmansk1          2851.594
       175   03 Jun 2027 20:03:40.733   03 Jun 2027 20:04:45.514            64.781               CapeTown          2024.406
       176   03 Jun 2027 20:06:33.716   03 Jun 2027 20:08:02.997            89.281               CapeTown          2790.031
       177   03 Jun 2027 20:11:38.161   03 Jun 2027 20:12:04.403            26.242               CapeTown           820.063
       178   03 Jun 2027 20:34:13.780   03 Jun 2027 20:40:03.791           350.011              Murmansk1         10937.844
       179   03 Jun 2027 20:40:23.963   03 Jun 2027 20:42:11.792           107.829              Murmansk2          3369.656
       180   03 Jun 2027 22:20:06.915   03 Jun 2027 22:21:23.605            76.690                Anadyr2          2396.562
       181   03 Jun 2027 22:21:29.674   03 Jun 2027 22:21:38.565             8.891                Anadyr2           277.844
       182   03 Jun 2027 22:21:48.653   03 Jun 2027 22:22:03.108            14.455                Anadyr2           451.719
       183   03 Jun 2027 22:22:26.104   03 Jun 2027 22:24:56.148           150.044               Magadan2          4688.875
       184   03 Jun 2027 22:25:40.166   03 Jun 2027 22:26:08.455            28.289               Magadan1           884.031
       185   03 Jun 2027 22:30:17.575   03 Jun 2027 22:30:29.136            11.561               Magadan1           361.281
       186   03 Jun 2027 22:31:01.798   03 Jun 2027 22:31:48.171            46.373               Magadan2          1449.156
       187   03 Jun 2027 23:16:58.933   03 Jun 2027 23:19:05.448           126.515            RioGallegos          3953.594
       188   03 Jun 2027 23:55:58.220   03 Jun 2027 23:58:07.216           128.996                Anadyr1          4031.125
       189   03 Jun 2027 23:58:20.004   04 Jun 2027 00:00:08.787           108.783               Magadan2          3399.469
       190   04 Jun 2027 00:00:39.457   04 Jun 2027 00:01:25.068            45.611               Magadan1          1425.344
       191   04 Jun 2027 00:02:23.897   04 Jun 2027 00:02:56.133            32.236               Magadan1          1007.375
       192   04 Jun 2027 00:03:14.292   04 Jun 2027 00:03:54.830            40.538                Irkutsk          1266.812
       193   04 Jun 2027 00:05:00.012   04 Jun 2027 00:05:27.983            27.971                Irkutsk           874.094
       194   04 Jun 2027 00:06:56.806   04 Jun 2027 00:07:34.041            37.235                Irkutsk          1163.594
       195   04 Jun 2027 00:18:40.906   04 Jun 2027 00:20:28.903           107.997                Sumatra          3374.906
       196   04 Jun 2027 00:21:41.642   04 Jun 2027 00:23:35.521           113.879                Sumatra          3558.719
       197   04 Jun 2027 01:31:19.697   04 Jun 2027 01:32:50.157            90.460                Anadyr2          2826.875
       198   04 Jun 2027 01:33:24.285   04 Jun 2027 01:34:06.426            42.141                Anadyr2          1316.906
       199   04 Jun 2027 01:34:27.463   04 Jun 2027 01:36:10.984           103.521               Magadan1          3235.031
       200   04 Jun 2027 01:36:25.577   04 Jun 2027 01:36:49.848            24.271               Magadan2           758.469
       201   04 Jun 2027 01:37:46.875   04 Jun 2027 01:39:20.596            93.721                Irkutsk          2928.781
       202   04 Jun 2027 01:40:49.388   04 Jun 2027 01:41:02.645            13.257                Irkutsk           414.281
       203   04 Jun 2027 01:43:23.857   04 Jun 2027 01:44:28.836            64.979                Novosib          2030.594
       204   04 Jun 2027 01:49:51.518   04 Jun 2027 01:50:33.667            42.149                  Delhi          1317.156
       205   04 Jun 2027 01:51:34.598   04 Jun 2027 01:52:47.418            72.820                Sumatra          2275.625
       206   04 Jun 2027 01:54:39.355   04 Jun 2027 01:56:03.341            83.986                Sumatra          2624.562
       207   04 Jun 2027 02:00:04.405   04 Jun 2027 02:00:26.522            22.117                Sumatra           691.156
       208   04 Jun 2027 02:32:00.268   04 Jun 2027 02:32:04.320             4.052            RioGallegos           126.625
       209   04 Jun 2027 02:35:27.346   04 Jun 2027 02:36:59.874            92.528            RioGallegos          2891.500
       210   04 Jun 2027 03:13:56.484   04 Jun 2027 03:15:58.504           122.020               Magadan1          3813.125
       211   04 Jun 2027 03:16:01.653   04 Jun 2027 03:16:14.473            12.820               Magadan2           400.625
       212   04 Jun 2027 03:18:13.005   04 Jun 2027 03:19:17.694            64.689                Irkutsk          2021.531
       213   04 Jun 2027 03:19:52.476   04 Jun 2027 03:21:10.922            78.446                Irkutsk          2451.438
       214   04 Jun 2027 03:21:56.812   04 Jun 2027 03:24:46.475           169.663                  Delhi          5301.969
       215   04 Jun 2027 03:24:54.750   04 Jun 2027 03:25:36.324            41.574                Irkutsk          1299.188
       216   04 Jun 2027 04:02:45.195   04 Jun 2027 04:03:21.526            36.331            RioGallegos          1135.344
       217   04 Jun 2027 04:04:40.045   04 Jun 2027 04:07:39.576           179.531            RioGallegos          5610.344
       218   04 Jun 2027 04:53:45.591   04 Jun 2027 04:57:07.033           201.442                Irkutsk          6295.062
       219   04 Jun 2027 04:58:52.022   04 Jun 2027 05:06:49.120           477.098                  Delhi         14909.312
       220   04 Jun 2027 06:31:37.800   04 Jun 2027 06:31:43.701             5.901                Norilsk           184.406
       221   04 Jun 2027 06:31:55.246   04 Jun 2027 06:32:22.398            27.152                Novosib           848.500
       222   04 Jun 2027 06:32:57.504   04 Jun 2027 06:33:24.249            26.745              Murmansk2           835.781
       223   04 Jun 2027 06:33:26.231   04 Jun 2027 06:33:45.971            19.740              Murmansk2           616.875
       224   04 Jun 2027 06:34:15.656   04 Jun 2027 06:34:53.772            38.116              Murmansk2          1191.125
       225   04 Jun 2027 06:38:06.377   04 Jun 2027 06:38:54.858            48.481                 Moscow          1515.031
       226   04 Jun 2027 06:51:03.832   04 Jun 2027 06:52:05.293            61.461               CapeTown          1920.656
       227   04 Jun 2027 07:54:19.382   04 Jun 2027 07:55:03.233            43.851                Anadyr1          1370.344
       228   04 Jun 2027 07:55:11.713   04 Jun 2027 07:56:10.189            58.476                Anadyr1          1827.375
       229   04 Jun 2027 08:10:07.516   04 Jun 2027 08:10:57.970            50.454                 Moscow          1576.687
       230   04 Jun 2027 08:36:37.618   04 Jun 2027 08:37:22.685            45.067               CapeTown          1408.344
       231   04 Jun 2027 09:30:05.465   04 Jun 2027 09:30:43.047            37.582                Anadyr1          1174.437
       232   04 Jun 2027 09:30:46.548   04 Jun 2027 09:31:21.125            34.577                Anadyr1          1080.531
       233   04 Jun 2027 09:31:31.642   04 Jun 2027 09:32:15.236            43.594               Magadan1          1362.312
       234   04 Jun 2027 09:32:36.793   04 Jun 2027 09:33:01.158            24.365               Magadan1           761.406
       235   04 Jun 2027 09:34:29.357   04 Jun 2027 09:35:27.023            57.666               Magadan2          1802.062
       236   04 Jun 2027 10:15:53.639   04 Jun 2027 10:16:43.331            49.692            RioGallegos          1552.875
       237   04 Jun 2027 11:02:31.269   04 Jun 2027 11:02:54.097            22.828               Magadan2           713.375
       238   04 Jun 2027 11:05:22.129   04 Jun 2027 11:05:33.029            10.900               Magadan1           340.625
       239   04 Jun 2027 11:05:33.029   04 Jun 2027 11:06:11.311            38.282               Magadan2          1196.312
       240   04 Jun 2027 11:06:13.009   04 Jun 2027 11:10:15.930           242.921               Magadan1          7591.281
       241   04 Jun 2027 11:10:44.227   04 Jun 2027 11:12:03.561            79.334               Magadan2          2479.188
       242   04 Jun 2027 11:47:05.175   04 Jun 2027 11:48:06.399            61.224            RioGallegos          1913.250
       243   04 Jun 2027 12:26:03.972   04 Jun 2027 12:26:21.455            17.483                Sumatra           546.344
       244   04 Jun 2027 12:35:13.258   04 Jun 2027 12:37:28.210           134.952                Irkutsk          4217.250
       245   04 Jun 2027 12:40:08.468   04 Jun 2027 12:40:23.307            14.839                Norilsk           463.719
       246   04 Jun 2027 12:41:55.361   04 Jun 2027 12:45:43.993           228.632               Magadan1          7144.750
       247   04 Jun 2027 13:57:38.614   04 Jun 2027 14:00:36.580           177.966                Sumatra          5561.437
       248   04 Jun 2027 14:12:19.354   04 Jun 2027 14:13:20.926            61.572                Irkutsk          1924.125
       249   04 Jun 2027 14:17:26.716   04 Jun 2027 14:17:39.128            12.412                Irkutsk           387.875
       250   04 Jun 2027 14:20:18.865   04 Jun 2027 14:22:16.533           117.668                Irkutsk          3677.125
       251   04 Jun 2027 15:05:43.886   04 Jun 2027 15:07:18.915            95.029            RioGallegos          2969.656
       252   04 Jun 2027 15:42:11.660   04 Jun 2027 15:43:14.014            62.354                  Delhi          1948.563
       253   04 Jun 2027 15:49:52.403   04 Jun 2027 15:52:03.909           131.506                  Delhi          4109.563
       254   04 Jun 2027 15:54:49.245   04 Jun 2027 15:55:48.924            59.679                Novosib          1864.969
       255   04 Jun 2027 15:59:17.623   04 Jun 2027 15:59:46.020            28.397                Norilsk           887.406
       256   04 Jun 2027 17:26:10.086   04 Jun 2027 17:28:07.107           117.021                 Moscow          3656.906
       257   04 Jun 2027 17:29:28.127   04 Jun 2027 17:29:38.957            10.830                 Moscow           338.437
       258   04 Jun 2027 17:29:40.381   04 Jun 2027 17:30:37.767            57.386              Murmansk2          1793.312
       259   04 Jun 2027 17:34:40.073   04 Jun 2027 17:40:29.197           349.124                Norilsk         10910.125
       260   04 Jun 2027 19:04:14.219   04 Jun 2027 19:06:21.887           127.668                 Moscow          3989.625
       261   04 Jun 2027 19:07:05.488   04 Jun 2027 19:07:22.675            17.187              Murmansk2           537.094
       262   04 Jun 2027 19:08:07.084   04 Jun 2027 19:08:56.842            49.758              Murmansk1          1554.938
       263   04 Jun 2027 19:11:51.534   04 Jun 2027 19:12:08.757            17.223              Murmansk1           538.219
       264   04 Jun 2027 20:15:50.273   04 Jun 2027 20:18:20.861           150.588               CapeTown          4705.875
       265   04 Jun 2027 20:23:13.644   04 Jun 2027 20:23:59.872            46.228               CapeTown          1444.625
       266   04 Jun 2027 20:46:56.218   04 Jun 2027 20:54:07.037           430.819              Murmansk2         13463.094
       267   04 Jun 2027 22:32:08.746   04 Jun 2027 22:33:13.120            64.374                Anadyr1          2011.688
       268   04 Jun 2027 22:33:24.959   04 Jun 2027 22:33:30.502             5.543                Anadyr1           173.219
       269   04 Jun 2027 22:33:38.823   04 Jun 2027 22:34:03.267            24.444                Anadyr1           763.875
       270   04 Jun 2027 22:34:26.099   04 Jun 2027 22:36:21.337           115.238               Magadan2          3601.188
       271   04 Jun 2027 22:36:43.282   04 Jun 2027 22:37:17.670            34.388               Magadan2          1074.625
       272   04 Jun 2027 22:38:21.499   04 Jun 2027 22:38:50.174            28.675               Magadan2           896.094
       273   04 Jun 2027 22:40:08.549   04 Jun 2027 22:40:12.841             4.292               Magadan2           134.125
       274   04 Jun 2027 22:41:23.301   04 Jun 2027 22:41:32.375             9.074               Magadan1           283.563
       275   04 Jun 2027 22:42:38.193   04 Jun 2027 22:42:55.386            17.193               Magadan2           537.281
       276   04 Jun 2027 22:43:38.339   04 Jun 2027 22:44:00.933            22.594               Magadan1           706.062
       277   04 Jun 2027 23:28:01.031   04 Jun 2027 23:30:46.696           165.665            RioGallegos          5177.031
       278   05 Jun 2027 00:07:57.954   05 Jun 2027 00:09:26.122            88.168                Anadyr2          2755.250
       279   05 Jun 2027 00:09:32.737   05 Jun 2027 00:09:54.027            21.290                Anadyr1           665.313
       280   05 Jun 2027 00:10:02.676   05 Jun 2027 00:11:37.246            94.570                Norilsk          2955.312
       281   05 Jun 2027 00:12:09.197   05 Jun 2027 00:13:16.623            67.426               Magadan2          2107.063
       282   05 Jun 2027 00:14:53.417   05 Jun 2027 00:17:24.147           150.730                Irkutsk          4710.312
       283   05 Jun 2027 00:29:42.043   05 Jun 2027 00:31:33.819           111.776                Sumatra          3493.000
       284   05 Jun 2027 00:34:09.817   05 Jun 2027 00:34:26.121            16.304                Sumatra           509.500
       285   05 Jun 2027 00:38:32.758   05 Jun 2027 00:38:42.877            10.119                Sumatra           316.219
       286   05 Jun 2027 01:01:56.678   05 Jun 2027 01:02:04.776             8.098            RioGallegos           253.063
       287   05 Jun 2027 01:02:40.025   05 Jun 2027 01:03:18.330            38.305            RioGallegos          1197.031
       288   05 Jun 2027 01:09:37.521   05 Jun 2027 01:09:55.698            18.177            RioGallegos           568.031
       289   05 Jun 2027 01:10:37.729   05 Jun 2027 01:11:29.502            51.773            RioGallegos          1617.906
       290   05 Jun 2027 01:43:12.996   05 Jun 2027 01:43:20.162             7.166                Anadyr1           223.938
       291   05 Jun 2027 01:44:12.068   05 Jun 2027 01:44:43.600            31.532                Anadyr1           985.375
       292   05 Jun 2027 01:45:24.119   05 Jun 2027 01:45:49.478            25.359                Anadyr1           792.469
       293   05 Jun 2027 01:45:51.423   05 Jun 2027 01:46:57.141            65.718                Norilsk          2053.688
       294   05 Jun 2027 01:47:21.868   05 Jun 2027 01:48:11.444            49.576               Magadan1          1549.250
       295   05 Jun 2027 01:49:46.526   05 Jun 2027 01:52:32.012           165.486                Irkutsk          5171.438
       296   05 Jun 2027 01:56:57.721   05 Jun 2027 01:57:20.151            22.430                Irkutsk           700.937
       297   05 Jun 2027 01:58:56.437   05 Jun 2027 01:59:21.180            24.743                Irkutsk           773.219
       298   05 Jun 2027 02:02:09.995   05 Jun 2027 02:02:33.995            24.000                  Delhi           750.000
       299   05 Jun 2027 02:03:44.156   05 Jun 2027 02:04:04.408            20.252                Sumatra           632.875
       300   05 Jun 2027 02:06:32.318   05 Jun 2027 02:08:32.220           119.902                Sumatra          3746.938
       301   05 Jun 2027 02:11:28.264   05 Jun 2027 02:14:45.306           197.042                Sumatra          6157.563
       302   05 Jun 2027 03:26:06.728   05 Jun 2027 03:27:46.349            99.621               Magadan2          3113.156
       303   05 Jun 2027 03:30:14.921   05 Jun 2027 03:30:33.269            18.348                Norilsk           573.375
       304   05 Jun 2027 03:30:37.070   05 Jun 2027 03:31:27.958            50.888                Norilsk          1590.250
       305   05 Jun 2027 03:31:46.542   05 Jun 2027 03:32:09.031            22.489                Norilsk           702.781
       306   05 Jun 2027 03:32:34.646   05 Jun 2027 03:33:18.617            43.971                Norilsk          1374.094
       307   05 Jun 2027 03:33:23.992   05 Jun 2027 03:33:59.139            35.147                Irkutsk          1098.344
       308   05 Jun 2027 03:34:02.018   05 Jun 2027 03:34:47.945            45.927                Norilsk          1435.219
       309   05 Jun 2027 03:35:28.100   05 Jun 2027 03:36:21.829            53.729                Irkutsk          1679.031
       310   05 Jun 2027 04:15:04.332   05 Jun 2027 04:20:42.998           338.666            RioGallegos         10583.313
       311   05 Jun 2027 05:03:28.357   05 Jun 2027 05:05:21.384           113.027                Irkutsk          3532.094
       312   05 Jun 2027 05:06:04.143   05 Jun 2027 05:06:27.316            23.173                Irkutsk           724.156
       313   05 Jun 2027 05:06:45.706   05 Jun 2027 05:08:09.698            83.992                Irkutsk          2624.750
       314   05 Jun 2027 05:09:15.755   05 Jun 2027 05:09:38.647            22.892                 Moscow           715.375
       315   05 Jun 2027 05:09:43.895   05 Jun 2027 05:10:51.806            67.911                 Moscow          2122.219
       316   05 Jun 2027 05:11:06.860   05 Jun 2027 05:17:45.561           398.701                  Delhi         12459.406
       317   05 Jun 2027 06:42:49.599   05 Jun 2027 06:42:56.598             6.999                Norilsk           218.719
       318   05 Jun 2027 06:44:21.897   05 Jun 2027 06:44:53.856            31.959              Murmansk2           998.719
       319   05 Jun 2027 06:45:05.776   05 Jun 2027 06:46:18.799            73.023                 Moscow          2281.969
       320   05 Jun 2027 06:46:31.726   05 Jun 2027 06:46:34.827             3.101                 Moscow            96.906
       321   05 Jun 2027 06:50:10.425   05 Jun 2027 06:50:59.953            49.528                 Moscow          1547.750
       322   05 Jun 2027 07:03:05.422   05 Jun 2027 07:04:28.143            82.721               CapeTown          2585.031
       323   05 Jun 2027 08:06:12.248   05 Jun 2027 08:07:04.667            52.419                Anadyr2          1638.094
       324   05 Jun 2027 08:07:04.667   05 Jun 2027 08:07:47.103            42.436                Anadyr1          1326.125
       325   05 Jun 2027 08:08:04.197   05 Jun 2027 08:08:06.631             2.434               Magadan2            76.063
       326   05 Jun 2027 08:08:26.013   05 Jun 2027 08:08:43.212            17.199                Anadyr1           537.469
       327   05 Jun 2027 08:09:14.162   05 Jun 2027 08:10:02.724            48.562               Magadan2          1517.562
       328   05 Jun 2027 08:10:54.024   05 Jun 2027 08:12:16.081            82.057                Anadyr2          2564.281
       329   05 Jun 2027 09:42:37.804   05 Jun 2027 09:43:38.531            60.727                Anadyr1          1897.719
       330   05 Jun 2027 09:43:45.213   05 Jun 2027 09:45:03.212            77.999               Magadan2          2437.469
       331   05 Jun 2027 09:45:40.651   05 Jun 2027 09:45:47.930             7.279                Norilsk           227.469
       332   05 Jun 2027 09:46:29.121   05 Jun 2027 09:47:35.687            66.566               Magadan2          2080.188
       333   05 Jun 2027 11:13:19.803   05 Jun 2027 11:14:59.808           100.005               Magadan2          3125.156
       334   05 Jun 2027 11:15:53.728   05 Jun 2027 11:17:52.515           118.787               Magadan2          3712.094
       335   05 Jun 2027 11:18:06.678   05 Jun 2027 11:21:26.131           199.453               Magadan2          6232.906
       336   05 Jun 2027 11:21:26.131   05 Jun 2027 11:22:42.225            76.094               Magadan1          2377.937
       337   05 Jun 2027 11:23:09.811   05 Jun 2027 11:23:19.075             9.264                Norilsk           289.500
       338   05 Jun 2027 11:23:26.720   05 Jun 2027 11:23:29.964             3.244                Novosib           101.375
       339   05 Jun 2027 11:23:30.264   05 Jun 2027 11:23:54.462            24.198                Norilsk           756.187
       340   05 Jun 2027 11:25:00.936   05 Jun 2027 11:25:15.232            14.296                Norilsk           446.750
       341   05 Jun 2027 11:58:56.512   05 Jun 2027 12:00:12.500            75.988            RioGallegos          2374.625
       342   05 Jun 2027 12:09:46.453   05 Jun 2027 12:10:39.168            52.715            RioGallegos          1647.344
       343   05 Jun 2027 12:38:43.732   05 Jun 2027 12:39:59.163            75.431                Sumatra          2357.219
       344   05 Jun 2027 12:47:11.655   05 Jun 2027 12:48:33.792            82.137                Irkutsk          2566.781
       345   05 Jun 2027 12:49:11.057   05 Jun 2027 12:50:17.477            66.420                Irkutsk          2075.625
       346   05 Jun 2027 13:35:31.055   05 Jun 2027 13:36:02.770            31.715            RioGallegos           991.094
       347   05 Jun 2027 13:37:30.398   05 Jun 2027 13:40:36.322           185.924            RioGallegos          5810.125
       348   05 Jun 2027 14:09:51.315   05 Jun 2027 14:10:42.364            51.049                Sumatra          1595.281
       349   05 Jun 2027 14:24:40.496   05 Jun 2027 14:25:59.099            78.603                Novosib          2456.344
       350   05 Jun 2027 14:26:37.798   05 Jun 2027 14:29:09.948           152.150                Irkutsk          4754.688
       351   05 Jun 2027 14:33:41.055   05 Jun 2027 14:34:50.975            69.920                Irkutsk          2185.000
       352   05 Jun 2027 15:54:35.298   05 Jun 2027 15:57:15.715           160.417                  Delhi          5013.031
       353   05 Jun 2027 16:00:05.796   05 Jun 2027 16:00:13.266             7.470                  Delhi           233.438
       354   05 Jun 2027 16:02:51.448   05 Jun 2027 16:05:16.126           144.678                Novosib          4521.188
       355   05 Jun 2027 16:07:25.126   05 Jun 2027 16:08:05.769            40.643                Norilsk          1270.094
       356   05 Jun 2027 16:08:37.353   05 Jun 2027 16:12:43.134           245.781                Novosib          7680.656
       357   05 Jun 2027 17:47:34.318   05 Jun 2027 17:52:18.131           283.813                Norilsk          8869.156
       358   05 Jun 2027 19:16:53.095   05 Jun 2027 19:23:07.993           374.898                 Moscow         11715.562
       359   05 Jun 2027 20:28:03.211   05 Jun 2027 20:28:09.691             6.480               CapeTown           202.500
       360   05 Jun 2027 20:30:02.503   05 Jun 2027 20:31:55.380           112.877               CapeTown          3527.406
       361   05 Jun 2027 20:59:43.397   05 Jun 2027 21:05:59.643           376.246              Murmansk2         11757.687
       362   05 Jun 2027 22:44:10.468   05 Jun 2027 22:46:03.000           112.532                Anadyr1          3516.625
       363   05 Jun 2027 22:46:26.659   05 Jun 2027 22:48:04.288            97.629               Magadan2          3050.906
       364   05 Jun 2027 22:48:28.346   05 Jun 2027 22:48:48.941            20.595               Magadan2           643.594
       365   05 Jun 2027 22:49:36.536   05 Jun 2027 22:49:44.572             8.036               Magadan1           251.125
       366   05 Jun 2027 22:49:54.492   05 Jun 2027 22:50:10.555            16.063               Magadan2           501.969
       367   05 Jun 2027 22:50:20.599   05 Jun 2027 22:50:59.852            39.253               Magadan2          1226.656
       368   05 Jun 2027 22:51:50.034   05 Jun 2027 22:52:15.759            25.725               Magadan2           803.906
       369   05 Jun 2027 22:55:31.727   05 Jun 2027 22:56:17.460            45.733               Magadan2          1429.156
       370   05 Jun 2027 23:39:27.847   05 Jun 2027 23:41:45.869           138.022            RioGallegos          4313.187
       371   05 Jun 2027 23:45:28.338   05 Jun 2027 23:45:59.688            31.350            RioGallegos           979.687
       372   06 Jun 2027 00:19:57.173   06 Jun 2027 00:21:19.645            82.472                Anadyr2          2577.250
       373   06 Jun 2027 00:22:01.439   06 Jun 2027 00:23:39.033            97.594                Norilsk          3049.812
       374   06 Jun 2027 00:24:38.074   06 Jun 2027 00:25:03.506            25.432                Norilsk           794.750
       375   06 Jun 2027 00:25:33.983   06 Jun 2027 00:25:54.954            20.971               Magadan1           655.344
       376   06 Jun 2027 00:26:05.017   06 Jun 2027 00:26:35.367            30.350               Magadan1           948.438
       377   06 Jun 2027 00:26:38.305   06 Jun 2027 00:27:52.033            73.728                Irkutsk          2304.000
       378   06 Jun 2027 00:28:57.676   06 Jun 2027 00:29:01.798             4.122                Irkutsk           128.812
       379   06 Jun 2027 00:30:06.282   06 Jun 2027 00:31:01.689            55.407                Irkutsk          1731.469
       380   06 Jun 2027 00:33:35.621   06 Jun 2027 00:33:43.996             8.375                Irkutsk           261.719
       381   06 Jun 2027 00:35:26.515   06 Jun 2027 00:36:03.411            36.896                Irkutsk          1153.000
       382   06 Jun 2027 00:41:01.216   06 Jun 2027 00:43:53.851           172.635                Sumatra          5394.844
       383   06 Jun 2027 01:21:27.625   06 Jun 2027 01:21:31.386             3.761            RioGallegos           117.531
       384   06 Jun 2027 01:21:40.929   06 Jun 2027 01:21:47.670             6.741            RioGallegos           210.656
       385   06 Jun 2027 01:22:20.316   06 Jun 2027 01:22:40.772            20.456            RioGallegos           639.250
       386   06 Jun 2027 01:24:46.330   06 Jun 2027 01:25:36.528            50.198            RioGallegos          1568.688
       387   06 Jun 2027 01:56:00.473   06 Jun 2027 01:56:34.585            34.112                Anadyr2          1066.000
       388   06 Jun 2027 01:56:56.610   06 Jun 2027 01:57:23.470            26.860                Anadyr2           839.375
       389   06 Jun 2027 01:57:53.701   06 Jun 2027 01:59:50.916           117.215                Norilsk          3662.969
       390   06 Jun 2027 02:01:47.188   06 Jun 2027 02:04:48.783           181.595                Irkutsk          5674.844
       391   06 Jun 2027 02:11:03.045   06 Jun 2027 02:11:06.422             3.377                Irkutsk           105.531
       392   06 Jun 2027 02:11:41.173   06 Jun 2027 02:13:40.965           119.792                  Delhi          3743.500
       393   06 Jun 2027 02:16:00.215   06 Jun 2027 02:17:36.731            96.516                Sumatra          3016.125
       394   06 Jun 2027 02:21:00.074   06 Jun 2027 02:21:13.319            13.245                Sumatra           413.906
       395   06 Jun 2027 02:52:44.225   06 Jun 2027 02:53:02.539            18.314            RioGallegos           572.312
       396   06 Jun 2027 02:56:53.734   06 Jun 2027 02:57:25.512            31.778            RioGallegos           993.063
       397   06 Jun 2027 02:57:53.185   06 Jun 2027 02:57:55.543             2.358            RioGallegos            73.687
       398   06 Jun 2027 03:38:07.715   06 Jun 2027 03:38:11.334             3.619               Magadan2           113.094
       399   06 Jun 2027 03:38:11.334   06 Jun 2027 03:39:04.473            53.139               Magadan1          1660.594
       400   06 Jun 2027 03:41:12.455   06 Jun 2027 03:42:30.784            78.329                Norilsk          2447.781
       401   06 Jun 2027 03:43:36.196   06 Jun 2027 03:45:34.914           118.718                Novosib          3709.937
       402   06 Jun 2027 03:45:50.091   06 Jun 2027 03:47:43.666           113.575                Irkutsk          3549.219
       403   06 Jun 2027 03:47:55.184   06 Jun 2027 03:51:38.728           223.544                  Delhi          6985.750
       404   06 Jun 2027 04:27:29.853   06 Jun 2027 04:32:45.410           315.557            RioGallegos          9861.156
       405   06 Jun 2027 05:16:13.324   06 Jun 2027 05:17:00.417            47.093                Irkutsk          1471.656
       406   06 Jun 2027 05:17:59.208   06 Jun 2027 05:18:51.842            52.634                Irkutsk          1644.813
       407   06 Jun 2027 05:19:49.575   06 Jun 2027 05:21:38.412           108.837                Novosib          3401.156
       408   06 Jun 2027 05:21:40.606   06 Jun 2027 05:22:10.553            29.947                Novosib           935.844
       409   06 Jun 2027 05:24:24.886   06 Jun 2027 05:28:05.517           220.631                  Delhi          6894.719
       410   06 Jun 2027 06:55:44.698   06 Jun 2027 06:56:28.287            43.589                Norilsk          1362.156
       411   06 Jun 2027 06:56:39.942   06 Jun 2027 06:56:47.526             7.584                Norilsk           237.000
       412   06 Jun 2027 06:57:11.274   06 Jun 2027 06:58:08.256            56.982                 Moscow          1780.688
       413   06 Jun 2027 07:02:14.004   06 Jun 2027 07:03:03.985            49.981                 Moscow          1561.906
       414   06 Jun 2027 07:15:12.211   06 Jun 2027 07:15:33.745            21.534               CapeTown           672.937
       415   06 Jun 2027 07:17:57.178   06 Jun 2027 07:19:46.885           109.707               CapeTown          3428.344
       416   06 Jun 2027 08:18:02.287   06 Jun 2027 08:19:05.871            63.584                Anadyr2          1987.000
       417   06 Jun 2027 08:19:23.530   06 Jun 2027 08:19:24.699             1.169               Magadan1            36.531
       418   06 Jun 2027 08:19:24.699   06 Jun 2027 08:20:28.329            63.630               Magadan2          1988.438
       419   06 Jun 2027 09:48:54.732   06 Jun 2027 09:49:59.278            64.546               Magadan1          2017.062
       420   06 Jun 2027 09:54:40.166   06 Jun 2027 09:54:42.233             2.067               Magadan2            64.594
       421   06 Jun 2027 09:55:34.808   06 Jun 2027 09:56:01.893            27.085               Magadan2           846.406
       422   06 Jun 2027 09:56:05.609   06 Jun 2027 09:56:25.327            19.718               Magadan2           616.188
       423   06 Jun 2027 09:57:07.823   06 Jun 2027 09:58:28.194            80.371               Magadan2          2511.594
       424   06 Jun 2027 11:25:14.045   06 Jun 2027 11:26:12.609            58.564               Magadan2          1830.125
       425   06 Jun 2027 11:28:42.436   06 Jun 2027 11:29:39.014            56.578               Magadan1          1768.062
       426   06 Jun 2027 11:29:39.014   06 Jun 2027 11:30:36.166            57.152               Magadan2          1786.000
       427   06 Jun 2027 11:32:18.938   06 Jun 2027 11:32:32.777            13.839                Irkutsk           432.469
       428   06 Jun 2027 11:33:06.692   06 Jun 2027 11:35:12.785           126.093               Magadan2          3940.406
       429   06 Jun 2027 11:35:30.468   06 Jun 2027 11:36:05.229            34.761                Norilsk          1086.281
       430   06 Jun 2027 12:10:51.086   06 Jun 2027 12:12:11.996            80.910            RioGallegos          2528.437
       431   06 Jun 2027 12:46:45.369   06 Jun 2027 12:47:43.146            57.777                Sumatra          1805.531
       432   06 Jun 2027 12:59:13.285   06 Jun 2027 13:01:46.174           152.889                Irkutsk          4777.781
       433   06 Jun 2027 13:04:06.865   06 Jun 2027 13:04:30.251            23.386                Norilsk           730.813
       434   06 Jun 2027 13:16:30.975   06 Jun 2027 13:16:36.387             5.412                Norilsk           169.125
       435   06 Jun 2027 13:47:55.696   06 Jun 2027 13:49:02.114            66.418            RioGallegos          2075.562
       436   06 Jun 2027 13:53:00.370   06 Jun 2027 13:53:17.126            16.756            RioGallegos           523.625
       437   06 Jun 2027 13:55:47.680   06 Jun 2027 13:57:53.207           125.527            RioGallegos          3922.719
       438   06 Jun 2027 14:22:11.024   06 Jun 2027 14:27:40.679           329.655                Sumatra         10301.719
       439   06 Jun 2027 14:37:24.840   06 Jun 2027 14:43:29.946           365.106                Irkutsk         11409.563
       440   06 Jun 2027 16:08:09.868   06 Jun 2027 16:13:30.436           320.568                  Delhi         10017.750
       441   06 Jun 2027 16:17:23.561   06 Jun 2027 16:21:54.595           271.034                Novosib          8469.812
       442   06 Jun 2027 18:03:02.670   06 Jun 2027 18:03:58.060            55.390                Norilsk          1730.937
       443   06 Jun 2027 19:29:39.767   06 Jun 2027 19:36:48.467           428.700                 Moscow         13396.875
       444   06 Jun 2027 20:41:38.136   06 Jun 2027 20:41:40.108             1.972               CapeTown            61.625
       445   06 Jun 2027 20:44:09.730   06 Jun 2027 20:45:23.998            74.268               CapeTown          2320.875
       446   06 Jun 2027 20:50:11.452   06 Jun 2027 20:50:48.271            36.819               CapeTown          1150.594
       447   06 Jun 2027 21:12:36.956   06 Jun 2027 21:17:47.972           311.016              Murmansk1          9719.250
       448   06 Jun 2027 22:56:12.044   06 Jun 2027 22:58:02.243           110.199                Anadyr2          3443.719
       449   06 Jun 2027 22:58:27.711   06 Jun 2027 22:59:50.151            82.440               Magadan1          2576.250
       450   06 Jun 2027 23:00:11.395   06 Jun 2027 23:00:18.974             7.579               Magadan1           236.844
       451   06 Jun 2027 23:01:32.721   06 Jun 2027 23:01:57.068            24.347               Magadan2           760.844
       452   06 Jun 2027 23:01:57.068   06 Jun 2027 23:02:10.189            13.121               Magadan1           410.031
       453   06 Jun 2027 23:03:05.631   06 Jun 2027 23:03:35.824            30.193               Magadan1           943.531
       454   06 Jun 2027 23:04:19.520   06 Jun 2027 23:04:52.916            33.396               Magadan2          1043.625
       455   06 Jun 2027 23:05:41.599   06 Jun 2027 23:06:29.798            48.199               Magadan2          1506.219
       456   06 Jun 2027 23:51:05.296   06 Jun 2027 23:54:22.763           197.467            RioGallegos          6170.844
       457   06 Jun 2027 23:59:28.056   06 Jun 2027 23:59:47.072            19.016            RioGallegos           594.250
       458   07 Jun 2027 00:31:55.803   07 Jun 2027 00:33:04.692            68.889                Anadyr1          2152.781
       459   07 Jun 2027 00:33:18.099   07 Jun 2027 00:33:24.031             5.932                Anadyr2           185.375
       460   07 Jun 2027 00:34:01.130   07 Jun 2027 00:35:40.682            99.552                Norilsk          3111.000
       461   07 Jun 2027 00:36:37.393   07 Jun 2027 00:36:56.881            19.488               Magadan1           609.000
       462   07 Jun 2027 00:37:11.508   07 Jun 2027 00:37:32.975            21.467               Magadan1           670.844
       463   07 Jun 2027 00:38:27.137   07 Jun 2027 00:39:52.259            85.122                Irkutsk          2660.062
       464   07 Jun 2027 00:43:04.090   07 Jun 2027 00:44:15.570            71.480                Irkutsk          2233.750
       465   07 Jun 2027 00:45:02.982   07 Jun 2027 00:46:00.350            57.368                Irkutsk          1792.750
       466   07 Jun 2027 00:52:31.951   07 Jun 2027 00:53:59.997            88.046                Sumatra          2751.438
       467   07 Jun 2027 00:58:46.158   07 Jun 2027 00:59:31.019            44.861                Sumatra          1401.906
       468   07 Jun 2027 01:03:50.369   07 Jun 2027 01:03:58.316             7.947                Sumatra           248.344
       469   07 Jun 2027 01:28:59.159   07 Jun 2027 01:29:07.310             8.151            RioGallegos           254.719
       470   07 Jun 2027 01:29:19.125   07 Jun 2027 01:29:49.193            30.068            RioGallegos           939.625
       471   07 Jun 2027 01:33:26.684   07 Jun 2027 01:33:45.206            18.522            RioGallegos           578.812
       472   07 Jun 2027 01:37:28.695   07 Jun 2027 01:37:42.916            14.221            RioGallegos           444.406
       473   07 Jun 2027 02:06:55.861   07 Jun 2027 02:07:56.493            60.632                Anadyr2          1894.750
       474   07 Jun 2027 02:09:18.624   07 Jun 2027 02:09:42.728            24.104                Anadyr2           753.250
       475   07 Jun 2027 02:09:56.079   07 Jun 2027 02:11:17.904            81.825                Norilsk          2557.031
       476   07 Jun 2027 02:13:48.766   07 Jun 2027 02:16:06.548           137.782                Irkutsk          4305.688
       477   07 Jun 2027 02:17:06.882   07 Jun 2027 02:17:20.245            13.363                Irkutsk           417.594
       478   07 Jun 2027 02:17:38.700   07 Jun 2027 02:17:47.350             8.650                Irkutsk           270.313
       479   07 Jun 2027 02:19:00.939   07 Jun 2027 02:19:05.048             4.109                Novosib           128.406
       480   07 Jun 2027 02:20:44.020   07 Jun 2027 02:20:49.310             5.290                Irkutsk           165.312
       481   07 Jun 2027 02:22:28.263   07 Jun 2027 02:23:06.686            38.423                  Delhi          1200.719
       482   07 Jun 2027 02:25:46.700   07 Jun 2027 02:26:11.040            24.340                  Delhi           760.625
