uniorb/output/strategy_4/Drop/Drop_KinoSat_110210.txt

KinoSat_110210
-------------------------
    Access    *     Start Time (UTCG)     *     Stop Time (UTCG)  *   Duration (s)        *       Station  *  Data (Mbytes)
         1   01 Jun 2027 03:14:13.261   01 Jun 2027 03:14:36.605            23.344               Magadan1          2918.000
         2   01 Jun 2027 03:14:46.626   01 Jun 2027 03:15:41.686            55.060               Magadan1          6882.500
         3   01 Jun 2027 03:15:41.686   01 Jun 2027 03:16:14.608            32.922               Magadan2          4115.250
         4   01 Jun 2027 03:16:26.047   01 Jun 2027 03:16:33.932             7.885               Magadan2           985.625
         5   01 Jun 2027 03:16:35.883   01 Jun 2027 03:17:18.269            42.386               Magadan1          5298.250
         6   01 Jun 2027 03:18:00.797   01 Jun 2027 03:18:35.848            35.051                Novosib          4381.375
         7   01 Jun 2027 03:18:42.236   01 Jun 2027 03:19:08.447            26.211                Novosib          3276.375
         8   01 Jun 2027 03:19:18.146   01 Jun 2027 03:19:25.480             7.334                Norilsk           916.750
         9   01 Jun 2027 03:19:36.527   01 Jun 2027 03:19:50.757            14.230              Murmansk1          1778.750
        10   01 Jun 2027 03:19:50.787   01 Jun 2027 03:20:05.574            14.787                Novosib          1848.375
        11   01 Jun 2027 03:20:10.098   01 Jun 2027 03:20:42.606            32.508                Novosib          4063.500
        12   01 Jun 2027 03:55:14.802   01 Jun 2027 03:56:14.464            59.662            RioGallegos          7457.750
        13   01 Jun 2027 03:57:12.160   01 Jun 2027 03:58:00.309            48.149            RioGallegos          6018.625
        14   01 Jun 2027 04:30:18.740   01 Jun 2027 04:35:09.596           290.856                Sumatra         36246.875
        15   01 Jun 2027 04:52:59.761   01 Jun 2027 04:53:09.707             9.946                Norilsk          1243.250
        16   01 Jun 2027 04:53:11.514   01 Jun 2027 04:53:18.369             6.855                Novosib           856.875
        17   01 Jun 2027 04:53:21.263   01 Jun 2027 04:53:41.814            20.551                Irkutsk          2568.875
        18   01 Jun 2027 04:53:49.048   01 Jun 2027 04:54:22.449            33.401                Norilsk          4175.125
        19   01 Jun 2027 04:54:30.903   01 Jun 2027 04:54:53.477            22.574                Norilsk          2821.750
        20   01 Jun 2027 04:55:04.582   01 Jun 2027 04:55:22.892            18.310                 Moscow          2288.750
        21   01 Jun 2027 04:55:32.250   01 Jun 2027 04:55:44.599            12.349              Murmansk2          1543.625
        22   01 Jun 2027 04:55:53.432   01 Jun 2027 04:56:03.629            10.197              Murmansk1          1274.625
        23   01 Jun 2027 04:56:06.413   01 Jun 2027 04:56:51.152            44.739                Novosib          5592.375
        24   01 Jun 2027 05:33:53.655   01 Jun 2027 05:34:35.389            41.734            RioGallegos          5216.750
        25   01 Jun 2027 06:08:15.532   01 Jun 2027 06:09:16.141            60.609                Sumatra          7576.125
        26   01 Jun 2027 06:14:19.756   01 Jun 2027 06:16:18.239           118.483                  Delhi         14810.375
        27   01 Jun 2027 06:17:32.366   01 Jun 2027 06:19:37.418           125.052                  Delhi         15631.500
        28   01 Jun 2027 06:30:56.655   01 Jun 2027 06:32:41.694           105.039                Novosib         13129.875
        29   01 Jun 2027 08:04:05.412   01 Jun 2027 08:05:35.677            90.265                 Moscow         11283.125
        30   01 Jun 2027 08:05:41.810   01 Jun 2027 08:06:30.432            48.622                Novosib          6077.750
        31   01 Jun 2027 08:06:32.463   01 Jun 2027 08:06:43.898            11.435                 Moscow          1429.375
        32   01 Jun 2027 08:07:08.848   01 Jun 2027 08:07:17.314             8.466              Murmansk1          1058.250
        33   01 Jun 2027 08:07:37.826   01 Jun 2027 08:11:33.323           235.497                 Moscow         29437.125
        34   01 Jun 2027 09:14:25.169   01 Jun 2027 09:17:32.358           187.189               CapeTown         23398.625
        35   01 Jun 2027 11:28:49.834   01 Jun 2027 11:31:04.283           134.449                Anadyr2         16806.125
        36   01 Jun 2027 11:33:38.028   01 Jun 2027 11:35:00.965            82.937                Anadyr2         10367.125
        37   01 Jun 2027 13:07:10.212   01 Jun 2027 13:11:51.385           281.173               Magadan2         35146.625
        38   01 Jun 2027 15:34:54.933   01 Jun 2027 15:39:03.682           248.749            RioGallegos         31093.625
        39   01 Jun 2027 16:22:33.216   01 Jun 2027 16:24:30.339           117.123                Irkutsk         14640.375
        40   01 Jun 2027 16:36:14.515   01 Jun 2027 16:39:13.830           179.315                Sumatra         22414.375
        41   01 Jun 2027 17:58:21.545   01 Jun 2027 17:59:36.009            74.464                Novosib          9308.000
        42   01 Jun 2027 18:05:58.583   01 Jun 2027 18:08:11.788           133.205                  Delhi         16650.625
        43   01 Jun 2027 21:11:50.787   01 Jun 2027 21:12:53.724            62.937                 Moscow          5001.500
        44   02 Jun 2027 03:32:38.160   02 Jun 2027 03:36:49.357           251.197              Murmansk1         31399.625
        45   02 Jun 2027 04:42:11.735   02 Jun 2027 04:45:17.277           185.542                Sumatra         23192.750
        46   02 Jun 2027 05:05:50.704   02 Jun 2027 05:05:59.127             8.423                Irkutsk          1052.875
        47   02 Jun 2027 05:07:35.189   02 Jun 2027 05:08:21.385            46.196                Irkutsk          5774.500
        48   02 Jun 2027 05:08:37.980   02 Jun 2027 05:10:17.740            99.760                 Moscow         12470.000
        49   02 Jun 2027 05:10:19.593   02 Jun 2027 05:13:32.710           193.117                Norilsk         24139.625
        50   02 Jun 2027 05:13:54.562   02 Jun 2027 05:15:46.606           112.044              Murmansk1         14005.500
        51   02 Jun 2027 06:33:40.772   02 Jun 2027 06:39:03.870           323.098                  Delhi         40387.250
        52   02 Jun 2027 06:39:03.873   02 Jun 2027 06:39:27.848            23.975                 Moscow          2996.875
        53   02 Jun 2027 06:39:42.485   02 Jun 2027 06:40:32.715            50.230                Novosib          6278.750
        54   02 Jun 2027 06:44:25.381   02 Jun 2027 06:45:45.786            80.405                Novosib         10050.625
        55   02 Jun 2027 06:45:48.429   02 Jun 2027 06:47:24.958            96.529                 Moscow         12066.125
        56   02 Jun 2027 06:47:35.289   02 Jun 2027 06:51:16.368           221.079              Murmansk1         27634.875
        57   02 Jun 2027 08:21:07.919   02 Jun 2027 08:25:15.470           247.551                Norilsk         30943.875
        58   02 Jun 2027 08:25:58.514   02 Jun 2027 08:27:08.210            69.696              Murmansk2          8712.000
        59   02 Jun 2027 09:29:21.922   02 Jun 2027 09:35:13.015           351.093               CapeTown         43886.625
        60   02 Jun 2027 09:50:11.499   02 Jun 2027 09:51:25.703            74.204                 Moscow          9275.500
        61   02 Jun 2027 09:53:30.630   02 Jun 2027 09:55:11.516           100.886              Murmansk1         12610.750
        62   02 Jun 2027 09:55:11.516   02 Jun 2027 09:55:30.830            19.314              Murmansk2          2414.250
        63   02 Jun 2027 09:55:51.879   02 Jun 2027 09:59:12.146           200.267                 Moscow         25033.375
        64   02 Jun 2027 09:59:41.172   02 Jun 2027 10:01:34.988           113.816              Murmansk2         14227.000
        65   02 Jun 2027 10:01:34.988   02 Jun 2027 10:03:06.289            91.301              Murmansk1         11412.625
        66   02 Jun 2027 10:05:23.476   02 Jun 2027 10:14:16.116           532.640                Anadyr1         66580.000
        67   02 Jun 2027 11:04:40.317   02 Jun 2027 11:12:51.866           491.549               CapeTown         61443.625
        68   02 Jun 2027 11:30:07.440   02 Jun 2027 11:33:40.291           212.851              Murmansk2         26606.375
        69   02 Jun 2027 11:40:49.935   02 Jun 2027 11:43:27.996           158.061                Anadyr2         19757.625
        70   02 Jun 2027 13:19:07.855   02 Jun 2027 13:20:12.653            64.798               Magadan2          8099.750
        71   02 Jun 2027 13:21:30.856   02 Jun 2027 13:23:51.664           140.808               Magadan1         17601.000
        72   02 Jun 2027 15:17:56.246   02 Jun 2027 15:18:07.582            11.336                Sumatra          1417.000
        73   02 Jun 2027 15:19:16.157   02 Jun 2027 15:20:14.786            58.629                Sumatra          7328.625
        74   02 Jun 2027 15:46:46.997   02 Jun 2027 15:49:42.884           175.887            RioGallegos         21985.875
        75   02 Jun 2027 16:34:29.397   02 Jun 2027 16:36:00.164            90.767                Irkutsk         11345.875
        76   02 Jun 2027 16:42:30.218   02 Jun 2027 16:43:35.196            64.978                Irkutsk          8122.250
        77   02 Jun 2027 16:48:10.364   02 Jun 2027 16:51:17.670           187.306                Sumatra         23413.250
        78   02 Jun 2027 18:13:14.640   02 Jun 2027 18:15:06.524           111.884                Novosib         13985.500
        79   02 Jun 2027 18:17:48.143   02 Jun 2027 18:20:30.791           162.648                  Delhi         20331.000
        80   02 Jun 2027 19:48:54.167   02 Jun 2027 19:50:14.361            80.194                 Moscow         10024.250
        81   02 Jun 2027 21:27:46.249   02 Jun 2027 21:28:38.643            52.394                 Moscow          6549.250
        82   02 Jun 2027 21:31:06.651   02 Jun 2027 21:31:55.127            48.476                 Moscow          6059.500
        83   02 Jun 2027 21:47:48.372   02 Jun 2027 21:49:02.604            74.232               CapeTown          9279.000
        84   02 Jun 2027 21:59:09.730   02 Jun 2027 22:00:03.342            53.612               CapeTown          4693.374
        85   03 Jun 2027 03:44:37.290   03 Jun 2027 03:44:38.940             1.650                Irkutsk           206.250
        86   03 Jun 2027 03:44:46.844   03 Jun 2027 03:49:09.444           262.600                Norilsk         32825.000
        87   03 Jun 2027 04:54:10.385   03 Jun 2027 04:56:47.045           156.660                Sumatra         19582.500
        88   03 Jun 2027 05:20:47.883   03 Jun 2027 05:25:34.573           286.690                Norilsk         35836.250
        89   03 Jun 2027 05:25:41.721   03 Jun 2027 05:27:42.816           121.095              Murmansk1         15136.875
        90   03 Jun 2027 06:46:23.997   03 Jun 2027 06:50:57.243           273.246                  Delhi         34155.750
        91   03 Jun 2027 06:50:59.548   03 Jun 2027 06:51:48.945            49.397                 Moscow          6174.625
        92   03 Jun 2027 06:56:11.699   03 Jun 2027 06:56:32.389            20.690                Novosib          2586.250
        93   03 Jun 2027 06:56:48.482   03 Jun 2027 06:59:30.346           161.864                 Moscow         20233.000
        94   03 Jun 2027 06:59:40.545   03 Jun 2027 07:03:16.357           215.812              Murmansk1         26976.500
        95   03 Jun 2027 08:32:21.808   03 Jun 2027 08:35:40.570           198.762                 Moscow         24845.250
        96   03 Jun 2027 08:35:49.333   03 Jun 2027 08:39:09.778           200.445              Murmansk1         25055.625
        97   03 Jun 2027 09:38:33.872   03 Jun 2027 09:47:52.027           558.155               CapeTown         69769.375
        98   03 Jun 2027 10:02:46.149   03 Jun 2027 10:03:04.163            18.014                 Moscow          2251.750
        99   03 Jun 2027 10:05:32.045   03 Jun 2027 10:09:13.144           221.099              Murmansk2         27637.375
       100   03 Jun 2027 10:10:21.882   03 Jun 2027 10:15:07.564           285.682              Murmansk1         35710.250
       101   03 Jun 2027 10:17:17.261   03 Jun 2027 10:26:51.903           574.642                Anadyr1         71830.250
       102   03 Jun 2027 11:20:14.773   03 Jun 2027 11:24:41.406           266.633               CapeTown         33329.125
       103   03 Jun 2027 11:45:58.081   03 Jun 2027 11:50:47.439           289.358              Murmansk1         36169.750
       104   03 Jun 2027 11:55:41.643   03 Jun 2027 11:59:48.358           246.715                Anadyr1         30839.375
       105   03 Jun 2027 12:00:18.009   03 Jun 2027 12:00:19.531             1.522               Magadan2           190.250
       106   03 Jun 2027 12:01:18.689   03 Jun 2027 12:03:08.101           109.412               Magadan2         13676.500
       107   03 Jun 2027 13:31:06.338   03 Jun 2027 13:35:52.389           286.051               Magadan1         35756.375
       108   03 Jun 2027 15:27:43.451   03 Jun 2027 15:31:43.376           239.925                Sumatra         29990.625
       109   03 Jun 2027 16:47:20.093   03 Jun 2027 16:49:00.835           100.742                Novosib         12592.750
       110   03 Jun 2027 16:54:19.087   03 Jun 2027 16:56:32.504           133.417                Novosib         16677.125
       111   03 Jun 2027 17:01:32.725   03 Jun 2027 17:02:21.720            48.995                Sumatra          6124.375
       112   03 Jun 2027 17:07:57.375   03 Jun 2027 17:09:51.535           114.160                Sumatra         14270.000
       113   03 Jun 2027 18:27:18.722   03 Jun 2027 18:28:56.850            98.128                Novosib         12266.000
       114   03 Jun 2027 18:29:41.733   03 Jun 2027 18:32:39.335           177.602                  Delhi         22200.250
       115   03 Jun 2027 20:02:31.445   03 Jun 2027 20:03:52.928            81.483                 Moscow         10185.375
       116   03 Jun 2027 21:47:24.443   03 Jun 2027 21:48:41.757            77.314                 Moscow          9664.250
       117   03 Jun 2027 22:07:28.210   03 Jun 2027 22:09:17.063           108.853               CapeTown           400.000
       118   04 Jun 2027 03:56:44.456   04 Jun 2027 04:00:57.050           252.594              Murmansk1         31574.250
       119   04 Jun 2027 05:06:14.636   04 Jun 2027 05:08:00.394           105.758                Sumatra         13219.750
       120   04 Jun 2027 05:15:42.978   04 Jun 2027 05:16:55.776            72.798                  Delhi          9099.750
       121   04 Jun 2027 05:31:12.290   04 Jun 2027 05:32:08.937            56.647                Irkutsk          7080.875
       122   04 Jun 2027 05:32:28.554   04 Jun 2027 05:34:10.006           101.452                Novosib         12681.500
       123   04 Jun 2027 05:34:24.513   04 Jun 2027 05:34:50.431            25.918                 Moscow          3239.750
       124   04 Jun 2027 05:35:14.787   04 Jun 2027 05:39:39.637           264.850              Murmansk2         33106.250
       125   04 Jun 2027 06:58:26.788   04 Jun 2027 07:02:46.553           259.765                  Delhi         32470.625
       126   04 Jun 2027 07:02:52.445   04 Jun 2027 07:03:32.008            39.563                 Moscow          4945.375
       127   04 Jun 2027 07:08:11.916   04 Jun 2027 07:09:32.382            80.466                Novosib         10058.250
       128   04 Jun 2027 07:09:33.267   04 Jun 2027 07:11:35.204           121.937                 Moscow         15242.125
       129   04 Jun 2027 07:11:43.628   04 Jun 2027 07:15:16.647           213.019              Murmansk2         26627.375
       130   04 Jun 2027 08:38:06.249   04 Jun 2027 08:38:25.571            19.322                 Moscow          2415.250
       131   04 Jun 2027 08:39:46.434   04 Jun 2027 08:40:08.399            21.965                 Moscow          2745.625
       132   04 Jun 2027 08:43:19.827   04 Jun 2027 08:47:41.281           261.454                 Moscow         32681.750
       133   04 Jun 2027 08:47:50.072   04 Jun 2027 08:51:11.421           201.349              Murmansk1         25168.625
       134   04 Jun 2027 09:52:45.381   04 Jun 2027 10:00:21.417           456.036               CapeTown         57004.500
       135   04 Jun 2027 10:17:43.756   04 Jun 2027 10:19:05.784            82.028              Murmansk2         10253.500
       136   04 Jun 2027 10:19:18.040   04 Jun 2027 10:21:24.579           126.539                 Moscow         15817.375
       137   04 Jun 2027 10:22:23.486   04 Jun 2027 10:24:37.748           134.262              Murmansk1         16782.750
       138   04 Jun 2027 10:24:37.748   04 Jun 2027 10:27:08.628           150.880              Murmansk2         18860.000
       139   04 Jun 2027 10:29:24.103   04 Jun 2027 10:35:52.647           388.544                Anadyr1         48568.000
       140   04 Jun 2027 10:37:03.772   04 Jun 2027 10:38:44.573           100.801                Anadyr1         12600.125
       141   04 Jun 2027 12:08:55.569   04 Jun 2027 12:10:30.155            94.586               Magadan1         11823.250
       142   04 Jun 2027 12:13:46.487   04 Jun 2027 12:16:52.873           186.386               Magadan2         23298.250
       143   04 Jun 2027 14:41:06.738   04 Jun 2027 14:42:36.332            89.594            RioGallegos         11199.250
       144   04 Jun 2027 15:23:41.073   04 Jun 2027 15:24:03.766            22.693                Irkutsk          2836.625
       145   04 Jun 2027 15:29:30.123   04 Jun 2027 15:30:39.618            69.495                Irkutsk          8686.875
       146   04 Jun 2027 15:38:36.832   04 Jun 2027 15:41:26.476           169.644                Sumatra         21205.500
       147   04 Jun 2027 15:44:02.182   04 Jun 2027 15:47:20.963           198.781                Sumatra         24847.625
       148   04 Jun 2027 17:09:05.176   04 Jun 2027 17:12:43.799           218.623                  Delhi         27327.875
       149   04 Jun 2027 18:41:38.910   04 Jun 2027 18:42:04.533            25.623                  Delhi          3202.875
       150   04 Jun 2027 18:49:07.051   04 Jun 2027 18:49:11.114             4.063                  Delhi           507.875
       151   04 Jun 2027 18:51:13.588   04 Jun 2027 18:52:28.452            74.864                  Delhi          9358.000
       152   04 Jun 2027 20:12:29.239   04 Jun 2027 20:15:44.214           194.975                 Moscow         24371.875
       153   04 Jun 2027 21:54:02.767   04 Jun 2027 21:54:23.781            21.014              Murmansk1          2626.750
       154   04 Jun 2027 22:11:42.887   04 Jun 2027 22:12:25.137            42.250               CapeTown          3212.000
       155   05 Jun 2027 04:08:32.008   05 Jun 2027 04:10:11.543            99.535              Murmansk2         12441.875
       156   05 Jun 2027 05:19:26.851   05 Jun 2027 05:20:36.500            69.649                Sumatra          8706.125
       157   05 Jun 2027 05:27:17.360   05 Jun 2027 05:29:14.472           117.112                  Delhi         14639.000
       158   05 Jun 2027 05:44:16.540   05 Jun 2027 05:47:01.828           165.288                 Moscow         20661.000
       159   05 Jun 2027 05:47:09.816   05 Jun 2027 05:51:37.031           267.215              Murmansk2         33401.875
       160   05 Jun 2027 07:12:41.858   05 Jun 2027 07:14:58.123           136.265                Novosib         17033.125
       161   05 Jun 2027 07:20:26.866   05 Jun 2027 07:23:39.561           192.695                 Moscow         24086.875
       162   05 Jun 2027 07:23:40.347   05 Jun 2027 07:27:17.214           216.867              Murmansk1         27108.375
       163   05 Jun 2027 08:50:06.827   05 Jun 2027 08:51:32.713            85.886                 Moscow         10735.750
       164   05 Jun 2027 08:54:57.688   05 Jun 2027 08:59:41.300           283.612                 Moscow         35451.500
       165   05 Jun 2027 08:59:50.493   05 Jun 2027 09:03:13.109           202.616              Murmansk1         25327.000
       166   05 Jun 2027 09:07:48.515   05 Jun 2027 09:09:16.888            88.373                Anadyr2         11046.625
       167   05 Jun 2027 10:05:54.509   05 Jun 2027 10:12:43.219           408.710               CapeTown         51088.750
       168   05 Jun 2027 10:29:45.425   05 Jun 2027 10:30:53.041            67.616              Murmansk2          8452.000
       169   05 Jun 2027 10:31:19.348   05 Jun 2027 10:33:18.346           118.998                 Moscow         14874.750
       170   05 Jun 2027 10:34:24.998   05 Jun 2027 10:39:09.413           284.415              Murmansk2         35551.875
       171   05 Jun 2027 10:41:09.486   05 Jun 2027 10:42:36.069            86.583                Anadyr1         10822.875
       172   05 Jun 2027 10:45:05.616   05 Jun 2027 10:45:34.192            28.576                Anadyr2          3572.000
       173   05 Jun 2027 12:19:47.436   05 Jun 2027 12:23:26.231           218.795               Magadan1         27349.375
       174   05 Jun 2027 13:55:05.313   05 Jun 2027 13:56:23.187            77.874               Magadan1          9734.250
       175   05 Jun 2027 13:58:11.581   05 Jun 2027 13:59:45.621            94.040               Magadan1         11755.000
       176   05 Jun 2027 15:35:23.578   05 Jun 2027 15:39:34.522           250.944                Irkutsk         31368.000
       177   05 Jun 2027 15:49:51.441   05 Jun 2027 15:53:16.081           204.640                Sumatra         25580.000
       178   05 Jun 2027 15:56:14.154   05 Jun 2027 15:58:40.436           146.282                Sumatra         18285.250
       179   05 Jun 2027 17:19:59.931   05 Jun 2027 17:23:00.554           180.623                  Delhi         22577.875
       180   05 Jun 2027 18:53:39.441   05 Jun 2027 18:55:11.024            91.583                  Delhi         11447.875
       181   05 Jun 2027 20:24:21.178   05 Jun 2027 20:27:39.900           198.722                 Moscow         24519.000
       182   06 Jun 2027 04:20:40.502   06 Jun 2027 04:20:43.613             3.111                Irkutsk           388.875
       183   06 Jun 2027 04:20:45.111   06 Jun 2027 04:22:19.439            94.328                Norilsk         11791.000
       184   06 Jun 2027 05:30:41.387   06 Jun 2027 05:31:02.659            21.272                Sumatra          2659.000
       185   06 Jun 2027 05:32:53.443   06 Jun 2027 05:35:04.790           131.347                Sumatra         16418.375
       186   06 Jun 2027 05:38:58.225   06 Jun 2027 05:41:28.294           150.069                  Delhi         18758.625
       187   06 Jun 2027 05:56:09.691   06 Jun 2027 05:58:10.446           120.755                Novosib         15094.375
       188   06 Jun 2027 05:58:48.554   06 Jun 2027 05:59:11.482            22.928                 Moscow          2866.000
       189   06 Jun 2027 05:59:11.888   06 Jun 2027 06:03:34.959           263.071              Murmansk2         32883.875
       190   06 Jun 2027 07:22:22.416   06 Jun 2027 07:26:09.465           227.049                  Delhi         28381.125
       191   06 Jun 2027 07:26:13.014   06 Jun 2027 07:27:59.626           106.612                Novosib         13326.500
       192   06 Jun 2027 07:32:04.312   06 Jun 2027 07:35:43.441           219.129                 Moscow         27391.125
       193   06 Jun 2027 07:36:00.050   06 Jun 2027 07:39:18.019           197.969              Murmansk2         24746.125
       194   06 Jun 2027 09:02:06.696   06 Jun 2027 09:04:46.672           159.976                 Moscow         19997.000
       195   06 Jun 2027 09:05:49.920   06 Jun 2027 09:07:08.020            78.100              Murmansk1          9762.500
       196   06 Jun 2027 09:07:13.989   06 Jun 2027 09:11:40.543           266.554                 Moscow         33319.250
       197   06 Jun 2027 09:11:50.547   06 Jun 2027 09:13:19.675            89.128              Murmansk2         11141.000
       198   06 Jun 2027 12:32:15.822   06 Jun 2027 12:36:08.958           233.136               Magadan2         29142.000
       199   06 Jun 2027 14:07:05.610   06 Jun 2027 14:07:36.777            31.167               Magadan2          3895.875
       200   06 Jun 2027 14:08:53.044   06 Jun 2027 14:10:19.420            86.376               Magadan1         10797.000
       201   06 Jun 2027 14:59:53.050   06 Jun 2027 14:59:54.980             1.930            RioGallegos           241.250
       202   06 Jun 2027 15:03:29.395   06 Jun 2027 15:03:48.479            19.084            RioGallegos          2385.500
       203   06 Jun 2027 15:05:38.009   06 Jun 2027 15:07:12.000            93.991            RioGallegos         11748.875
       204   06 Jun 2027 15:47:10.535   06 Jun 2027 15:51:30.618           260.083                Irkutsk         32510.375
       205   06 Jun 2027 16:04:21.330   06 Jun 2027 16:05:11.517            50.187                Sumatra          6273.375
       206   06 Jun 2027 16:08:20.102   06 Jun 2027 16:08:34.547            14.445                Sumatra          1805.625
       207   06 Jun 2027 17:22:49.012   06 Jun 2027 17:25:45.411           176.399                Novosib         22049.875
       208   06 Jun 2027 17:31:18.504   06 Jun 2027 17:34:49.802           211.298                  Delhi         26412.250
       209   06 Jun 2027 19:05:43.245   06 Jun 2027 19:06:45.592            62.347                  Delhi          7793.375
       210   06 Jun 2027 19:08:47.444   06 Jun 2027 19:10:16.939            89.495                  Delhi         11186.875
       211   06 Jun 2027 20:36:15.136   06 Jun 2027 20:38:25.001           129.865                 Moscow         16233.125
       212   06 Jun 2027 21:09:20.807   06 Jun 2027 21:10:08.420            47.613               CapeTown          2030.875
       213   07 Jun 2027 05:43:05.862   07 Jun 2027 05:44:31.491            85.629                Sumatra         10703.625
       214   07 Jun 2027 05:50:44.933   07 Jun 2027 05:53:38.088           173.155                  Delhi         21644.375
       215   07 Jun 2027 06:08:23.663   07 Jun 2027 06:11:19.865           176.202                 Moscow         22025.250
       216   07 Jun 2027 06:11:22.739   07 Jun 2027 06:15:33.377           250.638              Murmansk2         31329.750
       217   07 Jun 2027 07:36:43.639   07 Jun 2027 07:39:28.628           164.989                Novosib         20623.625
       218   07 Jun 2027 07:39:47.531   07 Jun 2027 07:40:10.712            23.181                 Moscow          2897.625
       219   07 Jun 2027 07:44:50.259   07 Jun 2027 07:47:46.849           176.590                 Moscow         22073.750
       220   07 Jun 2027 07:48:01.895   07 Jun 2027 07:51:19.037           197.142              Murmansk1         24642.750
       221   07 Jun 2027 09:14:05.769   07 Jun 2027 09:15:31.366            85.597                 Moscow         10699.625
       222   07 Jun 2027 09:16:04.962   07 Jun 2027 09:16:56.377            51.415              Murmansk1          6426.875
       223   07 Jun 2027 09:17:51.024   07 Jun 2027 09:19:44.221           113.197              Murmansk2         14149.625
       224   07 Jun 2027 09:19:47.549   07 Jun 2027 09:23:38.893           231.344                 Moscow         28918.000
       225   07 Jun 2027 09:23:41.087   07 Jun 2027 09:26:23.421           162.334              Murmansk1         20291.750
       226   07 Jun 2027 09:26:23.421   07 Jun 2027 09:27:16.504            53.083              Murmansk2          6635.375
       227   07 Jun 2027 09:30:15.668   07 Jun 2027 09:33:47.458           211.790                Anadyr2         26473.750
       228   07 Jun 2027 11:05:05.775   07 Jun 2027 11:05:59.084            53.309                Anadyr2          6663.625
       229   07 Jun 2027 12:43:32.968   07 Jun 2027 12:45:58.576           145.608               Magadan2         18201.000
       230   07 Jun 2027 12:47:39.283   07 Jun 2027 12:48:07.413            28.130               Magadan1          3516.250
       231   07 Jun 2027 12:51:50.269   07 Jun 2027 12:54:32.050           161.781               Magadan1         20222.625
       232   07 Jun 2027 15:11:34.161   07 Jun 2027 15:15:42.522           248.361            RioGallegos         31045.125
       233   07 Jun 2027 16:03:15.015   07 Jun 2027 16:03:28.080            13.065                Irkutsk          1633.125
       234   07 Jun 2027 16:06:24.713   07 Jun 2027 16:08:29.190           124.477                Irkutsk         15559.625
       235   07 Jun 2027 16:12:55.229   07 Jun 2027 16:14:59.406           124.177                Sumatra         15522.125
       236   07 Jun 2027 17:34:43.333   07 Jun 2027 17:36:38.662           115.329                Novosib         14416.125
       237   07 Jun 2027 17:42:49.371   07 Jun 2027 17:46:43.123           233.752                  Delhi         29219.000
       238   07 Jun 2027 19:17:50.432   07 Jun 2027 19:18:27.175            36.743                  Delhi          4592.875
       239   07 Jun 2027 20:45:52.517   07 Jun 2027 20:46:41.622            49.105              Murmansk1          6138.125
       240   07 Jun 2027 20:48:10.704   07 Jun 2027 20:49:48.866            98.162                 Moscow         12270.250
       241   07 Jun 2027 21:19:56.761   07 Jun 2027 21:22:06.752           129.991               CapeTown          7317.375
       242   08 Jun 2027 03:08:51.911   08 Jun 2027 03:09:50.706            58.795                Novosib          7349.375
       243   08 Jun 2027 03:09:50.850   08 Jun 2027 03:11:59.827           128.977                Norilsk         16122.125
       244   08 Jun 2027 04:18:46.303   08 Jun 2027 04:23:15.172           268.869                Sumatra         33608.625
       245   08 Jun 2027 04:44:38.019   08 Jun 2027 04:46:16.726            98.707                Novosib         12338.375
       246   08 Jun 2027 04:46:24.014   08 Jun 2027 04:49:44.077           200.063                Norilsk         25007.875
       247   08 Jun 2027 04:49:45.988   08 Jun 2027 04:52:10.888           144.900              Murmansk1         18112.500
       248   08 Jun 2027 06:05:44.318   08 Jun 2027 06:15:21.413           577.095                  Delhi         72136.875
       249   08 Jun 2027 06:15:21.906   08 Jun 2027 06:16:19.188            57.282                 Moscow          7160.250
       250   08 Jun 2027 06:20:19.915   08 Jun 2027 06:23:27.276           187.361                 Moscow         23420.125
       251   08 Jun 2027 06:23:33.530   08 Jun 2027 06:27:32.246           238.716              Murmansk2         29839.500
       252   08 Jun 2027 07:49:39.780   08 Jun 2027 07:51:36.243           116.463                Novosib         14557.875
       253   08 Jun 2027 07:55:47.312   08 Jun 2027 07:56:24.238            36.926                Novosib          4615.750
       254   08 Jun 2027 07:57:18.938   08 Jun 2027 07:58:09.405            50.467                Norilsk          6308.375
       255   08 Jun 2027 07:58:36.576   08 Jun 2027 08:03:20.236           283.660              Murmansk2         35457.500
       256   08 Jun 2027 09:07:22.719   08 Jun 2027 09:09:20.010           117.291               CapeTown         14661.375
       257   08 Jun 2027 09:26:03.922   08 Jun 2027 09:26:42.294            38.372                 Moscow          4796.500
       258   08 Jun 2027 09:29:52.283   08 Jun 2027 09:31:15.607            83.324              Murmansk1         10415.500
       259   08 Jun 2027 09:31:22.158   08 Jun 2027 09:35:36.208           254.050                 Moscow         31756.250
       260   08 Jun 2027 09:35:43.053   08 Jun 2027 09:38:13.612           150.559              Murmansk1         18819.875
       261   08 Jun 2027 09:38:13.612   08 Jun 2027 09:39:18.145            64.533              Murmansk2          8066.625
       262   08 Jun 2027 09:41:58.475   08 Jun 2027 09:49:05.013           426.538                Anadyr2         53317.250
       263   08 Jun 2027 10:43:47.084   08 Jun 2027 10:47:34.580           227.496               CapeTown         28437.000
       264   08 Jun 2027 11:21:52.066   08 Jun 2027 11:22:03.783            11.717                Anadyr2          1464.625
       265   08 Jun 2027 12:55:28.349   08 Jun 2027 13:00:22.308           293.959               Magadan1         36744.875
       266   08 Jun 2027 14:33:47.926   08 Jun 2027 14:34:27.276            39.350               Magadan1          4918.750
       267   08 Jun 2027 14:35:59.649   08 Jun 2027 14:36:47.622            47.973               Magadan1          5996.625
       268   08 Jun 2027 15:23:20.134   08 Jun 2027 15:26:14.871           174.737            RioGallegos         21842.125
       269   08 Jun 2027 16:10:53.363   08 Jun 2027 16:12:46.287           112.924                Irkutsk         14115.500
       270   08 Jun 2027 16:24:39.060   08 Jun 2027 16:29:19.251           280.191                Sumatra         35023.875
       271   08 Jun 2027 17:46:39.194   08 Jun 2027 17:48:59.942           140.748                Novosib         17593.500
       272   08 Jun 2027 17:54:28.302   08 Jun 2027 17:56:00.613            92.311                  Delhi         11538.875
       273   08 Jun 2027 17:58:22.805   08 Jun 2027 17:58:40.071            17.266                  Delhi          2158.250
       274   08 Jun 2027 20:56:45.432   08 Jun 2027 20:57:03.926            18.494              Murmansk2          2311.750
       275   08 Jun 2027 21:00:07.590   08 Jun 2027 21:01:25.142            77.552                 Moscow          9694.000
       276   08 Jun 2027 21:02:44.773   08 Jun 2027 21:04:50.899           126.126                 Moscow         15765.750
       277   08 Jun 2027 21:24:28.492   08 Jun 2027 21:25:38.113            69.621               CapeTown          8702.625
       278   09 Jun 2027 03:20:58.919   09 Jun 2027 03:21:57.941            59.022                Novosib          7377.750
       279   09 Jun 2027 03:22:01.758   09 Jun 2027 03:25:51.751           229.993                Norilsk         28749.125
       280   09 Jun 2027 03:26:05.468   09 Jun 2027 03:26:34.157            28.689              Murmansk1          3586.125
       281   09 Jun 2027 04:30:33.392   09 Jun 2027 04:33:23.910           170.518                Sumatra         21314.750
       282   09 Jun 2027 04:56:46.794   09 Jun 2027 04:58:03.954            77.160                 Moscow          9645.000
       283   09 Jun 2027 04:58:07.212   09 Jun 2027 05:01:45.775           218.563                Norilsk         27320.375
       284   09 Jun 2027 05:01:46.892   09 Jun 2027 05:04:05.781           138.889              Murmansk2         17361.125
       285   09 Jun 2027 06:22:11.525   09 Jun 2027 06:27:21.695           310.170                  Delhi         38771.250
       286   09 Jun 2027 06:27:21.771   09 Jun 2027 06:27:53.926            32.155              Murmansk2          4019.375
       287   09 Jun 2027 06:27:58.845   09 Jun 2027 06:28:20.492            21.647                 Moscow          2705.875
       288   09 Jun 2027 06:32:34.639   09 Jun 2027 06:35:33.903           179.264                 Moscow         22408.000
       289   09 Jun 2027 06:35:55.714   09 Jun 2027 06:39:31.525           215.811              Murmansk1         26976.375
       290   09 Jun 2027 08:09:20.779   09 Jun 2027 08:13:33.245           252.466                Norilsk         31558.250
       291   09 Jun 2027 08:13:39.917   09 Jun 2027 08:15:21.584           101.667              Murmansk1         12708.375
       292   09 Jun 2027 09:19:51.106   09 Jun 2027 09:22:36.255           165.149               CapeTown         20643.625
       293   09 Jun 2027 09:41:53.685   09 Jun 2027 09:43:51.985           118.300              Murmansk1         14787.500
       294   09 Jun 2027 09:44:00.971   09 Jun 2027 09:45:04.795            63.824                 Moscow          7978.000
       295   09 Jun 2027 09:46:35.415   09 Jun 2027 09:51:19.702           284.287              Murmansk2         35535.875
       296   09 Jun 2027 09:53:46.642   09 Jun 2027 10:01:51.201           484.559                Anadyr1         60569.875
       297   09 Jun 2027 10:56:07.238   09 Jun 2027 11:01:12.108           304.870               CapeTown         38108.750
       298   09 Jun 2027 11:19:35.677   09 Jun 2027 11:27:07.959           452.282              Murmansk2         56535.250
       299   09 Jun 2027 11:29:04.650   09 Jun 2027 11:41:14.559           729.909                Anadyr1         91238.625
       300   09 Jun 2027 13:07:24.984   09 Jun 2027 13:12:06.362           281.378               Magadan1         35172.250
       301   09 Jun 2027 13:15:11.974   09 Jun 2027 13:19:16.782           244.808               Magadan1         30601.000
       302   09 Jun 2027 15:35:09.592   09 Jun 2027 15:39:19.194           249.602            RioGallegos         31200.250
       303   09 Jun 2027 16:36:29.220   09 Jun 2027 16:39:28.796           179.576                Sumatra         22447.000
       304   09 Jun 2027 17:58:36.325   09 Jun 2027 17:59:50.408            74.083                Novosib          9260.375
       305   09 Jun 2027 18:06:13.192   09 Jun 2027 18:08:26.998           133.806                  Delhi         16725.750
       306   09 Jun 2027 21:12:24.412   09 Jun 2027 21:13:08.183            43.771                 Moscow          5471.375
       307   09 Jun 2027 21:16:06.545   09 Jun 2027 21:16:48.390            41.845              Murmansk1          5230.625
       308   09 Jun 2027 21:16:51.989   09 Jun 2027 21:17:09.292            17.303                 Moscow          2162.875
       309   09 Jun 2027 21:18:59.679   09 Jun 2027 21:20:10.860            71.181                 Moscow          8897.625
       310   09 Jun 2027 21:36:13.188   09 Jun 2027 21:38:58.449           165.261               CapeTown         20657.625
       311   10 Jun 2027 03:32:55.202   10 Jun 2027 03:37:12.910           257.708              Murmansk1         32213.500
       312   10 Jun 2027 04:42:26.489   10 Jun 2027 04:45:32.194           185.705                Sumatra         23213.125
       313   10 Jun 2027 05:08:54.240   10 Jun 2027 05:10:32.897            98.657                 Moscow         12332.125
       314   10 Jun 2027 05:10:34.532   10 Jun 2027 05:13:47.569           193.037                Norilsk         24129.625
       315   10 Jun 2027 05:14:11.899   10 Jun 2027 05:16:01.352           109.453              Murmansk1         13681.625
       316   10 Jun 2027 06:34:32.695   10 Jun 2027 06:39:18.616           285.921                  Delhi         35740.125
       317   10 Jun 2027 06:39:21.298   10 Jun 2027 06:39:43.358            22.060                 Moscow          2757.500
       318   10 Jun 2027 06:39:54.909   10 Jun 2027 06:40:47.467            52.558                Novosib          6569.750
       319   10 Jun 2027 06:44:39.831   10 Jun 2027 06:46:00.532            80.701                Novosib         10087.625
       320   10 Jun 2027 06:46:04.385   10 Jun 2027 06:47:39.869            95.484                 Moscow         11935.500
       321   10 Jun 2027 06:47:49.843   10 Jun 2027 06:51:31.185           221.342              Murmansk2         27667.750
       322   10 Jun 2027 08:20:55.712   10 Jun 2027 08:23:53.364           177.652                Norilsk         22206.500
       323   10 Jun 2027 08:24:02.296   10 Jun 2027 08:27:23.062           200.766              Murmansk2         25095.750
       324   10 Jun 2027 09:32:12.078   10 Jun 2027 09:35:28.607           196.529               CapeTown         24566.125
       325   10 Jun 2027 09:53:55.188   10 Jun 2027 09:55:47.460           112.272              Murmansk2         14034.000
       326   10 Jun 2027 09:56:06.686   10 Jun 2027 09:59:26.874           200.188                 Moscow         25023.500
       327   10 Jun 2027 09:59:46.416   10 Jun 2027 10:01:51.842           125.426              Murmansk2         15678.250
       328   10 Jun 2027 10:01:51.842   10 Jun 2027 10:03:21.145            89.303              Murmansk1         11162.875
       329   10 Jun 2027 10:05:38.159   10 Jun 2027 10:14:31.602           533.443                Anadyr2         66680.375
       330   10 Jun 2027 11:05:50.511   10 Jun 2027 11:13:06.558           436.047               CapeTown         54505.875
       331   10 Jun 2027 11:30:22.856   10 Jun 2027 11:31:32.693            69.837              Murmansk1          8729.625
       332   10 Jun 2027 11:34:56.700   10 Jun 2027 11:39:05.713           249.013              Murmansk1         31126.625
       333   10 Jun 2027 11:41:25.239   10 Jun 2027 11:47:12.826           347.587                Anadyr1         43448.375
       334   10 Jun 2027 11:48:54.057   10 Jun 2027 11:51:14.160           140.103               Magadan2         17512.875
       335   10 Jun 2027 13:19:22.640   10 Jun 2027 13:24:06.654           284.014               Magadan1         35501.750
       336   10 Jun 2027 15:18:06.554   10 Jun 2027 15:19:31.809            85.255                Sumatra         10656.875
       337   10 Jun 2027 15:47:01.698   10 Jun 2027 15:48:54.133           112.435            RioGallegos         14054.375
       338   10 Jun 2027 16:34:44.159   10 Jun 2027 16:36:14.492            90.333                Irkutsk         11291.625
       339   10 Jun 2027 16:42:45.239   10 Jun 2027 16:43:47.546            62.307                Irkutsk          7788.375
       340   10 Jun 2027 16:48:34.901   10 Jun 2027 16:51:31.462           176.561                Sumatra         22070.125
       341   10 Jun 2027 18:15:21.543   10 Jun 2027 18:17:33.793           132.250                Novosib         16531.250
       342   10 Jun 2027 18:18:02.823   10 Jun 2027 18:20:45.881           163.058                  Delhi         20382.250
       343   10 Jun 2027 19:49:08.694   10 Jun 2027 19:50:39.595            90.901                 Moscow         11362.625
       344   10 Jun 2027 21:28:53.669   10 Jun 2027 21:29:04.892            11.223                 Moscow          1402.875
       345   10 Jun 2027 21:31:21.646   10 Jun 2027 21:32:10.063            48.417                 Moscow          6052.125
       346   10 Jun 2027 21:48:03.071   10 Jun 2027 21:49:17.842            74.771               CapeTown          9346.375
       347   10 Jun 2027 21:55:29.632   10 Jun 2027 21:55:52.560            22.928               CapeTown          2866.000
       348   11 Jun 2027 03:22:45.530   11 Jun 2027 03:24:08.874            83.344                Sumatra          1956.251
       349   11 Jun 2027 03:44:51.828   11 Jun 2027 03:44:53.806             1.978                Irkutsk           247.250
       350   11 Jun 2027 03:45:03.259   11 Jun 2027 03:49:25.866           262.607                Norilsk         32825.875
       351   11 Jun 2027 04:54:25.235   11 Jun 2027 04:57:00.991           155.756                Sumatra         19469.500
       352   11 Jun 2027 05:21:02.615   11 Jun 2027 05:25:49.434           286.819                Norilsk         35852.375
       353   11 Jun 2027 05:26:01.614   11 Jun 2027 05:27:57.573           115.959              Murmansk2         14494.875
       354   11 Jun 2027 06:46:38.768   11 Jun 2027 06:51:11.925           273.157                  Delhi         34144.625
       355   11 Jun 2027 06:51:15.940   11 Jun 2027 06:52:06.730            50.790                 Moscow          6348.750
       356   11 Jun 2027 06:56:26.183   11 Jun 2027 06:56:46.632            20.449                Novosib          2556.125
       357   11 Jun 2027 06:57:06.315   11 Jun 2027 06:59:45.250           158.935                 Moscow         19866.875
       358   11 Jun 2027 06:59:56.031   11 Jun 2027 07:03:31.181           215.150              Murmansk1         26893.750
       359   11 Jun 2027 08:32:36.667   11 Jun 2027 08:35:55.413           198.746                 Moscow         24843.250
       360   11 Jun 2027 08:36:07.316   11 Jun 2027 08:39:24.632           197.316              Murmansk2         24664.500
       361   11 Jun 2027 09:38:52.238   11 Jun 2027 09:48:07.428           555.190               CapeTown         69398.750
       362   11 Jun 2027 10:03:00.844   11 Jun 2027 10:03:18.529            17.685                 Moscow          2210.625
       363   11 Jun 2027 10:05:46.900   11 Jun 2027 10:09:36.138           229.238              Murmansk1         28654.750
       364   11 Jun 2027 10:10:36.617   11 Jun 2027 10:13:24.900           168.283              Murmansk2         21035.375
       365   11 Jun 2027 10:13:24.900   11 Jun 2027 10:15:22.417           117.517              Murmansk1         14689.625
       366   11 Jun 2027 10:17:31.977   11 Jun 2027 10:27:07.312           575.335                Anadyr1         71916.875
       367   11 Jun 2027 11:20:29.565   11 Jun 2027 11:24:56.007           266.442               CapeTown         33305.250
       368   11 Jun 2027 11:45:52.348   11 Jun 2027 11:51:02.213           309.865              Murmansk1         38733.125
       369   11 Jun 2027 11:55:56.683   11 Jun 2027 12:00:03.353           246.670                Anadyr2         30833.750
       370   11 Jun 2027 12:00:33.475   11 Jun 2027 12:00:34.385             0.910               Magadan1           113.750
       371   11 Jun 2027 12:01:34.308   11 Jun 2027 12:03:20.954           106.646               Magadan1         13330.750
       372   11 Jun 2027 13:31:21.139   11 Jun 2027 13:33:58.480           157.341               Magadan1         19667.625
       373   11 Jun 2027 15:17:18.532   11 Jun 2027 15:19:57.798           159.266                Irkutsk         19908.250
       374   11 Jun 2027 15:27:56.854   11 Jun 2027 15:31:58.827           241.973                Sumatra         30246.625
       375   11 Jun 2027 16:47:34.639   11 Jun 2027 16:49:26.710           112.071                Novosib         14008.875
       376   11 Jun 2027 17:00:26.703   11 Jun 2027 17:02:35.780           129.077                Sumatra         16134.625
       377   11 Jun 2027 17:10:06.513   11 Jun 2027 17:11:37.953            91.440                Sumatra         11430.000
       378   11 Jun 2027 18:26:44.237   11 Jun 2027 18:27:23.336            39.099                Novosib          4887.375
       379   11 Jun 2027 18:29:56.478   11 Jun 2027 18:32:53.143           176.665                  Delhi         22083.125
       380   11 Jun 2027 20:00:54.523   11 Jun 2027 20:02:47.404           112.881                 Moscow         14110.125
       381   11 Jun 2027 21:42:57.672   11 Jun 2027 21:43:39.623            41.951                 Moscow          5243.875
       382   11 Jun 2027 21:59:57.937   11 Jun 2027 22:01:57.017           119.080               CapeTown         10437.625
       383   12 Jun 2027 03:56:55.817   12 Jun 2027 04:01:18.867           263.050                Norilsk         32881.250
       384   12 Jun 2027 05:06:29.584   12 Jun 2027 05:08:13.331           103.747                Sumatra         12968.375
       385   12 Jun 2027 05:15:57.308   12 Jun 2027 05:17:10.960            73.652                  Delhi          9206.500
       386   12 Jun 2027 05:32:46.967   12 Jun 2027 05:34:24.847            97.880                Novosib         12235.000
       387   12 Jun 2027 05:34:38.861   12 Jun 2027 05:35:05.445            26.584                 Moscow          3323.000
       388   12 Jun 2027 05:35:29.416   12 Jun 2027 05:39:54.406           264.990              Murmansk1         33123.750
       389   12 Jun 2027 06:58:41.514   12 Jun 2027 07:03:01.162           259.648                  Delhi         32456.000
       390   12 Jun 2027 07:03:09.387   12 Jun 2027 07:03:46.177            36.790                 Moscow          4598.750
       391   12 Jun 2027 07:08:28.139   12 Jun 2027 07:09:47.067            78.928                Novosib          9866.000
       392   12 Jun 2027 07:09:51.307   12 Jun 2027 07:11:50.101           118.794                 Moscow         14849.250
       393   12 Jun 2027 07:12:00.150   12 Jun 2027 07:15:31.477           211.327              Murmansk1         26415.875
       394   12 Jun 2027 08:38:21.090   12 Jun 2027 08:38:39.926            18.836                 Moscow          2354.500
       395   12 Jun 2027 08:39:08.096   12 Jun 2027 08:40:23.700            75.604                 Moscow          9450.500
       396   12 Jun 2027 08:43:34.739   12 Jun 2027 08:47:56.114           261.375                 Moscow         32671.875
       397   12 Jun 2027 08:48:05.538   12 Jun 2027 08:51:26.277           200.739              Murmansk1         25092.375
       398   12 Jun 2027 09:53:01.303   12 Jun 2027 10:00:36.675           455.372               CapeTown         56921.500
       399   12 Jun 2027 10:17:58.415   12 Jun 2027 10:19:22.375            83.960              Murmansk1         10495.000
       400   12 Jun 2027 10:19:32.676   12 Jun 2027 10:21:39.124           126.448                 Moscow         15806.000
       401   12 Jun 2027 10:22:38.221   12 Jun 2027 10:25:24.143           165.922              Murmansk2         20740.250
       402   12 Jun 2027 10:25:24.143   12 Jun 2027 10:27:23.478           119.335              Murmansk1         14916.875
       403   12 Jun 2027 10:29:39.497   12 Jun 2027 10:39:39.007           599.510                Anadyr1         74938.750
       404   12 Jun 2027 12:09:12.144   12 Jun 2027 12:12:01.292           169.148               Magadan1         21143.500
       405   12 Jun 2027 13:43:20.338   12 Jun 2027 13:44:04.219            43.881               Magadan1          5485.125
       406   12 Jun 2027 13:46:16.003   12 Jun 2027 13:47:06.955            50.952               Magadan2          6369.000
       407   12 Jun 2027 13:48:08.504   12 Jun 2027 13:49:45.561            97.057               Magadan1         12132.125
       408   12 Jun 2027 14:41:21.951   12 Jun 2027 14:42:52.576            90.625            RioGallegos         11328.125
       409   12 Jun 2027 15:38:50.740   12 Jun 2027 15:44:17.479           326.739                Sumatra         40842.375
       410   12 Jun 2027 17:01:33.751   12 Jun 2027 17:03:38.597           124.846                Novosib         15605.750
       411   12 Jun 2027 17:09:18.508   12 Jun 2027 17:12:59.443           220.935                  Delhi         27616.875
       412   12 Jun 2027 18:41:53.715   12 Jun 2027 18:44:00.666           126.951                  Delhi         15868.875
       413   12 Jun 2027 18:51:28.439   12 Jun 2027 18:52:43.756            75.317                  Delhi          9414.625
       414   12 Jun 2027 20:13:21.654   12 Jun 2027 20:15:59.813           158.159                 Moscow         19769.875
       415   12 Jun 2027 21:51:22.847   12 Jun 2027 21:52:58.640            95.793                 Moscow          1472.374
       416   13 Jun 2027 04:08:46.493   13 Jun 2027 04:10:26.353            99.860              Murmansk1         12482.500
       417   13 Jun 2027 05:19:41.135   13 Jun 2027 05:20:51.539            70.404                Sumatra          8800.500
       418   13 Jun 2027 05:27:31.808   13 Jun 2027 05:29:29.565           117.757                  Delhi         14719.625
       419   13 Jun 2027 05:44:36.150   13 Jun 2027 05:47:16.813           160.663                 Moscow         20082.875
       420   13 Jun 2027 05:47:24.456   13 Jun 2027 05:51:51.811           267.355              Murmansk2         33419.375
       421   13 Jun 2027 07:10:40.981   13 Jun 2027 07:11:21.175            40.194                  Delhi          5024.250
       422   13 Jun 2027 07:12:56.493   13 Jun 2027 07:15:25.559           149.066                Novosib         18633.250
       423   13 Jun 2027 07:20:14.815   13 Jun 2027 07:23:54.452           219.637                 Moscow         27454.625
       424   13 Jun 2027 07:23:55.246   13 Jun 2027 07:27:32.049           216.803              Murmansk2         27100.375
       425   13 Jun 2027 08:50:21.658   13 Jun 2027 08:51:45.540            83.882                 Moscow         10485.250
       426   13 Jun 2027 08:52:14.421   13 Jun 2027 08:52:29.937            15.516              Murmansk2          1939.500
       427   13 Jun 2027 08:55:12.426   13 Jun 2027 08:59:56.126           283.700                 Moscow         35462.500
       428   13 Jun 2027 09:00:15.746   13 Jun 2027 09:03:27.966           192.220              Murmansk1         24027.500
       429   13 Jun 2027 09:08:00.741   13 Jun 2027 09:09:35.046            94.305                Anadyr2         11788.125
       430   13 Jun 2027 10:06:10.028   13 Jun 2027 10:12:58.359           408.331               CapeTown         51041.375
       431   13 Jun 2027 10:30:00.085   13 Jun 2027 10:31:09.633            69.548              Murmansk2          8693.500
       432   13 Jun 2027 10:31:33.976   13 Jun 2027 10:33:21.154           107.178                 Moscow         13397.250
       433   13 Jun 2027 10:34:39.730   13 Jun 2027 10:39:19.226           279.496              Murmansk1         34937.000
       434   13 Jun 2027 10:45:20.925   13 Jun 2027 10:46:05.749            44.824                Anadyr1          5603.000
       435   13 Jun 2027 10:48:55.248   13 Jun 2027 10:50:56.919           121.671                Anadyr2         15208.875
       436   13 Jun 2027 12:20:02.088   13 Jun 2027 12:20:55.459            53.371               Magadan2          6671.375
       437   13 Jun 2027 12:22:50.838   13 Jun 2027 12:23:50.082            59.244               Magadan1          7405.500
       438   13 Jun 2027 13:55:20.137   13 Jun 2027 13:56:38.227            78.090               Magadan2          9761.250
       439   13 Jun 2027 14:52:45.723   13 Jun 2027 14:56:01.538           195.815            RioGallegos         24476.875
       440   13 Jun 2027 15:37:02.632   13 Jun 2027 15:39:49.400           166.768                Irkutsk         20846.000
       441   13 Jun 2027 15:50:05.611   13 Jun 2027 15:53:30.909           205.298                Sumatra         25662.250
       442   13 Jun 2027 17:11:11.281   13 Jun 2027 17:15:37.613           266.332                Novosib         33291.500
       443   13 Jun 2027 17:20:13.893   13 Jun 2027 17:23:15.260           181.367                  Delhi         22670.875
       444   13 Jun 2027 20:24:35.878   13 Jun 2027 20:27:52.794           196.916                 Moscow         15988.625
