uniorb/output/strategy_4/Drop/Drop_KinoSat_111506.txt

KinoSat_111506
-------------------------
    Access    *     Start Time (UTCG)     *     Stop Time (UTCG)  *   Duration (s)        *       Station  *  Data (Mbytes)
         1   01 Jun 2027 03:10:14.907   01 Jun 2027 03:10:31.949            17.042              Murmansk1           532.562
         2   01 Jun 2027 03:10:36.989   01 Jun 2027 03:11:38.048            61.059                Irkutsk          1908.094
         3   01 Jun 2027 03:11:48.417   01 Jun 2027 03:12:53.762            65.345                 Moscow          2042.031
         4   01 Jun 2027 03:13:15.174   01 Jun 2027 03:15:27.008           131.834                 Moscow          4119.813
         5   01 Jun 2027 03:15:36.266   01 Jun 2027 03:15:56.727            20.461              Murmansk1           639.406
         6   01 Jun 2027 03:16:09.046   01 Jun 2027 03:16:30.126            21.080                Novosib           658.750
         7   01 Jun 2027 03:16:54.183   01 Jun 2027 03:20:03.806           189.623                  Delhi          5925.719
         8   01 Jun 2027 04:48:54.442   01 Jun 2027 04:49:13.247            18.805                Norilsk           587.656
         9   01 Jun 2027 04:49:15.883   01 Jun 2027 04:50:40.111            84.228              Murmansk1          2632.125
        10   01 Jun 2027 04:50:41.264   01 Jun 2027 04:51:27.631            46.367                 Moscow          1448.969
        11   01 Jun 2027 04:51:29.991   01 Jun 2027 04:51:43.678            13.687              Murmansk2           427.719
        12   01 Jun 2027 04:52:16.499   01 Jun 2027 04:52:49.608            33.109              Murmansk2          1034.656
        13   01 Jun 2027 04:54:24.632   01 Jun 2027 04:55:04.582            39.950                 Moscow          1248.438
        14   01 Jun 2027 06:11:26.676   01 Jun 2027 06:12:41.550            74.874               Magadan1          2339.813
        15   01 Jun 2027 06:12:41.550   01 Jun 2027 06:13:58.128            76.578               Magadan2          2393.063
        16   01 Jun 2027 06:14:32.247   01 Jun 2027 06:15:03.252            31.005               Magadan2           968.906
        17   01 Jun 2027 06:16:53.063   01 Jun 2027 06:17:00.072             7.009               Magadan1           219.031
        18   01 Jun 2027 07:48:44.326   01 Jun 2027 07:50:05.024            80.698                Anadyr1          2521.812
        19   01 Jun 2027 07:50:29.926   01 Jun 2027 07:51:35.482            65.556                Anadyr1          2048.625
        20   01 Jun 2027 07:51:35.482   01 Jun 2027 07:52:32.162            56.680                Anadyr2          1771.250
        21   01 Jun 2027 09:23:22.257   01 Jun 2027 09:24:07.433            45.176               Magadan1          1411.750
        22   01 Jun 2027 09:25:00.055   01 Jun 2027 09:28:24.781           204.726               Magadan2          6397.687
        23   01 Jun 2027 11:00:58.358   01 Jun 2027 11:01:27.762            29.404                Irkutsk           918.875
        24   01 Jun 2027 11:01:48.688   01 Jun 2027 11:02:44.592            55.904              Murmansk1          1747.000
        25   01 Jun 2027 11:02:50.122   01 Jun 2027 11:04:42.768           112.646                Irkutsk          3520.187
        26   01 Jun 2027 11:05:00.291   01 Jun 2027 11:05:56.512            56.221                Novosib          1756.906
        27   01 Jun 2027 11:40:31.772   01 Jun 2027 11:40:58.107            26.335            RioGallegos           822.969
        28   01 Jun 2027 11:42:34.297   01 Jun 2027 11:43:24.962            50.665            RioGallegos          1583.281
        29   01 Jun 2027 11:45:29.853   01 Jun 2027 11:45:31.861             2.008            RioGallegos            62.750
        30   01 Jun 2027 12:14:46.592   01 Jun 2027 12:16:09.652            83.060                Sumatra          2595.625
        31   01 Jun 2027 12:19:27.925   01 Jun 2027 12:19:50.241            22.316                Sumatra           697.375
        32   01 Jun 2027 12:23:10.781   01 Jun 2027 12:23:34.788            24.007                  Delhi           750.219
        33   01 Jun 2027 12:24:34.946   01 Jun 2027 12:24:41.996             7.050                Sumatra           220.313
        34   01 Jun 2027 12:25:54.305   01 Jun 2027 12:26:03.266             8.961                Sumatra           280.031
        35   01 Jun 2027 12:29:23.242   01 Jun 2027 12:32:53.846           210.604                Novosib          6581.375
        36   01 Jun 2027 12:33:18.739   01 Jun 2027 12:35:02.214           103.475                Irkutsk          3233.594
        37   01 Jun 2027 13:59:42.878   01 Jun 2027 14:04:51.323           308.445                  Delhi          9638.906
        38   01 Jun 2027 14:08:07.691   01 Jun 2027 14:12:32.284           264.593                Novosib          8268.531
        39   01 Jun 2027 15:43:00.735   01 Jun 2027 15:44:56.277           115.542                 Moscow          3610.687
        40   01 Jun 2027 15:45:57.093   01 Jun 2027 15:46:52.053            54.960                 Moscow          1717.500
        41   01 Jun 2027 15:47:30.215   01 Jun 2027 15:48:06.940            36.725              Murmansk1          1147.656
        42   01 Jun 2027 15:53:18.500   01 Jun 2027 15:54:43.412            84.912                Norilsk          2653.500
        43   01 Jun 2027 15:55:44.864   01 Jun 2027 15:56:30.283            45.419                Norilsk          1419.344
        44   01 Jun 2027 16:02:28.173   01 Jun 2027 16:02:57.329            29.156                Anadyr2           911.125
        45   01 Jun 2027 16:56:31.392   01 Jun 2027 16:58:18.777           107.385               CapeTown          3355.781
        46   01 Jun 2027 17:22:57.215   01 Jun 2027 17:23:41.515            44.300                 Moscow          1384.375
        47   01 Jun 2027 17:24:28.587   01 Jun 2027 17:25:35.401            66.814              Murmansk1          2087.938
        48   01 Jun 2027 17:26:02.949   01 Jun 2027 17:27:01.131            58.182                 Moscow          1818.187
        49   01 Jun 2027 17:27:41.349   01 Jun 2027 17:29:16.703            95.354              Murmansk2          2979.813
        50   01 Jun 2027 17:31:58.170   01 Jun 2027 17:32:54.919            56.749              Murmansk2          1773.406
        51   01 Jun 2027 17:38:20.963   01 Jun 2027 17:38:29.536             8.573                Anadyr1           267.906
        52   01 Jun 2027 17:39:23.456   01 Jun 2027 17:39:27.328             3.872                Anadyr1           121.000
        53   01 Jun 2027 17:45:29.294   01 Jun 2027 17:45:48.620            19.326                Anadyr1           603.938
        54   01 Jun 2027 17:46:13.038   01 Jun 2027 17:46:38.152            25.114                Anadyr1           784.813
        55   01 Jun 2027 18:32:55.402   01 Jun 2027 18:34:23.016            87.614               CapeTown          2737.937
        56   01 Jun 2027 18:36:28.110   01 Jun 2027 18:37:29.300            61.190               CapeTown          1912.187
        57   01 Jun 2027 19:05:14.311   01 Jun 2027 19:09:47.919           273.608              Murmansk2          8550.250
        58   01 Jun 2027 19:15:34.846   01 Jun 2027 19:17:00.542            85.696               Magadan2          2678.000
        59   01 Jun 2027 19:18:18.738   01 Jun 2027 19:18:30.939            12.201               Magadan2           381.281
        60   01 Jun 2027 19:22:08.622   01 Jun 2027 19:22:48.127            39.505               Magadan1          1234.531
        61   01 Jun 2027 20:48:48.308   01 Jun 2027 20:54:04.390           316.082                Anadyr2          9877.563
        62   01 Jun 2027 20:54:20.256   01 Jun 2027 20:54:48.787            28.531               Magadan1           891.594
        63   01 Jun 2027 20:55:06.443   01 Jun 2027 20:56:38.642            92.199               Magadan2          2881.219
        64   01 Jun 2027 21:02:16.452   01 Jun 2027 21:02:25.295             8.843               Magadan1           276.344
        65   01 Jun 2027 21:43:44.289   01 Jun 2027 21:46:24.353           160.064            RioGallegos          5002.000
        66   01 Jun 2027 21:46:30.076   01 Jun 2027 21:46:52.152            22.076            RioGallegos           689.875
        67   01 Jun 2027 21:49:21.936   01 Jun 2027 21:50:16.729            54.793            RioGallegos          1712.281
        68   01 Jun 2027 22:24:31.608   01 Jun 2027 22:26:06.775            95.167                Anadyr1          2973.969
        69   01 Jun 2027 22:26:22.236   01 Jun 2027 22:27:15.512            53.276                Anadyr1          1664.875
        70   01 Jun 2027 22:27:47.481   01 Jun 2027 22:28:36.598            49.117               Magadan2          1534.906
        71   01 Jun 2027 22:28:36.598   01 Jun 2027 22:28:55.520            18.922               Magadan1           591.312
        72   01 Jun 2027 22:29:09.245   01 Jun 2027 22:29:13.161             3.916               Magadan2           122.375
        73   01 Jun 2027 22:29:34.505   01 Jun 2027 22:30:01.249            26.744               Magadan2           835.750
        74   01 Jun 2027 22:31:05.250   01 Jun 2027 22:32:12.660            67.410                Irkutsk          2106.563
        75   01 Jun 2027 22:39:56.665   01 Jun 2027 22:40:01.109             4.444                Irkutsk           138.875
        76   01 Jun 2027 22:41:15.475   01 Jun 2027 22:41:47.392            31.917                Irkutsk           997.406
        77   01 Jun 2027 22:45:10.010   01 Jun 2027 22:46:13.638            63.628                Sumatra          1988.375
        78   01 Jun 2027 22:46:40.087   01 Jun 2027 22:48:12.641            92.554                Sumatra          2892.312
        79   01 Jun 2027 23:59:31.530   02 Jun 2027 00:00:40.811            69.281                Anadyr1          2165.031
        80   02 Jun 2027 00:01:50.787   02 Jun 2027 00:02:07.965            17.178                Anadyr2           536.812
        81   02 Jun 2027 00:02:33.288   02 Jun 2027 00:03:44.303            71.015                Norilsk          2219.219
        82   02 Jun 2027 00:04:09.229   02 Jun 2027 00:05:11.058            61.829               Magadan1          1932.156
        83   02 Jun 2027 00:06:25.394   02 Jun 2027 00:07:48.294            82.900                Irkutsk          2590.625
        84   02 Jun 2027 00:08:02.431   02 Jun 2027 00:09:18.262            75.831                Novosib          2369.719
        85   02 Jun 2027 00:13:50.006   02 Jun 2027 00:14:07.329            17.323                Novosib           541.344
        86   02 Jun 2027 00:15:07.194   02 Jun 2027 00:15:56.895            49.701                  Delhi          1553.156
        87   02 Jun 2027 00:16:01.690   02 Jun 2027 00:17:58.326           116.636                  Delhi          3644.875
        88   02 Jun 2027 01:00:26.659   02 Jun 2027 01:00:57.294            30.635            RioGallegos           957.344
        89   02 Jun 2027 01:02:18.610   02 Jun 2027 01:02:46.606            27.996            RioGallegos           874.875
        90   02 Jun 2027 01:04:28.489   02 Jun 2027 01:05:35.211            66.722            RioGallegos          2085.063
        91   02 Jun 2027 01:33:17.904   02 Jun 2027 01:33:24.221             6.317                Anadyr2           197.406
        92   02 Jun 2027 01:33:39.232   02 Jun 2027 01:33:56.197            16.965                Anadyr1           530.156
        93   02 Jun 2027 01:35:31.663   02 Jun 2027 01:35:58.307            26.644                Anadyr2           832.625
        94   02 Jun 2027 01:38:50.753   02 Jun 2027 01:38:56.370             5.617                Anadyr1           175.531
        95   02 Jun 2027 01:39:00.727   02 Jun 2027 01:39:51.349            50.622               Magadan2          1581.938
        96   02 Jun 2027 01:39:57.599   02 Jun 2027 01:40:36.645            39.046                Norilsk          1220.187
        97   02 Jun 2027 01:40:54.487   02 Jun 2027 01:41:20.872            26.385               Magadan2           824.531
        98   02 Jun 2027 01:41:21.307   02 Jun 2027 01:43:36.132           134.825              Murmansk1          4213.281
        99   02 Jun 2027 01:47:36.380   02 Jun 2027 01:47:58.105            21.725              Murmansk1           678.906
       100   02 Jun 2027 01:49:40.437   02 Jun 2027 01:49:57.023            16.586                Irkutsk           518.312
       101   02 Jun 2027 01:51:12.508   02 Jun 2027 01:51:53.976            41.468                  Delhi          1295.875
       102   02 Jun 2027 01:54:45.535   02 Jun 2027 01:55:04.041            18.506                  Delhi           578.313
       103   02 Jun 2027 01:57:59.536   02 Jun 2027 01:58:09.414             9.878                  Delhi           308.688
       104   02 Jun 2027 01:59:49.593   02 Jun 2027 02:00:05.170            15.577                  Delhi           486.781
       105   02 Jun 2027 02:32:39.469   02 Jun 2027 02:33:18.716            39.247            RioGallegos          1226.469
       106   02 Jun 2027 02:34:22.238   02 Jun 2027 02:35:27.329            65.091            RioGallegos          2034.094
       107   02 Jun 2027 02:35:51.965   02 Jun 2027 02:36:16.871            24.906            RioGallegos           778.312
       108   02 Jun 2027 03:22:22.372   02 Jun 2027 03:23:16.097            53.725                Norilsk          1678.906
       109   02 Jun 2027 03:23:44.882   02 Jun 2027 03:26:13.077           148.195              Murmansk2          4631.094
       110   02 Jun 2027 03:26:16.900   02 Jun 2027 03:26:24.554             7.654              Murmansk2           239.188
       111   02 Jun 2027 03:26:54.756   02 Jun 2027 03:28:17.445            82.689              Murmansk1          2584.031
       112   02 Jun 2027 03:28:34.490   02 Jun 2027 03:29:03.902            29.412                Novosib           919.125
       113   02 Jun 2027 03:30:40.868   02 Jun 2027 03:31:44.055            63.187                 Moscow          1974.594
       114   02 Jun 2027 03:45:07.430   02 Jun 2027 03:47:59.047           171.617               CapeTown          5363.031
       115   02 Jun 2027 05:03:31.835   02 Jun 2027 05:04:18.591            46.756              Murmansk1          1461.125
       116   02 Jun 2027 06:23:09.475   02 Jun 2027 06:28:52.195           342.720               Magadan1         10710.000
       117   02 Jun 2027 08:02:16.885   02 Jun 2027 08:05:01.897           165.012                Anadyr1          5156.625
       118   02 Jun 2027 09:35:23.629   02 Jun 2027 09:35:28.733             5.104               Magadan1           159.500
       119   02 Jun 2027 09:35:36.210   02 Jun 2027 09:36:19.152            42.942               Magadan1          1341.937
       120   02 Jun 2027 09:36:56.802   02 Jun 2027 09:37:44.255            47.453               Magadan2          1482.906
       121   02 Jun 2027 09:38:21.841   02 Jun 2027 09:38:31.960            10.119                Norilsk           316.219
       122   02 Jun 2027 09:38:42.527   02 Jun 2027 09:38:53.403            10.876                Irkutsk           339.875
       123   02 Jun 2027 09:39:00.837   02 Jun 2027 09:39:32.807            31.970                Norilsk           999.062
       124   02 Jun 2027 09:39:38.365   02 Jun 2027 09:40:28.072            49.707                Irkutsk          1553.344
       125   02 Jun 2027 09:40:38.349   02 Jun 2027 09:41:32.982            54.633                Novosib          1707.281
       126   02 Jun 2027 10:15:25.575   02 Jun 2027 10:15:31.304             5.729            RioGallegos           179.031
       127   02 Jun 2027 10:16:37.931   02 Jun 2027 10:17:17.365            39.434            RioGallegos          1232.313
       128   02 Jun 2027 10:50:58.487   02 Jun 2027 10:52:21.529            83.042                Sumatra          2595.063
       129   02 Jun 2027 11:11:24.435   02 Jun 2027 11:12:09.631            45.196                Irkutsk          1412.375
       130   02 Jun 2027 11:12:13.640   02 Jun 2027 11:12:24.889            11.249                Novosib           351.531
       131   02 Jun 2027 11:13:00.403   02 Jun 2027 11:13:01.325             0.922                Irkutsk            28.813
       132   02 Jun 2027 11:13:16.822   02 Jun 2027 11:14:09.402            52.580                Novosib          1643.125
       133   02 Jun 2027 11:14:18.703   02 Jun 2027 11:14:55.407            36.704                Irkutsk          1147.000
       134   02 Jun 2027 11:15:19.054   02 Jun 2027 11:15:51.686            32.632                Norilsk          1019.750
       135   02 Jun 2027 11:16:01.996   02 Jun 2027 11:16:13.013            11.017                Norilsk           344.281
       136   02 Jun 2027 11:16:14.138   02 Jun 2027 11:16:31.904            17.766                Norilsk           555.188
       137   02 Jun 2027 11:53:01.438   02 Jun 2027 11:54:04.954            63.516            RioGallegos          1984.875
       138   02 Jun 2027 11:57:12.935   02 Jun 2027 11:58:11.510            58.575            RioGallegos          1830.469
       139   02 Jun 2027 12:27:14.134   02 Jun 2027 12:27:32.703            18.569                Sumatra           580.281
       140   02 Jun 2027 12:36:22.496   02 Jun 2027 12:37:09.361            46.865                  Delhi          1464.531
       141   02 Jun 2027 12:41:32.295   02 Jun 2027 12:42:13.062            40.767                Novosib          1273.969
       142   02 Jun 2027 12:42:43.678   02 Jun 2027 12:42:45.502             1.824                Irkutsk            57.000
       143   02 Jun 2027 12:42:51.696   02 Jun 2027 12:44:27.839            96.143                Novosib          3004.469
       144   02 Jun 2027 12:46:19.635   02 Jun 2027 12:46:58.356            38.721                Norilsk          1210.031
       145   02 Jun 2027 14:12:25.603   02 Jun 2027 14:15:35.790           190.187                  Delhi          5943.344
       146   02 Jun 2027 14:20:01.136   02 Jun 2027 14:20:08.543             7.407                 Moscow           231.469
       147   02 Jun 2027 14:20:55.869   02 Jun 2027 14:24:32.378           216.509                Novosib          6765.906
       148   02 Jun 2027 14:27:41.628   02 Jun 2027 14:28:10.187            28.559                Norilsk           892.469
       149   02 Jun 2027 15:36:56.718   02 Jun 2027 15:38:57.092           120.374               CapeTown          3761.688
       150   02 Jun 2027 15:55:12.385   02 Jun 2027 15:56:24.875            72.490                 Moscow          2265.312
       151   02 Jun 2027 15:58:41.798   02 Jun 2027 16:01:24.903           163.105              Murmansk2          5097.031
       152   02 Jun 2027 16:14:05.778   02 Jun 2027 16:14:54.907            49.129                Anadyr2          1535.281
       153   02 Jun 2027 16:15:17.302   02 Jun 2027 16:15:33.306            16.004                Anadyr1           500.125
       154   02 Jun 2027 16:17:19.145   02 Jun 2027 16:18:32.443            73.298                Anadyr2          2290.563
       155   02 Jun 2027 17:08:26.182   02 Jun 2027 17:09:16.988            50.806               CapeTown          1587.688
       156   02 Jun 2027 17:35:12.581   02 Jun 2027 17:38:02.374           169.793                 Moscow          5306.031
       157   02 Jun 2027 17:41:15.894   02 Jun 2027 17:41:38.038            22.144              Murmansk1           692.000
       158   02 Jun 2027 17:49:03.681   02 Jun 2027 17:50:05.106            61.425                Anadyr1          1919.531
       159   02 Jun 2027 17:50:18.459   02 Jun 2027 17:50:40.078            21.619                Anadyr1           675.594
       160   02 Jun 2027 17:53:53.977   02 Jun 2027 17:54:00.891             6.914                Anadyr1           216.063
       161   02 Jun 2027 17:55:52.825   02 Jun 2027 17:56:01.651             8.826                Anadyr1           275.813
       162   02 Jun 2027 17:56:28.589   02 Jun 2027 17:56:50.272            21.683                Anadyr1           677.594
       163   02 Jun 2027 18:45:16.856   02 Jun 2027 18:46:29.627            72.771               CapeTown          2274.094
       164   02 Jun 2027 18:47:39.102   02 Jun 2027 18:48:23.056            43.954               CapeTown          1373.562
       165   02 Jun 2027 19:18:18.687   02 Jun 2027 19:21:55.926           217.239              Murmansk1          6788.719
       166   02 Jun 2027 19:26:33.170   02 Jun 2027 19:26:45.999            12.829                Anadyr2           400.906
       167   02 Jun 2027 19:27:29.528   02 Jun 2027 19:28:43.583            74.055               Magadan2          2314.219
       168   02 Jun 2027 19:28:43.583   02 Jun 2027 19:30:13.431            89.848               Magadan1          2807.750
       169   02 Jun 2027 21:00:49.448   02 Jun 2027 21:04:31.892           222.444                Anadyr1          6951.375
       170   02 Jun 2027 21:04:40.477   02 Jun 2027 21:06:41.137           120.660               Magadan2          3770.625
       171   02 Jun 2027 21:06:41.137   02 Jun 2027 21:07:09.120            27.983               Magadan1           874.469
       172   02 Jun 2027 21:10:06.966   02 Jun 2027 21:10:11.206             4.240               Magadan1           132.500
       173   02 Jun 2027 21:10:44.228   02 Jun 2027 21:11:06.173            21.945               Magadan1           685.781
       174   02 Jun 2027 21:13:37.023   02 Jun 2027 21:13:46.859             9.836               Magadan1           307.375
       175   02 Jun 2027 21:13:57.672   02 Jun 2027 21:14:08.028            10.356               Magadan2           323.625
       176   02 Jun 2027 21:15:23.495   02 Jun 2027 21:15:27.910             4.415               Magadan1           137.969
       177   02 Jun 2027 21:55:27.443   02 Jun 2027 21:58:34.815           187.372            RioGallegos          5855.375
       178   02 Jun 2027 22:04:20.500   02 Jun 2027 22:04:51.573            31.073            RioGallegos           971.031
       179   02 Jun 2027 22:36:29.355   02 Jun 2027 22:36:52.031            22.676                Anadyr2           708.625
       180   02 Jun 2027 22:38:22.613   02 Jun 2027 22:38:46.077            23.464                Anadyr2           733.250
       181   02 Jun 2027 22:39:05.231   02 Jun 2027 22:40:04.167            58.936                Norilsk          1841.750
       182   02 Jun 2027 22:40:09.263   02 Jun 2027 22:40:58.246            48.983               Magadan2          1530.719
       183   02 Jun 2027 22:42:13.155   02 Jun 2027 22:42:26.733            13.578               Magadan2           424.313
       184   02 Jun 2027 22:42:36.399   02 Jun 2027 22:42:54.938            18.539               Magadan2           579.344
       185   02 Jun 2027 22:42:56.586   02 Jun 2027 22:44:06.735            70.149                Irkutsk          2192.156
       186   02 Jun 2027 22:45:18.057   02 Jun 2027 22:46:01.348            43.291                Irkutsk          1352.844
       187   02 Jun 2027 22:47:56.415   02 Jun 2027 22:48:40.469            44.054                Novosib          1376.688
       188   02 Jun 2027 22:56:48.891   02 Jun 2027 22:58:17.688            88.797                Sumatra          2774.906
       189   02 Jun 2027 23:00:46.457   02 Jun 2027 23:01:22.988            36.531                Sumatra          1141.594
       190   03 Jun 2027 00:11:20.903   03 Jun 2027 00:12:40.367            79.464                Anadyr1          2483.250
       191   03 Jun 2027 00:13:36.680   03 Jun 2027 00:14:02.050            25.370                Anadyr2           792.812
       192   03 Jun 2027 00:14:35.483   03 Jun 2027 00:14:44.700             9.217                Norilsk           288.031
       193   03 Jun 2027 00:15:15.086   03 Jun 2027 00:16:49.410            94.324               Magadan2          2947.625
       194   03 Jun 2027 00:17:52.796   03 Jun 2027 00:17:57.267             4.471               Magadan2           139.719
       195   03 Jun 2027 00:18:13.022   03 Jun 2027 00:18:21.677             8.655                Norilsk           270.469
       196   03 Jun 2027 00:18:27.493   03 Jun 2027 00:19:29.861            62.368                Irkutsk          1949.000
       197   03 Jun 2027 00:19:31.480   03 Jun 2027 00:20:44.920            73.440                Novosib          2295.000
       198   03 Jun 2027 00:22:11.185   03 Jun 2027 00:23:38.597            87.412                Irkutsk          2731.625
       199   03 Jun 2027 00:26:40.972   03 Jun 2027 00:27:28.942            47.970                  Delhi          1499.063
       200   03 Jun 2027 00:31:37.260   03 Jun 2027 00:31:58.068            20.808                  Delhi           650.250
       201   03 Jun 2027 00:36:38.121   03 Jun 2027 00:37:07.903            29.782                  Delhi           930.687
       202   03 Jun 2027 01:08:18.462   03 Jun 2027 01:08:37.656            19.194            RioGallegos           599.812
       203   03 Jun 2027 01:09:33.348   03 Jun 2027 01:09:59.260            25.912            RioGallegos           809.750
       204   03 Jun 2027 01:13:15.135   03 Jun 2027 01:13:46.042            30.907            RioGallegos           965.844
       205   03 Jun 2027 01:17:32.461   03 Jun 2027 01:17:33.925             1.464            RioGallegos            45.750
       206   03 Jun 2027 01:44:59.296   03 Jun 2027 01:46:34.366            95.070                Anadyr1          2970.938
       207   03 Jun 2027 01:47:27.778   03 Jun 2027 01:47:36.591             8.813                Anadyr1           275.406
       208   03 Jun 2027 01:47:36.591   03 Jun 2027 01:47:52.832            16.241                Anadyr2           507.531
       209   03 Jun 2027 01:50:35.624   03 Jun 2027 01:52:12.542            96.918                Norilsk          3028.688
       210   03 Jun 2027 01:53:00.113   03 Jun 2027 01:54:29.761            89.648              Murmansk2          2801.500
       211   03 Jun 2027 01:54:49.420   03 Jun 2027 01:55:01.385            11.965                Novosib           373.906
       212   03 Jun 2027 01:55:20.327   03 Jun 2027 01:55:21.215             0.888              Murmansk2            27.750
       213   03 Jun 2027 01:55:28.662   03 Jun 2027 01:56:38.855            70.193                Irkutsk          2193.531
       214   03 Jun 2027 01:58:29.062   03 Jun 2027 01:58:38.297             9.235                 Moscow           288.594
       215   03 Jun 2027 02:01:52.834   03 Jun 2027 02:02:35.905            43.071                  Delhi          1345.969
       216   03 Jun 2027 02:11:05.343   03 Jun 2027 02:11:36.742            31.399                  Delhi           981.219
       217   03 Jun 2027 03:19:50.541   03 Jun 2027 03:20:33.798            43.257                Anadyr1          1351.781
       218   03 Jun 2027 03:20:33.798   03 Jun 2027 03:21:08.187            34.389                Anadyr2          1074.656
       219   03 Jun 2027 03:28:10.234   03 Jun 2027 03:28:14.824             4.590                Anadyr2           143.437
       220   03 Jun 2027 03:28:25.028   03 Jun 2027 03:29:26.161            61.133                Anadyr2          1910.406
       221   03 Jun 2027 03:36:50.951   03 Jun 2027 03:38:41.944           110.993                Norilsk          3468.531
       222   03 Jun 2027 03:38:49.915   03 Jun 2027 03:39:58.652            68.737                Novosib          2148.031
       223   03 Jun 2027 03:40:02.923   03 Jun 2027 03:40:35.988            33.065              Murmansk1          1033.281
       224   03 Jun 2027 03:42:45.807   03 Jun 2027 03:44:20.279            94.472                 Moscow          2952.250
       225   03 Jun 2027 03:56:42.256   03 Jun 2027 03:58:37.565           115.309               CapeTown          3603.406
       226   03 Jun 2027 03:59:47.069   03 Jun 2027 04:00:40.700            53.631               CapeTown          1675.969
       227   03 Jun 2027 04:01:16.134   03 Jun 2027 04:02:12.647            56.513               CapeTown          1766.031
       228   03 Jun 2027 04:03:16.823   03 Jun 2027 04:04:02.428            45.605               CapeTown          1425.156
       229   03 Jun 2027 04:04:57.458   03 Jun 2027 04:06:00.940            63.482               CapeTown          1983.812
       230   03 Jun 2027 04:06:34.252   03 Jun 2027 04:08:22.560           108.308               CapeTown          3384.625
       231   03 Jun 2027 04:53:56.970   03 Jun 2027 04:54:14.051            17.081                Anadyr2           533.781
       232   03 Jun 2027 04:54:26.604   03 Jun 2027 04:55:09.600            42.996                Anadyr2          1343.625
       233   03 Jun 2027 04:59:09.938   03 Jun 2027 05:00:10.773            60.835               Magadan2          1901.094
       234   03 Jun 2027 05:12:59.508   03 Jun 2027 05:13:15.044            15.536                 Moscow           485.500
       235   03 Jun 2027 05:13:44.609   03 Jun 2027 05:13:47.812             3.203                 Moscow           100.094
       236   03 Jun 2027 05:13:58.897   03 Jun 2027 05:14:22.536            23.639                 Moscow           738.719
       237   03 Jun 2027 05:14:28.862   03 Jun 2027 05:15:36.979            68.117                 Moscow          2128.656
       238   03 Jun 2027 05:32:18.396   03 Jun 2027 05:33:07.272            48.876               CapeTown          1527.375
       239   03 Jun 2027 05:33:45.791   03 Jun 2027 05:33:52.034             6.243               CapeTown           195.094
       240   03 Jun 2027 06:35:06.031   03 Jun 2027 06:35:16.079            10.048               Magadan2           314.000
       241   03 Jun 2027 06:35:16.079   03 Jun 2027 06:35:17.640             1.561               Magadan1            48.781
       242   03 Jun 2027 06:35:21.920   03 Jun 2027 06:35:23.892             1.972               Magadan2            61.625
       243   03 Jun 2027 06:35:23.892   03 Jun 2027 06:35:43.134            19.242               Magadan1           601.313
       244   03 Jun 2027 06:35:51.733   03 Jun 2027 06:36:23.113            31.380                Anadyr1           980.625
       245   03 Jun 2027 06:36:56.696   03 Jun 2027 06:37:42.015            45.319                Anadyr2          1416.219
       246   03 Jun 2027 06:38:33.444   03 Jun 2027 06:38:39.140             5.696                Anadyr2           178.000
       247   03 Jun 2027 06:40:13.976   03 Jun 2027 06:40:23.097             9.121                Anadyr1           285.031
       248   03 Jun 2027 08:10:51.949   03 Jun 2027 08:11:47.839            55.890                Anadyr2          1746.562
       249   03 Jun 2027 08:12:09.971   03 Jun 2027 08:12:14.420             4.449               Magadan2           139.031
       250   03 Jun 2027 08:12:41.143   03 Jun 2027 08:12:55.640            14.497                Anadyr2           453.031
       251   03 Jun 2027 08:13:06.682   03 Jun 2027 08:13:19.358            12.676               Magadan1           396.125
       252   03 Jun 2027 08:13:25.325   03 Jun 2027 08:13:57.387            32.062                Anadyr2          1001.937
       253   03 Jun 2027 08:14:01.240   03 Jun 2027 08:14:44.797            43.557               Magadan1          1361.156
       254   03 Jun 2027 08:15:17.770   03 Jun 2027 08:16:06.756            48.986                Norilsk          1530.812
       255   03 Jun 2027 08:53:05.582   03 Jun 2027 08:53:15.380             9.798            RioGallegos           306.187
       256   03 Jun 2027 08:54:22.860   03 Jun 2027 08:55:27.821            64.961            RioGallegos          2030.031
       257   03 Jun 2027 09:45:59.496   03 Jun 2027 09:47:24.580            85.084               Magadan1          2658.875
       258   03 Jun 2027 09:47:57.565   03 Jun 2027 09:48:25.653            28.088               Magadan1           877.750
       259   03 Jun 2027 09:48:29.413   03 Jun 2027 09:48:33.866             4.453               Magadan1           139.156
       260   03 Jun 2027 09:48:52.216   03 Jun 2027 09:49:47.254            55.038               Magadan1          1719.937
       261   03 Jun 2027 09:50:44.983   03 Jun 2027 09:51:01.452            16.469                Irkutsk           514.656
       262   03 Jun 2027 09:51:11.631   03 Jun 2027 09:52:14.796            63.165               Magadan2          1973.906
       263   03 Jun 2027 09:52:23.091   03 Jun 2027 09:52:42.328            19.237                Irkutsk           601.156
       264   03 Jun 2027 09:53:19.656   03 Jun 2027 09:53:50.554            30.898                Novosib           965.563
       265   03 Jun 2027 10:27:26.473   03 Jun 2027 10:28:28.782            62.309            RioGallegos          1947.156
       266   03 Jun 2027 11:03:19.151   03 Jun 2027 11:04:42.912            83.761                Sumatra          2617.531
       267   03 Jun 2027 11:23:00.093   03 Jun 2027 11:24:00.117            60.024                Irkutsk          1875.750
       268   03 Jun 2027 11:24:05.274   03 Jun 2027 11:24:27.590            22.316                Novosib           697.375
       269   03 Jun 2027 11:24:39.444   03 Jun 2027 11:25:17.383            37.939                Norilsk          1185.594
       270   03 Jun 2027 11:25:25.929   03 Jun 2027 11:25:53.334            27.405                Norilsk           856.406
       271   03 Jun 2027 11:26:06.963   03 Jun 2027 11:26:11.328             4.365                Irkutsk           136.406
       272   03 Jun 2027 11:26:13.197   03 Jun 2027 11:26:31.866            18.669                Norilsk           583.406
       273   03 Jun 2027 11:26:37.249   03 Jun 2027 11:27:29.322            52.073                Norilsk          1627.281
       274   03 Jun 2027 11:27:34.118   03 Jun 2027 11:28:30.873            56.755                Irkutsk          1773.594
       275   03 Jun 2027 12:05:37.504   03 Jun 2027 12:06:01.163            23.659            RioGallegos           739.344
       276   03 Jun 2027 12:10:10.054   03 Jun 2027 12:10:38.264            28.210            RioGallegos           881.562
       277   03 Jun 2027 12:39:53.292   03 Jun 2027 12:40:27.678            34.386                Sumatra          1074.563
       278   03 Jun 2027 12:49:42.017   03 Jun 2027 12:49:44.042             2.025                  Delhi            63.281
       279   03 Jun 2027 12:53:44.661   03 Jun 2027 12:56:33.377           168.716                Novosib          5272.375
       280   03 Jun 2027 12:58:16.484   03 Jun 2027 12:59:47.265            90.781                Norilsk          2836.906
       281   03 Jun 2027 14:25:25.275   03 Jun 2027 14:26:32.400            67.125                  Delhi          2097.656
       282   03 Jun 2027 14:29:41.719   03 Jun 2027 14:29:54.701            12.982                  Delhi           405.687
       283   03 Jun 2027 14:31:11.314   03 Jun 2027 14:32:15.798            64.484                 Moscow          2015.125
       284   03 Jun 2027 14:33:55.917   03 Jun 2027 14:36:31.605           155.688                Novosib          4865.250
       285   03 Jun 2027 14:36:49.949   03 Jun 2027 14:37:20.814            30.865                Norilsk           964.531
       286   03 Jun 2027 14:38:11.356   03 Jun 2027 14:38:28.424            17.068                Norilsk           533.375
       287   03 Jun 2027 14:40:06.345   03 Jun 2027 14:40:52.232            45.887                Norilsk          1433.969
       288   03 Jun 2027 14:41:55.847   03 Jun 2027 14:42:00.902             5.055                Norilsk           157.969
       289   03 Jun 2027 14:43:07.626   03 Jun 2027 14:43:13.318             5.692                Norilsk           177.875
       290   03 Jun 2027 15:47:15.330   03 Jun 2027 15:49:09.226           113.896               CapeTown          3559.250
       291   03 Jun 2027 16:07:27.514   03 Jun 2027 16:08:27.755            60.241                 Moscow          1882.531
       292   03 Jun 2027 16:10:53.532   03 Jun 2027 16:11:57.324            63.792              Murmansk2          1993.500
       293   03 Jun 2027 16:13:22.680   03 Jun 2027 16:13:42.780            20.100              Murmansk1           628.125
       294   03 Jun 2027 16:13:42.780   03 Jun 2027 16:13:46.668             3.888              Murmansk2           121.500
       295   03 Jun 2027 16:25:51.254   03 Jun 2027 16:26:53.346            62.092                Anadyr1          1940.375
       296   03 Jun 2027 16:26:59.696   03 Jun 2027 16:29:08.194           128.498                Anadyr2          4015.563
       297   03 Jun 2027 17:21:04.550   03 Jun 2027 17:22:43.258            98.708               CapeTown          3084.625
       298   03 Jun 2027 17:48:28.494   03 Jun 2027 17:52:05.534           217.040                 Moscow          6782.500
       299   03 Jun 2027 17:53:14.208   03 Jun 2027 17:53:40.243            26.035              Murmansk1           813.594
       300   03 Jun 2027 18:01:53.471   03 Jun 2027 18:02:41.430            47.959                Anadyr1          1498.719
       301   03 Jun 2027 18:05:54.156   03 Jun 2027 18:06:54.705            60.549               Magadan2          1892.156
       302   03 Jun 2027 18:06:54.705   03 Jun 2027 18:08:13.589            78.884               Magadan1          2465.125
       303   03 Jun 2027 19:32:00.200   03 Jun 2027 19:33:04.775            64.575              Murmansk2          2017.969
       304   03 Jun 2027 19:36:55.537   03 Jun 2027 19:37:53.179            57.642                Anadyr1          1801.313
       305   03 Jun 2027 19:37:53.179   03 Jun 2027 19:38:14.259            21.080                Anadyr2           658.750
       306   03 Jun 2027 19:38:33.799   03 Jun 2027 19:38:41.762             7.963                Anadyr2           248.844
       307   03 Jun 2027 19:39:25.683   03 Jun 2027 19:42:00.904           155.221               Magadan1          4850.656
       308   03 Jun 2027 19:44:10.549   03 Jun 2027 19:44:56.674            46.125               Magadan1          1441.406
       309   03 Jun 2027 19:48:46.064   03 Jun 2027 19:49:07.612            21.548               Magadan1           673.375
       310   03 Jun 2027 21:12:50.367   03 Jun 2027 21:14:56.958           126.591                Anadyr1          3955.969
       311   03 Jun 2027 21:15:03.431   03 Jun 2027 21:16:32.027            88.596                Anadyr2          2768.625
       312   03 Jun 2027 21:17:18.641   03 Jun 2027 21:19:58.431           159.790                Norilsk          4993.438
       313   03 Jun 2027 21:21:42.041   03 Jun 2027 21:22:02.819            20.778               Magadan1           649.312
       314   03 Jun 2027 21:22:26.920   03 Jun 2027 21:22:45.269            18.349               Magadan1           573.406
       315   03 Jun 2027 21:24:45.774   03 Jun 2027 21:25:12.683            26.909               Magadan2           840.906
       316   03 Jun 2027 21:25:24.762   03 Jun 2027 21:25:44.007            19.245               Magadan1           601.406
       317   03 Jun 2027 21:25:55.976   03 Jun 2027 21:26:00.416             4.440               Magadan2           138.750
       318   03 Jun 2027 22:07:14.953   03 Jun 2027 22:09:59.601           164.648            RioGallegos          5145.250
       319   03 Jun 2027 22:12:49.725   03 Jun 2027 22:13:28.735            39.010            RioGallegos          1219.062
       320   03 Jun 2027 22:48:26.355   03 Jun 2027 22:48:53.702            27.347                Anadyr2           854.594
       321   03 Jun 2027 22:50:23.247   03 Jun 2027 22:50:45.631            22.384                Anadyr2           699.500
       322   03 Jun 2027 22:50:57.643   03 Jun 2027 22:52:22.912            85.269                Norilsk          2664.656
       323   03 Jun 2027 22:53:05.127   03 Jun 2027 22:53:21.815            16.688               Magadan1           521.500
       324   03 Jun 2027 22:54:22.202   03 Jun 2027 22:55:31.680            69.478               Magadan1          2171.187
       325   03 Jun 2027 22:55:38.054   03 Jun 2027 22:55:41.846             3.792                Norilsk           118.500
       326   03 Jun 2027 22:55:43.651   03 Jun 2027 22:56:05.629            21.978                Norilsk           686.812
       327   03 Jun 2027 22:56:40.186   03 Jun 2027 22:57:31.438            51.252                Novosib          1601.625
       328   03 Jun 2027 22:58:01.778   03 Jun 2027 22:59:28.030            86.252                Novosib          2695.375
       329   03 Jun 2027 23:08:34.853   03 Jun 2027 23:09:15.052            40.199                Sumatra          1256.219
       330   03 Jun 2027 23:10:56.873   03 Jun 2027 23:11:20.708            23.835                Sumatra           744.844
       331   03 Jun 2027 23:42:33.276   03 Jun 2027 23:43:04.037            30.761            RioGallegos           961.281
       332   03 Jun 2027 23:52:09.347   03 Jun 2027 23:52:30.170            20.823            RioGallegos           650.719
       333   03 Jun 2027 23:52:56.670   03 Jun 2027 23:53:07.315            10.645            RioGallegos           332.656
       334   04 Jun 2027 00:23:08.956   04 Jun 2027 00:23:50.264            41.308                Anadyr1          1290.875
       335   04 Jun 2027 00:23:50.264   04 Jun 2027 00:24:39.370            49.106                Anadyr2          1534.562
       336   04 Jun 2027 00:25:23.820   04 Jun 2027 00:25:45.050            21.230                Anadyr1           663.438
       337   04 Jun 2027 00:26:37.722   04 Jun 2027 00:26:43.842             6.120                Norilsk           191.250
       338   04 Jun 2027 00:27:17.479   04 Jun 2027 00:28:45.174            87.695               Magadan1          2740.469
       339   04 Jun 2027 00:30:30.396   04 Jun 2027 00:31:16.373            45.977                Irkutsk          1436.781
       340   04 Jun 2027 00:31:31.083   04 Jun 2027 00:33:32.306           121.223                Novosib          3788.219
       341   04 Jun 2027 00:36:35.627   04 Jun 2027 00:37:18.897            43.270                Novosib          1352.187
       342   04 Jun 2027 00:38:22.116   04 Jun 2027 00:38:51.103            28.987                  Delhi           905.844
       343   04 Jun 2027 00:39:34.980   04 Jun 2027 00:40:08.764            33.784                  Delhi          1055.750
       344   04 Jun 2027 00:46:19.214   04 Jun 2027 00:46:26.796             7.582                Sumatra           236.937
       345   04 Jun 2027 00:48:29.378   04 Jun 2027 00:48:53.577            24.199                  Delhi           756.219
       346   04 Jun 2027 01:18:59.919   04 Jun 2027 01:19:54.317            54.398            RioGallegos          1699.938
       347   04 Jun 2027 01:26:01.079   04 Jun 2027 01:26:23.037            21.958            RioGallegos           686.188
       348   04 Jun 2027 01:27:07.412   04 Jun 2027 01:27:33.217            25.805            RioGallegos           806.406
       349   04 Jun 2027 01:56:40.405   04 Jun 2027 01:56:57.474            17.069                Anadyr1           533.406
       350   04 Jun 2027 01:56:59.632   04 Jun 2027 01:57:40.560            40.928                Anadyr2          1279.000
       351   04 Jun 2027 01:57:53.598   04 Jun 2027 01:58:35.718            42.120                Anadyr2          1316.250
       352   04 Jun 2027 02:02:46.224   04 Jun 2027 02:03:00.837            14.613               Magadan1           456.656
       353   04 Jun 2027 02:03:18.316   04 Jun 2027 02:04:16.709            58.393               Magadan2          1824.781
       354   04 Jun 2027 02:04:30.310   04 Jun 2027 02:04:41.188            10.878                Norilsk           339.937
       355   04 Jun 2027 02:04:57.520   04 Jun 2027 02:06:30.897            93.377              Murmansk1          2918.031
       356   04 Jun 2027 02:06:31.237   04 Jun 2027 02:06:57.175            25.938              Murmansk2           810.562
       357   04 Jun 2027 02:07:07.353   04 Jun 2027 02:07:35.480            28.127                Irkutsk           878.969
       358   04 Jun 2027 02:08:01.778   04 Jun 2027 02:08:45.118            43.340                Irkutsk          1354.375
       359   04 Jun 2027 02:14:05.305   04 Jun 2027 02:14:55.508            50.203                  Delhi          1568.844
       360   04 Jun 2027 02:20:36.416   04 Jun 2027 02:21:41.819            65.403                  Delhi          2043.844
       361   04 Jun 2027 03:30:05.504   04 Jun 2027 03:30:19.180            13.676                Anadyr2           427.375
       362   04 Jun 2027 03:32:04.159   04 Jun 2027 03:32:22.150            17.991                Anadyr2           562.219
       363   04 Jun 2027 03:37:12.708   04 Jun 2027 03:37:33.025            20.317                Anadyr2           634.906
       364   04 Jun 2027 03:41:27.551   04 Jun 2027 03:41:38.718            11.167                Anadyr1           348.969
       365   04 Jun 2027 03:49:22.179   04 Jun 2027 03:49:41.463            19.284              Murmansk1           602.625
       366   04 Jun 2027 03:49:58.207   04 Jun 2027 03:52:52.444           174.237              Murmansk1          5444.906
       367   04 Jun 2027 03:53:37.772   04 Jun 2027 03:54:47.765            69.993                 Moscow          2187.281
       368   04 Jun 2027 04:08:23.118   04 Jun 2027 04:11:40.195           197.077               CapeTown          6158.656
       369   04 Jun 2027 04:14:43.447   04 Jun 2027 04:15:25.612            42.165               CapeTown          1317.656
       370   04 Jun 2027 04:16:14.464   04 Jun 2027 04:17:46.190            91.726               CapeTown          2866.437
       371   04 Jun 2027 05:04:39.981   04 Jun 2027 05:05:44.131            64.150                Anadyr1          2004.687
       372   04 Jun 2027 05:07:56.536   04 Jun 2027 05:08:10.219            13.683                Anadyr1           427.594
       373   04 Jun 2027 05:09:37.999   04 Jun 2027 05:10:38.934            60.935                Anadyr1          1904.219
       374   04 Jun 2027 05:10:46.293   04 Jun 2027 05:10:55.106             8.813                Anadyr1           275.406
       375   04 Jun 2027 05:11:12.990   04 Jun 2027 05:12:33.894            80.904               Magadan1          2528.250
       376   04 Jun 2027 05:15:08.914   04 Jun 2027 05:15:30.323            21.409               Magadan1           669.031
       377   04 Jun 2027 05:16:05.421   04 Jun 2027 05:17:01.537            56.116               Magadan1          1753.625
       378   04 Jun 2027 05:17:16.205   04 Jun 2027 05:17:32.218            16.013                Anadyr1           500.406
       379   04 Jun 2027 05:25:04.975   04 Jun 2027 05:25:16.854            11.879                 Moscow           371.219
       380   04 Jun 2027 05:26:07.174   04 Jun 2027 05:26:09.040             1.866                 Moscow            58.312
       381   04 Jun 2027 05:26:46.339   04 Jun 2027 05:27:34.095            47.756                 Moscow          1492.375
       382   04 Jun 2027 05:44:43.036   04 Jun 2027 05:45:15.081            32.045               CapeTown          1001.406
       383   04 Jun 2027 05:45:31.471   04 Jun 2027 05:45:53.992            22.521               CapeTown           703.781
       384   04 Jun 2027 05:54:42.076   04 Jun 2027 05:55:33.502            51.426               CapeTown          1607.062
       385   04 Jun 2027 06:45:57.955   04 Jun 2027 06:46:13.732            15.777                Anadyr1           493.031
       386   04 Jun 2027 06:46:14.727   04 Jun 2027 06:46:43.091            28.364               Magadan1           886.375
       387   04 Jun 2027 06:47:01.294   04 Jun 2027 06:47:18.271            16.977               Magadan1           530.531
       388   04 Jun 2027 06:47:20.910   04 Jun 2027 06:47:44.750            23.840               Magadan2           745.000
       389   04 Jun 2027 06:47:53.595   04 Jun 2027 06:48:24.549            30.954                Anadyr1           967.313
       390   04 Jun 2027 06:48:24.549   04 Jun 2027 06:48:49.660            25.111                Anadyr2           784.719
       391   04 Jun 2027 06:49:01.981   04 Jun 2027 06:49:20.934            18.953               Magadan1           592.281
       392   04 Jun 2027 06:49:43.323   04 Jun 2027 06:50:54.144            70.821                Anadyr2          2213.156
       393   04 Jun 2027 08:21:04.419   04 Jun 2027 08:21:45.824            41.405                Anadyr2          1293.906
       394   04 Jun 2027 08:22:40.560   04 Jun 2027 08:23:48.945            68.385                Anadyr2          2137.031
       395   04 Jun 2027 08:24:01.299   04 Jun 2027 08:24:06.401             5.102               Magadan1           159.437
       396   04 Jun 2027 08:25:12.889   04 Jun 2027 08:25:22.402             9.513                Anadyr1           297.281
       397   04 Jun 2027 08:25:24.018   04 Jun 2027 08:25:34.798            10.780                Anadyr2           336.875
       398   04 Jun 2027 08:25:47.905   04 Jun 2027 08:26:25.910            38.005                Anadyr1          1187.656
       399   04 Jun 2027 08:26:33.292   04 Jun 2027 08:26:41.038             7.746               Magadan1           242.063
       400   04 Jun 2027 08:26:43.402   04 Jun 2027 08:27:22.232            38.830               Magadan1          1213.438
       401   04 Jun 2027 08:27:37.109   04 Jun 2027 08:28:50.380            73.271                Anadyr2          2289.719
       402   04 Jun 2027 09:59:28.438   04 Jun 2027 10:00:10.363            41.925                Irkutsk          1310.156
       403   04 Jun 2027 10:00:31.041   04 Jun 2027 10:00:45.948            14.907               Magadan1           465.844
       404   04 Jun 2027 10:00:51.765   04 Jun 2027 10:01:36.356            44.591               Magadan1          1393.469
       405   04 Jun 2027 10:01:52.836   04 Jun 2027 10:03:10.411            77.575               Magadan1          2424.219
       406   04 Jun 2027 10:03:16.958   04 Jun 2027 10:03:58.796            41.838                Norilsk          1307.438
       407   04 Jun 2027 10:04:07.199   04 Jun 2027 10:04:22.705            15.506                Norilsk           484.563
       408   04 Jun 2027 10:04:34.438   04 Jun 2027 10:05:08.999            34.561                Novosib          1080.031
       409   04 Jun 2027 10:40:12.476   04 Jun 2027 10:40:52.133            39.657            RioGallegos          1239.281
       410   04 Jun 2027 11:14:30.196   04 Jun 2027 11:15:09.453            39.257                Sumatra          1226.781
       411   04 Jun 2027 11:19:45.439   04 Jun 2027 11:20:42.680            57.241                Sumatra          1788.781
       412   04 Jun 2027 11:35:53.715   04 Jun 2027 11:37:01.862            68.147                Irkutsk          2129.594
       413   04 Jun 2027 11:37:29.694   04 Jun 2027 11:38:00.876            31.182                Irkutsk           974.437
       414   04 Jun 2027 11:38:27.584   04 Jun 2027 11:38:27.771             0.187                Norilsk             5.844
       415   04 Jun 2027 11:38:30.735   04 Jun 2027 11:38:31.118             0.383                Novosib            11.969
       416   04 Jun 2027 11:38:38.415   04 Jun 2027 11:39:03.610            25.195                Irkutsk           787.344
       417   04 Jun 2027 11:39:08.949   04 Jun 2027 11:40:14.274            65.325                Novosib          2041.406
       418   04 Jun 2027 11:40:18.628   04 Jun 2027 11:40:49.825            31.197                Novosib           974.906
       419   04 Jun 2027 12:18:47.026   04 Jun 2027 12:19:27.860            40.834            RioGallegos          1276.063
       420   04 Jun 2027 12:52:51.627   04 Jun 2027 12:54:27.452            95.825                Sumatra          2994.531
       421   04 Jun 2027 12:57:23.420   04 Jun 2027 12:57:24.353             0.933                Sumatra            29.156
       422   04 Jun 2027 13:06:00.549   04 Jun 2027 13:06:57.748            57.199                Novosib          1787.469
       423   04 Jun 2027 13:07:29.087   04 Jun 2027 13:08:32.120            63.033                Novosib          1969.781
       424   04 Jun 2027 13:09:08.535   04 Jun 2027 13:10:33.635            85.100                Novosib          2659.375
       425   04 Jun 2027 14:39:01.484   04 Jun 2027 14:41:44.353           162.869                  Delhi          5089.656
       426   04 Jun 2027 14:42:40.821   04 Jun 2027 14:42:44.402             3.581                  Delhi           111.906
       427   04 Jun 2027 14:44:10.539   04 Jun 2027 14:45:05.480            54.941                 Moscow          1716.906
       428   04 Jun 2027 14:46:15.895   04 Jun 2027 14:46:42.770            26.875                 Moscow           839.844
       429   04 Jun 2027 14:47:18.414   04 Jun 2027 14:48:29.848            71.434                Novosib          2232.313
       430   04 Jun 2027 14:49:11.947   04 Jun 2027 14:50:40.910            88.963                Novosib          2780.094
       431   04 Jun 2027 14:52:08.667   04 Jun 2027 14:53:30.638            81.971                Norilsk          2561.594
       432   04 Jun 2027 15:58:24.280   04 Jun 2027 16:01:00.838           156.558               CapeTown          4892.438
       433   04 Jun 2027 16:23:07.177   04 Jun 2027 16:23:59.283            52.106              Murmansk1          1628.312
       434   04 Jun 2027 16:25:44.710   04 Jun 2027 16:26:21.852            37.142              Murmansk2          1160.687
       435   04 Jun 2027 16:31:08.377   04 Jun 2027 16:32:00.257            51.880              Murmansk2          1621.250
       436   04 Jun 2027 16:37:41.171   04 Jun 2027 16:38:52.471            71.300                Anadyr1          2228.125
       437   04 Jun 2027 16:39:35.952   04 Jun 2027 16:39:57.861            21.909                Anadyr2           684.656
       438   04 Jun 2027 16:40:30.459   04 Jun 2027 16:40:55.621            25.162                Anadyr2           786.313
       439   04 Jun 2027 16:44:31.745   04 Jun 2027 16:45:00.491            28.746                Anadyr2           898.312
       440   04 Jun 2027 17:32:24.756   04 Jun 2027 17:34:49.798           145.042               CapeTown          4532.562
       441   04 Jun 2027 18:01:56.708   04 Jun 2027 18:02:23.132            26.424              Murmansk1           825.750
       442   04 Jun 2027 18:02:23.679   04 Jun 2027 18:03:46.161            82.482              Murmansk2          2577.562
       443   04 Jun 2027 18:05:11.359   04 Jun 2027 18:07:29.761           138.402              Murmansk1          4325.063
       444   04 Jun 2027 18:17:05.850   04 Jun 2027 18:17:17.176            11.326               Magadan2           353.938
       445   04 Jun 2027 18:18:05.666   04 Jun 2027 18:19:57.271           111.605               Magadan1          3487.656
       446   04 Jun 2027 19:48:57.233   04 Jun 2027 19:50:37.867           100.634                Anadyr1          3144.813
       447   04 Jun 2027 19:50:38.365   04 Jun 2027 19:54:15.253           216.888                Anadyr2          6777.750
       448   04 Jun 2027 19:54:37.230   04 Jun 2027 19:56:01.477            84.247               Magadan2          2632.719
       449   04 Jun 2027 21:24:50.998   04 Jun 2027 21:26:58.534           127.536                Anadyr1          3985.500
       450   04 Jun 2027 21:27:03.686   04 Jun 2027 21:28:31.760            88.074                Anadyr2          2752.313
       451   04 Jun 2027 21:28:32.843   04 Jun 2027 21:31:14.086           161.243               Magadan2          5038.844
       452   04 Jun 2027 21:32:06.218   04 Jun 2027 21:32:25.319            19.101               Magadan2           596.906
       453   04 Jun 2027 21:33:11.798   04 Jun 2027 21:33:29.900            18.102               Magadan2           565.688
       454   04 Jun 2027 21:33:30.636   04 Jun 2027 21:33:55.833            25.197                Irkutsk           787.406
       455   04 Jun 2027 21:34:19.886   04 Jun 2027 21:35:40.419            80.533                Irkutsk          2516.656
       456   04 Jun 2027 22:19:05.654   04 Jun 2027 22:20:37.524            91.870            RioGallegos          2870.937
       457   04 Jun 2027 22:24:12.758   04 Jun 2027 22:24:36.798            24.040            RioGallegos           751.250
       458   04 Jun 2027 22:27:59.375   04 Jun 2027 22:28:14.363            14.988            RioGallegos           468.375
       459   04 Jun 2027 22:28:34.382   04 Jun 2027 22:29:05.058            30.676            RioGallegos           958.625
       460   04 Jun 2027 23:00:22.517   04 Jun 2027 23:01:04.623            42.106                Anadyr1          1315.813
       461   04 Jun 2027 23:02:11.775   04 Jun 2027 23:02:44.666            32.891                Anadyr2          1027.844
       462   04 Jun 2027 23:02:54.320   04 Jun 2027 23:03:43.557            49.237                Norilsk          1538.656
       463   04 Jun 2027 23:03:48.763   04 Jun 2027 23:04:31.063            42.300               Magadan1          1321.875
       464   04 Jun 2027 23:04:57.057   04 Jun 2027 23:05:03.154             6.097               Magadan1           190.531
       465   04 Jun 2027 23:06:06.715   04 Jun 2027 23:06:21.149            14.434               Magadan1           451.062
       466   04 Jun 2027 23:06:31.669   04 Jun 2027 23:06:41.553             9.884               Magadan2           308.875
       467   04 Jun 2027 23:06:45.682   04 Jun 2027 23:07:32.079            46.397                Irkutsk          1449.906
       468   04 Jun 2027 23:08:06.661   04 Jun 2027 23:09:39.081            92.420                Novosib          2888.125
       469   04 Jun 2027 23:10:40.085   04 Jun 2027 23:10:48.450             8.365                Novosib           261.406
       470   04 Jun 2027 23:20:27.017   04 Jun 2027 23:22:08.912           101.895                Sumatra          3184.219
       471   04 Jun 2027 23:30:21.665   04 Jun 2027 23:30:47.782            26.117                Sumatra           816.156
       472   05 Jun 2027 00:02:36.619   05 Jun 2027 00:02:48.923            12.304            RioGallegos           384.500
       473   05 Jun 2027 00:04:01.722   05 Jun 2027 00:04:12.316            10.594            RioGallegos           331.063
       474   05 Jun 2027 00:34:55.712   05 Jun 2027 00:37:12.269           136.557                Anadyr1          4267.406
       475   05 Jun 2027 00:38:39.980   05 Jun 2027 00:38:43.822             3.842                Norilsk           120.062
       476   05 Jun 2027 00:39:19.497   05 Jun 2027 00:41:10.568           111.071               Magadan1          3470.969
       477   05 Jun 2027 00:42:34.070   05 Jun 2027 00:43:06.391            32.321                Irkutsk          1010.031
       478   05 Jun 2027 00:43:41.899   05 Jun 2027 00:44:42.116            60.217                Novosib          1881.781
       479   05 Jun 2027 00:44:59.539   05 Jun 2027 00:45:21.739            22.200                Novosib           693.750
       480   05 Jun 2027 00:46:06.486   05 Jun 2027 00:46:39.255            32.769                Novosib          1024.031
       481   05 Jun 2027 00:47:22.798   05 Jun 2027 00:47:45.192            22.394                Novosib           699.813
       482   05 Jun 2027 00:50:08.822   05 Jun 2027 00:50:54.619            45.797                  Delhi          1431.156
