uniorb/output/strategy_4/Drop/Drop_KinoSat_110306.txt

KinoSat_110306
-------------------------
    Access    *     Start Time (UTCG)     *     Stop Time (UTCG)  *   Duration (s)        *       Station  *  Data (Mbytes)
         1   01 Jun 2027 03:48:36.093   01 Jun 2027 03:48:57.009            20.916               Magadan1          2614.500
         2   01 Jun 2027 03:49:10.474   01 Jun 2027 03:50:49.847            99.373               Magadan2         12421.625
         3   01 Jun 2027 03:51:00.027   01 Jun 2027 03:51:30.541            30.514               Magadan2          3814.250
         4   01 Jun 2027 03:51:30.541   01 Jun 2027 03:52:09.983            39.442               Magadan1          4930.250
         5   01 Jun 2027 03:52:22.944   01 Jun 2027 03:52:50.263            27.319               Magadan1          3414.875
         6   01 Jun 2027 03:53:12.813   01 Jun 2027 03:53:35.042            22.229               Magadan1          2778.625
         7   01 Jun 2027 03:53:53.138   01 Jun 2027 03:54:21.726            28.588                Norilsk          3573.500
         8   01 Jun 2027 04:28:50.627   01 Jun 2027 04:30:09.702            79.075            RioGallegos          9884.375
         9   01 Jun 2027 05:04:03.279   01 Jun 2027 05:05:53.068           109.789                Sumatra         13723.625
        10   01 Jun 2027 05:17:40.084   01 Jun 2027 05:19:17.899            97.815                  Delhi         12226.875
        11   01 Jun 2027 05:26:24.241   01 Jun 2027 05:28:53.154           148.913                Irkutsk         18614.125
        12   01 Jun 2027 05:29:41.158   01 Jun 2027 05:29:44.935             3.777              Murmansk1           472.125
        13   01 Jun 2027 05:30:01.428   01 Jun 2027 05:30:04.473             3.045                Irkutsk           380.625
        14   01 Jun 2027 05:30:36.331   01 Jun 2027 05:31:14.728            38.397                Novosib          4799.625
        15   01 Jun 2027 05:33:39.190   01 Jun 2027 05:33:55.483            16.293                Norilsk          2036.625
        16   01 Jun 2027 06:07:07.431   01 Jun 2027 06:08:26.772            79.341            RioGallegos          9917.625
        17   01 Jun 2027 06:41:22.578   01 Jun 2027 06:41:47.522            24.944                Sumatra          3118.000
        18   01 Jun 2027 06:47:58.545   01 Jun 2027 06:49:51.030           112.485                  Delhi         14060.625
        19   01 Jun 2027 07:04:22.722   01 Jun 2027 07:04:48.240            25.518                Novosib          3189.750
        20   01 Jun 2027 07:04:56.963   01 Jun 2027 07:05:49.148            52.185              Murmansk1          6523.125
        21   01 Jun 2027 07:06:13.428   01 Jun 2027 07:06:44.926            31.498                Novosib          3937.250
        22   01 Jun 2027 08:26:59.205   01 Jun 2027 08:27:28.599            29.394                  Delhi          3674.250
        23   01 Jun 2027 08:38:06.864   01 Jun 2027 08:38:13.587             6.723                Novosib           840.375
        24   01 Jun 2027 08:38:20.064   01 Jun 2027 08:40:01.922           101.858                Norilsk         12732.250
        25   01 Jun 2027 08:40:28.340   01 Jun 2027 08:44:47.271           258.931                 Moscow         32366.375
        26   01 Jun 2027 09:48:33.319   01 Jun 2027 09:51:14.397           161.078               CapeTown         20134.750
        27   01 Jun 2027 10:27:16.347   01 Jun 2027 10:27:18.956             2.609                Anadyr1           326.125
        28   01 Jun 2027 10:28:23.334   01 Jun 2027 10:29:33.139            69.805                Anadyr2          8725.625
        29   01 Jun 2027 10:32:33.754   01 Jun 2027 10:33:24.245            50.491                Anadyr2          6311.375
        30   01 Jun 2027 12:02:27.970   01 Jun 2027 12:03:19.473            51.503                Anadyr1          6437.875
        31   01 Jun 2027 12:07:09.349   01 Jun 2027 12:07:32.112            22.763                Anadyr2          2845.375
        32   01 Jun 2027 12:08:36.319   01 Jun 2027 12:10:12.927            96.608                Anadyr1         12076.000
        33   01 Jun 2027 13:40:50.010   01 Jun 2027 13:42:27.645            97.635               Magadan1         12204.375
        34   01 Jun 2027 13:42:36.092   01 Jun 2027 13:45:23.512           167.420               Magadan2         20927.500
        35   01 Jun 2027 16:08:38.577   01 Jun 2027 16:14:26.300           347.723            RioGallegos         43465.375
        36   01 Jun 2027 16:56:14.078   01 Jun 2027 16:58:19.184           125.106                Irkutsk         15638.250
        37   01 Jun 2027 17:09:57.359   01 Jun 2027 17:12:46.122           168.763                Sumatra         21095.375
        38   01 Jun 2027 17:14:39.057   01 Jun 2027 17:15:15.916            36.859                Sumatra          4607.375
        39   01 Jun 2027 18:32:01.037   01 Jun 2027 18:33:31.906            90.869                Novosib         11358.625
        40   01 Jun 2027 18:39:44.518   01 Jun 2027 18:41:35.810           111.292                  Delhi         12236.750
        41   02 Jun 2027 04:05:48.878   02 Jun 2027 04:07:23.979            95.101                Novosib         11887.625
        42   02 Jun 2027 04:07:26.600   02 Jun 2027 04:07:45.497            18.897              Murmansk1          2362.125
        43   02 Jun 2027 04:41:19.976   02 Jun 2027 04:41:54.085            34.109            RioGallegos          4263.625
        44   02 Jun 2027 04:43:01.323   02 Jun 2027 04:43:22.474            21.151            RioGallegos          2643.875
        45   02 Jun 2027 04:44:26.137   02 Jun 2027 04:44:39.322            13.185            RioGallegos          1648.125
        46   02 Jun 2027 04:46:25.580   02 Jun 2027 04:47:50.242            84.662            RioGallegos         10582.750
        47   02 Jun 2027 05:15:52.937   02 Jun 2027 05:17:19.314            86.377                Sumatra         10797.125
        48   02 Jun 2027 05:28:03.063   02 Jun 2027 05:29:31.252            88.189                  Delhi         11023.625
        49   02 Jun 2027 05:39:24.501   02 Jun 2027 05:40:27.008            62.507                Irkutsk          7813.375
        50   02 Jun 2027 05:41:38.105   02 Jun 2027 05:42:01.551            23.446                Irkutsk          2930.750
        51   02 Jun 2027 05:42:06.599   02 Jun 2027 05:43:41.758            95.159                 Moscow         11894.875
        52   02 Jun 2027 05:43:53.981   02 Jun 2027 05:47:09.627           195.646                Norilsk         24455.750
        53   02 Jun 2027 05:47:23.480   02 Jun 2027 05:48:28.882            65.402              Murmansk2          8175.250
        54   02 Jun 2027 05:48:28.882   02 Jun 2027 05:49:01.611            32.729              Murmansk1          4091.125
        55   02 Jun 2027 06:19:52.545   02 Jun 2027 06:23:06.659           194.114            RioGallegos         24264.250
        56   02 Jun 2027 06:26:40.523   02 Jun 2027 06:27:16.456            35.933            RioGallegos          4491.625
        57   02 Jun 2027 06:54:23.652   02 Jun 2027 06:57:12.032           168.380                Sumatra         21047.500
        58   02 Jun 2027 07:17:40.899   02 Jun 2027 07:21:29.023           228.124              Murmansk1         28515.500
        59   02 Jun 2027 07:21:29.023   02 Jun 2027 07:23:44.378           135.355              Murmansk2         16919.375
        60   02 Jun 2027 07:24:50.289   02 Jun 2027 07:24:54.508             4.219              Murmansk1           527.375
        61   02 Jun 2027 08:40:45.255   02 Jun 2027 08:42:20.891            95.636                  Delhi         11954.500
        62   02 Jun 2027 08:53:19.168   02 Jun 2027 08:53:43.208            24.040                Norilsk          3005.000
        63   02 Jun 2027 08:54:47.320   02 Jun 2027 08:57:16.188           148.868                 Moscow         18608.500
        64   02 Jun 2027 08:57:23.925   02 Jun 2027 09:00:45.313           201.388              Murmansk2         25173.500
        65   02 Jun 2027 09:59:44.582   02 Jun 2027 10:08:23.324           518.742               CapeTown         64842.750
        66   02 Jun 2027 10:21:12.929   02 Jun 2027 10:31:05.643           592.714                 Moscow         74089.250
        67   02 Jun 2027 10:31:49.073   02 Jun 2027 10:32:41.994            52.921              Murmansk2          6615.125
        68   02 Jun 2027 10:33:14.694   02 Jun 2027 10:33:31.191            16.497              Murmansk2          2062.125
        69   02 Jun 2027 10:34:10.651   02 Jun 2027 10:34:46.220            35.569              Murmansk2          4446.125
        70   02 Jun 2027 10:36:24.093   02 Jun 2027 10:36:43.392            19.299              Murmansk2          2412.375
        71   02 Jun 2027 10:39:06.048   02 Jun 2027 10:47:31.753           505.705                Anadyr1         63213.125
        72   02 Jun 2027 12:03:25.926   02 Jun 2027 12:05:39.733           133.807              Murmansk1         16725.875
        73   02 Jun 2027 12:14:52.324   02 Jun 2027 12:15:13.536            21.212                Anadyr2          2651.500
        74   02 Jun 2027 12:16:57.142   02 Jun 2027 12:17:45.869            48.727                Anadyr2          6090.875
        75   02 Jun 2027 12:18:29.207   02 Jun 2027 12:21:52.197           202.990               Magadan1         25373.750
        76   02 Jun 2027 13:52:47.072   02 Jun 2027 13:54:57.965           130.893               Magadan2         16361.625
        77   02 Jun 2027 14:00:31.377   02 Jun 2027 14:02:13.161           101.784               Magadan1         12723.000
        78   02 Jun 2027 15:34:50.580   02 Jun 2027 15:37:33.517           162.937                Irkutsk         20367.125
        79   02 Jun 2027 16:22:02.014   02 Jun 2027 16:23:57.748           115.734            RioGallegos         14466.750
        80   02 Jun 2027 17:08:09.364   02 Jun 2027 17:09:57.702           108.338                Irkutsk         13542.250
        81   02 Jun 2027 17:10:35.215   02 Jun 2027 17:13:13.048           157.833                Novosib         19729.125
        82   02 Jun 2027 17:23:49.105   02 Jun 2027 17:24:54.871            65.766                Sumatra          8220.750
        83   02 Jun 2027 18:47:04.707   02 Jun 2027 18:48:37.569            92.862                Novosib         11607.750
        84   02 Jun 2027 18:51:31.479   02 Jun 2027 18:53:47.389           135.910                  Delhi         16988.750
        85   02 Jun 2027 19:03:04.269   02 Jun 2027 19:03:46.739            42.470                  Delhi          5308.750
        86   02 Jun 2027 20:22:42.429   02 Jun 2027 20:24:19.161            96.732                 Moscow         12091.500
        87   02 Jun 2027 21:57:28.179   02 Jun 2027 21:58:34.983            66.804                 Moscow          8350.500
        88   02 Jun 2027 21:59:00.929   02 Jun 2027 22:00:57.785           116.856              Murmansk1          1677.126
        89   03 Jun 2027 04:18:22.910   03 Jun 2027 04:19:30.147            67.237                Novosib          8404.625
        90   03 Jun 2027 04:19:38.779   03 Jun 2027 04:21:18.457            99.678              Murmansk1         12459.750
        91   03 Jun 2027 05:27:48.410   03 Jun 2027 05:30:21.234           152.824                Sumatra         19103.000
        92   03 Jun 2027 05:38:16.791   03 Jun 2027 05:41:13.286           176.495                  Delhi         22061.875
        93   03 Jun 2027 05:54:22.722   03 Jun 2027 05:55:59.521            96.799                Norilsk         12099.875
        94   03 Jun 2027 05:56:02.149   03 Jun 2027 05:56:04.850             2.701                 Moscow           337.625
        95   03 Jun 2027 05:56:19.707   03 Jun 2027 05:58:45.135           145.428              Murmansk2         18178.500
        96   03 Jun 2027 05:58:45.135   03 Jun 2027 05:59:35.839            50.704              Murmansk1          6338.000
        97   03 Jun 2027 06:33:24.956   03 Jun 2027 06:34:20.742            55.786            RioGallegos          6973.250
        98   03 Jun 2027 06:35:27.691   03 Jun 2027 06:36:22.035            54.344            RioGallegos          6793.000
        99   03 Jun 2027 06:37:41.433   03 Jun 2027 06:38:45.186            63.753            RioGallegos          7969.125
       100   03 Jun 2027 06:38:54.136   03 Jun 2027 06:39:34.416            40.280            RioGallegos          5035.000
       101   03 Jun 2027 07:08:33.106   03 Jun 2027 07:09:49.661            76.555                Sumatra          9569.375
       102   03 Jun 2027 07:12:03.286   03 Jun 2027 07:14:56.461           173.175                  Delhi         21646.875
       103   03 Jun 2027 07:16:33.410   03 Jun 2027 07:17:03.422            30.012                  Delhi          3751.500
       104   03 Jun 2027 07:18:54.044   03 Jun 2027 07:20:06.274            72.230                  Delhi          9028.750
       105   03 Jun 2027 07:20:35.233   03 Jun 2027 07:24:00.940           205.707                Novosib         25713.375
       106   03 Jun 2027 07:24:41.682   03 Jun 2027 07:25:51.478            69.796                 Moscow          8724.500
       107   03 Jun 2027 07:29:55.256   03 Jun 2027 07:31:09.021            73.765              Murmansk1          9220.625
       108   03 Jun 2027 07:31:48.208   03 Jun 2027 07:33:05.382            77.174                 Moscow          9646.750
       109   03 Jun 2027 07:33:28.377   03 Jun 2027 07:34:20.158            51.781              Murmansk2          6472.625
       110   03 Jun 2027 07:35:02.391   03 Jun 2027 07:35:10.917             8.526                Norilsk          1065.750
       111   03 Jun 2027 09:06:19.360   03 Jun 2027 09:10:51.428           272.068                Norilsk         34008.500
       112   03 Jun 2027 09:11:11.203   03 Jun 2027 09:12:46.809            95.606              Murmansk2         11950.750
       113   03 Jun 2027 10:11:11.598   03 Jun 2027 10:21:09.293           597.695               CapeTown         74711.875
       114   03 Jun 2027 10:33:36.141   03 Jun 2027 10:44:22.923           646.782                 Moscow         80847.750
       115   03 Jun 2027 10:44:43.292   03 Jun 2027 10:45:52.264            68.972              Murmansk2          8621.500
       116   03 Jun 2027 10:46:05.120   03 Jun 2027 10:46:43.559            38.439              Murmansk2          4804.875
       117   03 Jun 2027 10:47:49.866   03 Jun 2027 10:48:11.945            22.079              Murmansk2          2759.875
       118   03 Jun 2027 10:50:58.587   03 Jun 2027 10:56:28.597           330.010                Anadyr2         41251.250
       119   03 Jun 2027 10:56:45.637   03 Jun 2027 11:00:10.084           204.447                Anadyr1         25555.875
       120   03 Jun 2027 12:16:01.308   03 Jun 2027 12:19:59.122           237.814              Murmansk1         29726.750
       121   03 Jun 2027 12:26:28.068   03 Jun 2027 12:27:09.207            41.139                Anadyr2          5142.375
       122   03 Jun 2027 12:30:02.517   03 Jun 2027 12:33:55.908           233.391               Magadan1         29173.875
       123   03 Jun 2027 14:04:45.075   03 Jun 2027 14:05:53.479            68.404               Magadan1          8550.500
       124   03 Jun 2027 14:07:33.825   03 Jun 2027 14:07:56.768            22.943               Magadan2          2867.875
       125   03 Jun 2027 14:12:38.701   03 Jun 2027 14:14:15.000            96.299               Magadan1         12037.375
       126   03 Jun 2027 15:46:01.759   03 Jun 2027 15:49:26.491           204.732                Irkutsk         25591.500
       127   03 Jun 2027 16:02:18.516   03 Jun 2027 16:03:31.636            73.120                Sumatra          9140.000
       128   03 Jun 2027 16:04:57.037   03 Jun 2027 16:07:05.213           128.176                Sumatra         16022.000
       129   03 Jun 2027 17:21:07.702   03 Jun 2027 17:25:05.854           238.152                Novosib         29769.000
       130   03 Jun 2027 17:42:27.892   03 Jun 2027 17:43:25.396            57.504                Sumatra          7188.000
       131   03 Jun 2027 19:01:04.648   03 Jun 2027 19:02:56.674           112.026                Novosib         14003.250
       132   03 Jun 2027 19:03:22.847   03 Jun 2027 19:03:51.548            28.701                  Delhi          3587.625
       133   03 Jun 2027 19:05:24.635   03 Jun 2027 19:06:48.205            83.570                  Delhi         10446.250
       134   03 Jun 2027 20:33:48.130   03 Jun 2027 20:35:01.369            73.239              Murmansk2          9154.875
       135   03 Jun 2027 20:35:35.718   03 Jun 2027 20:36:32.602            56.884                 Moscow          7110.500
       136   03 Jun 2027 22:10:58.691   03 Jun 2027 22:11:08.940            10.249              Murmansk1          1281.125
       137   03 Jun 2027 22:17:26.329   03 Jun 2027 22:19:01.947            95.618                 Moscow          8750.125
       138   04 Jun 2027 04:30:25.160   04 Jun 2027 04:34:18.668           233.508                Norilsk         29188.500
       139   04 Jun 2027 05:39:49.465   04 Jun 2027 05:42:01.611           132.146                Sumatra         16518.250
       140   04 Jun 2027 05:50:20.533   04 Jun 2027 05:51:15.797            55.264                  Delhi          6908.000
       141   04 Jun 2027 06:06:14.290   04 Jun 2027 06:12:49.142           394.852              Murmansk2         49356.500
       142   04 Jun 2027 06:46:07.202   04 Jun 2027 06:48:16.300           129.098            RioGallegos         16137.250
       143   04 Jun 2027 06:50:48.998   04 Jun 2027 06:50:57.780             8.782            RioGallegos          1097.750
       144   04 Jun 2027 07:24:14.006   04 Jun 2027 07:28:58.844           284.838                  Delhi         35604.750
       145   04 Jun 2027 07:31:32.614   04 Jun 2027 07:32:10.404            37.790                  Delhi          4723.750
       146   04 Jun 2027 07:32:10.720   04 Jun 2027 07:36:14.191           243.471                Novosib         30433.875
       147   04 Jun 2027 07:36:50.073   04 Jun 2027 07:37:12.728            22.655                 Moscow          2831.875
       148   04 Jun 2027 07:41:59.150   04 Jun 2027 07:45:23.842           204.692              Murmansk2         25586.500
       149   04 Jun 2027 07:45:23.842   04 Jun 2027 07:47:09.535           105.693              Murmansk1         13211.625
       150   04 Jun 2027 07:48:53.242   04 Jun 2027 07:48:54.399             1.157              Murmansk1           144.625
       151   04 Jun 2027 09:08:24.609   04 Jun 2027 09:09:39.637            75.028                 Moscow          9378.500
       152   04 Jun 2027 09:12:56.112   04 Jun 2027 09:13:30.351            34.239                 Moscow          4279.875
       153   04 Jun 2027 09:17:01.170   04 Jun 2027 09:21:18.876           257.706                 Moscow         32213.250
       154   04 Jun 2027 09:21:31.294   04 Jun 2027 09:24:48.395           197.101              Murmansk1         24637.625
       155   04 Jun 2027 10:22:47.893   04 Jun 2027 10:29:22.851           394.958               CapeTown         49369.750
       156   04 Jun 2027 10:48:03.729   04 Jun 2027 10:49:58.015           114.286                 Moscow         14285.750
       157   04 Jun 2027 10:50:12.898   04 Jun 2027 10:55:43.814           330.916              Murmansk2         41364.500
       158   04 Jun 2027 10:55:53.450   04 Jun 2027 10:56:07.170            13.720              Murmansk2          1715.000
       159   04 Jun 2027 11:02:53.144   04 Jun 2027 11:07:39.759           286.615                Anadyr1         35826.875
       160   04 Jun 2027 11:07:39.759   04 Jun 2027 11:09:09.394            89.635                Anadyr2         11204.375
       161   04 Jun 2027 11:11:17.591   04 Jun 2027 11:12:24.412            66.821                Anadyr2          8352.625
       162   04 Jun 2027 12:07:12.101   04 Jun 2027 12:07:39.575            27.474               CapeTown          3434.250
       163   04 Jun 2027 12:28:40.193   04 Jun 2027 12:31:02.339           142.146              Murmansk2         17768.250
       164   04 Jun 2027 12:38:28.621   04 Jun 2027 12:39:06.104            37.483                Anadyr1          4685.375
       165   04 Jun 2027 12:41:44.390   04 Jun 2027 12:43:21.021            96.631               Magadan2         12078.875
       166   04 Jun 2027 12:45:43.993   04 Jun 2027 12:45:50.038             6.045               Magadan2           755.625
       167   04 Jun 2027 12:46:59.033   04 Jun 2027 12:48:04.660            65.627               Magadan1          8203.375
       168   04 Jun 2027 14:16:43.859   04 Jun 2027 14:17:42.948            59.089               Magadan1          7386.125
       169   04 Jun 2027 14:20:44.341   04 Jun 2027 14:23:30.629           166.288               Magadan2         20786.000
       170   04 Jun 2027 15:11:13.618   04 Jun 2027 15:13:49.203           155.585            RioGallegos         19448.125
       171   04 Jun 2027 15:57:31.777   04 Jun 2027 15:59:00.171            88.394                Irkutsk         11049.250
       172   04 Jun 2027 16:02:43.036   04 Jun 2027 16:05:43.317           180.281                Irkutsk         22535.125
       173   04 Jun 2027 16:12:48.780   04 Jun 2027 16:15:09.644           140.864                Sumatra         17608.000
       174   04 Jun 2027 17:34:26.266   04 Jun 2027 17:35:04.212            37.946                Novosib          4743.250
       175   04 Jun 2027 17:43:49.418   04 Jun 2027 17:45:02.833            73.415                  Delhi          9176.875
       176   04 Jun 2027 17:45:50.687   04 Jun 2027 17:47:04.163            73.476                  Delhi          9184.500
       177   04 Jun 2027 19:15:18.012   04 Jun 2027 19:16:54.836            96.824                  Delhi         12103.000
       178   04 Jun 2027 19:22:41.667   04 Jun 2027 19:22:53.777            12.110                  Delhi          1513.750
       179   04 Jun 2027 20:42:19.876   04 Jun 2027 20:42:55.125            35.249              Murmansk2          4406.125
       180   04 Jun 2027 20:45:04.613   04 Jun 2027 20:46:26.162            81.549              Murmansk2         10193.625
       181   04 Jun 2027 20:48:42.686   04 Jun 2027 20:50:28.080           105.394                 Moscow         13174.250
       182   04 Jun 2027 22:45:20.345   04 Jun 2027 22:46:31.310            70.965               CapeTown          8870.625
       183   05 Jun 2027 04:18:18.319   05 Jun 2027 04:21:01.383           163.064                Sumatra         20383.000
       184   05 Jun 2027 04:42:26.145   05 Jun 2027 04:48:36.259           370.114              Murmansk1         46264.250
       185   05 Jun 2027 04:48:36.259   05 Jun 2027 04:50:13.031            96.772              Murmansk2         12096.500
       186   05 Jun 2027 05:17:30.666   05 Jun 2027 05:21:57.218           266.552            RioGallegos         33319.000
       187   05 Jun 2027 05:51:56.187   05 Jun 2027 05:56:52.380           296.193                Sumatra         37024.125
       188   05 Jun 2027 06:06:54.129   05 Jun 2027 06:08:14.146            80.017                Novosib         10002.125
       189   05 Jun 2027 06:09:49.307   05 Jun 2027 06:10:37.264            47.957                Irkutsk          5994.625
       190   05 Jun 2027 06:16:46.336   05 Jun 2027 06:16:50.274             3.938              Murmansk1           492.250
       191   05 Jun 2027 06:18:04.167   05 Jun 2027 06:20:09.361           125.194                Norilsk         15649.250
       192   05 Jun 2027 06:20:13.753   05 Jun 2027 06:20:33.738            19.985                 Moscow          2498.125
       193   05 Jun 2027 06:20:36.439   05 Jun 2027 06:23:55.002           198.563              Murmansk1         24820.375
       194   05 Jun 2027 06:23:55.002   05 Jun 2027 06:25:00.939            65.937              Murmansk2          8242.125
       195   05 Jun 2027 07:36:30.928   05 Jun 2027 07:43:37.723           426.795                  Delhi         53349.375
       196   05 Jun 2027 07:45:38.736   05 Jun 2027 07:48:31.017           172.281                Novosib         21535.125
       197   05 Jun 2027 07:53:46.770   05 Jun 2027 07:57:15.120           208.350                 Moscow         26043.750
       198   05 Jun 2027 07:57:19.941   05 Jun 2027 08:00:54.792           214.851              Murmansk2         26856.375
       199   05 Jun 2027 09:23:44.482   05 Jun 2027 09:27:25.625           221.143                 Moscow         27642.875
       200   05 Jun 2027 09:28:49.149   05 Jun 2027 09:31:02.492           133.343              Murmansk2         16667.875
       201   05 Jun 2027 09:31:02.492   05 Jun 2027 09:36:50.041           347.549              Murmansk1         43443.625
       202   05 Jun 2027 10:39:13.768   05 Jun 2027 10:40:38.043            84.275               CapeTown         10534.375
       203   05 Jun 2027 11:01:26.054   05 Jun 2027 11:02:23.596            57.542              Murmansk1          7192.750
       204   05 Jun 2027 11:02:23.596   05 Jun 2027 11:04:28.264           124.668              Murmansk2         15583.500
       205   05 Jun 2027 11:05:11.175   05 Jun 2027 11:05:27.404            16.229              Murmansk2          2028.625
       206   05 Jun 2027 11:05:42.301   05 Jun 2027 11:06:24.901            42.600              Murmansk2          5325.000
       207   05 Jun 2027 11:07:41.590   05 Jun 2027 11:11:17.999           216.409              Murmansk2         27051.125
       208   05 Jun 2027 11:14:49.188   05 Jun 2027 11:16:34.775           105.587                Anadyr2         13198.375
       209   05 Jun 2027 11:17:30.051   05 Jun 2027 11:20:05.260           155.209                Anadyr1         19401.125
       210   05 Jun 2027 11:21:13.314   05 Jun 2027 11:22:44.483            91.169                Anadyr2         11396.125
       211   05 Jun 2027 11:24:10.243   05 Jun 2027 11:24:21.395            11.152                Anadyr2          1394.000
       212   05 Jun 2027 12:13:44.898   05 Jun 2027 12:14:49.655            64.757               CapeTown          8094.625
       213   05 Jun 2027 12:41:23.183   05 Jun 2027 12:41:44.132            20.949              Murmansk1          2618.625
       214   05 Jun 2027 12:53:31.294   05 Jun 2027 12:57:45.681           254.387               Magadan1         31798.375
       215   05 Jun 2027 14:28:43.300   05 Jun 2027 14:29:35.033            51.733               Magadan2          6466.625
       216   05 Jun 2027 15:22:17.730   05 Jun 2027 15:25:35.933           198.203            RioGallegos         24775.375
       217   05 Jun 2027 16:09:10.833   05 Jun 2027 16:11:12.710           121.877                Irkutsk         15234.625
       218   05 Jun 2027 16:13:10.249   05 Jun 2027 16:15:08.973           118.724                Irkutsk         14840.500
       219   05 Jun 2027 16:23:53.117   05 Jun 2027 16:25:02.506            69.389                Sumatra          8673.625
       220   05 Jun 2027 16:29:38.217   05 Jun 2027 16:31:39.217           121.000                Sumatra         15125.000
       221   05 Jun 2027 17:47:44.724   05 Jun 2027 17:48:56.621            71.897                Novosib          8987.125
       222   05 Jun 2027 17:54:10.393   05 Jun 2027 17:56:43.042           152.649                  Delhi         19081.125
       223   05 Jun 2027 19:27:16.645   05 Jun 2027 19:28:42.431            85.786                  Delhi         10723.250
       224   05 Jun 2027 20:58:03.439   05 Jun 2027 21:00:49.584           166.145                 Moscow         20768.125
       225   06 Jun 2027 03:17:13.130   06 Jun 2027 03:18:13.501            60.371               Magadan2          7546.375
       226   06 Jun 2027 03:18:16.289   06 Jun 2027 03:21:08.115           171.826              Murmansk2         21478.250
       227   06 Jun 2027 04:29:31.890   06 Jun 2027 04:32:49.677           197.787                Sumatra         24723.375
       228   06 Jun 2027 04:54:13.959   06 Jun 2027 04:54:51.316            37.357              Murmansk1          4669.625
       229   06 Jun 2027 04:54:51.316   06 Jun 2027 04:59:18.330           267.014              Murmansk2         33376.750
       230   06 Jun 2027 04:59:18.330   06 Jun 2027 05:02:05.287           166.957              Murmansk1         20869.625
       231   06 Jun 2027 05:32:40.239   06 Jun 2027 05:33:17.138            36.899            RioGallegos          4612.375
       232   06 Jun 2027 06:04:08.996   06 Jun 2027 06:06:40.531           151.535                Sumatra         18941.875
       233   06 Jun 2027 06:14:58.956   06 Jun 2027 06:16:52.779           113.823                  Delhi         14227.875
       234   06 Jun 2027 06:18:57.310   06 Jun 2027 06:22:13.818           196.508                Novosib         24563.500
       235   06 Jun 2027 06:29:23.846   06 Jun 2027 06:31:48.495           144.649                Novosib         18081.125
       236   06 Jun 2027 06:31:49.776   06 Jun 2027 06:34:35.141           165.365              Murmansk1         20670.625
       237   06 Jun 2027 06:34:35.141   06 Jun 2027 06:35:12.487            37.346              Murmansk2          4668.250
       238   06 Jun 2027 06:35:12.487   06 Jun 2027 06:35:43.224            30.737              Murmansk1          3842.125
       239   06 Jun 2027 06:36:24.620   06 Jun 2027 06:36:37.395            12.775              Murmansk2          1596.875
       240   06 Jun 2027 06:36:49.937   06 Jun 2027 06:37:14.016            24.079              Murmansk2          3009.875
       241   06 Jun 2027 07:48:54.979   06 Jun 2027 07:53:05.672           250.693                  Delhi         31336.625
       242   06 Jun 2027 07:57:08.130   06 Jun 2027 07:58:54.866           106.736                  Delhi         13342.000
       243   06 Jun 2027 07:59:27.254   06 Jun 2027 08:00:51.724            84.470                Novosib         10558.750
       244   06 Jun 2027 08:06:17.412   06 Jun 2027 08:12:55.450           398.038              Murmansk2         49754.750
       245   06 Jun 2027 09:32:32.740   06 Jun 2027 09:38:03.175           330.435                 Moscow         41304.375
       246   06 Jun 2027 09:38:25.034   06 Jun 2027 09:39:40.732            75.698              Murmansk1          9462.250
       247   06 Jun 2027 09:40:14.924   06 Jun 2027 09:42:52.387           157.463              Murmansk1         19682.875
       248   06 Jun 2027 09:43:03.729   06 Jun 2027 09:46:22.445           198.716                Norilsk         24839.500
       249   06 Jun 2027 09:52:47.860   06 Jun 2027 09:55:51.900           184.040                Anadyr1         23005.000
       250   06 Jun 2027 11:13:48.092   06 Jun 2027 11:14:45.968            57.876              Murmansk1          7234.500
       251   06 Jun 2027 11:16:29.555   06 Jun 2027 11:16:46.534            16.979              Murmansk1          2122.375
       252   06 Jun 2027 11:16:58.528   06 Jun 2027 11:17:09.049            10.521              Murmansk1          1315.125
       253   06 Jun 2027 11:17:24.130   06 Jun 2027 11:17:51.253            27.123              Murmansk1          3390.375
       254   06 Jun 2027 11:18:19.880   06 Jun 2027 11:18:36.394            16.514              Murmansk1          2064.250
       255   06 Jun 2027 11:19:40.641   06 Jun 2027 11:23:14.314           213.673              Murmansk1         26709.125
       256   06 Jun 2027 11:23:38.398   06 Jun 2027 11:23:41.892             3.494              Murmansk1           436.750
       257   06 Jun 2027 11:26:46.376   06 Jun 2027 11:28:09.506            83.130                Anadyr1         10391.250
       258   06 Jun 2027 11:29:40.644   06 Jun 2027 11:31:58.222           137.578                Anadyr1         17197.250
       259   06 Jun 2027 11:36:11.238   06 Jun 2027 11:36:19.319             8.081                Anadyr2          1010.125
       260   06 Jun 2027 12:22:19.637   06 Jun 2027 12:22:24.639             5.002               CapeTown           625.250
       261   06 Jun 2027 12:24:16.301   06 Jun 2027 12:24:59.024            42.723               CapeTown          5340.375
       262   06 Jun 2027 12:26:42.005   06 Jun 2027 12:26:53.553            11.548               CapeTown          1443.500
       263   06 Jun 2027 12:29:55.277   06 Jun 2027 12:31:56.636           121.359               CapeTown         15169.875
       264   06 Jun 2027 12:54:11.321   06 Jun 2027 12:55:27.221            75.900              Murmansk1          9487.500
       265   06 Jun 2027 13:05:21.552   06 Jun 2027 13:11:48.317           386.765               Magadan2         48345.625
       266   06 Jun 2027 15:33:44.818   06 Jun 2027 15:37:25.954           221.136            RioGallegos         27642.000
       267   06 Jun 2027 16:35:13.857   06 Jun 2027 16:38:46.067           212.210                Sumatra         26526.250
       268   06 Jun 2027 17:56:31.015   06 Jun 2027 17:57:34.247            63.232                Novosib          7904.000
       269   06 Jun 2027 17:59:19.879   06 Jun 2027 18:00:06.695            46.816                Novosib          5852.000
       270   06 Jun 2027 18:05:17.965   06 Jun 2027 18:06:35.694            77.729                  Delhi          9716.125
       271   06 Jun 2027 18:08:28.919   06 Jun 2027 18:10:49.262           140.343                  Delhi         17542.875
       272   06 Jun 2027 21:09:56.291   06 Jun 2027 21:11:27.884            91.593                 Moscow         11449.125
       273   06 Jun 2027 21:35:12.499   06 Jun 2027 21:38:28.911           196.412               CapeTown         24551.500
       274   07 Jun 2027 03:30:24.390   07 Jun 2027 03:31:15.451            51.061                Novosib          6382.625
       275   07 Jun 2027 03:31:20.878   07 Jun 2027 03:33:04.400           103.522              Murmansk1         12940.250
       276   07 Jun 2027 03:33:11.604   07 Jun 2027 03:33:48.756            37.152                Norilsk          4644.000
       277   07 Jun 2027 04:42:08.990   07 Jun 2027 04:42:48.911            39.921                Sumatra          4990.125
       278   07 Jun 2027 04:44:18.392   07 Jun 2027 04:44:43.883            25.491                Sumatra          3186.375
       279   07 Jun 2027 04:47:51.193   07 Jun 2027 04:48:11.724            20.531                Sumatra          2566.375
       280   07 Jun 2027 05:06:30.026   07 Jun 2027 05:11:19.544           289.518                Norilsk         36189.750
       281   07 Jun 2027 05:11:46.372   07 Jun 2027 05:13:10.708            84.336              Murmansk2         10542.000
       282   07 Jun 2027 05:42:15.502   07 Jun 2027 05:43:50.097            94.595            RioGallegos         11824.375
       283   07 Jun 2027 05:44:41.588   07 Jun 2027 05:45:23.455            41.867            RioGallegos          5233.375
       284   07 Jun 2027 06:16:28.803   07 Jun 2027 06:16:40.509            11.706                Sumatra          1463.250
       285   07 Jun 2027 06:18:22.721   07 Jun 2027 06:20:19.913           117.192                Sumatra         14649.000
       286   07 Jun 2027 06:24:29.639   07 Jun 2027 06:24:58.422            28.783                  Delhi          3597.875
       287   07 Jun 2027 06:26:49.316   07 Jun 2027 06:28:56.617           127.301                  Delhi         15912.625
       288   07 Jun 2027 06:31:03.501   07 Jun 2027 06:33:16.055           132.554                Novosib         16569.250
       289   07 Jun 2027 06:34:55.345   07 Jun 2027 06:35:50.827            55.482                Irkutsk          6935.250
       290   07 Jun 2027 06:36:27.762   07 Jun 2027 06:36:36.901             9.139                 Moscow          1142.375
       291   07 Jun 2027 06:41:56.996   07 Jun 2027 06:44:53.270           176.274                 Moscow         22034.250
       292   07 Jun 2027 06:44:58.582   07 Jun 2027 06:47:30.686           152.104              Murmansk2         19013.000
       293   07 Jun 2027 06:48:03.122   07 Jun 2027 06:48:13.007             9.885              Murmansk2          1235.625
       294   07 Jun 2027 06:48:37.014   07 Jun 2027 06:49:12.143            35.129              Murmansk2          4391.125
       295   07 Jun 2027 08:01:27.750   07 Jun 2027 08:05:17.529           229.779                  Delhi         28722.375
       296   07 Jun 2027 08:09:54.789   07 Jun 2027 08:13:16.699           201.910                Novosib         25238.750
       297   07 Jun 2027 08:17:48.158   07 Jun 2027 08:18:39.173            51.015                Novosib          6376.875
       298   07 Jun 2027 08:18:52.574   07 Jun 2027 08:21:22.895           150.321                 Moscow         18790.125
       299   07 Jun 2027 08:21:23.499   07 Jun 2027 08:23:38.671           135.172              Murmansk1         16896.500
       300   07 Jun 2027 09:44:41.407   07 Jun 2027 09:49:25.626           284.219                 Moscow         35527.375
       301   07 Jun 2027 09:49:47.558   07 Jun 2027 09:53:52.167           244.609              Murmansk1         30576.125
       302   07 Jun 2027 09:54:12.241   07 Jun 2027 09:54:27.678            15.437              Murmansk1          1929.625
       303   07 Jun 2027 09:54:41.575   07 Jun 2027 09:55:07.919            26.344              Murmansk2          3293.000
       304   07 Jun 2027 09:56:13.636   07 Jun 2027 09:58:02.348           108.712              Murmansk1         13589.000
       305   07 Jun 2027 10:04:07.541   07 Jun 2027 10:07:54.885           227.344                Anadyr1         28418.000
       306   07 Jun 2027 11:26:12.466   07 Jun 2027 11:27:13.007            60.541              Murmansk2          7567.625
       307   07 Jun 2027 11:35:28.440   07 Jun 2027 11:36:08.228            39.788              Murmansk1          4973.500
       308   07 Jun 2027 11:38:44.467   07 Jun 2027 11:39:53.349            68.882                Anadyr2          8610.250
       309   07 Jun 2027 11:41:49.013   07 Jun 2027 11:43:50.160           121.147                Anadyr1         15143.375
       310   07 Jun 2027 11:48:12.399   07 Jun 2027 11:48:17.997             5.598                Anadyr1           699.750
       311   07 Jun 2027 12:34:36.138   07 Jun 2027 12:37:32.836           176.698               CapeTown         22087.250
       312   07 Jun 2027 13:17:14.228   07 Jun 2027 13:20:09.661           175.433               Magadan2         21929.125
       313   07 Jun 2027 13:21:03.660   07 Jun 2027 13:22:56.262           112.602               Magadan1         14075.250
       314   07 Jun 2027 15:45:22.121   07 Jun 2027 15:49:18.500           236.379            RioGallegos         29547.375
       315   07 Jun 2027 15:51:16.870   07 Jun 2027 15:52:00.311            43.441            RioGallegos          5430.125
       316   07 Jun 2027 16:35:27.055   07 Jun 2027 16:38:27.985           180.930                Irkutsk         22616.250
       317   07 Jun 2027 16:46:45.441   07 Jun 2027 16:48:23.591            98.150                Sumatra         12268.750
       318   07 Jun 2027 16:58:00.005   07 Jun 2027 16:58:16.676            16.671                Sumatra          2083.875
       319   07 Jun 2027 18:08:24.280   07 Jun 2027 18:10:47.321           143.041                Novosib         17880.125
       320   07 Jun 2027 18:16:42.622   07 Jun 2027 18:18:35.339           112.717                  Delhi         14089.625
       321   07 Jun 2027 18:23:06.837   07 Jun 2027 18:24:22.402            75.565                  Delhi          9445.625
       322   07 Jun 2027 19:51:23.693   07 Jun 2027 19:51:32.989             9.296                 Moscow          1162.000
       323   07 Jun 2027 21:21:50.966   07 Jun 2027 21:23:52.462           121.496                 Moscow         15187.000
       324   07 Jun 2027 21:46:41.647   07 Jun 2027 21:48:03.097            81.450               CapeTown         10181.250
       325   07 Jun 2027 21:50:19.764   07 Jun 2027 21:51:44.908            85.144               CapeTown         10643.000
       326   08 Jun 2027 03:42:33.891   08 Jun 2027 03:43:24.210            50.319                Novosib          6289.875
       327   08 Jun 2027 03:43:44.546   08 Jun 2027 03:44:38.064            53.518              Murmansk2          6689.750
       328   08 Jun 2027 04:52:34.430   08 Jun 2027 04:54:31.942           117.512                Sumatra         14689.000
       329   08 Jun 2027 05:07:09.488   08 Jun 2027 05:08:41.392            91.904                  Delhi         11488.000
       330   08 Jun 2027 05:17:50.553   08 Jun 2027 05:20:39.018           168.465              Murmansk2         21058.125
       331   08 Jun 2027 05:20:43.336   08 Jun 2027 05:23:34.014           170.678              Murmansk2         21334.750
       332   08 Jun 2027 06:28:57.310   08 Jun 2027 06:29:57.229            59.919                Sumatra          7489.875
       333   08 Jun 2027 06:31:22.561   08 Jun 2027 06:32:35.103            72.542                Sumatra          9067.750
       334   08 Jun 2027 06:35:50.041   08 Jun 2027 06:37:57.954           127.913                Sumatra         15989.125
       335   08 Jun 2027 06:39:19.092   08 Jun 2027 06:39:54.439            35.347                  Delhi          4418.375
       336   08 Jun 2027 06:43:12.826   08 Jun 2027 06:45:56.154           163.328                Novosib         20416.000
       337   08 Jun 2027 06:46:54.749   08 Jun 2027 06:47:44.307            49.558                Irkutsk          6194.750
       338   08 Jun 2027 06:47:54.985   08 Jun 2027 06:49:29.977            94.992                 Moscow         11874.000
       339   08 Jun 2027 06:54:06.219   08 Jun 2027 06:57:45.844           219.625              Murmansk1         27453.125
       340   08 Jun 2027 06:58:00.763   08 Jun 2027 06:58:54.680            53.917              Murmansk1          6739.625
       341   08 Jun 2027 06:59:01.326   08 Jun 2027 06:59:17.924            16.598              Murmansk2          2074.750
       342   08 Jun 2027 08:14:12.189   08 Jun 2027 08:17:35.735           203.546                  Delhi         25443.250
       343   08 Jun 2027 08:22:44.399   08 Jun 2027 08:25:35.534           171.135                Novosib         21391.875
       344   08 Jun 2027 08:30:34.273   08 Jun 2027 08:35:13.330           279.057                Norilsk         34882.125
       345   08 Jun 2027 09:40:28.818   08 Jun 2027 09:41:48.604            79.786               CapeTown          9973.250
       346   08 Jun 2027 09:56:53.349   08 Jun 2027 10:01:28.763           275.414                 Moscow         34426.750
       347   08 Jun 2027 10:01:40.387   08 Jun 2027 10:03:19.206            98.819              Murmansk2         12352.375
       348   08 Jun 2027 10:04:28.249   08 Jun 2027 10:05:38.896            70.647              Murmansk2          8830.875
       349   08 Jun 2027 10:06:39.895   08 Jun 2027 10:07:02.199            22.304                 Moscow          2788.000
       350   08 Jun 2027 10:07:52.756   08 Jun 2027 10:09:15.685            82.929                 Moscow         10366.125
       351   08 Jun 2027 10:09:30.131   08 Jun 2027 10:09:57.111            26.980              Murmansk1          3372.500
       352   08 Jun 2027 10:10:39.622   08 Jun 2027 10:11:09.976            30.354              Murmansk1          3794.250
       353   08 Jun 2027 10:12:27.054   08 Jun 2027 10:12:43.324            16.270              Murmansk1          2033.750
       354   08 Jun 2027 10:12:54.644   08 Jun 2027 10:12:55.050             0.406              Murmansk1            50.750
       355   08 Jun 2027 10:15:45.438   08 Jun 2027 10:22:13.280           387.842                Anadyr2         48480.250
       356   08 Jun 2027 11:39:13.147   08 Jun 2027 11:39:40.931            27.784              Murmansk1          3473.000
       357   08 Jun 2027 11:48:37.161   08 Jun 2027 11:48:47.419            10.258              Murmansk2          1282.250
       358   08 Jun 2027 11:50:43.278   08 Jun 2027 11:51:42.112            58.834                Anadyr2          7354.250
       359   08 Jun 2027 11:52:31.604   08 Jun 2027 11:55:49.355           197.751                Anadyr1         24718.875
       360   08 Jun 2027 11:56:22.544   08 Jun 2027 11:57:34.289            71.745                Anadyr2          8968.125
       361   08 Jun 2027 11:59:54.995   08 Jun 2027 12:00:13.673            18.678                Anadyr2          2334.750
       362   08 Jun 2027 12:46:57.814   08 Jun 2027 12:49:07.274           129.460               CapeTown         16182.500
       363   08 Jun 2027 13:29:08.732   08 Jun 2027 13:33:39.000           270.268               Magadan1         33783.500
       364   08 Jun 2027 13:36:31.694   08 Jun 2027 13:40:20.831           229.137               Magadan1         28642.125
       365   08 Jun 2027 15:59:25.615   08 Jun 2027 16:01:13.052           107.437            RioGallegos         13429.625
       366   08 Jun 2027 16:44:35.188   08 Jun 2027 16:47:29.199           174.011                Irkutsk         21751.375
       367   08 Jun 2027 16:49:05.353   08 Jun 2027 16:49:49.827            44.474                Novosib          5559.250
       368   08 Jun 2027 16:58:25.265   08 Jun 2027 17:00:20.736           115.471                Sumatra         14433.875
       369   08 Jun 2027 17:04:16.682   08 Jun 2027 17:04:45.220            28.538                Sumatra          3567.250
       370   08 Jun 2027 18:20:19.288   08 Jun 2027 18:22:10.392           111.104                Novosib         13888.000
       371   08 Jun 2027 18:28:17.320   08 Jun 2027 18:31:26.314           188.994                  Delhi         23624.250
       372   08 Jun 2027 20:00:37.027   08 Jun 2027 20:03:09.923           152.896                 Moscow         19112.000
       373   08 Jun 2027 21:58:17.423   08 Jun 2027 22:00:18.999           121.576               CapeTown         15197.000
       374   09 Jun 2027 03:54:35.878   09 Jun 2027 03:55:31.909            56.031                Novosib          7003.875
       375   09 Jun 2027 03:55:46.075   09 Jun 2027 03:58:34.919           168.844                Norilsk         21105.500
       376   09 Jun 2027 05:04:17.798   09 Jun 2027 05:06:54.350           156.552                Sumatra         19569.000
       377   09 Jun 2027 05:17:50.967   09 Jun 2027 05:19:33.066           102.099                  Delhi         12762.375
       378   09 Jun 2027 05:30:15.779   09 Jun 2027 05:30:19.153             3.374                Irkutsk           421.750
       379   09 Jun 2027 05:30:23.142   09 Jun 2027 05:31:09.863            46.721                 Moscow          5840.125
       380   09 Jun 2027 05:31:15.681   09 Jun 2027 05:35:16.964           241.283                Norilsk         30160.375
       381   09 Jun 2027 05:35:22.046   09 Jun 2027 05:36:44.510            82.464              Murmansk2         10308.000
       382   09 Jun 2027 06:13:55.301   09 Jun 2027 06:14:49.912            54.611            RioGallegos          6826.375
       383   09 Jun 2027 06:41:37.985   09 Jun 2027 06:43:29.804           111.819                Sumatra         13977.375
       384   09 Jun 2027 06:47:38.333   09 Jun 2027 06:48:14.531            36.198                Sumatra          4524.750
       385   09 Jun 2027 06:50:05.406   09 Jun 2027 06:51:01.538            56.132                  Delhi          7016.500
       386   09 Jun 2027 06:51:23.831   09 Jun 2027 06:53:21.522           117.691                  Delhi         14711.375
       387   09 Jun 2027 06:55:25.469   09 Jun 2027 06:58:44.608           199.139                Novosib         24892.375
       388   09 Jun 2027 06:59:28.116   09 Jun 2027 07:00:47.445            79.329                 Moscow          9916.125
       389   09 Jun 2027 07:01:00.054   09 Jun 2027 07:02:20.028            79.974                Irkutsk          9996.750
       390   09 Jun 2027 07:05:57.075   09 Jun 2027 07:09:08.188           191.113                 Moscow         23889.125
       391   09 Jun 2027 07:09:44.227   09 Jun 2027 07:10:44.516            60.289              Murmansk2          7536.125
       392   09 Jun 2027 08:32:48.487   09 Jun 2027 08:32:58.521            10.034                 Moscow          1254.250
       393   09 Jun 2027 08:36:47.369   09 Jun 2027 08:37:43.670            56.301                Novosib          7037.625
       394   09 Jun 2027 08:41:39.925   09 Jun 2027 08:41:55.120            15.195              Murmansk1          1899.375
       395   09 Jun 2027 08:43:14.463   09 Jun 2027 08:45:28.749           134.286                 Moscow         16785.750
       396   09 Jun 2027 08:45:37.273   09 Jun 2027 08:48:58.652           201.379              Murmansk2         25172.375
       397   09 Jun 2027 09:48:47.146   09 Jun 2027 09:55:35.110           407.964               CapeTown         50995.500
       398   09 Jun 2027 10:09:08.763   09 Jun 2027 10:12:00.850           172.087                 Moscow         21510.875
       399   09 Jun 2027 10:12:34.203   09 Jun 2027 10:18:04.942           330.739              Murmansk1         41342.375
       400   09 Jun 2027 10:18:04.942   09 Jun 2027 10:18:43.091            38.149              Murmansk2          4768.625
       401   09 Jun 2027 10:20:16.884   09 Jun 2027 10:20:55.503            38.619              Murmansk1          4827.375
       402   09 Jun 2027 10:20:55.503   09 Jun 2027 10:21:37.198            41.695              Murmansk2          5211.875
       403   09 Jun 2027 10:21:59.614   09 Jun 2027 10:22:07.068             7.454              Murmansk2           931.750
       404   09 Jun 2027 10:22:32.627   09 Jun 2027 10:23:04.823            32.196              Murmansk2          4024.500
       405   09 Jun 2027 10:24:40.241   09 Jun 2027 10:24:56.635            16.394              Murmansk1          2049.250
       406   09 Jun 2027 10:27:30.870   09 Jun 2027 10:31:44.841           253.971                Anadyr2         31746.375
       407   09 Jun 2027 10:32:03.832   09 Jun 2027 10:35:03.552           179.720                Anadyr1         22465.000
       408   09 Jun 2027 11:51:42.406   09 Jun 2027 11:52:22.266            39.860              Murmansk1          4982.500
       409   09 Jun 2027 11:52:34.123   09 Jun 2027 11:52:43.444             9.321              Murmansk1          1165.125
       410   09 Jun 2027 11:53:08.537   09 Jun 2027 11:53:53.572            45.035              Murmansk1          5629.375
       411   09 Jun 2027 11:54:36.969   09 Jun 2027 11:54:53.387            16.418              Murmansk1          2052.250
       412   09 Jun 2027 11:55:24.088   09 Jun 2027 11:55:39.102            15.014              Murmansk2          1876.750
       413   09 Jun 2027 11:55:43.933   09 Jun 2027 11:56:12.188            28.255              Murmansk2          3531.875
       414   09 Jun 2027 11:58:44.445   09 Jun 2027 11:59:10.695            26.250              Murmansk2          3281.250
       415   09 Jun 2027 11:59:30.845   09 Jun 2027 12:00:07.195            36.350              Murmansk2          4543.750
       416   09 Jun 2027 12:02:42.670   09 Jun 2027 12:04:54.594           131.924                Anadyr1         16490.500
       417   09 Jun 2027 12:05:59.444   09 Jun 2027 12:07:24.184            84.740                Anadyr1         10592.500
       418   09 Jun 2027 12:09:25.836   09 Jun 2027 12:10:28.747            62.911               Magadan2          7863.875
       419   09 Jun 2027 13:41:04.664   09 Jun 2027 13:42:41.983            97.319               Magadan2         12164.875
       420   09 Jun 2027 13:44:10.385   09 Jun 2027 13:45:38.326            87.941               Magadan1         10992.625
       421   09 Jun 2027 16:08:53.127   09 Jun 2027 16:14:40.622           347.495            RioGallegos         43436.875
       422   09 Jun 2027 16:58:34.212   09 Jun 2027 16:58:45.311            11.099                Irkutsk          1387.375
       423   09 Jun 2027 16:58:53.269   09 Jun 2027 17:01:37.218           163.949                Novosib         20493.625
       424   09 Jun 2027 17:01:47.214   09 Jun 2027 17:04:06.742           139.528                Novosib         17441.000
       425   09 Jun 2027 17:13:01.001   09 Jun 2027 17:15:28.455           147.454                Sumatra         18431.750
       426   09 Jun 2027 18:39:59.003   09 Jun 2027 18:41:50.904           111.901                  Delhi         13987.625
       427   09 Jun 2027 18:42:18.663   09 Jun 2027 18:44:11.645           112.982                  Delhi         14122.750
       428   09 Jun 2027 20:11:20.414   09 Jun 2027 20:15:00.239           219.825                 Moscow         26210.000
       429   10 Jun 2027 04:06:37.514   10 Jun 2027 04:06:56.984            19.470                Norilsk          2433.750
       430   10 Jun 2027 04:07:01.214   10 Jun 2027 04:09:54.837           173.623              Murmansk2         21702.875
       431   10 Jun 2027 05:16:07.541   10 Jun 2027 05:17:39.388            91.847                Sumatra         11480.875
       432   10 Jun 2027 05:28:07.591   10 Jun 2027 05:29:45.721            98.130                  Delhi         12266.250
       433   10 Jun 2027 05:41:52.170   10 Jun 2027 05:44:14.320           142.150              Murmansk2         17768.750
       434   10 Jun 2027 05:44:33.743   10 Jun 2027 05:47:24.363           170.620                Norilsk         21327.500
       435   10 Jun 2027 05:48:21.934   10 Jun 2027 05:49:41.688            79.754              Murmansk2          9969.250
       436   10 Jun 2027 06:54:39.478   10 Jun 2027 06:57:30.271           170.793                Sumatra         21349.125
       437   10 Jun 2027 07:00:12.972   10 Jun 2027 07:01:14.818            61.846                  Delhi          7730.750
       438   10 Jun 2027 07:03:25.285   10 Jun 2027 07:05:27.818           122.533                  Delhi         15316.625
       439   10 Jun 2027 07:07:41.636   10 Jun 2027 07:12:05.782           264.146                Novosib         33018.250
       440   10 Jun 2027 07:12:13.252   10 Jun 2027 07:12:53.557            40.305                 Moscow          5038.125
       441   10 Jun 2027 07:13:31.307   10 Jun 2027 07:14:18.895            47.588                Irkutsk          5948.500
       442   10 Jun 2027 07:18:17.825   10 Jun 2027 07:19:40.868            83.043                Novosib         10380.375
       443   10 Jun 2027 07:19:44.017   10 Jun 2027 07:22:57.343           193.326                Norilsk         24165.750
       444   10 Jun 2027 07:25:05.300   10 Jun 2027 07:25:09.209             3.909              Murmansk2           488.625
       445   10 Jun 2027 08:53:36.260   10 Jun 2027 08:53:57.887            21.627                Norilsk          2703.375
       446   10 Jun 2027 08:55:02.713   10 Jun 2027 08:57:30.924           148.211                 Moscow         18526.375
       447   10 Jun 2027 08:57:38.665   10 Jun 2027 09:01:00.044           201.379              Murmansk2         25172.375
       448   10 Jun 2027 09:59:58.725   10 Jun 2027 10:08:38.793           520.068               CapeTown         65008.500
       449   10 Jun 2027 10:21:27.937   10 Jun 2027 10:30:33.836           545.899                 Moscow         68237.375
       450   10 Jun 2027 10:30:37.887   10 Jun 2027 10:34:03.678           205.791              Murmansk1         25723.875
       451   10 Jun 2027 10:34:26.389   10 Jun 2027 10:35:00.889            34.500              Murmansk1          4312.500
       452   10 Jun 2027 10:35:48.819   10 Jun 2027 10:36:17.669            28.850              Murmansk1          3606.250
       453   10 Jun 2027 10:36:40.554   10 Jun 2027 10:36:58.126            17.572              Murmansk1          2196.500
       454   10 Jun 2027 10:39:20.619   10 Jun 2027 10:45:03.295           342.676                Anadyr1         42834.500
       455   10 Jun 2027 12:03:41.108   10 Jun 2027 12:07:13.814           212.706              Murmansk1         26588.250
       456   10 Jun 2027 12:07:13.814   10 Jun 2027 12:08:31.607            77.793              Murmansk2          9724.125
       457   10 Jun 2027 12:12:03.883   10 Jun 2027 12:12:44.811            40.928              Murmansk1          5116.000
       458   10 Jun 2027 12:14:42.533   10 Jun 2027 12:15:28.098            45.565                Anadyr2          5695.625
       459   10 Jun 2027 12:17:12.086   10 Jun 2027 12:17:59.887            47.801                Anadyr1          5975.125
       460   10 Jun 2027 12:18:35.794   10 Jun 2027 12:19:25.164            49.370                Anadyr2          6171.250
       461   10 Jun 2027 12:22:07.692   10 Jun 2027 12:24:31.741           144.049               Magadan1         18006.125
       462   10 Jun 2027 13:53:01.747   10 Jun 2027 13:55:12.963           131.216               Magadan1         16402.000
       463   10 Jun 2027 13:56:12.262   10 Jun 2027 13:59:02.536           170.274               Magadan1         21284.250
       464   10 Jun 2027 15:35:04.318   10 Jun 2027 15:37:49.064           164.746                Irkutsk         20593.250
       465   10 Jun 2027 16:22:17.120   10 Jun 2027 16:23:36.277            79.157            RioGallegos          9894.625
       466   10 Jun 2027 17:08:24.014   10 Jun 2027 17:10:12.001           107.987                Irkutsk         13498.375
       467   10 Jun 2027 17:10:50.581   10 Jun 2027 17:13:27.721           157.140                Novosib         19642.500
       468   10 Jun 2027 17:25:09.662   10 Jun 2027 17:25:40.308            30.646                Sumatra          3830.750
       469   10 Jun 2027 17:32:02.834   10 Jun 2027 17:32:45.651            42.817                Sumatra          5352.125
       470   10 Jun 2027 18:47:20.507   10 Jun 2027 18:48:52.412            91.905                Novosib         11488.125
       471   10 Jun 2027 18:51:46.038   10 Jun 2027 18:54:01.960           135.922                  Delhi         16990.250
       472   10 Jun 2027 20:22:56.847   10 Jun 2027 20:26:52.646           235.799                 Moscow         29474.875
       473   10 Jun 2027 22:21:46.008   10 Jun 2027 22:22:29.067            43.059               CapeTown          5237.875
       474   11 Jun 2027 04:18:31.354   11 Jun 2027 04:19:44.934            73.580                Novosib          9197.500
       475   11 Jun 2027 04:19:56.022   11 Jun 2027 04:21:38.635           102.613              Murmansk2         12826.625
       476   11 Jun 2027 05:28:03.095   11 Jun 2027 05:30:37.758           154.663                Sumatra         19332.875
       477   11 Jun 2027 05:38:30.890   11 Jun 2027 05:41:27.856           176.966                  Delhi         22120.750
       478   11 Jun 2027 05:54:30.318   11 Jun 2027 05:56:19.806           109.488                 Moscow         13686.000
       479   11 Jun 2027 05:56:31.586   11 Jun 2027 05:59:26.170           174.584                Norilsk         21823.000
       480   11 Jun 2027 05:59:47.636   11 Jun 2027 06:01:37.526           109.890              Murmansk1         13736.250
       481   11 Jun 2027 06:35:47.404   11 Jun 2027 06:36:07.386            19.982            RioGallegos          2497.750
       482   11 Jun 2027 06:36:36.298   11 Jun 2027 06:37:56.067            79.769            RioGallegos          9971.125
