uniorb/output/strategy_4/Drop/Drop_KinoSat_110502.txt

KinoSat_110502
-------------------------
    Access    *     Start Time (UTCG)     *     Stop Time (UTCG)  *   Duration (s)        *       Station  *  Data (Mbytes)
         1   01 Jun 2027 04:16:34.983   01 Jun 2027 04:17:48.430            73.447               Magadan1          9180.875
         2   01 Jun 2027 04:17:56.904   01 Jun 2027 04:19:03.383            66.479               Magadan2          8309.875
         3   01 Jun 2027 04:19:12.594   01 Jun 2027 04:19:39.658            27.064               Magadan2          3383.000
         4   01 Jun 2027 04:20:03.572   01 Jun 2027 04:20:18.386            14.814               Magadan2          1851.750
         5   01 Jun 2027 04:20:29.085   01 Jun 2027 04:22:07.181            98.096                Anadyr1         12262.000
         6   01 Jun 2027 04:22:16.414   01 Jun 2027 04:22:20.927             4.513                Anadyr1           564.125
         7   01 Jun 2027 04:22:37.746   01 Jun 2027 04:23:19.896            42.150               Magadan2          5268.750
         8   01 Jun 2027 04:58:21.215   01 Jun 2027 04:58:41.239            20.024            RioGallegos          2503.000
         9   01 Jun 2027 05:35:13.745   01 Jun 2027 05:35:37.104            23.359                Sumatra          2919.875
        10   01 Jun 2027 05:40:17.097   01 Jun 2027 05:41:22.481            65.384                Sumatra          8173.000
        11   01 Jun 2027 05:54:16.232   01 Jun 2027 05:55:34.015            77.783                Irkutsk          9722.875
        12   01 Jun 2027 05:56:38.359   01 Jun 2027 05:57:54.489            76.130                Irkutsk          9516.250
        13   01 Jun 2027 05:58:11.129   01 Jun 2027 05:58:43.930            32.801              Murmansk2          4100.125
        14   01 Jun 2027 05:58:51.345   01 Jun 2027 05:59:07.032            15.687                Norilsk          1960.875
        15   01 Jun 2027 05:59:15.086   01 Jun 2027 05:59:37.124            22.038                Novosib          2754.750
        16   01 Jun 2027 06:34:35.744   01 Jun 2027 06:34:53.326            17.582            RioGallegos          2197.750
        17   01 Jun 2027 07:09:00.157   01 Jun 2027 07:10:33.558            93.401                Sumatra         11675.125
        18   01 Jun 2027 07:30:25.988   01 Jun 2027 07:30:30.801             4.813                Irkutsk           601.625
        19   01 Jun 2027 07:32:00.126   01 Jun 2027 07:32:11.264            11.138              Murmansk1          1392.250
        20   01 Jun 2027 07:32:19.958   01 Jun 2027 07:33:09.772            49.814                 Moscow          6226.750
        21   01 Jun 2027 07:33:20.169   01 Jun 2027 07:33:45.466            25.297                Irkutsk          3162.125
        22   01 Jun 2027 07:34:14.224   01 Jun 2027 07:35:30.114            75.890              Murmansk1          9486.250
        23   01 Jun 2027 07:36:02.591   01 Jun 2027 07:36:50.932            48.341                Novosib          6042.625
        24   01 Jun 2027 08:53:36.355   01 Jun 2027 08:54:11.871            35.516                  Delhi          4439.500
        25   01 Jun 2027 09:08:33.134   01 Jun 2027 09:08:48.215            15.081                Novosib          1885.125
        26   01 Jun 2027 09:09:29.304   01 Jun 2027 09:10:05.038            35.734                Novosib          4466.750
        27   01 Jun 2027 09:10:30.427   01 Jun 2027 09:16:15.747           345.320                Norilsk         43165.000
        28   01 Jun 2027 09:16:30.901   01 Jun 2027 09:17:57.514            86.613              Murmansk1         10826.625
        29   01 Jun 2027 10:37:30.385   01 Jun 2027 10:41:35.971           245.586                 Moscow         30698.250
        30   01 Jun 2027 10:45:50.188   01 Jun 2027 10:50:21.885           271.697                 Moscow         33962.125
        31   01 Jun 2027 10:50:24.949   01 Jun 2027 10:51:37.702            72.753                Norilsk          9094.125
        32   01 Jun 2027 10:52:15.006   01 Jun 2027 10:53:52.876            97.870              Murmansk2         12233.750
        33   01 Jun 2027 11:51:31.349   01 Jun 2027 11:55:32.715           241.366               CapeTown         30170.750
        34   01 Jun 2027 11:56:57.704   01 Jun 2027 11:57:38.719            41.015               CapeTown          5126.875
        35   01 Jun 2027 12:31:51.458   01 Jun 2027 12:33:43.389           111.931                Anadyr2         13991.375
        36   01 Jun 2027 12:39:34.434   01 Jun 2027 12:40:46.877            72.443                Anadyr1          9055.375
        37   01 Jun 2027 14:10:32.548   01 Jun 2027 14:14:35.952           243.404               Magadan1         30425.500
        38   01 Jun 2027 14:16:10.434   01 Jun 2027 14:17:24.414            73.980               Magadan2          9247.500
        39   01 Jun 2027 16:39:15.236   01 Jun 2027 16:42:27.686           192.450            RioGallegos         24056.250
        40   01 Jun 2027 17:27:52.039   01 Jun 2027 17:31:54.003           241.964                Irkutsk         30245.500
        41   01 Jun 2027 17:32:46.225   01 Jun 2027 17:34:22.037            95.812                Irkutsk         11976.500
        42   01 Jun 2027 17:40:49.716   01 Jun 2027 17:43:46.479           176.763                Sumatra         22095.375
        43   01 Jun 2027 17:45:30.791   01 Jun 2027 17:46:19.359            48.568                Sumatra          6071.000
        44   01 Jun 2027 17:48:11.628   01 Jun 2027 17:49:30.064            78.436                Sumatra          9804.500
        45   01 Jun 2027 19:11:04.578   01 Jun 2027 19:12:48.667           104.089                  Delhi          4014.626
        46   02 Jun 2027 04:35:03.967   02 Jun 2027 04:35:08.055             4.088                Irkutsk           511.000
        47   02 Jun 2027 04:35:17.283   02 Jun 2027 04:41:17.903           360.620              Murmansk1         45077.500
        48   02 Jun 2027 05:46:29.405   02 Jun 2027 05:49:40.825           191.420                Sumatra         23927.500
        49   02 Jun 2027 06:10:26.260   02 Jun 2027 06:10:55.081            28.821                Novosib          3602.625
        50   02 Jun 2027 06:11:17.407   02 Jun 2027 06:12:28.214            70.807                Norilsk          8850.875
        51   02 Jun 2027 06:12:31.346   02 Jun 2027 06:12:48.462            17.116                Novosib          2139.500
        52   02 Jun 2027 06:13:00.780   02 Jun 2027 06:16:00.954           180.174              Murmansk2         22521.750
        53   02 Jun 2027 06:16:01.570   02 Jun 2027 06:16:21.006            19.436                Norilsk          2429.500
        54   02 Jun 2027 06:17:44.336   02 Jun 2027 06:19:06.990            82.654              Murmansk1         10331.750
        55   02 Jun 2027 06:52:49.294   02 Jun 2027 06:58:27.714           338.420            RioGallegos         42302.500
        56   02 Jun 2027 07:21:13.821   02 Jun 2027 07:31:04.346           590.525                Sumatra         73815.625
        57   02 Jun 2027 07:46:34.501   02 Jun 2027 07:48:51.074           136.573                Novosib         17071.625
        58   02 Jun 2027 07:48:54.467   02 Jun 2027 07:52:19.939           205.472                Norilsk         25684.000
        59   02 Jun 2027 07:53:37.377   02 Jun 2027 07:54:16.393            39.016              Murmansk1          4877.000
        60   02 Jun 2027 09:10:18.246   02 Jun 2027 09:17:00.026           401.780                  Delhi         50222.500
        61   02 Jun 2027 09:17:49.829   02 Jun 2027 09:18:15.081            25.252                Novosib          3156.500
        62   02 Jun 2027 09:23:29.335   02 Jun 2027 09:28:16.251           286.916                Norilsk         35864.500
        63   02 Jun 2027 09:28:21.113   02 Jun 2027 09:29:58.185            97.072              Murmansk1         12134.000
        64   02 Jun 2027 10:52:47.319   02 Jun 2027 10:54:41.265           113.946                 Moscow         14243.250
        65   02 Jun 2027 10:55:54.527   02 Jun 2027 10:56:45.580            51.053              Murmansk2          6381.625
        66   02 Jun 2027 10:57:11.139   02 Jun 2027 11:05:54.537           523.398              Murmansk1         65424.750
        67   02 Jun 2027 11:09:43.297   02 Jun 2027 11:13:07.347           204.050                Anadyr1         25506.250
        68   02 Jun 2027 12:05:44.781   02 Jun 2027 12:12:27.405           402.624               CapeTown         50328.000
        69   02 Jun 2027 12:44:33.942   02 Jun 2027 12:44:51.555            17.613                Anadyr2          2201.625
        70   02 Jun 2027 14:22:23.152   02 Jun 2027 14:27:51.189           328.037               Magadan1         41004.625
        71   02 Jun 2027 14:31:01.342   02 Jun 2027 14:31:01.376             0.034               Magadan2             4.250
        72   02 Jun 2027 16:50:44.053   02 Jun 2027 16:54:17.132           213.079            RioGallegos         26634.875
        73   02 Jun 2027 16:55:34.555   02 Jun 2027 16:56:52.304            77.749            RioGallegos          9718.625
        74   02 Jun 2027 17:41:17.532   02 Jun 2027 17:44:44.320           206.788                Irkutsk         25848.500
        75   02 Jun 2027 17:55:28.887   02 Jun 2027 17:58:36.389           187.502                Sumatra         23437.750
        76   02 Jun 2027 19:22:15.158   02 Jun 2027 19:25:20.637           185.479                  Delhi         23184.875
        77   02 Jun 2027 19:30:26.009   02 Jun 2027 19:31:08.815            42.806                  Delhi          5350.750
        78   02 Jun 2027 20:49:17.720   02 Jun 2027 20:49:53.041            35.321              Murmansk1          4415.125
        79   02 Jun 2027 20:51:23.874   02 Jun 2027 20:51:46.514            22.640              Murmansk1          2830.000
        80   02 Jun 2027 22:56:34.073   02 Jun 2027 22:57:39.137            65.064               CapeTown          8133.000
        81   02 Jun 2027 22:58:06.075   02 Jun 2027 22:59:17.634            71.559               CapeTown          8944.875
        82   03 Jun 2027 04:47:24.805   03 Jun 2027 04:47:38.291            13.486                Norilsk          1685.750
        83   03 Jun 2027 04:50:52.715   03 Jun 2027 04:52:09.093            76.378              Murmansk2          9547.250
        84   03 Jun 2027 04:52:19.180   03 Jun 2027 04:52:32.816            13.636                Norilsk          1704.500
        85   03 Jun 2027 04:54:08.488   03 Jun 2027 04:56:29.780           141.292              Murmansk1         17661.500
        86   03 Jun 2027 05:29:52.260   03 Jun 2027 05:34:58.727           306.467            RioGallegos         38308.375
        87   03 Jun 2027 06:08:55.720   03 Jun 2027 06:09:11.462            15.742                Sumatra          1967.750
        88   03 Jun 2027 06:10:32.551   03 Jun 2027 06:12:01.392            88.841                Irkutsk         11105.125
        89   03 Jun 2027 06:12:53.778   03 Jun 2027 06:18:05.519           311.741                Irkutsk         38967.625
        90   03 Jun 2027 06:23:19.091   03 Jun 2027 06:24:43.495            84.404                Norilsk         10550.500
        91   03 Jun 2027 06:24:59.557   03 Jun 2027 06:26:36.698            97.141              Murmansk1         12142.625
        92   03 Jun 2027 06:26:36.698   03 Jun 2027 06:28:00.323            83.625              Murmansk2         10453.125
        93   03 Jun 2027 06:28:02.727   03 Jun 2027 06:28:22.338            19.611                Norilsk          2451.375
        94   03 Jun 2027 06:29:44.574   03 Jun 2027 06:31:00.085            75.511              Murmansk1          9438.875
        95   03 Jun 2027 07:04:29.712   03 Jun 2027 07:10:18.624           348.912            RioGallegos         43614.000
        96   03 Jun 2027 07:37:23.887   03 Jun 2027 07:44:36.342           432.455                Sumatra         54056.875
        97   03 Jun 2027 07:50:33.793   03 Jun 2027 07:52:46.801           133.008                Irkutsk         16626.000
        98   03 Jun 2027 07:59:18.934   03 Jun 2027 08:04:21.801           302.867                Norilsk         37858.375
        99   03 Jun 2027 08:05:38.609   03 Jun 2027 08:06:14.577            35.968              Murmansk2          4496.000
       100   03 Jun 2027 09:21:00.025   03 Jun 2027 09:28:34.069           454.044                  Delhi         56755.500
       101   03 Jun 2027 09:28:48.223   03 Jun 2027 09:30:45.861           117.638                Novosib         14704.750
       102   03 Jun 2027 09:34:52.296   03 Jun 2027 09:38:25.981           213.685                 Moscow         26710.625
       103   03 Jun 2027 09:38:28.481   03 Jun 2027 09:40:16.278           107.797                Norilsk         13474.625
       104   03 Jun 2027 09:40:46.550   03 Jun 2027 09:41:59.075            72.525              Murmansk1          9065.625
       105   03 Jun 2027 11:03:41.835   03 Jun 2027 11:03:55.667            13.832                 Moscow          1729.000
       106   03 Jun 2027 11:07:55.558   03 Jun 2027 11:17:56.197           600.639              Murmansk1         75079.875
       107   03 Jun 2027 11:21:06.785   03 Jun 2027 11:23:32.922           146.137                Anadyr1         18267.125
       108   03 Jun 2027 11:23:32.922   03 Jun 2027 11:24:24.796            51.874                Anadyr2          6484.250
       109   03 Jun 2027 14:34:16.080   03 Jun 2027 14:36:50.246           154.166               Magadan1         19270.750
       110   03 Jun 2027 17:03:44.710   03 Jun 2027 17:08:50.235           305.525            RioGallegos         38190.625
       111   03 Jun 2027 17:47:31.910   03 Jun 2027 17:48:11.887            39.977                Norilsk          4997.125
       112   03 Jun 2027 18:09:01.342   03 Jun 2027 18:10:27.021            85.679                Sumatra         10709.875
       113   03 Jun 2027 19:35:14.293   03 Jun 2027 19:40:52.816           338.523                  Delhi         42315.375
       114   03 Jun 2027 21:00:24.379   03 Jun 2027 21:00:51.512            27.133              Murmansk1          3391.625
       115   03 Jun 2027 21:01:11.566   03 Jun 2027 21:04:04.987           173.421              Murmansk2         21677.625
       116   03 Jun 2027 21:04:22.415   03 Jun 2027 21:04:45.047            22.632              Murmansk1          2829.000
       117   03 Jun 2027 21:05:56.824   03 Jun 2027 21:07:07.912            71.088                 Moscow          8886.000
       118   03 Jun 2027 23:09:19.382   03 Jun 2027 23:10:23.859            64.477               CapeTown          8059.625
       119   04 Jun 2027 05:00:06.099   04 Jun 2027 05:00:28.003            21.904                Novosib          2738.000
       120   04 Jun 2027 05:02:42.641   04 Jun 2027 05:04:37.588           114.947              Murmansk2         14368.375
       121   04 Jun 2027 05:06:05.743   04 Jun 2027 05:08:18.136           132.393              Murmansk1         16549.125
       122   04 Jun 2027 05:41:50.694   04 Jun 2027 05:46:59.898           309.204            RioGallegos         38650.500
       123   04 Jun 2027 06:20:36.533   04 Jun 2027 06:21:30.458            53.925                Sumatra          6740.625
       124   04 Jun 2027 06:24:15.040   04 Jun 2027 06:29:46.766           331.726                Irkutsk         41465.750
       125   04 Jun 2027 06:35:20.868   04 Jun 2027 06:40:23.823           302.955                Norilsk         37869.375
       126   04 Jun 2027 06:41:45.086   04 Jun 2027 06:42:53.918            68.832              Murmansk2          8604.000
       127   04 Jun 2027 07:16:02.227   04 Jun 2027 07:22:06.547           364.320            RioGallegos         45540.000
       128   04 Jun 2027 07:47:35.960   04 Jun 2027 07:56:01.816           505.856                Sumatra         63232.000
       129   04 Jun 2027 08:00:16.926   04 Jun 2027 08:01:01.802            44.876                Novosib          5609.500
       130   04 Jun 2027 08:01:10.691   04 Jun 2027 08:02:55.886           105.195                  Delhi         13149.375
       131   04 Jun 2027 08:11:00.797   04 Jun 2027 08:16:23.611           322.814                Norilsk         40351.750
       132   04 Jun 2027 08:17:39.357   04 Jun 2027 08:18:13.224            33.867              Murmansk2          4233.375
       133   04 Jun 2027 09:31:21.900   04 Jun 2027 09:39:57.726           515.826                  Delhi         64478.250
       134   04 Jun 2027 09:40:11.753   04 Jun 2027 09:42:32.296           140.543                Novosib         17567.875
       135   04 Jun 2027 09:47:44.245   04 Jun 2027 09:52:15.683           271.438                Norilsk         33929.750
       136   04 Jun 2027 09:52:42.349   04 Jun 2027 09:54:00.162            77.813              Murmansk1          9726.625
       137   04 Jun 2027 11:15:28.953   04 Jun 2027 11:15:37.080             8.127                 Moscow          1015.875
       138   04 Jun 2027 11:20:21.990   04 Jun 2027 11:21:13.692            51.702              Murmansk2          6462.750
       139   04 Jun 2027 11:21:37.668   04 Jun 2027 11:26:17.881           280.213                 Moscow         35026.625
       140   04 Jun 2027 11:26:34.709   04 Jun 2027 11:29:57.823           203.114              Murmansk2         25389.250
       141   04 Jun 2027 11:36:12.257   04 Jun 2027 11:39:22.906           190.649                Anadyr1         23831.125
       142   04 Jun 2027 12:34:37.704   04 Jun 2027 12:36:39.673           121.969               CapeTown         15246.125
       143   04 Jun 2027 14:46:10.774   04 Jun 2027 14:48:21.331           130.557               Magadan2         16319.625
       144   04 Jun 2027 14:51:24.591   04 Jun 2027 14:51:41.566            16.975               Magadan2          2121.875
       145   04 Jun 2027 17:17:18.785   04 Jun 2027 17:20:11.740           172.955            RioGallegos         21619.375
       146   04 Jun 2027 18:04:07.431   04 Jun 2027 18:07:51.213           223.782                Novosib         27972.750
       147   04 Jun 2027 19:49:27.348   04 Jun 2027 19:51:50.577           143.229                  Delhi         17903.625
       148   04 Jun 2027 21:13:01.984   04 Jun 2027 21:17:11.780           249.796              Murmansk2         31224.500
       149   04 Jun 2027 21:17:37.672   04 Jun 2027 21:22:34.444           296.772                 Moscow         37096.500
       150   05 Jun 2027 05:11:47.790   05 Jun 2027 05:12:35.550            47.760                Novosib          5970.000
       151   05 Jun 2027 05:13:29.336   05 Jun 2027 05:14:20.376            51.040              Murmansk2          6380.000
       152   05 Jun 2027 05:14:33.259   05 Jun 2027 05:16:25.042           111.783              Murmansk1         13972.875
       153   05 Jun 2027 05:18:03.544   05 Jun 2027 05:20:07.023           123.479              Murmansk2         15434.875
       154   05 Jun 2027 05:53:47.860   05 Jun 2027 05:59:00.116           312.256            RioGallegos         39032.000
       155   05 Jun 2027 06:28:39.078   05 Jun 2027 06:33:42.595           303.517                Sumatra         37939.625
       156   05 Jun 2027 06:35:52.973   05 Jun 2027 06:41:31.116           338.143                Irkutsk         42267.875
       157   05 Jun 2027 06:47:22.710   05 Jun 2027 06:52:25.440           302.730                Norilsk         37841.250
       158   05 Jun 2027 06:53:45.856   05 Jun 2027 06:54:48.479            62.623              Murmansk1          7827.875
       159   05 Jun 2027 07:27:19.830   05 Jun 2027 07:33:50.443           390.613            RioGallegos         48826.625
       160   05 Jun 2027 07:58:47.212   05 Jun 2027 08:07:13.691           506.479                Sumatra         63309.875
       161   05 Jun 2027 08:12:30.012   05 Jun 2027 08:12:57.973            27.961                Novosib          3495.125
       162   05 Jun 2027 08:13:24.082   05 Jun 2027 08:18:02.398           278.316                  Delhi         34789.500
       163   05 Jun 2027 08:18:12.416   05 Jun 2027 08:19:13.830            61.414                Irkutsk          7676.750
       164   05 Jun 2027 08:22:56.632   05 Jun 2027 08:23:38.971            42.339                 Moscow          5292.375
       165   05 Jun 2027 08:23:59.119   05 Jun 2027 08:28:25.326           266.207                Norilsk         33275.875
       166   05 Jun 2027 08:29:40.321   05 Jun 2027 08:30:12.298            31.977              Murmansk2          3997.125
       167   05 Jun 2027 09:44:28.180   05 Jun 2027 09:51:03.397           395.217                  Delhi         49402.125
       168   05 Jun 2027 09:58:46.547   05 Jun 2027 09:59:14.182            27.635                 Moscow          3454.375
       169   05 Jun 2027 10:00:33.886   05 Jun 2027 10:04:14.277           220.391                Norilsk         27548.875
       170   05 Jun 2027 10:04:32.390   05 Jun 2027 10:06:01.412            89.022              Murmansk1         11127.750
       171   05 Jun 2027 11:28:42.756   05 Jun 2027 11:29:09.397            26.641                 Moscow          3330.125
       172   05 Jun 2027 11:32:23.605   05 Jun 2027 11:33:01.053            37.448              Murmansk2          4681.000
       173   05 Jun 2027 11:33:50.536   05 Jun 2027 11:38:14.473           263.937                 Moscow         32992.125
       174   05 Jun 2027 11:38:32.058   05 Jun 2027 11:41:59.380           207.322              Murmansk2         25915.250
       175   05 Jun 2027 11:50:52.991   05 Jun 2027 11:52:12.153            79.162                Anadyr1          9895.250
       176   05 Jun 2027 12:46:26.076   05 Jun 2027 12:51:53.405           327.329               CapeTown         40916.125
       177   05 Jun 2027 13:07:41.879   05 Jun 2027 13:11:30.140           228.261                 Moscow         28532.625
       178   05 Jun 2027 13:11:54.801   05 Jun 2027 13:17:48.814           354.013              Murmansk2         44251.625
       179   05 Jun 2027 13:24:23.990   05 Jun 2027 13:28:24.484           240.494               Magadan2         30061.750
       180   05 Jun 2027 18:15:14.038   05 Jun 2027 18:21:18.798           364.760                Novosib         45595.000
       181   05 Jun 2027 20:02:35.612   05 Jun 2027 20:03:10.454            34.842                  Delhi          4355.250
       182   05 Jun 2027 21:24:46.295   05 Jun 2027 21:29:04.164           257.869              Murmansk2         32233.625
       183   05 Jun 2027 21:29:23.967   05 Jun 2027 21:30:52.342            88.375              Murmansk1         11046.875
       184   05 Jun 2027 21:31:05.898   05 Jun 2027 21:34:16.883           190.985                 Moscow         23873.125
       185   06 Jun 2027 03:45:51.647   06 Jun 2027 03:47:41.574           109.927               Magadan1         13740.875
       186   06 Jun 2027 03:47:41.952   06 Jun 2027 03:48:23.096            41.144              Murmansk2          5143.000
       187   06 Jun 2027 03:48:32.353   06 Jun 2027 03:51:17.092           164.739                Norilsk         20592.375
       188   06 Jun 2027 05:24:03.709   06 Jun 2027 05:24:44.853            41.144                Norilsk          5143.000
       189   06 Jun 2027 05:25:25.425   06 Jun 2027 05:26:14.638            49.213              Murmansk2          6151.625
       190   06 Jun 2027 05:26:24.603   06 Jun 2027 05:28:12.825           108.222              Murmansk1         13527.750
       191   06 Jun 2027 05:30:01.851   06 Jun 2027 05:31:56.525           114.674              Murmansk2         14334.250
       192   06 Jun 2027 06:05:43.540   06 Jun 2027 06:10:59.279           315.739            RioGallegos         39467.375
       193   06 Jun 2027 06:40:30.237   06 Jun 2027 06:45:48.701           318.464                Sumatra         39808.000
       194   06 Jun 2027 06:48:24.098   06 Jun 2027 06:53:11.417           287.319                Irkutsk         35914.875
       195   06 Jun 2027 06:59:06.475   06 Jun 2027 07:04:27.155           320.680                Norilsk         40085.000
       196   06 Jun 2027 07:05:46.838   06 Jun 2027 07:06:43.730            56.892              Murmansk2          7111.500
       197   06 Jun 2027 07:37:39.304   06 Jun 2027 07:45:28.484           469.180            RioGallegos         58647.500
       198   06 Jun 2027 08:11:52.885   06 Jun 2027 08:18:01.704           368.819                Sumatra         46102.375
       199   06 Jun 2027 08:24:31.151   06 Jun 2027 08:30:00.756           329.605                  Delhi         41200.625
       200   06 Jun 2027 08:30:02.197   06 Jun 2027 08:31:21.805            79.608                Irkutsk          9951.000
       201   06 Jun 2027 08:34:59.017   06 Jun 2027 08:36:42.826           103.809                Novosib         12976.125
       202   06 Jun 2027 08:36:47.432   06 Jun 2027 08:40:26.909           219.477                Norilsk         27434.625
       203   06 Jun 2027 08:41:41.472   06 Jun 2027 08:42:11.764            30.292              Murmansk2          3786.500
       204   06 Jun 2027 09:58:30.124   06 Jun 2027 10:01:15.382           165.258                  Delhi         20657.250
       205   06 Jun 2027 10:12:07.353   06 Jun 2027 10:16:11.800           244.447                Norilsk         30555.875
       206   06 Jun 2027 10:16:35.842   06 Jun 2027 10:18:02.801            86.959              Murmansk2         10869.875
       207   06 Jun 2027 11:40:39.093   06 Jun 2027 11:41:47.420            68.327                 Moscow          8540.875
       208   06 Jun 2027 11:44:25.144   06 Jun 2027 11:44:48.972            23.828              Murmansk2          2978.500
       209   06 Jun 2027 11:46:00.300   06 Jun 2027 11:50:09.701           249.401                 Moscow         31175.125
       210   06 Jun 2027 11:50:25.567   06 Jun 2027 11:54:00.835           215.268              Murmansk1         26908.500
       211   06 Jun 2027 11:56:22.200   06 Jun 2027 12:04:54.882           512.682                Anadyr1         64085.250
       212   06 Jun 2027 12:58:09.182   06 Jun 2027 13:03:49.982           340.800               CapeTown         42600.000
       213   06 Jun 2027 13:20:48.300   06 Jun 2027 13:29:46.952           538.652              Murmansk2         67331.500
       214   06 Jun 2027 13:31:45.158   06 Jun 2027 13:35:08.808           203.650                Anadyr1         25456.250
       215   06 Jun 2027 13:35:41.970   06 Jun 2027 13:38:22.213           160.243               Magadan2         20030.375
       216   06 Jun 2027 13:38:49.611   06 Jun 2027 13:41:12.441           142.830               Magadan1         17853.750
       217   06 Jun 2027 16:51:58.793   06 Jun 2027 16:56:47.507           288.714                Irkutsk         36089.250
       218   06 Jun 2027 18:26:43.375   06 Jun 2027 18:34:20.580           457.205                Novosib         57150.625
       219   06 Jun 2027 21:36:15.601   06 Jun 2027 21:37:18.502            62.901              Murmansk1          7862.625
       220   06 Jun 2027 21:38:57.228   06 Jun 2027 21:40:59.017           121.789              Murmansk1         15223.625
       221   06 Jun 2027 21:41:03.356   06 Jun 2027 21:45:00.763           237.407                 Moscow         29675.875
       222   06 Jun 2027 21:48:02.207   06 Jun 2027 21:48:31.123            28.916                 Moscow          3614.500
       223   06 Jun 2027 22:08:24.503   06 Jun 2027 22:09:11.662            47.159               CapeTown          2306.124
       224   07 Jun 2027 03:58:20.377   07 Jun 2027 03:59:08.045            47.668                Anadyr2          5958.500
       225   07 Jun 2027 03:59:10.442   07 Jun 2027 03:59:15.320             4.878                Anadyr1           609.750
       226   07 Jun 2027 03:59:19.641   07 Jun 2027 03:59:40.094            20.453               Magadan1          2556.625
       227   07 Jun 2027 03:59:41.245   07 Jun 2027 04:03:51.522           250.277                Norilsk         31284.625
       228   07 Jun 2027 05:14:31.726   07 Jun 2027 05:14:55.262            23.536                Sumatra          2942.000
       229   07 Jun 2027 05:15:39.304   07 Jun 2027 05:16:28.880            49.576                Sumatra          6197.000
       230   07 Jun 2027 05:35:56.185   07 Jun 2027 05:36:49.076            52.891                Norilsk          6611.375
       231   07 Jun 2027 05:37:22.131   07 Jun 2027 05:38:07.783            45.652              Murmansk1          5706.500
       232   07 Jun 2027 05:38:16.692   07 Jun 2027 05:40:16.406           119.714              Murmansk2         14964.250
       233   07 Jun 2027 05:42:00.615   07 Jun 2027 05:43:46.689           106.074              Murmansk1         13259.250
       234   07 Jun 2027 06:17:37.469   07 Jun 2027 06:22:57.280           319.811            RioGallegos         39976.375
       235   07 Jun 2027 06:52:15.191   07 Jun 2027 06:57:49.168           333.977                Sumatra         41747.125
       236   07 Jun 2027 07:00:13.100   07 Jun 2027 07:01:45.997            92.897                Novosib         11612.125
       237   07 Jun 2027 07:02:48.316   07 Jun 2027 07:05:07.781           139.465                Irkutsk         17433.125
       238   07 Jun 2027 07:11:01.218   07 Jun 2027 07:13:03.330           122.112                Novosib         15264.000
       239   07 Jun 2027 07:13:04.583   07 Jun 2027 07:16:31.066           206.483              Murmansk1         25810.375
       240   07 Jun 2027 07:17:48.017   07 Jun 2027 07:18:39.642            51.625              Murmansk2          6453.125
       241   07 Jun 2027 07:50:16.551   07 Jun 2027 07:56:56.919           400.368            RioGallegos         50046.000
       242   07 Jun 2027 08:36:14.372   07 Jun 2027 08:41:55.628           341.256                  Delhi         42657.000
       243   07 Jun 2027 08:42:52.670   07 Jun 2027 08:43:29.992            37.322                Norilsk          4665.250
       244   07 Jun 2027 08:47:11.312   07 Jun 2027 08:47:34.864            23.552                 Moscow          2944.000
       245   07 Jun 2027 08:48:02.824   07 Jun 2027 08:52:28.316           265.492                Norilsk         33186.500
       246   07 Jun 2027 08:53:42.774   07 Jun 2027 08:54:11.582            28.808              Murmansk2          3601.000
       247   07 Jun 2027 10:16:22.971   07 Jun 2027 10:16:29.080             6.109                 Moscow           763.625
       248   07 Jun 2027 10:22:35.715   07 Jun 2027 10:28:07.826           332.111                Norilsk         41513.875
       249   07 Jun 2027 10:28:33.451   07 Jun 2027 10:30:04.297            90.846              Murmansk2         11355.750
       250   07 Jun 2027 11:52:34.010   07 Jun 2027 11:53:47.996            73.986                 Moscow          9248.250
       251   07 Jun 2027 11:54:08.353   07 Jun 2027 11:56:36.241           147.888              Murmansk2         18486.000
       252   07 Jun 2027 11:56:36.241   07 Jun 2027 12:06:02.147           565.906              Murmansk1         70738.250
       253   07 Jun 2027 12:08:15.055   07 Jun 2027 12:17:32.519           557.464                Anadyr1         69683.000
       254   07 Jun 2027 13:06:14.158   07 Jun 2027 13:15:41.604           567.446               CapeTown         70930.750
       255   07 Jun 2027 13:33:24.163   07 Jun 2027 13:39:39.608           375.445              Murmansk1         46930.625
       256   07 Jun 2027 13:47:16.858   07 Jun 2027 13:51:01.379           224.521               Magadan2         28065.125
       257   07 Jun 2027 13:51:26.451   07 Jun 2027 13:53:24.178           117.727               Magadan1         14715.875
       258   07 Jun 2027 17:03:13.981   07 Jun 2027 17:10:11.866           417.885                Irkutsk         52235.625
       259   07 Jun 2027 17:19:18.567   07 Jun 2027 17:20:40.340            81.773                Sumatra         10221.625
       260   07 Jun 2027 17:24:21.971   07 Jun 2027 17:24:38.710            16.739                Sumatra          2092.375
       261   07 Jun 2027 18:38:53.985   07 Jun 2027 18:41:35.440           161.455                Novosib         20181.875
       262   07 Jun 2027 18:42:11.186   07 Jun 2027 18:43:35.843            84.657                Novosib         10582.125
       263   07 Jun 2027 18:44:52.976   07 Jun 2027 18:46:28.785            95.809                Novosib         11976.125
       264   07 Jun 2027 21:47:51.288   07 Jun 2027 21:49:35.244           103.956              Murmansk2         12994.500
       265   07 Jun 2027 21:51:37.260   07 Jun 2027 21:52:05.456            28.196              Murmansk2          3524.500
       266   07 Jun 2027 21:53:51.720   07 Jun 2027 21:55:37.324           105.604                 Moscow         13200.500
       267   07 Jun 2027 21:57:27.217   07 Jun 2027 21:58:25.873            58.656                 Moscow          5934.250
       268   08 Jun 2027 04:10:21.488   08 Jun 2027 04:10:52.566            31.078                Anadyr1          3884.750
       269   08 Jun 2027 04:11:43.467   08 Jun 2027 04:11:57.822            14.355                Novosib          1794.375
       270   08 Jun 2027 04:12:31.816   08 Jun 2027 04:21:21.551           529.735              Murmansk2         66216.875
       271   08 Jun 2027 04:46:46.856   08 Jun 2027 04:48:15.026            88.170            RioGallegos         11021.250
       272   08 Jun 2027 05:24:31.988   08 Jun 2027 05:25:50.417            78.429                Sumatra          9803.625
       273   08 Jun 2027 05:47:49.328   08 Jun 2027 05:48:54.822            65.494                Norilsk          8186.750
       274   08 Jun 2027 05:49:19.417   08 Jun 2027 05:50:09.536            50.119              Murmansk1          6264.875
       275   08 Jun 2027 05:50:09.536   08 Jun 2027 05:52:29.798           140.262              Murmansk2         17532.750
       276   08 Jun 2027 05:53:59.811   08 Jun 2027 05:55:37.561            97.750              Murmansk1         12218.750
       277   08 Jun 2027 06:29:29.238   08 Jun 2027 06:34:53.935           324.697            RioGallegos         40587.125
       278   08 Jun 2027 07:03:53.035   08 Jun 2027 07:09:44.048           351.013                Sumatra         43876.625
       279   08 Jun 2027 07:12:10.965   08 Jun 2027 07:13:20.824            69.859                Novosib          8732.375
       280   08 Jun 2027 07:13:37.965   08 Jun 2027 07:17:02.490           204.525                Irkutsk         25565.625
       281   08 Jun 2027 07:23:35.076   08 Jun 2027 07:24:54.752            79.676                 Moscow          9959.500
       282   08 Jun 2027 07:24:59.012   08 Jun 2027 07:28:21.551           202.539              Murmansk2         25317.375
       283   08 Jun 2027 07:29:49.349   08 Jun 2027 07:30:36.186            46.837              Murmansk1          5854.625
       284   08 Jun 2027 08:03:39.377   08 Jun 2027 08:08:04.766           265.389            RioGallegos         33173.625
       285   08 Jun 2027 08:47:51.132   08 Jun 2027 08:53:46.671           355.539                  Delhi         44442.375
       286   08 Jun 2027 08:59:07.911   08 Jun 2027 09:00:30.882            82.971                Novosib         10371.375
       287   08 Jun 2027 09:00:32.713   08 Jun 2027 09:04:29.491           236.778                Norilsk         29597.250
       288   08 Jun 2027 09:05:44.213   08 Jun 2027 09:06:11.718            27.505              Murmansk1          3438.125
       289   08 Jun 2027 10:28:18.981   08 Jun 2027 10:29:00.987            42.006                 Moscow          5250.750
       290   08 Jun 2027 10:34:12.004   08 Jun 2027 10:40:01.699           349.695                Norilsk         43711.875
       291   08 Jun 2027 10:40:31.582   08 Jun 2027 10:42:05.875            94.293              Murmansk1         11786.625
       292   08 Jun 2027 12:03:25.748   08 Jun 2027 12:13:54.666           628.918                 Moscow         78614.750
       293   08 Jun 2027 12:14:27.273   08 Jun 2027 12:18:03.262           215.989              Murmansk1         26998.625
       294   08 Jun 2027 12:22:01.891   08 Jun 2027 12:30:05.872           483.981                Anadyr2         60497.625
       295   08 Jun 2027 13:18:04.773   08 Jun 2027 13:27:28.139           563.366               CapeTown         70420.750
       296   08 Jun 2027 13:46:03.606   08 Jun 2027 13:53:39.500           455.894              Murmansk1         56986.750
       297   08 Jun 2027 13:58:59.596   08 Jun 2027 14:05:33.097           393.501               Magadan1         49187.625
       298   08 Jun 2027 16:28:20.159   08 Jun 2027 16:30:56.151           155.992            RioGallegos         19499.000
       299   08 Jun 2027 17:14:45.638   08 Jun 2027 17:18:22.834           217.196                Irkutsk         27149.500
       300   08 Jun 2027 17:19:42.162   08 Jun 2027 17:20:59.842            77.680                Irkutsk          9710.000
       301   08 Jun 2027 17:29:56.474   08 Jun 2027 17:32:16.991           140.517                Sumatra         17564.625
       302   08 Jun 2027 17:34:07.938   08 Jun 2027 17:36:19.068           131.130                Sumatra         16391.250
       303   08 Jun 2027 18:53:36.428   08 Jun 2027 18:54:05.507            29.079                Novosib          3634.875
       304   08 Jun 2027 19:00:45.063   08 Jun 2027 19:02:11.091            86.028                  Delhi         10753.500
       305   08 Jun 2027 19:02:47.965   08 Jun 2027 19:04:06.095            78.130                  Delhi          9766.250
       306   08 Jun 2027 20:25:41.735   08 Jun 2027 20:27:59.206           137.471              Murmansk2         17183.875
       307   08 Jun 2027 22:03:28.696   08 Jun 2027 22:05:20.280           111.584                 Moscow          8410.750
       308   09 Jun 2027 04:23:39.635   09 Jun 2027 04:24:12.496            32.861                Novosib          4107.625
       309   09 Jun 2027 04:24:37.529   09 Jun 2027 04:33:01.086           503.557              Murmansk2         62944.625
       310   09 Jun 2027 05:35:27.736   09 Jun 2027 05:38:08.135           160.399                Sumatra         20049.875
       311   09 Jun 2027 05:59:30.491   09 Jun 2027 06:01:02.158            91.667                Norilsk         11458.375
       312   09 Jun 2027 06:01:17.247   09 Jun 2027 06:02:30.158            72.911              Murmansk1          9113.875
       313   09 Jun 2027 06:02:30.158   09 Jun 2027 06:04:27.765           117.607              Murmansk2         14700.875
       314   09 Jun 2027 06:05:59.387   09 Jun 2027 06:07:29.167            89.780              Murmansk1         11222.500
       315   09 Jun 2027 06:41:18.288   09 Jun 2027 06:46:49.023           330.735            RioGallegos         41341.875
       316   09 Jun 2027 07:15:22.110   09 Jun 2027 07:21:33.075           370.965                Sumatra         46370.625
       317   09 Jun 2027 07:25:00.319   09 Jun 2027 07:29:29.366           269.047                Novosib         33630.875
       318   09 Jun 2027 07:34:00.476   09 Jun 2027 07:34:42.670            42.194                Irkutsk          5274.250
       319   09 Jun 2027 07:35:22.961   09 Jun 2027 07:37:05.556           102.595                Novosib         12824.375
       320   09 Jun 2027 07:37:12.877   09 Jun 2027 07:40:32.695           199.818                Norilsk         24977.250
       321   09 Jun 2027 07:41:50.819   09 Jun 2027 07:42:33.312            42.493              Murmansk1          5311.625
       322   09 Jun 2027 08:59:18.886   09 Jun 2027 09:05:33.255           374.369                  Delhi         46796.125
       323   09 Jun 2027 09:05:38.306   09 Jun 2027 09:06:25.726            47.420                Novosib          5927.500
       324   09 Jun 2027 09:11:03.103   09 Jun 2027 09:11:23.233            20.130              Murmansk2          2516.250
       325   09 Jun 2027 09:11:25.905   09 Jun 2027 09:12:21.790            55.885                Novosib          6985.625
       326   09 Jun 2027 09:12:46.646   09 Jun 2027 09:16:30.367           223.721                Norilsk         27965.125
       327   09 Jun 2027 09:16:45.471   09 Jun 2027 09:18:12.135            86.664              Murmansk2         10833.000
       328   09 Jun 2027 10:40:13.495   09 Jun 2027 10:42:57.168           163.673                 Moscow         20459.125
       329   09 Jun 2027 10:46:04.390   09 Jun 2027 10:50:36.502           272.112                 Moscow         34014.000
       330   09 Jun 2027 10:50:40.190   09 Jun 2027 10:51:52.172            71.982                Norilsk          8997.750
       331   09 Jun 2027 10:52:30.190   09 Jun 2027 10:54:07.510            97.320              Murmansk2         12165.000
       332   09 Jun 2027 12:03:19.590   09 Jun 2027 12:03:30.056            10.466               CapeTown          1308.250
       333   09 Jun 2027 12:16:18.090   09 Jun 2027 12:25:43.310           565.220                 Moscow         70652.500
       334   09 Jun 2027 12:26:21.976   09 Jun 2027 12:30:04.126           222.150              Murmansk2         27768.750
       335   09 Jun 2027 12:32:06.040   09 Jun 2027 12:39:49.984           463.944                Anadyr2         57993.000
       336   09 Jun 2027 12:39:49.984   09 Jun 2027 12:41:01.594            71.610                Anadyr1          8951.250
       337   09 Jun 2027 14:10:47.040   09 Jun 2027 14:16:25.391           338.351               Magadan1         42293.875
       338   09 Jun 2027 16:39:29.403   09 Jun 2027 16:42:42.173           192.770            RioGallegos         24096.250
       339   09 Jun 2027 17:28:08.048   09 Jun 2027 17:30:15.486           127.438                Irkutsk         15929.750
       340   09 Jun 2027 17:32:08.950   09 Jun 2027 17:32:46.745            37.795                Irkutsk          4724.375
       341   09 Jun 2027 17:41:03.803   09 Jun 2027 17:44:25.425           201.622                Sumatra         25202.750
       342   09 Jun 2027 17:45:45.162   09 Jun 2027 17:48:26.450           161.288                Sumatra         20161.000
       343   09 Jun 2027 19:05:44.557   09 Jun 2027 19:06:01.362            16.805                Novosib          2100.625
       344   09 Jun 2027 19:11:18.465   09 Jun 2027 19:13:03.626           105.161                  Delhi         13145.125
       345   09 Jun 2027 19:15:58.907   09 Jun 2027 19:17:50.274           111.367                  Delhi         13920.875
       346   09 Jun 2027 20:37:55.239   09 Jun 2027 20:39:02.365            67.126              Murmansk2          8390.750
       347   09 Jun 2027 22:15:19.576   09 Jun 2027 22:17:09.155           109.579                 Moscow         10449.750
       348   10 Jun 2027 04:35:30.464   10 Jun 2027 04:36:24.266            53.802                Novosib          6725.250
       349   10 Jun 2027 04:36:31.441   10 Jun 2027 04:42:10.981           339.540              Murmansk1         42442.500
       350   10 Jun 2027 05:46:43.576   10 Jun 2027 05:49:55.343           191.767                Sumatra         23970.875
       351   10 Jun 2027 06:11:32.063   10 Jun 2027 06:13:11.255            99.192                Norilsk         12399.000
       352   10 Jun 2027 06:13:15.573   10 Jun 2027 06:16:15.496           179.923              Murmansk1         22490.375
       353   10 Jun 2027 06:16:16.596   10 Jun 2027 06:16:35.639            19.043                Norilsk          2380.375
       354   10 Jun 2027 06:17:59.315   10 Jun 2027 06:19:21.523            82.208              Murmansk2         10276.000
       355   10 Jun 2027 06:53:03.725   10 Jun 2027 06:58:42.235           338.510            RioGallegos         42313.750
       356   10 Jun 2027 07:26:39.324   10 Jun 2027 07:33:15.634           396.310                Sumatra         49538.750
       357   10 Jun 2027 07:36:15.267   10 Jun 2027 07:41:18.868           303.601                Novosib         37950.125
       358   10 Jun 2027 07:46:49.931   10 Jun 2027 07:49:05.688           135.757                Novosib         16969.625
       359   10 Jun 2027 07:49:10.341   10 Jun 2027 07:52:34.580           204.239                Norilsk         25529.875
       360   10 Jun 2027 07:53:52.396   10 Jun 2027 07:54:30.988            38.592              Murmansk2          4824.000
       361   10 Jun 2027 09:10:32.169   10 Jun 2027 09:17:14.377           402.208                  Delhi         50276.000
       362   10 Jun 2027 09:18:04.032   10 Jun 2027 09:18:30.025            25.993                Novosib          3249.125
       363   10 Jun 2027 09:23:45.834   10 Jun 2027 09:28:30.868           285.034                Norilsk         35629.250
       364   10 Jun 2027 09:28:35.691   10 Jun 2027 09:30:12.813            97.122              Murmansk2         12140.250
       365   10 Jun 2027 10:53:01.933   10 Jun 2027 10:54:55.910           113.977                 Moscow         14247.125
       366   10 Jun 2027 10:56:09.256   10 Jun 2027 10:57:01.175            51.919              Murmansk2          6489.875
       367   10 Jun 2027 10:57:22.987   10 Jun 2027 11:02:36.036           313.049                 Moscow         39131.125
       368   10 Jun 2027 11:02:37.270   10 Jun 2027 11:03:36.439            59.169                Norilsk          7396.125
       369   10 Jun 2027 11:03:40.423   10 Jun 2027 11:06:09.174           148.751              Murmansk1         18593.875
       370   10 Jun 2027 11:09:57.301   10 Jun 2027 11:13:23.079           205.778                Anadyr1         25722.250
       371   10 Jun 2027 12:05:59.637   10 Jun 2027 12:12:42.283           402.646               CapeTown         50330.750
       372   10 Jun 2027 14:22:37.676   10 Jun 2027 14:26:17.812           220.136               Magadan1         27517.000
       373   10 Jun 2027 14:26:23.423   10 Jun 2027 14:28:08.682           105.259               Magadan2         13157.375
       374   10 Jun 2027 14:31:16.081   10 Jun 2027 14:32:06.428            50.347               Magadan2          6293.375
       375   10 Jun 2027 16:50:58.370   10 Jun 2027 16:54:31.656           213.286            RioGallegos         26660.750
       376   10 Jun 2027 16:55:49.571   10 Jun 2027 16:57:07.174            77.603            RioGallegos          9700.375
       377   10 Jun 2027 17:41:33.039   10 Jun 2027 17:44:12.178           159.139                Irkutsk         19892.375
       378   10 Jun 2027 17:55:45.296   10 Jun 2027 17:59:44.745           239.449                Sumatra         29931.125
       379   10 Jun 2027 19:22:29.300   10 Jun 2027 19:25:12.974           163.674                  Delhi         20459.250
       380   10 Jun 2027 20:48:08.059   10 Jun 2027 20:49:35.103            87.044              Murmansk2         10880.500
       381   10 Jun 2027 20:51:38.953   10 Jun 2027 20:52:01.353            22.400              Murmansk2          2800.000
       382   10 Jun 2027 22:56:49.452   10 Jun 2027 22:58:20.818            91.366               CapeTown         11420.750
       383   11 Jun 2027 04:47:39.447   11 Jun 2027 04:47:54.762            15.315                Norilsk          1914.375
       384   11 Jun 2027 04:51:07.223   11 Jun 2027 04:52:23.833            76.610              Murmansk1          9576.250
       385   11 Jun 2027 04:52:35.488   11 Jun 2027 04:52:47.426            11.938                Norilsk          1492.250
       386   11 Jun 2027 04:54:23.397   11 Jun 2027 04:56:44.258           140.861              Murmansk2         17607.625
       387   11 Jun 2027 05:30:06.887   11 Jun 2027 05:35:13.364           306.477            RioGallegos         38309.625
       388   11 Jun 2027 06:09:10.206   11 Jun 2027 06:09:26.354            16.148                Sumatra          2018.500
       389   11 Jun 2027 06:10:47.213   11 Jun 2027 06:12:15.909            88.696                Irkutsk         11087.000
       390   11 Jun 2027 06:13:07.868   11 Jun 2027 06:18:19.996           312.128                Irkutsk         39016.000
       391   11 Jun 2027 06:23:33.755   11 Jun 2027 06:25:00.220            86.465                Norilsk         10808.125
       392   11 Jun 2027 06:25:14.359   11 Jun 2027 06:28:16.216           181.857              Murmansk1         22732.125
       393   11 Jun 2027 06:28:17.811   11 Jun 2027 06:28:36.974            19.163                Norilsk          2395.375
       394   11 Jun 2027 06:29:59.560   11 Jun 2027 06:31:14.627            75.067              Murmansk2          9383.375
       395   11 Jun 2027 07:04:44.065   11 Jun 2027 07:10:33.112           349.047            RioGallegos         43630.875
       396   11 Jun 2027 07:37:37.575   11 Jun 2027 07:44:50.605           433.030                Sumatra         54128.750
       397   11 Jun 2027 07:50:48.477   11 Jun 2027 07:53:01.718           133.241                Irkutsk         16655.125
       398   11 Jun 2027 07:59:33.593   11 Jun 2027 08:04:36.438           302.845                Norilsk         37855.625
       399   11 Jun 2027 08:05:53.326   11 Jun 2027 08:06:29.177            35.851              Murmansk1          4481.375
       400   11 Jun 2027 09:21:13.244   11 Jun 2027 09:28:48.317           455.073                  Delhi         56884.125
       401   11 Jun 2027 09:29:04.952   11 Jun 2027 09:31:00.883           115.931                Novosib         14491.375
       402   11 Jun 2027 09:35:07.114   11 Jun 2027 09:38:40.639           213.525                 Moscow         26690.625
       403   11 Jun 2027 09:38:43.727   11 Jun 2027 09:40:30.887           107.160                Norilsk         13395.000
       404   11 Jun 2027 09:40:58.539   11 Jun 2027 09:42:13.704            75.165              Murmansk1          9395.625
       405   11 Jun 2027 11:03:56.393   11 Jun 2027 11:04:11.900            15.507                 Moscow          1938.375
       406   11 Jun 2027 11:08:10.285   11 Jun 2027 11:09:27.079            76.794              Murmansk2          9599.250
       407   11 Jun 2027 11:09:27.079   11 Jun 2027 11:18:10.832           523.753              Murmansk1         65469.125
       408   11 Jun 2027 11:23:48.087   11 Jun 2027 11:26:36.424           168.337                Anadyr2         21042.125
       409   11 Jun 2027 14:34:30.628   11 Jun 2027 14:37:04.379           153.751               Magadan2         19218.875
       410   11 Jun 2027 17:04:00.939   11 Jun 2027 17:09:04.283           303.344            RioGallegos         37918.000
       411   11 Jun 2027 17:47:48.634   11 Jun 2027 17:48:27.014            38.380                Norilsk          4797.500
       412   11 Jun 2027 18:09:16.820   11 Jun 2027 18:10:41.010            84.190                Sumatra         10523.750
       413   11 Jun 2027 19:35:32.274   11 Jun 2027 19:41:06.443           334.169                  Delhi         41771.125
       414   11 Jun 2027 21:00:39.804   11 Jun 2027 21:01:16.158            36.354              Murmansk2          4544.250
       415   11 Jun 2027 21:01:28.681   11 Jun 2027 21:04:19.614           170.933              Murmansk1         21366.625
       416   11 Jun 2027 21:04:37.114   11 Jun 2027 21:05:37.832            60.718              Murmansk2          7589.750
       417   11 Jun 2027 21:06:10.221   11 Jun 2027 21:08:30.677           140.456                 Moscow         17557.000
       418   11 Jun 2027 23:09:34.499   11 Jun 2027 23:10:27.754            53.255               CapeTown          6656.875
       419   12 Jun 2027 04:59:39.821   12 Jun 2027 05:00:05.451            25.630                Norilsk          3203.750
       420   12 Jun 2027 05:00:21.383   12 Jun 2027 05:00:42.722            21.339                Novosib          2667.375
       421   12 Jun 2027 05:02:57.157   12 Jun 2027 05:04:52.077           114.920              Murmansk1         14365.000
       422   12 Jun 2027 05:06:20.665   12 Jun 2027 05:08:32.620           131.955              Murmansk2         16494.375
       423   12 Jun 2027 05:42:05.306   12 Jun 2027 05:47:14.523           309.217            RioGallegos         38652.125
       424   12 Jun 2027 06:20:50.917   12 Jun 2027 06:21:45.260            54.343                Sumatra          6792.875
       425   12 Jun 2027 06:24:29.258   12 Jun 2027 06:30:00.063           330.805                Irkutsk         41350.625
       426   12 Jun 2027 06:35:27.348   12 Jun 2027 06:40:38.457           311.109                Norilsk         38888.625
       427   12 Jun 2027 06:42:00.080   12 Jun 2027 06:43:08.469            68.389              Murmansk1          8548.625
       428   12 Jun 2027 07:16:16.451   12 Jun 2027 07:22:20.991           364.540            RioGallegos         45567.500
       429   12 Jun 2027 07:47:48.432   12 Jun 2027 07:56:15.945           507.513                Sumatra         63439.125
       430   12 Jun 2027 08:00:31.680   12 Jun 2027 08:00:45.438            13.758                Novosib          1719.750
       431   12 Jun 2027 08:11:17.250   12 Jun 2027 08:13:03.566           106.316                Novosib         13289.500
       432   12 Jun 2027 08:13:05.897   12 Jun 2027 08:16:38.246           212.349                Norilsk         26543.625
       433   12 Jun 2027 08:17:54.078   12 Jun 2027 08:18:27.829            33.751              Murmansk2          4218.875
       434   12 Jun 2027 09:31:37.171   12 Jun 2027 09:40:11.816           514.645                  Delhi         64330.625
       435   12 Jun 2027 09:40:26.893   12 Jun 2027 09:42:47.924           141.031                Novosib         17628.875
       436   12 Jun 2027 09:48:00.435   12 Jun 2027 09:52:30.280           269.845                Norilsk         33730.625
       437   12 Jun 2027 09:52:57.465   12 Jun 2027 09:54:14.794            77.329              Murmansk2          9666.125
       438   12 Jun 2027 11:15:43.458   12 Jun 2027 11:16:23.161            39.703                 Moscow          4962.875
       439   12 Jun 2027 11:20:36.624   12 Jun 2027 11:21:28.427            51.803              Murmansk1          6475.375
       440   12 Jun 2027 11:21:54.363   12 Jun 2027 11:26:32.461           278.098                 Moscow         34762.250
       441   12 Jun 2027 11:26:50.575   12 Jun 2027 11:30:12.457           201.882              Murmansk1         25235.250
       442   12 Jun 2027 11:36:27.359   12 Jun 2027 11:39:38.151           190.792                Anadyr2         23849.000
       443   12 Jun 2027 12:34:52.233   12 Jun 2027 12:37:13.010           140.777               CapeTown         17597.125
       444   12 Jun 2027 14:46:25.340   12 Jun 2027 14:48:36.114           130.774               Magadan1         16346.750
       445   12 Jun 2027 17:17:34.342   12 Jun 2027 17:20:26.014           171.672            RioGallegos         21459.000
       446   12 Jun 2027 18:04:21.132   12 Jun 2027 18:08:07.177           226.045                Novosib         28255.625
       447   12 Jun 2027 19:49:43.055   12 Jun 2027 19:52:04.621           141.566                  Delhi         17695.750
       448   12 Jun 2027 21:13:18.663   12 Jun 2027 21:17:26.331           247.668              Murmansk1         30958.500
       449   12 Jun 2027 21:17:52.681   12 Jun 2027 21:22:22.763           270.082                 Moscow         33760.250
       450   13 Jun 2027 05:11:45.663   13 Jun 2027 05:12:50.259            64.596                Novosib          8074.500
       451   13 Jun 2027 05:13:44.082   13 Jun 2027 05:14:35.879            51.797              Murmansk2          6474.625
       452   13 Jun 2027 05:14:47.786   13 Jun 2027 05:16:39.536           111.750              Murmansk1         13968.750
       453   13 Jun 2027 05:18:18.479   13 Jun 2027 05:20:21.515           123.036              Murmansk2         15379.500
       454   13 Jun 2027 05:54:02.454   13 Jun 2027 05:59:14.728           312.274            RioGallegos         39034.250
       455   13 Jun 2027 06:28:53.642   13 Jun 2027 06:33:57.320           303.678                Sumatra         37959.750
       456   13 Jun 2027 06:36:10.292   13 Jun 2027 06:41:45.701           335.409                Irkutsk         41926.125
       457   13 Jun 2027 06:47:37.373   13 Jun 2027 06:52:40.076           302.703                Norilsk         37837.875
       458   13 Jun 2027 06:54:00.856   13 Jun 2027 06:55:03.039            62.183              Murmansk1          7772.875
       459   13 Jun 2027 07:27:33.772   13 Jun 2027 07:34:04.828           391.056            RioGallegos         48882.000
       460   13 Jun 2027 07:59:02.445   13 Jun 2027 08:07:27.616           505.171                Sumatra         63146.375
       461   13 Jun 2027 08:12:44.807   13 Jun 2027 08:13:12.653            27.846                Novosib          3480.750
       462   13 Jun 2027 08:13:38.871   13 Jun 2027 08:18:17.014           278.143                  Delhi         34767.875
       463   13 Jun 2027 08:18:27.253   13 Jun 2027 08:19:30.222            62.969                Irkutsk          7871.125
       464   13 Jun 2027 08:23:10.814   13 Jun 2027 08:23:22.109            11.295                 Moscow          1411.875
       465   13 Jun 2027 08:23:29.627   13 Jun 2027 08:25:01.073            91.446                Novosib         11430.750
       466   13 Jun 2027 08:25:04.414   13 Jun 2027 08:28:39.958           215.544                Norilsk         26943.000
       467   13 Jun 2027 08:29:55.045   13 Jun 2027 08:30:26.908            31.863              Murmansk1          3982.875
       468   13 Jun 2027 09:44:43.784   13 Jun 2027 09:51:17.175           393.391                  Delhi         49173.875
       469   13 Jun 2027 09:59:01.526   13 Jun 2027 09:59:29.095            27.569                 Moscow          3446.125
       470   13 Jun 2027 10:00:49.926   13 Jun 2027 10:04:28.860           218.934                Norilsk         27366.750
       471   13 Jun 2027 10:04:53.927   13 Jun 2027 10:06:16.044            82.117              Murmansk2         10264.625
       472   13 Jun 2027 11:28:57.333   13 Jun 2027 11:29:24.480            27.147                 Moscow          3393.375
       473   13 Jun 2027 11:32:38.238   13 Jun 2027 11:33:27.683            49.445              Murmansk2          6180.625
       474   13 Jun 2027 11:34:07.099   13 Jun 2027 11:38:29.037           261.938                 Moscow         32742.250
       475   13 Jun 2027 11:38:47.949   13 Jun 2027 11:42:14.011           206.062              Murmansk2         25757.750
       476   13 Jun 2027 11:51:08.047   13 Jun 2027 11:52:27.308            79.261                Anadyr2          9907.625
       477   13 Jun 2027 12:46:40.537   13 Jun 2027 12:52:08.010           327.473               CapeTown         40934.125
       478   13 Jun 2027 13:07:57.870   13 Jun 2027 13:11:43.806           225.936                 Moscow         28242.000
       479   13 Jun 2027 13:12:27.986   13 Jun 2027 13:18:03.406           335.420              Murmansk1         41927.500
       480   13 Jun 2027 13:19:59.874   13 Jun 2027 13:22:14.457           134.583                Anadyr1         16822.875
       481   13 Jun 2027 13:24:37.929   13 Jun 2027 13:28:40.239           242.310               Magadan1         30288.750
       482   13 Jun 2027 18:15:28.213   13 Jun 2027 18:21:34.251           366.038                Novosib         45754.750
