uniorb/output/strategy_4/Drop/Drop_KinoSat_110301.txt

KinoSat_110301
-------------------------
    Access    *     Start Time (UTCG)     *     Stop Time (UTCG)  *   Duration (s)        *       Station  *  Data (Mbytes)
         1   01 Jun 2027 03:00:13.544   01 Jun 2027 03:00:55.137            41.593               Magadan1          5199.125
         2   01 Jun 2027 03:00:58.708   01 Jun 2027 03:01:31.758            33.050               Magadan2          3358.375
         3   01 Jun 2027 03:01:41.989   01 Jun 2027 03:02:26.641            44.652               Magadan2          5115.500
         4   01 Jun 2027 03:02:40.007   01 Jun 2027 03:02:47.840             7.833                Anadyr2           979.125
         5   01 Jun 2027 03:03:11.353   01 Jun 2027 03:03:34.709            23.356               Magadan1          2919.500
         6   01 Jun 2027 03:03:34.709   01 Jun 2027 03:04:17.469            42.760               Magadan2          5345.000
         7   01 Jun 2027 03:04:44.483   01 Jun 2027 03:05:05.109            20.626               Magadan2          2578.250
         8   01 Jun 2027 03:05:37.230   01 Jun 2027 03:06:10.503            33.273               Magadan1          4159.125
         9   01 Jun 2027 03:41:12.632   01 Jun 2027 03:43:52.948           160.316            RioGallegos         20039.500
        10   01 Jun 2027 04:18:11.355   01 Jun 2027 04:20:54.098           162.743                Sumatra         10434.000
        11   01 Jun 2027 04:37:34.423   01 Jun 2027 04:37:58.037            23.614                Norilsk          2951.750
        12   01 Jun 2027 04:38:02.266   01 Jun 2027 04:38:13.295            11.029               Magadan2          1378.625
        13   01 Jun 2027 04:38:13.295   01 Jun 2027 04:38:53.158            39.863               Magadan1          4982.875
        14   01 Jun 2027 04:38:58.187   01 Jun 2027 04:39:08.451            10.264               Magadan1          1283.000
        15   01 Jun 2027 04:39:15.880   01 Jun 2027 04:39:44.796            28.916                Novosib          3614.500
        16   01 Jun 2027 04:40:00.016   01 Jun 2027 04:40:18.169            18.153                Norilsk          2269.125
        17   01 Jun 2027 04:40:32.174   01 Jun 2027 04:41:51.288            79.114                Irkutsk          9889.250
        18   01 Jun 2027 04:42:18.909   01 Jun 2027 04:43:21.241            62.332              Murmansk2          7791.500
        19   01 Jun 2027 05:17:23.185   01 Jun 2027 05:18:07.711            44.526            RioGallegos          5565.750
        20   01 Jun 2027 05:51:48.763   01 Jun 2027 05:52:16.150            27.387                Sumatra          3423.375
        21   01 Jun 2027 05:54:11.749   01 Jun 2027 05:54:44.528            32.779                Sumatra          4097.375
        22   01 Jun 2027 06:02:35.064   01 Jun 2027 06:04:46.901           131.837                  Delhi         16479.625
        23   01 Jun 2027 06:14:52.758   01 Jun 2027 06:15:09.599            16.841                Norilsk          2105.125
        24   01 Jun 2027 06:15:17.918   01 Jun 2027 06:16:30.910            72.992                Irkutsk          9124.000
        25   01 Jun 2027 06:17:07.646   01 Jun 2027 06:17:36.295            28.649              Murmansk1          3581.125
        26   01 Jun 2027 06:17:37.511   01 Jun 2027 06:18:19.058            41.547                Norilsk          5193.375
        27   01 Jun 2027 06:20:28.780   01 Jun 2027 06:20:34.120             5.340              Murmansk1           667.500
        28   01 Jun 2027 07:36:23.429   01 Jun 2027 07:38:47.025           143.596                  Delhi         17949.500
        29   01 Jun 2027 07:50:47.360   01 Jun 2027 07:50:59.408            12.048                Novosib          1506.000
        30   01 Jun 2027 07:51:37.967   01 Jun 2027 07:52:02.438            24.471                Novosib          3058.875
        31   01 Jun 2027 07:52:22.800   01 Jun 2027 07:52:38.067            15.267                 Moscow          1908.375
        32   01 Jun 2027 07:52:54.269   01 Jun 2027 07:53:47.791            53.522                Novosib          6690.250
        33   01 Jun 2027 07:53:59.670   01 Jun 2027 07:54:26.907            27.237                 Moscow          3404.625
        34   01 Jun 2027 09:28:33.839   01 Jun 2027 09:33:11.918           278.079                 Moscow         34759.875
        35   01 Jun 2027 09:33:15.706   01 Jun 2027 09:34:29.576            73.870                Norilsk          9233.750
        36   01 Jun 2027 09:34:37.688   01 Jun 2027 09:36:42.672           124.984              Murmansk2         15623.000
        37   01 Jun 2027 10:36:07.514   01 Jun 2027 10:38:35.547           148.033               CapeTown         18504.125
        38   01 Jun 2027 10:39:06.036   01 Jun 2027 10:40:30.953            84.917               CapeTown         10614.625
        39   01 Jun 2027 11:14:41.860   01 Jun 2027 11:19:15.525           273.665                Anadyr2         34208.125
        40   01 Jun 2027 12:53:24.023   01 Jun 2027 12:57:38.303           254.280               Magadan1         31785.000
        41   01 Jun 2027 14:28:35.948   01 Jun 2027 14:29:27.764            51.816               Magadan2          6477.000
        42   01 Jun 2027 15:22:10.675   01 Jun 2027 15:25:28.627           197.952            RioGallegos         24744.000
        43   01 Jun 2027 16:09:22.801   01 Jun 2027 16:11:05.105           102.304                Irkutsk         12788.000
        44   01 Jun 2027 16:15:01.358   01 Jun 2027 16:15:32.475            31.117                Irkutsk          3889.625
        45   01 Jun 2027 16:23:46.091   01 Jun 2027 16:26:47.447           181.356                Sumatra         22669.500
        46   01 Jun 2027 17:44:32.681   01 Jun 2027 17:47:06.045           153.364                Novosib         19170.500
        47   01 Jun 2027 17:54:03.514   01 Jun 2027 17:56:35.776           152.262                  Delhi         19032.750
        48   01 Jun 2027 19:27:09.288   01 Jun 2027 19:28:34.796            85.508                  Delhi          7937.126
        49   02 Jun 2027 03:16:37.510   02 Jun 2027 03:18:06.177            88.667               Magadan1         11083.375
        50   02 Jun 2027 04:30:52.032   02 Jun 2027 04:32:42.339           110.307                Sumatra         13788.375
        51   02 Jun 2027 04:51:22.304   02 Jun 2027 04:52:13.969            51.665                Irkutsk          6458.125
        52   02 Jun 2027 04:53:16.768   02 Jun 2027 04:55:37.854           141.086                Novosib         17635.750
        53   02 Jun 2027 04:55:49.696   02 Jun 2027 04:59:02.325           192.629                Norilsk         24078.625
        54   02 Jun 2027 04:59:10.957   02 Jun 2027 05:00:13.890            62.933              Murmansk1          7866.625
        55   02 Jun 2027 05:00:13.890   02 Jun 2027 05:00:45.884            31.994              Murmansk2          3999.250
        56   02 Jun 2027 05:01:10.049   02 Jun 2027 05:01:57.990            47.941              Murmansk2          5992.625
        57   02 Jun 2027 05:29:43.173   02 Jun 2027 05:33:58.577           255.404            RioGallegos         31925.500
        58   02 Jun 2027 05:35:49.623   02 Jun 2027 05:36:28.542            38.919            RioGallegos          4864.875
        59   02 Jun 2027 06:04:01.526   02 Jun 2027 06:04:51.805            50.279                Sumatra          6284.875
        60   02 Jun 2027 06:06:33.277   02 Jun 2027 06:08:41.616           128.339                Sumatra         16042.375
        61   02 Jun 2027 06:29:16.730   02 Jun 2027 06:31:41.139           144.409                Novosib         18051.125
        62   02 Jun 2027 06:31:53.412   02 Jun 2027 06:32:36.838            43.426                 Moscow          5428.250
        63   02 Jun 2027 06:32:44.289   02 Jun 2027 06:34:51.353           127.064              Murmansk1         15883.000
        64   02 Jun 2027 06:34:51.353   02 Jun 2027 06:35:35.695            44.342              Murmansk2          5542.750
        65   02 Jun 2027 06:35:52.831   02 Jun 2027 06:36:17.296            24.465              Murmansk2          3058.125
        66   02 Jun 2027 06:36:42.706   02 Jun 2027 06:37:06.675            23.969              Murmansk2          2996.125
        67   02 Jun 2027 07:48:47.425   02 Jun 2027 07:52:58.296           250.871                  Delhi         31358.875
        68   02 Jun 2027 07:57:06.237   02 Jun 2027 08:00:44.261           218.024                Novosib         27253.000
        69   02 Jun 2027 08:06:09.477   02 Jun 2027 08:12:48.086           398.609              Murmansk1         49826.125
        70   02 Jun 2027 09:32:25.335   02 Jun 2027 09:37:55.593           330.258                 Moscow         41282.250
        71   02 Jun 2027 09:39:08.480   02 Jun 2027 09:39:33.416            24.936              Murmansk1          3117.000
        72   02 Jun 2027 09:40:07.557   02 Jun 2027 09:42:43.913           156.356              Murmansk1         19544.500
        73   02 Jun 2027 09:42:55.647   02 Jun 2027 09:46:15.205           199.558                Norilsk         24944.750
        74   02 Jun 2027 09:52:40.966   02 Jun 2027 09:55:43.787           182.821                Anadyr1         22852.625
        75   02 Jun 2027 11:13:40.575   02 Jun 2027 11:14:38.523            57.948              Murmansk1          7243.500
        76   02 Jun 2027 11:19:32.933   02 Jun 2027 11:19:50.972            18.039              Murmansk1          2254.875
        77   02 Jun 2027 11:20:02.811   02 Jun 2027 11:20:29.782            26.971              Murmansk1          3371.375
        78   02 Jun 2027 11:20:47.159   02 Jun 2027 11:21:44.760            57.601              Murmansk1          7200.125
        79   02 Jun 2027 11:22:51.900   02 Jun 2027 11:23:06.683            14.783              Murmansk2          1847.875
        80   02 Jun 2027 11:23:30.084   02 Jun 2027 11:23:34.361             4.277              Murmansk2           534.625
        81   02 Jun 2027 11:24:09.021   02 Jun 2027 11:24:13.024             4.003              Murmansk2           500.375
        82   02 Jun 2027 11:24:17.528   02 Jun 2027 11:24:40.096            22.568              Murmansk2          2821.000
        83   02 Jun 2027 11:26:39.042   02 Jun 2027 11:28:02.312            83.270                Anadyr2         10408.750
        84   02 Jun 2027 11:31:06.084   02 Jun 2027 11:31:15.306             9.222                Anadyr1          1152.750
        85   02 Jun 2027 11:36:03.737   02 Jun 2027 11:36:11.979             8.242                Anadyr2          1030.250
        86   02 Jun 2027 12:22:12.178   02 Jun 2027 12:24:09.105           116.927               CapeTown         14615.875
        87   02 Jun 2027 13:05:14.266   02 Jun 2027 13:09:35.146           260.880               Magadan2         32610.000
        88   02 Jun 2027 14:40:35.945   02 Jun 2027 14:41:21.800            45.855               Magadan2          5731.875
        89   02 Jun 2027 14:49:37.218   02 Jun 2027 14:50:10.809            33.591               Magadan2          4198.875
        90   02 Jun 2027 15:33:37.661   02 Jun 2027 15:37:18.620           220.959            RioGallegos         27619.875
        91   02 Jun 2027 16:23:14.035   02 Jun 2027 16:24:57.810           103.775                Irkutsk         12971.875
        92   02 Jun 2027 16:35:06.740   02 Jun 2027 16:38:38.705           211.965                Sumatra         26495.625
        93   02 Jun 2027 17:59:12.338   02 Jun 2027 18:00:00.360            48.022                Novosib          6002.750
        94   02 Jun 2027 18:05:10.914   02 Jun 2027 18:08:21.610           190.696                  Delhi         23837.000
        95   02 Jun 2027 21:08:14.968   02 Jun 2027 21:08:51.333            36.365              Murmansk1          4545.625
        96   02 Jun 2027 21:09:48.984   02 Jun 2027 21:11:20.336            91.352                 Moscow         11419.000
        97   02 Jun 2027 21:12:45.933   02 Jun 2027 21:14:15.983            90.050                 Moscow         11256.250
        98   02 Jun 2027 21:38:39.748   02 Jun 2027 21:41:10.635           150.887               CapeTown         18860.875
        99   03 Jun 2027 03:30:17.373   03 Jun 2027 03:31:08.036            50.663                Novosib          6332.875
       100   03 Jun 2027 03:31:27.038   03 Jun 2027 03:31:49.916            22.878              Murmansk1          2859.750
       101   03 Jun 2027 03:31:56.262   03 Jun 2027 03:32:32.902            36.640                Norilsk          4580.000
       102   03 Jun 2027 04:40:51.348   03 Jun 2027 04:42:01.405            70.057                Sumatra          8757.125
       103   03 Jun 2027 04:44:10.237   03 Jun 2027 04:44:36.496            26.259                Sumatra          3282.375
       104   03 Jun 2027 04:47:43.744   03 Jun 2027 04:48:04.894            21.150                Sumatra          2643.750
       105   03 Jun 2027 05:06:33.268   03 Jun 2027 05:07:41.881            68.613                Novosib          8576.625
       106   03 Jun 2027 05:07:50.465   03 Jun 2027 05:11:12.179           201.714                Norilsk         25214.250
       107   03 Jun 2027 05:11:39.126   03 Jun 2027 05:13:03.105            83.979              Murmansk1         10497.375
       108   03 Jun 2027 05:42:07.953   03 Jun 2027 05:43:42.795            94.842            RioGallegos         11855.250
       109   03 Jun 2027 05:44:34.273   03 Jun 2027 05:45:16.050            41.777            RioGallegos          5222.125
       110   03 Jun 2027 06:16:21.279   03 Jun 2027 06:16:33.290            12.011                Sumatra          1501.375
       111   03 Jun 2027 06:18:15.514   03 Jun 2027 06:20:13.208           117.694                Sumatra         14711.750
       112   03 Jun 2027 06:24:22.381   03 Jun 2027 06:26:41.982           139.601                  Delhi         17450.125
       113   03 Jun 2027 06:30:56.091   03 Jun 2027 06:33:08.188           132.097                Novosib         16512.125
       114   03 Jun 2027 06:34:48.383   03 Jun 2027 06:35:42.794            54.411                Irkutsk          6801.375
       115   03 Jun 2027 06:36:20.647   03 Jun 2027 06:37:16.663            56.016                 Moscow          7002.000
       116   03 Jun 2027 06:41:49.259   03 Jun 2027 06:44:45.862           176.603                 Moscow         22075.375
       117   03 Jun 2027 06:44:51.341   03 Jun 2027 06:47:23.161           151.820              Murmansk1         18977.500
       118   03 Jun 2027 06:48:54.523   03 Jun 2027 06:49:04.802            10.279              Murmansk1          1284.875
       119   03 Jun 2027 08:01:20.126   03 Jun 2027 08:05:10.116           229.990                  Delhi         28748.750
       120   03 Jun 2027 08:09:47.120   03 Jun 2027 08:13:49.737           242.617                Novosib         30327.125
       121   03 Jun 2027 08:17:40.809   03 Jun 2027 08:18:31.939            51.130                Novosib          6391.250
       122   03 Jun 2027 08:18:43.497   03 Jun 2027 08:21:15.517           152.020                 Moscow         19002.500
       123   03 Jun 2027 08:21:16.197   03 Jun 2027 08:22:41.576            85.379              Murmansk1         10672.375
       124   03 Jun 2027 08:22:41.576   03 Jun 2027 08:23:30.106            48.530              Murmansk2          6066.250
       125   03 Jun 2027 09:44:33.983   03 Jun 2027 09:44:50.056            16.073                 Moscow          2009.125
       126   03 Jun 2027 09:45:51.820   03 Jun 2027 09:49:18.295           206.475                 Moscow         25809.375
       127   03 Jun 2027 09:49:40.256   03 Jun 2027 09:51:02.370            82.114              Murmansk2         10264.250
       128   03 Jun 2027 09:51:34.471   03 Jun 2027 09:53:35.137           120.666              Murmansk1         15083.250
       129   03 Jun 2027 09:56:06.306   03 Jun 2027 09:57:54.035           107.729              Murmansk2         13466.125
       130   03 Jun 2027 10:04:00.399   03 Jun 2027 10:09:05.116           304.717                Anadyr1         38089.625
       131   03 Jun 2027 11:38:37.127   03 Jun 2027 11:39:46.117            68.990                Anadyr1          8623.750
       132   03 Jun 2027 11:40:03.869   03 Jun 2027 11:41:41.444            97.575                Anadyr2         12196.875
       133   03 Jun 2027 11:43:42.624   03 Jun 2027 11:43:45.794             3.170                Anadyr2           396.250
       134   03 Jun 2027 11:45:56.429   03 Jun 2027 11:48:10.652           134.223                Anadyr1         16777.875
       135   03 Jun 2027 12:36:17.971   03 Jun 2027 12:37:25.498            67.527               CapeTown          8440.875
       136   03 Jun 2027 13:17:06.923   03 Jun 2027 13:22:35.132           328.209               Magadan1         41026.125
       137   03 Jun 2027 15:45:14.908   03 Jun 2027 15:49:11.146           236.238            RioGallegos         29529.750
       138   03 Jun 2027 15:51:09.253   03 Jun 2027 15:51:53.418            44.165            RioGallegos          5520.625
       139   03 Jun 2027 16:36:28.427   03 Jun 2027 16:36:54.274            25.847                Irkutsk          3230.875
       140   03 Jun 2027 16:41:37.766   03 Jun 2027 16:42:03.980            26.214                Irkutsk          3276.750
       141   03 Jun 2027 16:46:38.258   03 Jun 2027 16:48:16.049            97.791                Sumatra         12223.875
       142   03 Jun 2027 16:57:52.749   03 Jun 2027 16:58:09.180            16.431                Sumatra          2053.875
       143   03 Jun 2027 18:08:16.969   03 Jun 2027 18:10:40.295           143.326                Novosib         17915.750
       144   03 Jun 2027 18:16:35.482   03 Jun 2027 18:18:27.879           112.397                  Delhi         14049.625
       145   03 Jun 2027 18:22:59.298   03 Jun 2027 18:24:15.868            76.570                  Delhi          9571.250
       146   03 Jun 2027 19:50:18.596   03 Jun 2027 19:51:16.422            57.826                 Moscow          7228.250
       147   03 Jun 2027 21:21:43.647   03 Jun 2027 21:23:40.303           116.656                 Moscow         14582.000
       148   03 Jun 2027 21:31:04.547   03 Jun 2027 21:31:14.986            10.439                 Moscow          1304.875
       149   03 Jun 2027 21:46:34.489   03 Jun 2027 21:47:55.617            81.128               CapeTown         10141.000
       150   03 Jun 2027 21:48:31.329   03 Jun 2027 21:50:12.405           101.076               CapeTown         12634.500
       151   04 Jun 2027 03:42:24.843   04 Jun 2027 03:43:16.803            51.960                Novosib          6495.000
       152   04 Jun 2027 03:43:37.312   04 Jun 2027 03:44:29.868            52.556              Murmansk2          6569.500
       153   04 Jun 2027 04:52:27.220   04 Jun 2027 04:54:24.663           117.443                Sumatra         14680.375
       154   04 Jun 2027 04:59:45.251   04 Jun 2027 05:01:47.889           122.638                Sumatra         15329.750
       155   04 Jun 2027 05:17:41.278   04 Jun 2027 05:19:52.541           131.263              Murmansk1         16407.875
       156   04 Jun 2027 05:19:52.635   04 Jun 2027 05:22:17.803           145.168                Norilsk         18146.000
       157   04 Jun 2027 05:22:19.567   04 Jun 2027 05:23:02.492            42.925              Murmansk2          5365.625
       158   04 Jun 2027 06:02:33.456   04 Jun 2027 06:02:42.082             8.626            RioGallegos          1078.250
       159   04 Jun 2027 06:29:50.086   04 Jun 2027 06:31:15.193            85.107                Sumatra         10638.375
       160   04 Jun 2027 06:32:28.325   04 Jun 2027 06:32:51.518            23.193                Sumatra          2899.125
       161   04 Jun 2027 06:35:42.534   04 Jun 2027 06:35:43.578             1.044                Sumatra           130.500
       162   04 Jun 2027 06:36:11.448   04 Jun 2027 06:38:23.615           132.167                  Delhi         16520.875
       163   04 Jun 2027 06:43:05.394   04 Jun 2027 06:45:18.582           133.188                Novosib         16648.500
       164   04 Jun 2027 06:45:54.053   04 Jun 2027 06:47:39.131           105.078                Irkutsk         13134.750
       165   04 Jun 2027 06:47:47.850   04 Jun 2027 06:49:22.738            94.888                 Moscow         11861.000
       166   04 Jun 2027 06:53:58.438   04 Jun 2027 06:58:46.792           288.354              Murmansk2         36044.250
       167   04 Jun 2027 06:58:46.792   04 Jun 2027 06:59:10.402            23.610              Murmansk1          2951.250
       168   04 Jun 2027 08:14:04.470   04 Jun 2027 08:17:28.279           203.809                  Delhi         25476.125
       169   04 Jun 2027 08:21:47.950   04 Jun 2027 08:22:53.799            65.849                  Delhi          8231.125
       170   04 Jun 2027 08:22:54.791   04 Jun 2027 08:25:28.242           153.451                Novosib         19181.375
       171   04 Jun 2027 08:30:26.697   04 Jun 2027 08:35:05.975           279.278                Norilsk         34909.750
       172   04 Jun 2027 08:35:23.119   04 Jun 2027 08:36:50.047            86.928              Murmansk1         10866.000
       173   04 Jun 2027 09:40:21.064   04 Jun 2027 09:41:40.079            79.015               CapeTown          9876.875
       174   04 Jun 2027 10:00:15.000   04 Jun 2027 10:04:19.408           244.408              Murmansk2         30551.000
       175   04 Jun 2027 10:04:19.523   04 Jun 2027 10:05:12.359            52.836                 Moscow          6604.500
       176   04 Jun 2027 10:05:24.376   04 Jun 2027 10:05:59.622            35.246                 Moscow          4405.750
       177   04 Jun 2027 10:06:32.424   04 Jun 2027 10:07:56.221            83.797                 Moscow         10474.625
       178   04 Jun 2027 10:08:07.906   04 Jun 2027 10:08:47.213            39.307              Murmansk1          4913.375
       179   04 Jun 2027 10:09:22.433   04 Jun 2027 10:09:41.570            19.137              Murmansk1          2392.125
       180   04 Jun 2027 10:15:38.218   04 Jun 2027 10:19:41.707           243.489                Anadyr1         30436.125
       181   04 Jun 2027 10:21:21.758   04 Jun 2027 10:22:05.530            43.772                Anadyr2          5471.500
       182   04 Jun 2027 11:38:31.760   04 Jun 2027 11:39:46.488            74.728              Murmansk1          9341.000
       183   04 Jun 2027 11:46:26.306   04 Jun 2027 11:46:44.348            18.042              Murmansk1          2255.250
       184   04 Jun 2027 11:47:10.824   04 Jun 2027 11:47:55.345            44.521              Murmansk1          5565.125
       185   04 Jun 2027 11:48:29.595   04 Jun 2027 11:48:40.064            10.469              Murmansk1          1308.625
       186   04 Jun 2027 11:50:35.933   04 Jun 2027 11:55:15.990           280.057                Anadyr2         35007.125
       187   04 Jun 2027 11:57:27.111   04 Jun 2027 12:00:09.932           162.821                Anadyr1         20352.625
       188   04 Jun 2027 12:48:59.657   04 Jun 2027 12:49:28.041            28.384               CapeTown          3548.000
       189   04 Jun 2027 13:29:01.414   04 Jun 2027 13:31:58.433           177.019               Magadan2         22127.375
       190   04 Jun 2027 13:33:42.169   04 Jun 2027 13:34:22.738            40.569               Magadan1          5071.125
       191   04 Jun 2027 13:36:23.942   04 Jun 2027 13:38:18.083           114.141               Magadan2         14267.625
       192   04 Jun 2027 15:56:58.289   04 Jun 2027 16:03:03.973           365.684            RioGallegos         45710.500
       193   04 Jun 2027 16:44:27.889   04 Jun 2027 16:46:01.953            94.064                Irkutsk         11758.000
       194   04 Jun 2027 16:48:57.544   04 Jun 2027 16:49:42.547            45.003                Novosib          5625.375
       195   04 Jun 2027 17:00:13.498   04 Jun 2027 17:02:38.253           144.755                Sumatra         18094.375
       196   04 Jun 2027 18:28:10.121   04 Jun 2027 18:31:18.274           188.153                  Delhi         23519.125
       197   04 Jun 2027 18:37:03.076   04 Jun 2027 18:37:29.516            26.440                  Delhi          3305.000
       198   04 Jun 2027 20:00:30.721   04 Jun 2027 20:03:02.998           152.277                 Moscow         19034.625
       199   04 Jun 2027 21:43:06.872   04 Jun 2027 21:45:34.575           147.703                 Moscow         18462.875
       200   04 Jun 2027 22:02:08.190   04 Jun 2027 22:04:13.772           125.582               CapeTown         12626.876
       201   05 Jun 2027 03:54:27.103   05 Jun 2027 03:55:24.508            57.405                Novosib          7175.625
       202   05 Jun 2027 03:55:55.051   05 Jun 2027 03:57:54.998           119.947                Norilsk         14993.375
       203   05 Jun 2027 05:04:10.539   05 Jun 2027 05:06:46.891           156.352                Sumatra         19544.000
       204   05 Jun 2027 05:17:45.561   05 Jun 2027 05:19:25.485            99.924                  Delhi         12490.500
       205   05 Jun 2027 05:30:08.604   05 Jun 2027 05:30:11.814             3.210                Irkutsk           401.250
       206   05 Jun 2027 05:30:14.398   05 Jun 2027 05:31:01.873            47.475                 Moscow          5934.375
       207   05 Jun 2027 05:31:08.073   05 Jun 2027 05:35:15.278           247.205                Norilsk         30900.625
       208   05 Jun 2027 06:10:13.115   05 Jun 2027 06:10:30.067            16.952            RioGallegos          2119.000
       209   05 Jun 2027 06:10:48.379   05 Jun 2027 06:11:03.009            14.630            RioGallegos          1828.750
       210   05 Jun 2027 06:12:26.636   05 Jun 2027 06:12:36.116             9.480            RioGallegos          1185.000
       211   05 Jun 2027 06:12:49.216   05 Jun 2027 06:13:47.971            58.755            RioGallegos          7344.375
       212   05 Jun 2027 06:14:42.437   05 Jun 2027 06:15:10.011            27.574            RioGallegos          3446.750
       213   05 Jun 2027 06:41:30.281   05 Jun 2027 06:43:22.469           112.188                Sumatra         14023.500
       214   05 Jun 2027 06:47:31.112   05 Jun 2027 06:48:07.080            35.968                Sumatra          4496.000
       215   05 Jun 2027 06:49:58.219   05 Jun 2027 06:50:54.507            56.288                  Delhi          7036.000
       216   05 Jun 2027 06:55:18.013   05 Jun 2027 06:58:36.567           198.554                Novosib         24819.250
       217   05 Jun 2027 06:59:02.143   05 Jun 2027 07:02:12.712           190.569                Irkutsk         23821.125
       218   05 Jun 2027 07:05:49.986   05 Jun 2027 07:09:00.790           190.804                 Moscow         23850.500
       219   05 Jun 2027 07:09:46.816   05 Jun 2027 07:10:36.648            49.832              Murmansk1          6229.000
       220   05 Jun 2027 08:27:57.342   05 Jun 2027 08:29:53.804           116.462                  Delhi         14557.750
       221   05 Jun 2027 08:32:41.183   05 Jun 2027 08:32:50.892             9.709                 Moscow          1213.625
       222   05 Jun 2027 08:36:39.826   05 Jun 2027 08:37:36.287            56.461                Novosib          7057.625
       223   05 Jun 2027 08:41:32.010   05 Jun 2027 08:41:47.473            15.463              Murmansk2          1932.875
       224   05 Jun 2027 08:43:05.250   05 Jun 2027 08:45:21.378           136.128                 Moscow         17016.000
       225   05 Jun 2027 08:45:29.914   05 Jun 2027 08:48:51.289           201.375              Murmansk1         25171.875
       226   05 Jun 2027 09:48:40.233   05 Jun 2027 09:55:27.209           406.976               CapeTown         50872.000
       227   05 Jun 2027 10:09:01.287   05 Jun 2027 10:11:53.788           172.501                 Moscow         21562.625
       228   05 Jun 2027 10:12:26.759   05 Jun 2027 10:17:29.360           302.601              Murmansk2         37825.125
       229   05 Jun 2027 10:17:29.360   05 Jun 2027 10:17:57.129            27.769              Murmansk1          3471.125
       230   05 Jun 2027 10:18:13.803   05 Jun 2027 10:18:34.948            21.145              Murmansk1          2643.125
       231   05 Jun 2027 10:20:48.175   05 Jun 2027 10:21:59.649            71.474              Murmansk1          8934.250
       232   05 Jun 2027 10:22:24.775   05 Jun 2027 10:22:57.499            32.724              Murmansk1          4090.500
       233   05 Jun 2027 10:24:32.444   05 Jun 2027 10:24:49.269            16.825              Murmansk2          2103.125
       234   05 Jun 2027 10:27:23.608   05 Jun 2027 10:31:37.466           253.858                Anadyr2         31732.250
       235   05 Jun 2027 10:31:56.141   05 Jun 2027 10:33:31.240            95.099                Anadyr1         11887.375
       236   05 Jun 2027 11:51:35.091   05 Jun 2027 11:52:35.843            60.752              Murmansk2          7594.000
       237   05 Jun 2027 11:53:00.201   05 Jun 2027 11:53:46.059            45.858              Murmansk2          5732.250
       238   05 Jun 2027 11:54:29.530   05 Jun 2027 11:54:45.920            16.390              Murmansk1          2048.750
       239   05 Jun 2027 11:55:02.415   05 Jun 2027 11:55:16.346            13.931              Murmansk2          1741.375
       240   05 Jun 2027 11:55:31.378   05 Jun 2027 11:56:03.937            32.559              Murmansk2          4069.875
       241   05 Jun 2027 11:56:45.499   05 Jun 2027 11:57:37.773            52.274              Murmansk2          6534.250
       242   05 Jun 2027 11:58:36.768   05 Jun 2027 11:59:02.294            25.526              Murmansk2          3190.750
       243   05 Jun 2027 11:59:23.232   05 Jun 2027 11:59:59.004            35.772              Murmansk2          4471.500
       244   05 Jun 2027 12:02:35.320   05 Jun 2027 12:04:47.104           131.784                Anadyr1         16473.000
       245   05 Jun 2027 12:05:51.919   05 Jun 2027 12:07:16.766            84.847                Anadyr1         10605.875
       246   05 Jun 2027 12:09:18.031   05 Jun 2027 12:09:19.220             1.189               Magadan1           148.625
       247   05 Jun 2027 13:40:57.336   05 Jun 2027 13:44:02.861           185.525               Magadan1         23190.625
       248   05 Jun 2027 13:46:21.368   05 Jun 2027 13:48:28.825           127.457               Magadan1         15932.125
       249   05 Jun 2027 16:08:45.852   05 Jun 2027 16:11:27.004           161.152            RioGallegos         20144.000
       250   05 Jun 2027 16:12:31.541   05 Jun 2027 16:14:33.461           121.920            RioGallegos         15240.000
       251   05 Jun 2027 16:58:26.698   05 Jun 2027 16:58:38.247            11.549                Irkutsk          1443.625
       252   05 Jun 2027 16:58:47.482   05 Jun 2027 17:01:29.905           162.423                Novosib         20302.875
       253   05 Jun 2027 17:01:39.472   05 Jun 2027 17:03:58.855           139.383                Novosib         17422.875
       254   05 Jun 2027 17:12:53.564   05 Jun 2027 17:15:22.182           148.618                Sumatra         18577.250
       255   05 Jun 2027 18:39:51.761   05 Jun 2027 18:41:43.358           111.597                  Delhi         13949.625
       256   05 Jun 2027 18:42:11.316   05 Jun 2027 18:44:04.237           112.921                  Delhi         14115.125
       257   05 Jun 2027 20:11:13.268   05 Jun 2027 20:12:09.818            56.550                 Moscow          7068.750
       258   05 Jun 2027 20:15:38.555   05 Jun 2027 20:18:21.884           163.329                 Moscow         20416.125
       259   05 Jun 2027 22:09:51.799   05 Jun 2027 22:09:56.776             4.977               CapeTown           622.125
       260   05 Jun 2027 22:12:17.784   05 Jun 2027 22:14:08.920           111.136               CapeTown          2722.875
       261   06 Jun 2027 04:06:29.930   06 Jun 2027 04:07:31.376            61.446                Novosib          7680.750
       262   06 Jun 2027 04:07:35.278   06 Jun 2027 04:09:53.740           138.462              Murmansk2         17307.750
       263   06 Jun 2027 05:16:00.239   06 Jun 2027 05:17:31.405            91.166                Sumatra         11395.750
       264   06 Jun 2027 05:28:05.517   06 Jun 2027 05:29:38.486            92.969                  Delhi         11621.125
       265   06 Jun 2027 05:41:45.306   06 Jun 2027 05:42:08.882            23.576                Irkutsk          2947.000
       266   06 Jun 2027 05:42:15.362   06 Jun 2027 05:43:49.301            93.939                 Moscow         11742.375
       267   06 Jun 2027 05:44:01.378   06 Jun 2027 05:46:36.565           155.187                Norilsk         19398.375
       268   06 Jun 2027 05:46:37.669   06 Jun 2027 05:47:32.907            55.238              Murmansk1          6904.750
       269   06 Jun 2027 05:49:09.094   06 Jun 2027 05:49:34.368            25.274              Murmansk1          3159.250
       270   06 Jun 2027 06:54:31.565   06 Jun 2027 06:57:21.170           169.605                Sumatra         21200.625
       271   06 Jun 2027 07:00:05.601   06 Jun 2027 07:02:13.799           128.198                  Delhi         16024.750
       272   06 Jun 2027 07:07:34.154   06 Jun 2027 07:11:58.411           264.257                Novosib         33032.125
       273   06 Jun 2027 07:12:06.197   06 Jun 2027 07:12:44.749            38.552                 Moscow          4819.000
       274   06 Jun 2027 07:12:45.718   06 Jun 2027 07:14:11.586            85.868                Irkutsk         10733.500
       275   06 Jun 2027 07:17:48.207   06 Jun 2027 07:17:50.977             2.770              Murmansk2           346.250
       276   06 Jun 2027 07:17:51.204   06 Jun 2027 07:19:33.542           102.338                Novosib         12792.250
       277   06 Jun 2027 07:19:35.843   06 Jun 2027 07:22:49.906           194.063                Norilsk         24257.875
       278   06 Jun 2027 07:23:11.930   06 Jun 2027 07:23:16.830             4.900                Norilsk           612.500
       279   06 Jun 2027 07:24:57.799   06 Jun 2027 07:25:01.859             4.060              Murmansk2           507.500
       280   06 Jun 2027 08:40:53.767   06 Jun 2027 08:41:38.560            44.793                  Delhi          5599.125
       281   06 Jun 2027 08:53:27.714   06 Jun 2027 08:53:50.551            22.837                Norilsk          2854.625
       282   06 Jun 2027 08:54:55.016   06 Jun 2027 08:57:23.556           148.540                 Moscow         18567.500
       283   06 Jun 2027 08:57:31.295   06 Jun 2027 09:00:52.679           201.384              Murmansk1         25173.000
       284   06 Jun 2027 09:59:51.653   06 Jun 2027 10:08:31.060           519.407               CapeTown         64925.875
       285   06 Jun 2027 10:21:20.433   06 Jun 2027 10:21:33.903            13.470                 Moscow          1683.750
       286   06 Jun 2027 10:24:09.563   06 Jun 2027 10:31:13.171           423.608                 Moscow         52951.000
       287   06 Jun 2027 10:31:53.353   06 Jun 2027 10:34:53.555           180.202              Murmansk2         22525.250
       288   06 Jun 2027 10:35:41.236   06 Jun 2027 10:36:50.760            69.524              Murmansk2          8690.500
       289   06 Jun 2027 10:39:13.331   06 Jun 2027 10:47:39.400           506.069                Anadyr2         63258.625
       290   06 Jun 2027 12:03:33.516   06 Jun 2027 12:05:47.249           133.733              Murmansk2         16716.625
       291   06 Jun 2027 12:05:47.249   06 Jun 2027 12:08:23.308           156.059              Murmansk1         19507.375
       292   06 Jun 2027 12:14:35.179   06 Jun 2027 12:17:04.619           149.440                Anadyr1         18680.000
       293   06 Jun 2027 12:18:36.319   06 Jun 2027 12:21:59.946           203.627               Magadan2         25453.375
       294   06 Jun 2027 13:53:37.208   06 Jun 2027 13:54:14.930            37.722               Magadan1          4715.250
       295   06 Jun 2027 13:55:05.465   06 Jun 2027 13:56:04.764            59.299               Magadan2          7412.375
       296   06 Jun 2027 15:34:57.445   06 Jun 2027 15:37:46.117           168.672                Irkutsk         21084.000
       297   06 Jun 2027 16:20:36.492   06 Jun 2027 16:23:28.785           172.293            RioGallegos         21536.625
       298   06 Jun 2027 17:08:16.689   06 Jun 2027 17:10:04.851           108.162                Irkutsk         13520.250
       299   06 Jun 2027 17:10:42.898   06 Jun 2027 17:13:20.383           157.485                Novosib         19685.625
       300   06 Jun 2027 17:23:04.851   06 Jun 2027 17:23:57.199            52.348                Sumatra          6543.500
       301   06 Jun 2027 17:25:02.267   06 Jun 2027 17:25:33.454            31.187                Sumatra          3898.375
       302   06 Jun 2027 17:31:56.001   06 Jun 2027 17:32:37.925            41.924                Sumatra          5240.500
       303   06 Jun 2027 18:47:12.611   06 Jun 2027 18:48:44.991            92.380                Novosib         11547.500
       304   06 Jun 2027 18:51:38.761   06 Jun 2027 18:53:54.675           135.914                  Delhi         16989.250
       305   06 Jun 2027 18:56:05.423   06 Jun 2027 18:57:28.965            83.542                  Delhi         10442.750
       306   06 Jun 2027 20:22:49.636   06 Jun 2027 20:26:45.294           235.658                 Moscow         24222.375
       307   07 Jun 2027 04:18:30.103   07 Jun 2027 04:19:37.540            67.437                Novosib          8429.625
       308   07 Jun 2027 04:19:47.400   07 Jun 2027 04:21:28.548           101.148              Murmansk2         12643.500
       309   07 Jun 2027 05:27:55.752   07 Jun 2027 05:30:29.494           153.742                Sumatra         19217.750
       310   07 Jun 2027 05:38:23.841   07 Jun 2027 05:41:20.571           176.730                  Delhi         22091.250
       311   07 Jun 2027 05:54:22.942   07 Jun 2027 06:01:30.201           427.259              Murmansk2         53407.375
       312   07 Jun 2027 06:37:48.751   07 Jun 2027 06:38:52.645            63.894            RioGallegos          7986.750
       313   07 Jun 2027 07:08:42.563   07 Jun 2027 07:09:57.207            74.644                Sumatra          9330.500
       314   07 Jun 2027 07:12:10.702   07 Jun 2027 07:16:42.351           271.649                  Delhi         33956.125
       315   07 Jun 2027 07:19:01.666   07 Jun 2027 07:19:14.131            12.465                  Delhi          1558.125
       316   07 Jun 2027 07:19:54.113   07 Jun 2027 07:20:05.304            11.191                Novosib          1398.875
       317   07 Jun 2027 07:20:13.634   07 Jun 2027 07:21:53.346            99.712                  Delhi         12464.000
       318   07 Jun 2027 07:21:58.156   07 Jun 2027 07:24:08.332           130.176                Novosib         16272.000
       319   07 Jun 2027 07:24:47.916   07 Jun 2027 07:25:28.628            40.712                 Moscow          5089.000
       320   07 Jun 2027 07:25:37.104   07 Jun 2027 07:25:49.927            12.823                Norilsk          1602.875
       321   07 Jun 2027 07:30:09.877   07 Jun 2027 07:31:05.313            55.436                Norilsk          6929.500
       322   07 Jun 2027 07:31:16.634   07 Jun 2027 07:34:28.574           191.940              Murmansk2         23992.500
       323   07 Jun 2027 07:35:09.872   07 Jun 2027 07:35:18.285             8.413                Norilsk          1051.625
       324   07 Jun 2027 09:06:26.991   07 Jun 2027 09:10:58.759           271.768                Norilsk         33971.000
       325   07 Jun 2027 09:11:03.364   07 Jun 2027 09:12:54.176           110.812              Murmansk1         13851.500
       326   07 Jun 2027 10:11:18.753   07 Jun 2027 10:21:16.930           598.177               CapeTown         74772.125
       327   07 Jun 2027 10:33:43.675   07 Jun 2027 10:43:40.038           596.363                 Moscow         74545.375
       328   07 Jun 2027 10:43:47.685   07 Jun 2027 10:45:59.689           132.004              Murmansk1         16500.500
       329   07 Jun 2027 10:47:39.659   07 Jun 2027 10:47:57.469            17.810              Murmansk1          2226.250
       330   07 Jun 2027 10:48:20.192   07 Jun 2027 10:48:42.650            22.458              Murmansk1          2807.250
       331   07 Jun 2027 10:51:05.892   07 Jun 2027 11:00:16.441           550.549                Anadyr1         68818.625
       332   07 Jun 2027 12:16:08.921   07 Jun 2027 12:19:18.947           190.026              Murmansk1         23753.250
       333   07 Jun 2027 12:19:21.322   07 Jun 2027 12:19:32.056            10.734              Murmansk1          1341.750
       334   07 Jun 2027 12:26:35.424   07 Jun 2027 12:27:16.495            41.071                Anadyr1          5133.875
       335   07 Jun 2027 12:30:09.706   07 Jun 2027 12:34:03.256           233.550               Magadan1         29193.750
       336   07 Jun 2027 14:04:52.421   07 Jun 2027 14:06:00.717            68.296               Magadan2          8537.000
       337   07 Jun 2027 14:07:41.662   07 Jun 2027 14:09:31.207           109.545               Magadan1         13693.125
       338   07 Jun 2027 15:46:08.845   07 Jun 2027 15:49:33.806           204.961                Irkutsk         25620.125
       339   07 Jun 2027 15:50:19.299   07 Jun 2027 15:52:53.006           153.707                Irkutsk         19213.375
       340   07 Jun 2027 16:02:24.981   07 Jun 2027 16:03:38.825            73.844                Sumatra          9230.500
       341   07 Jun 2027 17:21:14.919   07 Jun 2027 17:22:59.127           104.208                Novosib         13026.000
       342   07 Jun 2027 17:26:44.066   07 Jun 2027 17:27:54.053            69.987                Novosib          8748.375
       343   07 Jun 2027 17:41:42.733   07 Jun 2027 17:42:34.246            51.513                Sumatra          6439.125
       344   07 Jun 2027 19:00:29.020   07 Jun 2027 19:01:11.942            42.922                Novosib          5365.250
       345   07 Jun 2027 19:03:30.154   07 Jun 2027 19:06:55.057           204.903                  Delhi         25612.875
       346   07 Jun 2027 20:33:55.702   07 Jun 2027 20:35:08.784            73.082              Murmansk2          9135.250
       347   07 Jun 2027 20:35:43.734   07 Jun 2027 20:38:39.605           175.871                 Moscow         20106.875
       348   08 Jun 2027 04:30:32.584   08 Jun 2027 04:34:27.382           234.798                Norilsk         29349.750
       349   08 Jun 2027 05:39:56.847   08 Jun 2027 05:42:08.669           131.822                Sumatra         16477.750
       350   08 Jun 2027 05:49:45.714   08 Jun 2027 05:50:28.065            42.351                  Delhi          5293.875
       351   08 Jun 2027 05:56:05.103   08 Jun 2027 05:57:05.685            60.582                  Delhi          7572.750
       352   08 Jun 2027 06:06:21.671   08 Jun 2027 06:13:26.672           425.001              Murmansk2         53125.125
       353   08 Jun 2027 06:46:15.232   08 Jun 2027 06:47:51.528            96.296            RioGallegos         12037.000
       354   08 Jun 2027 06:48:19.171   08 Jun 2027 06:48:23.884             4.713            RioGallegos           589.125
       355   08 Jun 2027 07:24:21.458   08 Jun 2027 07:29:06.152           284.694                  Delhi         35586.750
       356   08 Jun 2027 07:32:17.735   08 Jun 2027 07:34:09.001           111.266                  Delhi         13908.250
       357   08 Jun 2027 07:34:39.984   08 Jun 2027 07:36:21.604           101.620                Novosib         12702.500
       358   08 Jun 2027 07:36:58.932   08 Jun 2027 07:37:21.211            22.279                 Moscow          2784.875
       359   08 Jun 2027 07:41:55.766   08 Jun 2027 07:43:22.130            86.364                Novosib         10795.500
       360   08 Jun 2027 07:43:33.565   08 Jun 2027 07:45:17.894           104.329                 Moscow         13041.125
       361   08 Jun 2027 07:45:31.140   08 Jun 2027 07:47:16.892           105.752              Murmansk2         13219.000
       362   08 Jun 2027 07:47:16.892   08 Jun 2027 07:49:01.754           104.862              Murmansk1         13107.750
       363   08 Jun 2027 09:08:31.972   08 Jun 2027 09:09:47.385            75.413                 Moscow          9426.625
       364   08 Jun 2027 09:12:48.891   08 Jun 2027 09:13:26.281            37.390              Murmansk2          4673.750
       365   08 Jun 2027 09:17:08.531   08 Jun 2027 09:21:26.236           257.705                 Moscow         32213.125
       366   08 Jun 2027 09:21:46.104   08 Jun 2027 09:24:55.761           189.657              Murmansk2         23707.125
       367   08 Jun 2027 10:23:50.131   08 Jun 2027 10:29:29.823           339.692               CapeTown         42461.500
       368   08 Jun 2027 10:48:11.038   08 Jun 2027 10:50:05.447           114.409                 Moscow         14301.125
       369   08 Jun 2027 10:50:20.501   08 Jun 2027 10:58:00.148           459.647              Murmansk2         57455.875
       370   08 Jun 2027 11:03:00.461   08 Jun 2027 11:05:33.710           153.249                Anadyr1         19156.125
       371   08 Jun 2027 11:05:52.488   08 Jun 2027 11:07:31.044            98.556                Anadyr2         12319.500
       372   08 Jun 2027 11:07:47.868   08 Jun 2027 11:08:22.183            34.315                Anadyr1          4289.375
       373   08 Jun 2027 11:11:25.369   08 Jun 2027 11:12:31.737            66.368                Anadyr2          8296.000
       374   08 Jun 2027 12:07:20.449   08 Jun 2027 12:07:47.007            26.558               CapeTown          3319.750
       375   08 Jun 2027 12:28:47.832   08 Jun 2027 12:30:06.914            79.082              Murmansk1          9885.250
       376   08 Jun 2027 12:38:35.979   08 Jun 2027 12:39:13.399            37.420                Anadyr2          4677.500
       377   08 Jun 2027 12:40:04.353   08 Jun 2027 12:40:55.605            51.252                Anadyr2          6406.500
       378   08 Jun 2027 12:41:51.634   08 Jun 2027 12:42:09.257            17.623               Magadan2          2202.875
       379   08 Jun 2027 12:43:28.695   08 Jun 2027 12:47:06.693           217.998               Magadan1         27249.750
       380   08 Jun 2027 14:16:51.206   08 Jun 2027 14:17:50.204            58.998               Magadan1          7374.750
       381   08 Jun 2027 15:11:20.388   08 Jun 2027 15:13:56.478           156.090            RioGallegos         19511.250
       382   08 Jun 2027 15:57:38.950   08 Jun 2027 16:01:24.536           225.586                Irkutsk         28198.250
       383   08 Jun 2027 16:12:55.654   08 Jun 2027 16:15:16.900           141.246                Sumatra         17655.750
       384   08 Jun 2027 16:17:29.129   08 Jun 2027 16:19:38.935           129.806                Sumatra         16225.750
       385   08 Jun 2027 17:39:08.772   08 Jun 2027 17:41:45.288           156.516                Novosib         19564.500
       386   08 Jun 2027 17:43:55.570   08 Jun 2027 17:45:10.044            74.474                  Delhi          9309.250
       387   08 Jun 2027 19:15:25.345   08 Jun 2027 19:17:55.717           150.372                  Delhi         18796.500
       388   08 Jun 2027 20:46:20.191   08 Jun 2027 20:48:50.266           150.075                 Moscow         18759.375
       389   08 Jun 2027 22:45:27.695   08 Jun 2027 22:46:37.994            70.299               CapeTown          3722.750
       390   09 Jun 2027 04:18:25.281   09 Jun 2027 04:21:08.667           163.386                Sumatra         20423.250
       391   09 Jun 2027 04:32:55.848   09 Jun 2027 04:34:03.158            67.310                Irkutsk          8413.750
       392   09 Jun 2027 04:42:33.381   09 Jun 2027 04:48:45.063           371.682              Murmansk2         46460.250
       393   09 Jun 2027 04:48:45.063   09 Jun 2027 04:50:20.325            95.262              Murmansk1         11907.750
       394   09 Jun 2027 05:17:38.146   09 Jun 2027 05:22:04.581           266.435            RioGallegos         33304.375
       395   09 Jun 2027 05:52:03.611   09 Jun 2027 05:53:32.397            88.786                Sumatra         11098.250
       396   09 Jun 2027 05:54:59.119   09 Jun 2027 05:56:59.660           120.541                Sumatra         15067.625
       397   09 Jun 2027 06:07:01.496   09 Jun 2027 06:08:21.904            80.408                Novosib         10051.000
       398   09 Jun 2027 06:09:12.927   09 Jun 2027 06:09:56.707            43.780                Irkutsk          5472.500
       399   09 Jun 2027 06:10:44.893   09 Jun 2027 06:10:50.945             6.052                Irkutsk           756.500
       400   09 Jun 2027 06:16:50.502   09 Jun 2027 06:16:57.539             7.037              Murmansk1           879.625
       401   09 Jun 2027 06:18:12.860   09 Jun 2027 06:18:42.133            29.273                Norilsk          3659.125
       402   09 Jun 2027 06:18:43.929   09 Jun 2027 06:19:55.598            71.669                Novosib          8958.625
       403   09 Jun 2027 06:19:57.456   09 Jun 2027 06:20:41.167            43.711                 Moscow          5463.875
       404   09 Jun 2027 06:20:44.092   09 Jun 2027 06:25:08.431           264.339              Murmansk2         33042.375
       405   09 Jun 2027 07:36:38.427   09 Jun 2027 07:43:45.722           427.295                  Delhi         53411.875
       406   09 Jun 2027 07:44:07.597   09 Jun 2027 07:46:31.569           143.972                  Delhi         17996.500
       407   09 Jun 2027 07:46:40.258   09 Jun 2027 07:48:38.453           118.195                Novosib         14774.375
       408   09 Jun 2027 07:54:02.057   09 Jun 2027 08:01:02.149           420.092              Murmansk2         52511.500
       409   09 Jun 2027 09:23:51.840   09 Jun 2027 09:27:32.820           220.980                 Moscow         27622.500
       410   09 Jun 2027 09:28:56.476   09 Jun 2027 09:31:10.998           134.522              Murmansk1         16815.250
       411   09 Jun 2027 09:31:10.998   09 Jun 2027 09:36:57.407           346.409              Murmansk2         43301.125
       412   09 Jun 2027 10:39:21.500   09 Jun 2027 10:40:45.133            83.633               CapeTown         10454.125
       413   09 Jun 2027 11:01:33.555   09 Jun 2027 11:02:31.865            58.310              Murmansk1          7288.750
       414   09 Jun 2027 11:02:31.865   09 Jun 2027 11:03:43.377            71.512              Murmansk2          8939.000
       415   09 Jun 2027 11:04:08.241   09 Jun 2027 11:04:35.631            27.390              Murmansk2          3423.750
       416   09 Jun 2027 11:05:07.150   09 Jun 2027 11:05:26.842            19.692              Murmansk2          2461.500
       417   09 Jun 2027 11:05:34.754   09 Jun 2027 11:05:50.527            15.773              Murmansk2          1971.625
       418   09 Jun 2027 11:06:32.910   09 Jun 2027 11:10:49.723           256.813              Murmansk2         32101.625
       419   09 Jun 2027 11:14:56.514   09 Jun 2027 11:17:37.667           161.153                Anadyr1         20144.125
       420   09 Jun 2027 11:18:39.883   09 Jun 2027 11:19:30.334            50.451                Anadyr1          6306.375
       421   09 Jun 2027 11:21:21.053   09 Jun 2027 11:22:51.129            90.076                Anadyr2         11259.500
       422   09 Jun 2027 11:24:17.741   09 Jun 2027 11:24:28.728            10.987                Anadyr2          1373.375
       423   09 Jun 2027 12:41:30.853   09 Jun 2027 12:42:41.944            71.091              Murmansk1          8886.375
       424   09 Jun 2027 12:53:38.564   09 Jun 2027 12:57:53.057           254.493               Magadan2         31811.625
       425   09 Jun 2027 14:28:50.651   09 Jun 2027 14:29:42.302            51.651               Magadan1          6456.375
       426   09 Jun 2027 14:38:25.141   09 Jun 2027 14:38:26.706             1.565               Magadan1           195.625
       427   09 Jun 2027 15:22:24.789   09 Jun 2027 15:25:43.242           198.453            RioGallegos         24806.625
       428   09 Jun 2027 16:09:39.919   09 Jun 2027 16:11:20.314           100.395                Irkutsk         12549.375
       429   09 Jun 2027 16:15:16.587   09 Jun 2027 16:15:46.385            29.798                Irkutsk          3724.750
       430   09 Jun 2027 16:24:00.143   09 Jun 2027 16:27:02.071           181.928                Sumatra         22741.000
       431   09 Jun 2027 17:47:21.195   09 Jun 2027 17:49:04.003           102.808                Novosib         12851.000
       432   09 Jun 2027 17:54:17.275   09 Jun 2027 17:56:50.308           153.033                  Delhi         19129.125
       433   09 Jun 2027 17:58:32.097   09 Jun 2027 18:01:04.924           152.827                  Delhi         19103.375
       434   09 Jun 2027 20:58:10.732   09 Jun 2027 21:00:57.132           166.400                 Moscow         20800.000
       435   09 Jun 2027 21:24:47.704   09 Jun 2027 21:26:50.457           122.753               CapeTown         15344.125
       436   10 Jun 2027 03:17:20.398   10 Jun 2027 03:18:20.822            60.424               Magadan2          7553.000
       437   10 Jun 2027 03:18:23.552   10 Jun 2027 03:20:12.735           109.183              Murmansk2         13647.875
       438   10 Jun 2027 04:29:38.966   10 Jun 2027 04:32:57.015           198.049                Sumatra         24756.125
       439   10 Jun 2027 04:54:21.197   10 Jun 2027 04:54:59.982            38.785              Murmansk1          4848.125
       440   10 Jun 2027 04:54:59.982   10 Jun 2027 05:02:12.586           432.604              Murmansk2         54075.500
       441   10 Jun 2027 05:32:47.558   10 Jun 2027 05:33:24.549            36.991            RioGallegos          4623.875
       442   10 Jun 2027 06:04:16.466   10 Jun 2027 06:06:47.783           151.317                Sumatra         18914.625
       443   10 Jun 2027 06:15:06.409   10 Jun 2027 06:17:00.201           113.792                  Delhi         14224.000
       444   10 Jun 2027 06:19:04.697   10 Jun 2027 06:21:20.017           135.320                Novosib         16915.000
       445   10 Jun 2027 06:21:53.937   10 Jun 2027 06:22:21.176            27.239                Novosib          3404.875
       446   10 Jun 2027 06:22:54.971   10 Jun 2027 06:23:07.566            12.595                Irkutsk          1574.375
       447   10 Jun 2027 06:29:30.961   10 Jun 2027 06:31:55.849           144.888                Novosib         18111.000
       448   10 Jun 2027 06:31:59.222   10 Jun 2027 06:34:43.613           164.391              Murmansk1         20548.875
       449   10 Jun 2027 06:34:51.008   10 Jun 2027 06:35:24.473            33.465                Norilsk          4183.125
       450   10 Jun 2027 06:35:50.750   10 Jun 2027 06:36:57.166            66.416              Murmansk2          8302.000
       451   10 Jun 2027 06:37:08.844   10 Jun 2027 06:37:21.353            12.509              Murmansk2          1563.625
       452   10 Jun 2027 07:49:02.533   10 Jun 2027 07:53:13.048           250.515                  Delhi         31314.375
       453   10 Jun 2027 07:56:16.060   10 Jun 2027 07:57:16.604            60.544                  Delhi          7568.000
       454   10 Jun 2027 07:57:21.472   10 Jun 2027 08:00:59.185           217.713                Novosib         27214.125
       455   10 Jun 2027 08:06:25.346   10 Jun 2027 08:13:02.810           397.464              Murmansk1         49683.000
       456   10 Jun 2027 09:32:40.145   10 Jun 2027 09:38:10.758           330.613                 Moscow         41326.625
       457   10 Jun 2027 09:38:37.057   10 Jun 2027 09:39:27.231            50.174              Murmansk1          6271.750
       458   10 Jun 2027 09:40:22.289   10 Jun 2027 09:45:52.646           330.357              Murmansk1         41294.625
       459   10 Jun 2027 09:46:01.901   10 Jun 2027 09:47:29.588            87.687              Murmansk2         10960.875
       460   10 Jun 2027 09:52:54.767   10 Jun 2027 09:56:00.000           185.232                Anadyr2         23154.000
       461   10 Jun 2027 11:13:55.610   10 Jun 2027 11:14:53.407            57.797              Murmansk2          7224.625
       462   10 Jun 2027 11:16:36.923   10 Jun 2027 11:17:06.907            29.984              Murmansk1          3748.000
       463   10 Jun 2027 11:17:32.075   10 Jun 2027 11:17:39.979             7.904              Murmansk1           988.000
       464   10 Jun 2027 11:17:58.760   10 Jun 2027 11:18:27.906            29.146              Murmansk1          3643.250
       465   10 Jun 2027 11:19:48.347   10 Jun 2027 11:22:51.312           182.965              Murmansk1         22870.625
       466   10 Jun 2027 11:23:21.944   10 Jun 2027 11:23:37.511            15.567              Murmansk1          1945.875
       467   10 Jun 2027 11:23:46.711   10 Jun 2027 11:23:49.422             2.711              Murmansk1           338.875
       468   10 Jun 2027 11:26:53.711   10 Jun 2027 11:28:16.703            82.992                Anadyr2         10374.000
       469   10 Jun 2027 11:29:48.236   10 Jun 2027 11:32:05.503           137.267                Anadyr2         17158.375
       470   10 Jun 2027 11:36:18.738   10 Jun 2027 11:36:26.659             7.921                Anadyr1           990.125
       471   10 Jun 2027 12:22:27.095   10 Jun 2027 12:22:31.926             4.831               CapeTown           603.875
       472   10 Jun 2027 12:24:23.498   10 Jun 2027 12:25:06.117            42.619               CapeTown          5327.375
       473   10 Jun 2027 12:26:48.955   10 Jun 2027 12:27:00.905            11.950               CapeTown          1493.750
       474   10 Jun 2027 12:30:02.762   10 Jun 2027 12:32:03.934           121.172               CapeTown         15146.500
       475   10 Jun 2027 12:54:19.034   10 Jun 2027 12:55:34.960            75.926              Murmansk2          9490.750
       476   10 Jun 2027 13:05:28.844   10 Jun 2027 13:11:06.536           337.692               Magadan2         42211.500
       477   10 Jun 2027 15:33:51.978   10 Jun 2027 15:37:33.289           221.311            RioGallegos         27663.875
       478   10 Jun 2027 16:23:29.168   10 Jun 2027 16:25:12.556           103.388                Irkutsk         12923.500
       479   10 Jun 2027 16:35:59.221   10 Jun 2027 16:37:02.315            63.094                Sumatra          7886.750
       480   10 Jun 2027 16:41:55.826   10 Jun 2027 16:43:03.584            67.758                Sumatra          8469.750
       481   10 Jun 2027 17:56:38.312   10 Jun 2027 17:57:41.821            63.509                Novosib          7938.625
       482   10 Jun 2027 17:59:27.421   10 Jun 2027 18:00:13.062            45.641                Novosib          5705.125
