uniorb/output/strategy_4/Drop/Drop_KinoSat_111904.txt

KinoSat_111904
-------------------------
    Access    *     Start Time (UTCG)     *     Stop Time (UTCG)  *   Duration (s)        *       Station  *  Data (Mbytes)
         1   01 Jun 2027 03:11:17.700   01 Jun 2027 03:11:50.304            32.604               Magadan1          1018.875
         2   01 Jun 2027 03:12:36.341   01 Jun 2027 03:14:07.679            91.338                Irkutsk          2854.313
         3   01 Jun 2027 03:14:08.060   01 Jun 2027 03:14:25.796            17.736                Novosib           554.250
         4   01 Jun 2027 03:14:39.544   01 Jun 2027 03:19:01.956           262.412                Irkutsk          8200.375
         5   01 Jun 2027 04:00:01.085   01 Jun 2027 04:00:47.598            46.513            RioGallegos          1453.531
         6   01 Jun 2027 04:03:08.146   01 Jun 2027 04:03:35.308            27.162            RioGallegos           848.813
         7   01 Jun 2027 04:50:13.539   01 Jun 2027 04:50:17.395             3.856              Murmansk2           120.500
         8   01 Jun 2027 04:50:30.644   01 Jun 2027 04:53:11.514           160.870                Novosib          5027.187
         9   01 Jun 2027 04:53:18.369   01 Jun 2027 04:54:34.886            76.517                Novosib          2391.156
        10   01 Jun 2027 04:54:56.023   01 Jun 2027 04:56:06.413            70.390                Novosib          2199.688
        11   01 Jun 2027 04:56:50.487   01 Jun 2027 05:00:48.626           238.139                  Delhi          7441.844
        12   01 Jun 2027 06:29:42.744   01 Jun 2027 06:31:18.823            96.079              Murmansk1          3002.469
        13   01 Jun 2027 06:32:28.157   01 Jun 2027 06:32:40.537            12.380              Murmansk1           386.875
        14   01 Jun 2027 06:33:12.659   01 Jun 2027 06:33:25.740            13.081              Murmansk1           408.781
        15   01 Jun 2027 06:47:45.232   01 Jun 2027 06:50:35.290           170.058               CapeTown          5314.312
        16   01 Jun 2027 07:51:35.482   01 Jun 2027 07:52:55.273            79.791                Anadyr1          2493.469
        17   01 Jun 2027 07:55:21.117   01 Jun 2027 07:57:20.410           119.293                Anadyr1          3727.906
        18   01 Jun 2027 09:28:33.025   01 Jun 2027 09:29:15.626            42.601                Anadyr1          1331.281
        19   01 Jun 2027 09:29:15.626   01 Jun 2027 09:33:03.087           227.461                Anadyr2          7108.156
        20   01 Jun 2027 11:04:42.768   01 Jun 2027 11:05:31.450            48.682                Irkutsk          1521.312
        21   01 Jun 2027 11:05:38.326   01 Jun 2027 11:08:29.033           170.707               Magadan2          5334.594
        22   01 Jun 2027 13:21:03.001   01 Jun 2027 13:21:14.259            11.258            RioGallegos           351.813
        23   01 Jun 2027 13:28:03.402   01 Jun 2027 13:31:39.040           215.638            RioGallegos          6738.688
        24   01 Jun 2027 13:54:43.058   01 Jun 2027 13:56:51.180           128.122                Sumatra          4003.812
        25   01 Jun 2027 13:59:27.447   01 Jun 2027 14:06:00.976           393.529                Sumatra         12297.781
        26   01 Jun 2027 14:09:55.964   01 Jun 2027 14:12:46.663           170.699                Irkutsk          5334.344
        27   01 Jun 2027 14:14:45.954   01 Jun 2027 14:19:41.238           295.284                Irkutsk          9227.625
        28   01 Jun 2027 15:43:11.520   01 Jun 2027 15:46:55.340           223.820                  Delhi          6994.375
        29   01 Jun 2027 15:49:45.548   01 Jun 2027 15:50:00.315            14.767                  Delhi           461.469
        30   01 Jun 2027 15:50:39.671   01 Jun 2027 15:57:03.608           383.937                Novosib         11998.031
        31   01 Jun 2027 17:36:19.625   01 Jun 2027 17:36:20.790             1.165                Norilsk            36.406
        32   01 Jun 2027 19:06:36.917   01 Jun 2027 19:08:58.007           141.090                 Moscow          4409.062
        33   01 Jun 2027 19:13:01.980   01 Jun 2027 19:14:32.603            90.623              Murmansk1          2831.969
        34   01 Jun 2027 20:19:14.953   01 Jun 2027 20:20:35.091            80.138               CapeTown          2504.313
        35   01 Jun 2027 20:22:43.351   01 Jun 2027 20:23:24.144            40.793               CapeTown          1274.781
        36   01 Jun 2027 20:45:07.188   01 Jun 2027 20:50:22.052           314.864              Murmansk1          9839.500
        37   01 Jun 2027 22:31:01.263   01 Jun 2027 22:32:18.068            76.805               Magadan2          2400.156
        38   01 Jun 2027 22:39:30.001   01 Jun 2027 22:39:45.113            15.112               Magadan2           472.250
        39   01 Jun 2027 22:40:00.804   01 Jun 2027 22:40:29.847            29.043               Magadan1           907.594
        40   01 Jun 2027 23:23:40.406   01 Jun 2027 23:25:58.753           138.347            RioGallegos          4323.344
        41   01 Jun 2027 23:26:16.425   01 Jun 2027 23:26:54.172            37.747            RioGallegos          1179.594
        42   01 Jun 2027 23:29:59.917   01 Jun 2027 23:30:11.385            11.468            RioGallegos           358.375
        43   01 Jun 2027 23:30:23.047   01 Jun 2027 23:30:58.835            35.788            RioGallegos          1118.375
        44   02 Jun 2027 00:04:29.379   02 Jun 2027 00:05:38.853            69.474                Anadyr1          2171.063
        45   02 Jun 2027 00:05:39.501   02 Jun 2027 00:05:53.032            13.531                Anadyr2           422.844
        46   02 Jun 2027 00:06:34.962   02 Jun 2027 00:08:10.690            95.728                Norilsk          2991.500
        47   02 Jun 2027 00:08:14.993   02 Jun 2027 00:08:28.470            13.477               Magadan1           421.156
        48   02 Jun 2027 00:09:07.129   02 Jun 2027 00:10:06.568            59.439                Norilsk          1857.469
        49   02 Jun 2027 00:10:42.421   02 Jun 2027 00:10:43.302             0.881               Magadan1            27.531
        50   02 Jun 2027 00:11:01.538   02 Jun 2027 00:11:52.846            51.308                Irkutsk          1603.375
        51   02 Jun 2027 00:13:10.203   02 Jun 2027 00:14:31.922            81.719                Irkutsk          2553.719
        52   02 Jun 2027 00:18:09.755   02 Jun 2027 00:19:17.543            67.788                Irkutsk          2118.375
        53   02 Jun 2027 00:25:07.265   02 Jun 2027 00:25:29.104            21.839                Sumatra           682.469
        54   02 Jun 2027 00:28:14.869   02 Jun 2027 00:28:57.500            42.631                Sumatra          1332.219
        55   02 Jun 2027 00:31:10.241   02 Jun 2027 00:31:48.862            38.621                Sumatra          1206.906
        56   02 Jun 2027 00:34:24.110   02 Jun 2027 00:35:02.352            38.242                Sumatra          1195.062
        57   02 Jun 2027 01:04:13.157   02 Jun 2027 01:04:23.559            10.402            RioGallegos           325.062
        58   02 Jun 2027 01:06:41.372   02 Jun 2027 01:07:04.685            23.313            RioGallegos           728.531
        59   02 Jun 2027 01:09:49.937   02 Jun 2027 01:10:05.851            15.914            RioGallegos           497.312
        60   02 Jun 2027 01:39:29.909   02 Jun 2027 01:40:16.050            46.141                Anadyr1          1441.906
        61   02 Jun 2027 01:40:16.050   02 Jun 2027 01:40:48.746            32.696                Anadyr2          1021.750
        62   02 Jun 2027 01:41:26.001   02 Jun 2027 01:41:51.001            25.000                Anadyr1           781.250
        63   02 Jun 2027 01:42:19.233   02 Jun 2027 01:42:37.711            18.478                Anadyr1           577.438
        64   02 Jun 2027 01:42:55.720   02 Jun 2027 01:44:11.133            75.413                Norilsk          2356.656
        65   02 Jun 2027 01:44:22.288   02 Jun 2027 01:44:53.923            31.635                Norilsk           988.594
        66   02 Jun 2027 01:46:20.407   02 Jun 2027 01:46:22.842             2.435                Norilsk            76.094
        67   02 Jun 2027 01:46:29.991   02 Jun 2027 01:48:43.734           133.743                Irkutsk          4179.469
        68   02 Jun 2027 01:51:29.062   02 Jun 2027 01:51:50.041            20.979                Novosib           655.594
        69   02 Jun 2027 01:53:04.121   02 Jun 2027 01:53:18.852            14.731                Novosib           460.344
        70   02 Jun 2027 01:55:04.041   02 Jun 2027 01:55:30.969            26.928                  Delhi           841.500
        71   02 Jun 2027 01:58:26.842   02 Jun 2027 01:58:43.568            16.726                  Delhi           522.687
        72   02 Jun 2027 02:00:55.672   02 Jun 2027 02:04:50.050           234.378                Sumatra          7324.312
        73   02 Jun 2027 03:23:16.193   02 Jun 2027 03:23:19.058             2.865               Magadan2            89.531
        74   02 Jun 2027 03:24:36.375   02 Jun 2027 03:27:37.048           180.673                Irkutsk          5646.031
        75   02 Jun 2027 03:27:47.810   02 Jun 2027 03:28:14.711            26.901                 Moscow           840.656
        76   02 Jun 2027 03:28:17.445   02 Jun 2027 03:28:35.753            18.308              Murmansk1           572.125
        77   02 Jun 2027 03:28:39.118   02 Jun 2027 03:29:29.086            49.968                 Moscow          1561.500
        78   02 Jun 2027 03:29:34.888   02 Jun 2027 03:32:15.416           160.528                Irkutsk          5016.500
        79   02 Jun 2027 04:12:38.968   02 Jun 2027 04:16:13.791           214.823            RioGallegos          6713.219
        80   02 Jun 2027 05:05:22.218   02 Jun 2027 05:09:00.784           218.566                Novosib          6830.187
        81   02 Jun 2027 06:20:45.299   02 Jun 2027 06:20:53.411             8.112                Anadyr2           253.500
        82   02 Jun 2027 06:21:22.060   02 Jun 2027 06:22:24.976            62.916                Anadyr2          1966.125
        83   02 Jun 2027 06:33:07.090   02 Jun 2027 06:33:25.578            18.488                Anadyr2           577.750
        84   02 Jun 2027 06:40:05.199   02 Jun 2027 06:41:10.672            65.473                Norilsk          2046.031
        85   02 Jun 2027 06:42:15.638   02 Jun 2027 06:43:16.606            60.968              Murmansk2          1905.250
        86   02 Jun 2027 06:43:39.574   02 Jun 2027 06:44:45.501            65.927                 Moscow          2060.219
        87   02 Jun 2027 06:46:48.960   02 Jun 2027 06:46:59.861            10.901                 Moscow           340.656
        88   02 Jun 2027 06:47:24.958   02 Jun 2027 06:48:34.913            69.955                 Moscow          2186.094
        89   02 Jun 2027 07:06:06.511   02 Jun 2027 07:09:44.943           218.432               CapeTown          6826.000
        90   02 Jun 2027 08:03:42.213   02 Jun 2027 08:03:49.761             7.548               Magadan1           235.875
        91   02 Jun 2027 08:04:43.045   02 Jun 2027 08:09:21.812           278.767                Anadyr2          8711.469
        92   02 Jun 2027 09:39:04.079   02 Jun 2027 09:39:51.976            47.897                Anadyr1          1496.781
        93   02 Jun 2027 09:40:18.459   02 Jun 2027 09:41:10.115            51.656                Anadyr1          1614.250
        94   02 Jun 2027 09:41:14.924   02 Jun 2027 09:42:22.240            67.316                Anadyr1          2103.625
        95   02 Jun 2027 10:26:18.313   02 Jun 2027 10:26:32.032            13.719            RioGallegos           428.719
        96   02 Jun 2027 11:10:17.014   02 Jun 2027 11:10:46.625            29.611               Magadan1           925.344
        97   02 Jun 2027 11:14:17.996   02 Jun 2027 11:18:21.756           243.760               Magadan2          7617.500
        98   02 Jun 2027 11:18:21.756   02 Jun 2027 11:20:07.613           105.857               Magadan1          3308.031
        99   02 Jun 2027 11:20:31.205   02 Jun 2027 11:20:42.099            10.894                Norilsk           340.438
       100   02 Jun 2027 11:55:22.574   02 Jun 2027 11:56:37.610            75.036            RioGallegos          2344.875
       101   02 Jun 2027 12:30:55.703   02 Jun 2027 12:32:28.899            93.196                Sumatra          2912.375
       102   02 Jun 2027 12:43:51.417   02 Jun 2027 12:47:05.572           194.155                Irkutsk          6067.344
       103   02 Jun 2027 12:52:22.456   02 Jun 2027 12:53:36.495            74.039                Norilsk          2313.719
       104   02 Jun 2027 13:32:57.255   02 Jun 2027 13:34:02.898            65.643            RioGallegos          2051.344
       105   02 Jun 2027 13:37:15.111   02 Jun 2027 13:37:51.553            36.442            RioGallegos          1138.813
       106   02 Jun 2027 14:07:10.690   02 Jun 2027 14:10:19.669           188.979                Sumatra          5905.594
       107   02 Jun 2027 14:22:38.848   02 Jun 2027 14:26:42.019           243.171                Irkutsk          7599.094
       108   02 Jun 2027 15:52:21.336   02 Jun 2027 15:54:06.273           104.937                  Delhi          3279.281
       109   02 Jun 2027 15:58:42.094   02 Jun 2027 16:00:22.966           100.872                  Delhi          3152.250
       110   02 Jun 2027 16:00:50.663   02 Jun 2027 16:05:14.365           263.702                Novosib          8240.688
       111   02 Jun 2027 17:35:08.919   02 Jun 2027 17:35:12.581             3.662                 Moscow           114.438
       112   02 Jun 2027 17:38:02.374   02 Jun 2027 17:39:40.476            98.102                 Moscow          3065.687
       113   02 Jun 2027 17:41:57.399   02 Jun 2027 17:42:27.849            30.450              Murmansk1           951.563
       114   02 Jun 2027 17:46:58.453   02 Jun 2027 17:47:29.957            31.504                Norilsk           984.500
       115   02 Jun 2027 17:54:00.891   02 Jun 2027 17:54:58.413            57.522                Anadyr1          1797.562
       116   02 Jun 2027 17:57:55.454   02 Jun 2027 17:58:25.112            29.658                Anadyr2           926.813
       117   02 Jun 2027 18:48:23.056   02 Jun 2027 18:50:23.402           120.346               CapeTown          3760.813
       118   02 Jun 2027 19:15:06.853   02 Jun 2027 19:19:16.920           250.067                 Moscow          7814.594
       119   02 Jun 2027 19:21:17.545   02 Jun 2027 19:22:00.876            43.331              Murmansk2          1354.094
       120   02 Jun 2027 19:39:28.663   02 Jun 2027 19:39:39.057            10.394                Anadyr1           324.812
       121   02 Jun 2027 20:25:14.160   02 Jun 2027 20:30:22.518           308.358               CapeTown          9636.188
       122   02 Jun 2027 20:58:10.373   02 Jun 2027 21:02:02.622           232.249              Murmansk1          7257.781
       123   02 Jun 2027 22:40:46.848   02 Jun 2027 22:46:01.384           314.536                Anadyr2          9829.250
       124   02 Jun 2027 22:46:07.549   02 Jun 2027 22:47:34.112            86.563               Magadan1          2705.094
       125   02 Jun 2027 22:48:18.975   02 Jun 2027 22:48:44.631            25.656               Magadan2           801.750
       126   02 Jun 2027 22:53:40.793   02 Jun 2027 22:54:05.033            24.240               Magadan1           757.500
       127   02 Jun 2027 23:35:23.751   02 Jun 2027 23:37:29.521           125.770            RioGallegos          3930.313
       128   02 Jun 2027 23:37:35.369   02 Jun 2027 23:38:08.371            33.002            RioGallegos          1031.312
       129   02 Jun 2027 23:40:32.940   02 Jun 2027 23:40:51.882            18.942            RioGallegos           591.938
       130   03 Jun 2027 00:16:27.339   03 Jun 2027 00:18:44.741           137.402                Anadyr2          4293.813
       131   03 Jun 2027 00:18:44.741   03 Jun 2027 00:18:54.806            10.065                Anadyr1           314.531
       132   03 Jun 2027 00:19:05.426   03 Jun 2027 00:21:36.079           150.653               Magadan2          4707.906
       133   03 Jun 2027 00:22:10.846   03 Jun 2027 00:23:19.905            69.059               Magadan2          2158.094
       134   03 Jun 2027 00:25:09.775   03 Jun 2027 00:25:57.968            48.193                Irkutsk          1506.031
       135   03 Jun 2027 00:26:19.834   03 Jun 2027 00:26:45.264            25.430                Novosib           794.687
       136   03 Jun 2027 00:36:46.090   03 Jun 2027 00:38:39.297           113.207                Sumatra          3537.719
       137   03 Jun 2027 00:46:55.896   03 Jun 2027 00:48:34.504            98.608                Sumatra          3081.500
       138   03 Jun 2027 01:51:19.433   03 Jun 2027 01:53:31.632           132.199                Anadyr1          4131.219
       139   03 Jun 2027 01:54:32.025   03 Jun 2027 01:55:59.731            87.706                Norilsk          2740.812
       140   03 Jun 2027 01:58:24.564   03 Jun 2027 02:00:56.729           152.165                Irkutsk          4755.156
       141   03 Jun 2027 02:05:37.947   03 Jun 2027 02:05:59.050            21.103                Novosib           659.469
       142   03 Jun 2027 02:06:56.159   03 Jun 2027 02:07:26.671            30.512                  Delhi           953.500
       143   03 Jun 2027 02:13:14.424   03 Jun 2027 02:13:22.671             8.247                  Delhi           257.719
       144   03 Jun 2027 02:13:28.566   03 Jun 2027 02:18:20.350           291.784                Sumatra          9118.250
       145   03 Jun 2027 03:37:28.496   03 Jun 2027 03:39:10.527           102.031                Irkutsk          3188.469
       146   03 Jun 2027 03:39:32.284   03 Jun 2027 03:39:52.204            19.920                Norilsk           622.500
       147   03 Jun 2027 03:39:55.272   03 Jun 2027 03:43:45.337           230.065                Irkutsk          7189.531
       148   03 Jun 2027 03:44:24.473   03 Jun 2027 03:44:36.820            12.347                Irkutsk           385.844
       149   03 Jun 2027 05:08:14.304   03 Jun 2027 05:09:08.787            54.483                Anadyr1          1702.594
       150   03 Jun 2027 05:15:48.444   03 Jun 2027 05:16:13.228            24.784                 Moscow           774.500
       151   03 Jun 2027 05:17:08.884   03 Jun 2027 05:17:28.614            19.730                 Moscow           616.562
       152   03 Jun 2027 05:17:44.705   03 Jun 2027 05:20:10.287           145.582                Novosib          4549.437
       153   03 Jun 2027 05:20:20.378   03 Jun 2027 05:20:34.802            14.424                Novosib           450.750
       154   03 Jun 2027 05:21:22.109   03 Jun 2027 05:21:37.250            15.141                 Moscow           473.156
       155   03 Jun 2027 05:22:36.380   03 Jun 2027 05:22:49.367            12.987                 Moscow           405.844
       156   03 Jun 2027 05:23:20.883   03 Jun 2027 05:23:39.867            18.984                 Moscow           593.250
       157   03 Jun 2027 05:36:39.885   03 Jun 2027 05:37:46.898            67.013               CapeTown          2094.156
       158   03 Jun 2027 05:43:12.712   03 Jun 2027 05:43:27.449            14.737               CapeTown           460.531
       159   03 Jun 2027 05:47:00.132   03 Jun 2027 05:47:20.842            20.710               CapeTown           647.188
       160   03 Jun 2027 06:54:12.210   03 Jun 2027 06:54:14.339             2.129              Murmansk1            66.531
       161   03 Jun 2027 06:54:15.880   03 Jun 2027 06:55:10.945            55.065              Murmansk1          1720.781
       162   03 Jun 2027 06:57:09.293   03 Jun 2027 06:57:29.397            20.104                 Moscow           628.250
       163   03 Jun 2027 07:12:14.977   03 Jun 2027 07:12:58.312            43.335               CapeTown          1354.219
       164   03 Jun 2027 07:14:38.322   03 Jun 2027 07:17:18.611           160.289               CapeTown          5009.031
       165   03 Jun 2027 08:15:19.560   03 Jun 2027 08:15:19.838             0.278               Magadan2             8.688
       166   03 Jun 2027 08:15:36.969   03 Jun 2027 08:16:57.093            80.124                Anadyr2          2503.875
       167   03 Jun 2027 08:17:03.428   03 Jun 2027 08:17:48.957            45.529               Magadan2          1422.781
       168   03 Jun 2027 09:03:30.760   03 Jun 2027 09:04:03.777            33.017            RioGallegos          1031.781
       169   03 Jun 2027 09:47:33.577   03 Jun 2027 09:48:45.302            71.725                Anadyr2          2241.406
       170   03 Jun 2027 09:52:14.796   03 Jun 2027 09:53:04.938            50.142               Magadan1          1566.937
       171   03 Jun 2027 09:53:57.952   03 Jun 2027 09:54:51.119            53.167               Magadan1          1661.469
       172   03 Jun 2027 10:33:03.550   03 Jun 2027 10:33:19.768            16.218            RioGallegos           506.813
       173   03 Jun 2027 11:26:02.451   03 Jun 2027 11:27:35.688            93.237               Magadan2          2913.656
       174   03 Jun 2027 11:28:23.539   03 Jun 2027 11:31:08.842           165.303               Magadan1          5165.719
       175   03 Jun 2027 11:31:24.115   03 Jun 2027 11:32:03.226            39.111                Irkutsk          1222.219
       176   03 Jun 2027 11:32:14.487   03 Jun 2027 11:32:38.915            24.428                Irkutsk           763.375
       177   03 Jun 2027 11:32:58.456   03 Jun 2027 11:33:39.933            41.477                Norilsk          1296.156
       178   03 Jun 2027 12:07:23.507   03 Jun 2027 12:08:11.907            48.400            RioGallegos          1512.500
       179   03 Jun 2027 12:42:38.256   03 Jun 2027 12:44:51.783           133.527                Sumatra          4172.719
       180   03 Jun 2027 12:56:48.604   03 Jun 2027 12:59:05.503           136.899                Irkutsk          4278.094
       181   03 Jun 2027 13:00:06.935   03 Jun 2027 13:00:13.051             6.116                Irkutsk           191.125
       182   03 Jun 2027 13:11:47.551   03 Jun 2027 13:12:33.974            46.423                Norilsk          1450.719
       183   03 Jun 2027 13:45:33.313   03 Jun 2027 13:48:50.996           197.683            RioGallegos          6177.594
       184   03 Jun 2027 14:19:49.945   03 Jun 2027 14:24:31.826           281.881                Sumatra          8808.781
       185   03 Jun 2027 14:35:50.275   03 Jun 2027 14:36:30.620            40.345                Irkutsk          1260.781
       186   03 Jun 2027 14:38:15.154   03 Jun 2027 14:39:48.164            93.010                Irkutsk          2906.563
       187   03 Jun 2027 16:05:20.750   03 Jun 2027 16:12:41.423           440.673                  Delhi         13771.031
       188   03 Jun 2027 16:13:50.307   03 Jun 2027 16:17:55.925           245.618                Novosib          7675.563
       189   03 Jun 2027 19:00:21.097   03 Jun 2027 19:02:58.319           157.222               CapeTown          4913.188
       190   03 Jun 2027 19:28:21.754   03 Jun 2027 19:32:05.094           223.340                 Moscow          6979.375
       191   03 Jun 2027 19:33:04.775   03 Jun 2027 19:34:32.659            87.884              Murmansk2          2746.375
       192   03 Jun 2027 20:37:43.074   03 Jun 2027 20:41:05.283           202.209               CapeTown          6319.031
       193   03 Jun 2027 20:42:40.261   03 Jun 2027 20:44:38.072           117.811               CapeTown          3681.594
       194   03 Jun 2027 21:11:42.578   03 Jun 2027 21:13:16.225            93.647              Murmansk1          2926.469
       195   03 Jun 2027 21:19:22.218   03 Jun 2027 21:19:56.562            34.344               Magadan2          1073.250
       196   03 Jun 2027 21:26:00.416   03 Jun 2027 21:26:52.406            51.990               Magadan2          1624.687
       197   03 Jun 2027 22:52:47.976   03 Jun 2027 22:56:36.395           228.419                Anadyr1          7138.094
       198   03 Jun 2027 22:56:37.298   03 Jun 2027 22:57:51.881            74.583                Anadyr2          2330.719
       199   03 Jun 2027 22:57:55.368   03 Jun 2027 22:58:10.131            14.763                Norilsk           461.344
       200   03 Jun 2027 22:58:24.142   03 Jun 2027 23:00:13.430           109.288               Magadan1          3415.250
       201   03 Jun 2027 23:05:32.296   03 Jun 2027 23:05:51.637            19.341               Magadan1           604.406
       202   03 Jun 2027 23:07:17.741   03 Jun 2027 23:07:58.402            40.661               Magadan2          1270.656
       203   03 Jun 2027 23:47:11.463   03 Jun 2027 23:49:23.881           132.418            RioGallegos          4138.063
       204   03 Jun 2027 23:51:31.747   03 Jun 2027 23:52:09.347            37.600            RioGallegos          1175.000
       205   03 Jun 2027 23:53:15.486   03 Jun 2027 23:53:19.113             3.627            RioGallegos           113.344
       206   04 Jun 2027 00:28:24.548   04 Jun 2027 00:29:20.347            55.799                Anadyr2          1743.719
       207   04 Jun 2027 00:29:37.361   04 Jun 2027 00:30:42.077            64.716                Anadyr1          2022.375
       208   04 Jun 2027 00:30:57.206   04 Jun 2027 00:32:13.450            76.244                Norilsk          2382.625
       209   04 Jun 2027 00:32:16.638   04 Jun 2027 00:34:49.762           153.124               Magadan1          4785.125
       210   04 Jun 2027 00:35:47.480   04 Jun 2027 00:36:19.632            32.152                Irkutsk          1004.750
       211   04 Jun 2027 00:37:18.897   04 Jun 2027 00:38:13.500            54.603                Novosib          1706.344
       212   04 Jun 2027 00:48:32.075   04 Jun 2027 00:51:06.651           154.576                Sumatra          4830.500
       213   04 Jun 2027 01:28:11.538   04 Jun 2027 01:28:42.463            30.925            RioGallegos           966.406
       214   04 Jun 2027 01:32:24.737   04 Jun 2027 01:32:43.098            18.361            RioGallegos           573.781
       215   04 Jun 2027 01:34:21.061   04 Jun 2027 01:35:05.826            44.765            RioGallegos          1398.906
       216   04 Jun 2027 02:03:07.616   04 Jun 2027 02:03:45.794            38.178                Anadyr2          1193.063
       217   04 Jun 2027 02:04:51.447   04 Jun 2027 02:05:24.558            33.111                Anadyr1          1034.719
       218   04 Jun 2027 02:06:34.476   04 Jun 2027 02:07:39.492            65.016                Norilsk          2031.750
       219   04 Jun 2027 02:07:58.036   04 Jun 2027 02:07:58.576             0.540                Norilsk            16.875
       220   04 Jun 2027 02:08:06.394   04 Jun 2027 02:08:11.452             5.058               Magadan1           158.062
       221   04 Jun 2027 02:08:57.170   04 Jun 2027 02:09:25.440            28.270               Magadan2           883.437
       222   04 Jun 2027 02:10:27.685   04 Jun 2027 02:13:35.980           188.295                Irkutsk          5884.219
       223   04 Jun 2027 02:26:15.904   04 Jun 2027 02:30:45.533           269.629                Sumatra          8425.906
       224   04 Jun 2027 03:02:22.744   04 Jun 2027 03:03:03.595            40.851            RioGallegos          1276.594
       225   04 Jun 2027 03:50:32.113   04 Jun 2027 03:50:37.892             5.779                Novosib           180.594
       226   04 Jun 2027 03:50:53.909   04 Jun 2027 03:56:04.245           310.336                Irkutsk          9698.000
       227   04 Jun 2027 03:58:52.618   04 Jun 2027 04:02:22.755           210.137                  Delhi          6566.781
       228   04 Jun 2027 05:28:00.439   04 Jun 2027 05:29:29.934            89.495                Norilsk          2796.719
       229   04 Jun 2027 05:29:39.068   04 Jun 2027 05:31:53.809           134.741                Novosib          4210.656
       230   04 Jun 2027 05:32:21.957   04 Jun 2027 05:33:26.817            64.860                 Moscow          2026.875
       231   04 Jun 2027 05:48:20.668   04 Jun 2027 05:49:06.245            45.577               CapeTown          1424.281
       232   04 Jun 2027 05:49:19.694   04 Jun 2027 05:49:57.564            37.870               CapeTown          1183.437
       233   04 Jun 2027 06:00:23.279   04 Jun 2027 06:00:29.638             6.359               CapeTown           198.719
       234   04 Jun 2027 06:51:42.937   04 Jun 2027 06:51:48.884             5.947               Magadan2           185.844
       235   04 Jun 2027 06:52:05.669   04 Jun 2027 06:53:26.166            80.497                Anadyr2          2515.531
       236   04 Jun 2027 07:03:51.463   04 Jun 2027 07:04:01.339             9.876              Murmansk1           308.625
       237   04 Jun 2027 07:06:09.363   04 Jun 2027 07:06:16.313             6.950              Murmansk2           217.188
       238   04 Jun 2027 07:11:35.204   04 Jun 2027 07:11:48.670            13.466                 Moscow           420.812
       239   04 Jun 2027 07:24:39.675   04 Jun 2027 07:26:36.012           116.337               CapeTown          3635.531
       240   04 Jun 2027 07:29:20.095   04 Jun 2027 07:29:43.886            23.791               CapeTown           743.469
       241   04 Jun 2027 08:25:34.798   04 Jun 2027 08:25:47.905            13.107                Anadyr1           409.594
       242   04 Jun 2027 08:25:54.870   04 Jun 2027 08:26:13.861            18.991               Magadan2           593.469
       243   04 Jun 2027 08:26:25.910   04 Jun 2027 08:27:37.109            71.199                Anadyr1          2224.969
       244   04 Jun 2027 08:27:51.701   04 Jun 2027 08:29:01.625            69.924               Magadan2          2185.125
       245   04 Jun 2027 08:29:06.628   04 Jun 2027 08:30:00.843            54.215               Magadan1          1694.219
       246   04 Jun 2027 08:30:17.219   04 Jun 2027 08:30:50.804            33.585                Anadyr2          1049.531
       247   04 Jun 2027 08:38:25.571   04 Jun 2027 08:38:53.857            28.286                 Moscow           883.938
       248   04 Jun 2027 10:03:10.411   04 Jun 2027 10:04:02.010            51.599               Magadan1          1612.469
       249   04 Jun 2027 10:05:07.158   04 Jun 2027 10:05:33.211            26.053               Magadan1           814.156
       250   04 Jun 2027 10:05:53.174   04 Jun 2027 10:06:10.660            17.486               Magadan2           546.438
       251   04 Jun 2027 10:06:46.186   04 Jun 2027 10:08:59.222           133.036               Magadan1          4157.375
       252   04 Jun 2027 11:37:39.932   04 Jun 2027 11:40:07.984           148.052               Magadan2          4626.625
       253   04 Jun 2027 11:40:35.549   04 Jun 2027 11:41:48.708            73.159               Magadan1          2286.219
       254   04 Jun 2027 11:41:53.354   04 Jun 2027 11:42:32.578            39.224                Irkutsk          1225.750
       255   04 Jun 2027 11:42:53.306   04 Jun 2027 11:43:07.761            14.455                Irkutsk           451.719
       256   04 Jun 2027 11:43:33.203   04 Jun 2027 11:44:08.342            35.139                Irkutsk          1098.094
       257   04 Jun 2027 11:44:29.149   04 Jun 2027 11:44:44.494            15.345                Norilsk           479.531
       258   04 Jun 2027 12:19:27.860   04 Jun 2027 12:20:15.075            47.215            RioGallegos          1475.469
       259   04 Jun 2027 12:20:30.375   04 Jun 2027 12:22:42.352           131.977            RioGallegos          4124.281
       260   04 Jun 2027 13:08:11.380   04 Jun 2027 13:11:04.343           172.963                Irkutsk          5405.094
       261   04 Jun 2027 13:20:00.200   04 Jun 2027 13:21:11.441            71.241                Norilsk          2226.281
       262   04 Jun 2027 13:58:17.342   04 Jun 2027 13:59:22.781            65.439            RioGallegos          2044.969
       263   04 Jun 2027 14:00:14.928   04 Jun 2027 14:02:48.097           153.169            RioGallegos          4786.531
       264   04 Jun 2027 14:32:48.328   04 Jun 2027 14:37:01.830           253.502                Sumatra          7921.938
       265   04 Jun 2027 14:48:41.090   04 Jun 2027 14:52:33.106           232.016                Irkutsk          7250.500
       266   04 Jun 2027 16:18:55.794   04 Jun 2027 16:23:20.957           265.163                  Delhi          8286.344
       267   04 Jun 2027 16:27:11.515   04 Jun 2027 16:31:30.769           259.254                Novosib          8101.688
       268   04 Jun 2027 18:17:37.033   04 Jun 2027 18:18:03.383            26.350                Anadyr2           823.437
       269   04 Jun 2027 18:18:16.860   04 Jun 2027 18:18:33.471            16.611                Anadyr2           519.094
       270   04 Jun 2027 18:25:19.036   04 Jun 2027 18:25:30.977            11.941                Anadyr2           373.156
       271   04 Jun 2027 19:12:22.016   04 Jun 2027 19:15:21.445           179.429               CapeTown          5607.156
       272   04 Jun 2027 19:41:52.539   04 Jun 2027 19:42:37.210            44.671              Murmansk2          1395.969
       273   04 Jun 2027 19:42:38.908   04 Jun 2027 19:44:45.204           126.296              Murmansk1          3946.750
       274   04 Jun 2027 19:45:02.274   04 Jun 2027 19:45:08.803             6.529              Murmansk1           204.031
       275   04 Jun 2027 19:45:16.390   04 Jun 2027 19:47:13.007           116.617              Murmansk1          3644.281
       276   04 Jun 2027 19:48:45.381   04 Jun 2027 19:48:48.752             3.371              Murmansk2           105.344
       277   04 Jun 2027 19:59:57.790   04 Jun 2027 20:00:15.303            17.513               Magadan2           547.281
       278   04 Jun 2027 20:50:23.863   04 Jun 2027 20:56:58.126           394.263               CapeTown         12320.719
       279   04 Jun 2027 21:31:30.075   04 Jun 2027 21:32:06.218            36.143               Magadan2          1129.469
       280   04 Jun 2027 21:33:57.637   04 Jun 2027 21:34:13.359            15.722               Magadan1           491.312
       281   04 Jun 2027 21:34:13.359   04 Jun 2027 21:35:17.026            63.667               Magadan2          1989.594
       282   04 Jun 2027 23:04:48.822   04 Jun 2027 23:08:36.279           227.457                Anadyr1          7108.031
       283   04 Jun 2027 23:08:37.553   04 Jun 2027 23:10:40.579           123.026                Norilsk          3844.563
       284   04 Jun 2027 23:11:06.932   04 Jun 2027 23:11:21.896            14.964               Magadan2           467.625
       285   04 Jun 2027 23:11:21.896   04 Jun 2027 23:12:10.117            48.221               Magadan1          1506.906
       286   04 Jun 2027 23:13:24.499   04 Jun 2027 23:14:00.339            35.840               Magadan2          1120.000
       287   04 Jun 2027 23:14:27.280   04 Jun 2027 23:14:59.211            31.931                Irkutsk           997.844
       288   04 Jun 2027 23:15:22.036   04 Jun 2027 23:16:17.520            55.484                Irkutsk          1733.875
       289   04 Jun 2027 23:59:02.375   05 Jun 2027 00:01:15.033           132.658            RioGallegos          4145.562
       290   05 Jun 2027 00:03:43.812   05 Jun 2027 00:04:01.722            17.910            RioGallegos           559.687
       291   05 Jun 2027 00:08:31.176   05 Jun 2027 00:09:28.670            57.494            RioGallegos          1796.688
       292   05 Jun 2027 00:40:20.910   05 Jun 2027 00:41:01.493            40.583                Anadyr2          1268.219
       293   05 Jun 2027 00:41:27.718   05 Jun 2027 00:41:49.631            21.913                Anadyr1           684.781
       294   05 Jun 2027 00:42:37.390   05 Jun 2027 00:44:29.811           112.421                Norilsk          3513.156
       295   05 Jun 2027 00:44:44.477   05 Jun 2027 00:45:07.640            23.163               Magadan2           723.844
       296   05 Jun 2027 00:45:13.062   05 Jun 2027 00:46:18.625            65.563               Magadan2          2048.844
       297   05 Jun 2027 00:46:42.581   05 Jun 2027 00:47:32.695            50.114                Irkutsk          1566.063
       298   05 Jun 2027 00:48:02.548   05 Jun 2027 00:49:27.404            84.856                Novosib          2651.750
       299   05 Jun 2027 00:58:05.218   05 Jun 2027 00:58:52.591            47.373                Irkutsk          1480.406
       300   05 Jun 2027 01:00:24.319   05 Jun 2027 01:01:05.630            41.311                Sumatra          1290.969
       301   05 Jun 2027 01:04:58.326   05 Jun 2027 01:06:25.496            87.170                Sumatra          2724.063
       302   05 Jun 2027 01:42:28.447   05 Jun 2027 01:42:47.957            19.510            RioGallegos           609.687
       303   05 Jun 2027 01:44:09.754   05 Jun 2027 01:44:20.466            10.712            RioGallegos           334.750
       304   05 Jun 2027 02:14:54.482   05 Jun 2027 02:15:44.493            50.011                Anadyr2          1562.844
       305   05 Jun 2027 02:16:53.784   05 Jun 2027 02:16:59.527             5.743                Anadyr1           179.469
       306   05 Jun 2027 02:17:13.311   05 Jun 2027 02:17:26.269            12.958                Anadyr1           404.938
       307   05 Jun 2027 02:18:36.944   05 Jun 2027 02:19:33.275            56.331                Norilsk          1760.344
       308   05 Jun 2027 02:19:34.022   05 Jun 2027 02:19:47.724            13.702               Magadan1           428.188
       309   05 Jun 2027 02:19:47.724   05 Jun 2027 02:20:13.987            26.263               Magadan2           820.719
       310   05 Jun 2027 02:22:25.012   05 Jun 2027 02:22:29.970             4.958                Norilsk           154.938
       311   05 Jun 2027 02:22:31.595   05 Jun 2027 02:24:55.238           143.643                Irkutsk          4488.844
       312   05 Jun 2027 02:27:26.939   05 Jun 2027 02:27:33.708             6.769                Novosib           211.531
       313   05 Jun 2027 02:27:37.827   05 Jun 2027 02:28:05.991            28.164                Novosib           880.125
       314   05 Jun 2027 02:31:08.681   05 Jun 2027 02:31:51.691            43.010                  Delhi          1344.063
       315   05 Jun 2027 02:36:48.946   05 Jun 2027 02:37:05.786            16.840                  Delhi           526.250
       316   05 Jun 2027 02:39:04.711   05 Jun 2027 02:39:33.016            28.305                  Delhi           884.531
       317   05 Jun 2027 02:43:21.258   05 Jun 2027 02:44:57.283            96.025                Sumatra          3000.781
       318   05 Jun 2027 03:12:15.432   05 Jun 2027 03:13:09.444            54.012            RioGallegos          1687.875
       319   05 Jun 2027 03:13:44.261   05 Jun 2027 03:14:42.065            57.804            RioGallegos          1806.375
       320   05 Jun 2027 03:15:29.678   05 Jun 2027 03:15:31.666             1.988            RioGallegos            62.125
       321   05 Jun 2027 03:19:55.490   05 Jun 2027 03:20:14.526            19.036            RioGallegos           594.875
       322   05 Jun 2027 04:01:34.440   05 Jun 2027 04:06:43.507           309.067                Irkutsk          9658.344
       323   05 Jun 2027 04:10:17.837   05 Jun 2027 04:10:46.268            28.431                Novosib           888.469
       324   05 Jun 2027 05:40:25.376   05 Jun 2027 05:43:34.162           188.786                Novosib          5899.563
       325   05 Jun 2027 05:47:01.828   05 Jun 2027 05:47:12.499            10.671                 Moscow           333.469
       326   05 Jun 2027 05:47:27.270   05 Jun 2027 05:47:47.331            20.061                 Moscow           626.906
       327   05 Jun 2027 06:00:07.000   05 Jun 2027 06:02:22.503           135.503               CapeTown          4234.469
       328   05 Jun 2027 06:07:23.875   05 Jun 2027 06:07:44.983            21.108               CapeTown           659.625
       329   05 Jun 2027 07:03:16.262   05 Jun 2027 07:03:19.707             3.445               Magadan1           107.656
       330   05 Jun 2027 07:03:37.532   05 Jun 2027 07:03:47.138             9.606                Anadyr1           300.187
       331   05 Jun 2027 07:03:47.138   05 Jun 2027 07:04:28.623            41.485                Anadyr2          1296.406
       332   05 Jun 2027 07:04:39.780   05 Jun 2027 07:04:42.054             2.274               Magadan1            71.063
       333   05 Jun 2027 07:05:01.445   05 Jun 2027 07:05:10.583             9.138               Magadan2           285.562
       334   05 Jun 2027 07:05:26.430   05 Jun 2027 07:05:35.387             8.957                Anadyr1           279.906
       335   05 Jun 2027 07:05:36.071   05 Jun 2027 07:06:49.981            73.910               Magadan1          2309.688
       336   05 Jun 2027 07:18:07.065   05 Jun 2027 07:18:18.160            11.095              Murmansk1           346.719
       337   05 Jun 2027 07:18:40.405   05 Jun 2027 07:19:57.172            76.767                 Moscow          2398.969
       338   05 Jun 2027 07:37:12.629   05 Jun 2027 07:40:41.542           208.913               CapeTown          6528.531
       339   05 Jun 2027 08:37:48.626   05 Jun 2027 08:37:57.017             8.391                Anadyr1           262.219
       340   05 Jun 2027 08:38:22.452   05 Jun 2027 08:38:29.520             7.068               Magadan1           220.875
       341   05 Jun 2027 08:38:37.298   05 Jun 2027 08:39:36.728            59.430                Anadyr2          1857.188
       342   05 Jun 2027 08:39:56.456   05 Jun 2027 08:41:00.736            64.280               Magadan2          2008.750
       343   05 Jun 2027 08:41:09.707   05 Jun 2027 08:41:55.717            46.010               Magadan1          1437.812
       344   05 Jun 2027 08:41:58.456   05 Jun 2027 08:42:59.674            61.218               Magadan2          1913.062
       345   05 Jun 2027 09:26:52.482   05 Jun 2027 09:26:54.238             1.756            RioGallegos            54.875
       346   05 Jun 2027 09:28:17.274   05 Jun 2027 09:29:04.104            46.830            RioGallegos          1463.437
       347   05 Jun 2027 10:13:09.956   05 Jun 2027 10:13:13.069             3.113               Magadan2            97.281
       348   05 Jun 2027 10:15:08.297   05 Jun 2027 10:15:18.542            10.245               Magadan1           320.156
       349   05 Jun 2027 10:15:44.174   05 Jun 2027 10:17:08.045            83.871               Magadan2          2620.969
       350   05 Jun 2027 10:17:42.869   05 Jun 2027 10:18:26.414            43.545               Magadan2          1360.781
       351   05 Jun 2027 10:18:42.151   05 Jun 2027 10:20:58.569           136.418               Magadan1          4263.063
       352   05 Jun 2027 11:51:06.539   05 Jun 2027 11:51:39.751            33.212                Irkutsk          1037.875
       353   05 Jun 2027 11:52:27.978   05 Jun 2027 11:55:40.136           192.158               Magadan1          6004.938
       354   05 Jun 2027 11:55:59.977   05 Jun 2027 11:56:20.595            20.618                Irkutsk           644.313
       355   05 Jun 2027 11:56:30.125   05 Jun 2027 11:57:11.227            41.102                Norilsk          1284.437
       356   05 Jun 2027 12:32:24.076   05 Jun 2027 12:34:42.233           138.157            RioGallegos          4317.406
       357   05 Jun 2027 13:06:22.634   05 Jun 2027 13:06:43.490            20.856                Sumatra           651.750
       358   05 Jun 2027 13:09:23.010   05 Jun 2027 13:09:46.226            23.216                Sumatra           725.500
       359   05 Jun 2027 13:13:10.786   05 Jun 2027 13:14:56.939           106.153                Sumatra          3317.281
       360   05 Jun 2027 13:21:31.213   05 Jun 2027 13:22:46.698            75.485                Novosib          2358.906
       361   05 Jun 2027 13:24:58.286   05 Jun 2027 13:25:11.642            13.356                Irkutsk           417.375
       362   05 Jun 2027 13:30:28.151   05 Jun 2027 13:31:40.816            72.665                Norilsk          2270.781
       363   05 Jun 2027 13:37:32.585   05 Jun 2027 13:37:45.811            13.226                Norilsk           413.313
       364   05 Jun 2027 14:11:12.345   05 Jun 2027 14:14:27.654           195.309            RioGallegos          6103.406
       365   05 Jun 2027 14:46:39.578   05 Jun 2027 14:49:45.933           186.355                Sumatra          5823.594
       366   05 Jun 2027 15:00:47.067   05 Jun 2027 15:03:11.916           144.849                Novosib          4526.531
       367   05 Jun 2027 15:03:23.070   05 Jun 2027 15:05:03.115           100.045                Irkutsk          3126.406
       368   05 Jun 2027 16:38:23.619   05 Jun 2027 16:39:23.518            59.899              Murmansk1          1871.844
       369   05 Jun 2027 16:42:01.512   05 Jun 2027 16:43:37.109            95.597                Norilsk          2987.406
       370   05 Jun 2027 16:45:44.285   05 Jun 2027 16:47:44.972           120.687                Norilsk          3771.469
       371   05 Jun 2027 17:49:47.150   05 Jun 2027 17:50:17.424            30.274               CapeTown           946.063
       372   05 Jun 2027 17:54:47.029   05 Jun 2027 17:55:33.695            46.666               CapeTown          1458.312
       373   05 Jun 2027 18:12:06.104   05 Jun 2027 18:12:32.839            26.735                 Moscow           835.469
       374   05 Jun 2027 18:13:48.697   05 Jun 2027 18:17:10.934           202.237                 Moscow          6319.906
       375   05 Jun 2027 18:23:24.096   05 Jun 2027 18:24:38.344            74.248              Murmansk2          2320.250
       376   05 Jun 2027 19:24:25.717   05 Jun 2027 19:26:37.864           132.147               CapeTown          4129.594
       377   05 Jun 2027 19:35:28.844   05 Jun 2027 19:36:09.071            40.227               CapeTown          1257.094
       378   05 Jun 2027 19:54:27.771   05 Jun 2027 19:55:31.644            63.873              Murmansk1          1996.031
       379   05 Jun 2027 19:56:46.165   05 Jun 2027 19:59:57.624           191.459              Murmansk1          5983.094
       380   05 Jun 2027 20:00:32.726   05 Jun 2027 20:03:05.824           153.098              Murmansk2          4784.312
       381   05 Jun 2027 21:03:32.667   05 Jun 2027 21:07:25.063           232.396               CapeTown          7262.375
       382   05 Jun 2027 21:42:41.039   05 Jun 2027 21:44:08.620            87.581                Anadyr2          2736.906
       383   05 Jun 2027 21:44:32.332   05 Jun 2027 21:44:53.552            21.220               Magadan2           663.125
       384   05 Jun 2027 21:45:41.388   05 Jun 2027 21:45:49.142             7.754               Magadan1           242.313
       385   05 Jun 2027 21:47:13.547   05 Jun 2027 21:47:21.008             7.461               Magadan2           233.156
       386   05 Jun 2027 21:48:20.555   05 Jun 2027 21:48:35.515            14.960               Magadan2           467.500
       387   05 Jun 2027 21:52:08.356   05 Jun 2027 21:52:51.875            43.519               Magadan2          1359.969
       388   05 Jun 2027 23:16:49.338   05 Jun 2027 23:20:35.685           226.347                Anadyr2          7073.344
       389   05 Jun 2027 23:20:53.732   05 Jun 2027 23:21:47.561            53.829                Anadyr1          1682.156
       390   05 Jun 2027 23:21:56.141   05 Jun 2027 23:22:14.529            18.388                Anadyr2           574.625
       391   05 Jun 2027 23:22:21.306   05 Jun 2027 23:22:52.664            31.358               Magadan2           979.937
       392   05 Jun 2027 23:22:55.340   05 Jun 2027 23:23:24.574            29.234               Magadan1           913.563
       393   05 Jun 2027 23:23:53.188   05 Jun 2027 23:24:29.415            36.227               Magadan1          1132.094
       394   05 Jun 2027 23:24:35.570   05 Jun 2027 23:25:35.312            59.742                Irkutsk          1866.937
       395   05 Jun 2027 23:26:46.597   05 Jun 2027 23:29:22.386           155.789                Irkutsk          4868.406
       396   05 Jun 2027 23:41:09.163   05 Jun 2027 23:41:55.670            46.507                Sumatra          1453.344
       397   05 Jun 2027 23:45:08.094   05 Jun 2027 23:45:21.559            13.465                Sumatra           420.781
       398   06 Jun 2027 00:12:27.669   06 Jun 2027 00:12:59.188            31.519            RioGallegos           984.969
       399   06 Jun 2027 00:13:59.234   06 Jun 2027 00:14:27.301            28.067            RioGallegos           877.094
       400   06 Jun 2027 00:18:17.476   06 Jun 2027 00:18:33.546            16.070            RioGallegos           502.187
       401   06 Jun 2027 00:21:05.926   06 Jun 2027 00:21:34.434            28.508            RioGallegos           890.875
       402   06 Jun 2027 00:52:16.323   06 Jun 2027 00:52:56.590            40.267                Anadyr1          1258.344
       403   06 Jun 2027 00:53:48.007   06 Jun 2027 00:54:33.049            45.042                Anadyr2          1407.563
       404   06 Jun 2027 00:54:39.006   06 Jun 2027 00:55:00.118            21.112                Norilsk           659.750
       405   06 Jun 2027 00:55:10.624   06 Jun 2027 00:56:32.114            81.490                Norilsk          2546.563
       406   06 Jun 2027 00:56:41.195   06 Jun 2027 00:56:59.829            18.634               Magadan2           582.313
       407   06 Jun 2027 00:57:46.759   06 Jun 2027 00:58:10.060            23.301               Magadan1           728.156
       408   06 Jun 2027 00:58:39.783   06 Jun 2027 01:00:27.027           107.244                Irkutsk          3351.375
       409   06 Jun 2027 01:01:39.410   06 Jun 2027 01:01:57.936            18.526                Novosib           578.938
       410   06 Jun 2027 01:03:36.980   06 Jun 2027 01:04:09.873            32.893                Novosib          1027.906
       411   06 Jun 2027 01:09:45.339   06 Jun 2027 01:11:12.857            87.518                Irkutsk          2734.937
       412   06 Jun 2027 01:21:14.781   06 Jun 2027 01:21:56.238            41.457                Sumatra          1295.531
       413   06 Jun 2027 01:46:36.300   06 Jun 2027 01:46:47.822            11.522            RioGallegos           360.062
       414   06 Jun 2027 01:49:18.292   06 Jun 2027 01:49:34.873            16.581            RioGallegos           518.156
       415   06 Jun 2027 01:52:00.842   06 Jun 2027 01:52:14.215            13.373            RioGallegos           417.906
       416   06 Jun 2027 01:54:36.278   06 Jun 2027 01:54:41.701             5.423            RioGallegos           169.469
       417   06 Jun 2027 01:55:31.511   06 Jun 2027 01:55:45.264            13.753            RioGallegos           429.781
       418   06 Jun 2027 01:56:05.655   06 Jun 2027 01:56:13.826             8.171            RioGallegos           255.344
       419   06 Jun 2027 02:26:40.084   06 Jun 2027 02:26:54.584            14.500                Anadyr2           453.125
       420   06 Jun 2027 02:26:54.584   06 Jun 2027 02:27:43.734            49.150                Anadyr1          1535.937
       421   06 Jun 2027 02:30:39.389   06 Jun 2027 02:32:06.782            87.393                Norilsk          2731.031
       422   06 Jun 2027 02:32:19.054   06 Jun 2027 02:33:03.141            44.087               Magadan1          1377.719
       423   06 Jun 2027 02:34:11.730   06 Jun 2027 02:35:06.741            55.011              Murmansk1          1719.094
       424   06 Jun 2027 02:35:49.053   06 Jun 2027 02:36:48.079            59.026                Novosib          1844.562
       425   06 Jun 2027 02:37:42.800   06 Jun 2027 02:38:49.131            66.331                Irkutsk          2072.844
       426   06 Jun 2027 02:48:29.219   06 Jun 2027 02:48:43.034            13.815                  Delhi           431.719
       427   06 Jun 2027 02:49:53.519   06 Jun 2027 02:49:55.246             1.727                  Delhi            53.969
       428   06 Jun 2027 02:52:20.348   06 Jun 2027 02:53:55.689            95.341                  Delhi          2979.406
       429   06 Jun 2027 03:24:21.678   06 Jun 2027 03:24:53.395            31.717            RioGallegos           991.156
       430   06 Jun 2027 03:26:16.962   06 Jun 2027 03:26:19.908             2.946            RioGallegos            92.062
       431   06 Jun 2027 03:28:43.591   06 Jun 2027 03:29:01.741            18.150            RioGallegos           567.188
       432   06 Jun 2027 03:29:28.498   06 Jun 2027 03:30:47.474            78.976            RioGallegos          2468.000
       433   06 Jun 2027 04:14:11.226   06 Jun 2027 04:14:13.953             2.727                Norilsk            85.219
       434   06 Jun 2027 04:14:36.201   06 Jun 2027 04:16:05.514            89.313                Norilsk          2791.031
       435   06 Jun 2027 04:16:07.969   06 Jun 2027 04:16:28.114            20.145              Murmansk2           629.531
       436   06 Jun 2027 04:16:31.899   06 Jun 2027 04:18:45.653           133.754                Irkutsk          4179.813
       437   06 Jun 2027 04:18:46.881   06 Jun 2027 04:18:56.741             9.860              Murmansk2           308.125
       438   06 Jun 2027 04:21:47.650   06 Jun 2027 04:22:33.695            46.045                Novosib          1438.906
       439   06 Jun 2027 04:25:53.269   06 Jun 2027 04:28:26.789           153.520                  Delhi          4797.500
       440   06 Jun 2027 05:51:23.298   06 Jun 2027 05:53:11.207           107.909                Novosib          3372.156
       441   06 Jun 2027 05:53:27.322   06 Jun 2027 05:54:59.200            91.878                Novosib          2871.188
       442   06 Jun 2027 05:56:33.175   06 Jun 2027 05:58:48.554           135.379                 Moscow          4230.594
       443   06 Jun 2027 06:11:58.559   06 Jun 2027 06:12:59.392            60.833               CapeTown          1901.031
       444   06 Jun 2027 06:15:04.139   06 Jun 2027 06:15:46.408            42.269               CapeTown          1320.906
       445   06 Jun 2027 07:15:06.039   06 Jun 2027 07:15:44.586            38.547               Magadan2          1204.594
       446   06 Jun 2027 07:15:48.841   06 Jun 2027 07:16:39.259            50.418                Anadyr2          1575.563
       447   06 Jun 2027 07:17:04.790   06 Jun 2027 07:17:12.714             7.924               Magadan1           247.625
       448   06 Jun 2027 07:17:26.227   06 Jun 2027 07:18:12.606            46.379                Anadyr1          1449.344
       449   06 Jun 2027 07:18:34.779   06 Jun 2027 07:19:36.231            61.452                Anadyr1          1920.375
       450   06 Jun 2027 07:30:05.277   06 Jun 2027 07:31:11.200            65.923              Murmansk2          2060.094
       451   06 Jun 2027 07:35:29.063   06 Jun 2027 07:35:43.441            14.378                 Moscow           449.312
       452   06 Jun 2027 07:49:56.370   06 Jun 2027 07:51:40.557           104.187               CapeTown          3255.844
       453   06 Jun 2027 07:56:06.613   06 Jun 2027 07:57:45.349            98.736               CapeTown          3085.500
       454   06 Jun 2027 08:50:13.809   06 Jun 2027 08:50:26.385            12.576               Magadan2           393.000
       455   06 Jun 2027 08:50:48.426   06 Jun 2027 08:51:26.204            37.778               Magadan2          1180.562
       456   06 Jun 2027 08:51:35.701   06 Jun 2027 08:52:20.855            45.154                Anadyr2          1411.062
       457   06 Jun 2027 08:52:27.582   06 Jun 2027 08:53:32.531            64.949                Anadyr2          2029.656
       458   06 Jun 2027 08:53:32.531   06 Jun 2027 08:54:08.401            35.870                Anadyr1          1120.938
       459   06 Jun 2027 08:54:50.845   06 Jun 2027 08:55:20.505            29.660                Anadyr2           926.875
       460   06 Jun 2027 09:36:06.774   06 Jun 2027 09:36:44.421            37.647            RioGallegos          1176.469
       461   06 Jun 2027 10:25:38.098   06 Jun 2027 10:25:55.613            17.515               Magadan1           547.344
       462   06 Jun 2027 10:26:12.211   06 Jun 2027 10:27:05.100            52.889               Magadan1          1652.781
       463   06 Jun 2027 10:27:17.677   06 Jun 2027 10:29:08.422           110.745               Magadan2          3460.781
       464   06 Jun 2027 10:30:35.044   06 Jun 2027 10:30:45.428            10.384               Magadan1           324.500
       465   06 Jun 2027 10:31:04.135   06 Jun 2027 10:31:04.598             0.463                Norilsk            14.469
       466   06 Jun 2027 10:32:09.619   06 Jun 2027 10:32:57.123            47.504               Magadan1          1484.500
       467   06 Jun 2027 11:08:08.124   06 Jun 2027 11:08:13.530             5.406            RioGallegos           168.938
       468   06 Jun 2027 11:10:14.640   06 Jun 2027 11:10:41.156            26.516            RioGallegos           828.625
       469   06 Jun 2027 11:46:11.522   06 Jun 2027 11:47:19.679            68.157                Sumatra          2129.906
       470   06 Jun 2027 12:01:26.542   06 Jun 2027 12:01:30.724             4.182               Magadan2           130.687
       471   06 Jun 2027 12:02:10.792   06 Jun 2027 12:03:20.250            69.458               Magadan2          2170.562
       472   06 Jun 2027 12:04:17.670   06 Jun 2027 12:07:17.895           180.225               Magadan1          5632.031
       473   06 Jun 2027 13:27:38.568   06 Jun 2027 13:28:02.536            23.968                Sumatra           749.000
       474   06 Jun 2027 13:32:46.913   06 Jun 2027 13:33:00.805            13.892                Irkutsk           434.125
       475   06 Jun 2027 13:34:46.553   06 Jun 2027 13:35:46.736            60.183                Novosib          1880.719
       476   06 Jun 2027 13:37:44.098   06 Jun 2027 13:37:57.921            13.823                Irkutsk           431.969
       477   06 Jun 2027 13:38:27.031   06 Jun 2027 13:39:23.641            56.610                Irkutsk          1769.063
       478   06 Jun 2027 13:42:40.110   06 Jun 2027 13:43:17.489            37.379                Irkutsk          1168.094
       479   06 Jun 2027 14:24:25.639   06 Jun 2027 14:28:12.078           226.439            RioGallegos          7076.219
       480   06 Jun 2027 15:10:41.053   06 Jun 2027 15:11:13.606            32.553                Novosib          1017.281
       481   06 Jun 2027 15:11:26.996   06 Jun 2027 15:11:36.348             9.352                  Delhi           292.250
       482   06 Jun 2027 15:12:33.684   06 Jun 2027 15:13:05.312            31.628                  Delhi           988.375
