uniorb/output/strategy_4/Drop/Drop_KinoSat_110310.txt

KinoSat_110310
-------------------------
    Access    *     Start Time (UTCG)     *     Stop Time (UTCG)  *   Duration (s)        *       Station  *  Data (Mbytes)
         1   01 Jun 2027 03:08:17.626   01 Jun 2027 03:08:41.859            24.233                Irkutsk          3029.125
         2   01 Jun 2027 03:08:56.296   01 Jun 2027 03:11:07.687           131.391               Magadan1         16423.875
         3   01 Jun 2027 03:11:13.181   01 Jun 2027 03:11:17.700             4.519               Magadan1           564.875
         4   01 Jun 2027 03:11:34.269   01 Jun 2027 03:13:02.893            88.624                Anadyr1         11078.000
         5   01 Jun 2027 03:13:27.124   01 Jun 2027 03:13:52.608            25.484                Anadyr2          3185.500
         6   01 Jun 2027 03:14:13.261   01 Jun 2027 03:15:41.686            88.425               Magadan2         11053.125
         7   01 Jun 2027 04:27:07.496   01 Jun 2027 04:30:18.740           191.244                Sumatra         23905.500
         8   01 Jun 2027 04:47:05.873   01 Jun 2027 04:47:15.917            10.044                Irkutsk          1255.500
         9   01 Jun 2027 04:48:04.355   01 Jun 2027 04:48:54.442            50.087                Norilsk          6260.875
        10   01 Jun 2027 04:48:58.277   01 Jun 2027 04:50:13.539            75.262              Murmansk2          9407.750
        11   01 Jun 2027 04:50:17.395   01 Jun 2027 04:50:24.695             7.300              Murmansk2           912.500
        12   01 Jun 2027 04:50:40.111   01 Jun 2027 04:51:29.991            49.880              Murmansk2          6235.000
        13   01 Jun 2027 04:51:32.817   01 Jun 2027 04:51:48.191            15.374                Irkutsk          1921.750
        14   01 Jun 2027 04:53:24.236   01 Jun 2027 04:53:28.088             3.852                Norilsk           481.500
        15   01 Jun 2027 05:27:13.310   01 Jun 2027 05:28:52.569            99.259            RioGallegos         12407.375
        16   01 Jun 2027 06:12:23.107   01 Jun 2027 06:14:19.756           116.649                  Delhi         14581.125
        17   01 Jun 2027 06:24:23.580   01 Jun 2027 06:24:35.817            12.237                Irkutsk          1529.625
        18   01 Jun 2027 06:24:38.937   01 Jun 2027 06:24:40.637             1.700                 Moscow           212.500
        19   01 Jun 2027 06:24:48.567   01 Jun 2027 06:25:24.808            36.241                Norilsk          4530.125
        20   01 Jun 2027 06:25:28.257   01 Jun 2027 06:25:42.047            13.790              Murmansk2          1723.750
        21   01 Jun 2027 06:25:50.110   01 Jun 2027 06:26:34.297            44.187                 Moscow          5523.375
        22   01 Jun 2027 06:26:37.166   01 Jun 2027 06:26:58.133            20.967                Novosib          2620.875
        23   01 Jun 2027 06:28:38.708   01 Jun 2027 06:28:43.851             5.143                 Moscow           642.875
        24   01 Jun 2027 07:46:16.485   01 Jun 2027 07:47:51.076            94.591                  Delhi         11823.875
        25   01 Jun 2027 08:01:13.545   01 Jun 2027 08:02:37.367            83.822                Novosib         10477.750
        26   01 Jun 2027 08:03:14.188   01 Jun 2027 08:05:28.973           134.785              Murmansk1         16848.125
        27   01 Jun 2027 09:37:50.373   01 Jun 2027 09:41:29.089           218.716              Murmansk2         27339.500
        28   01 Jun 2027 09:52:06.065   01 Jun 2027 09:52:29.949            23.884                Anadyr2          2985.500
        29   01 Jun 2027 10:49:26.494   01 Jun 2027 10:49:39.989            13.495               CapeTown          1686.875
        30   01 Jun 2027 11:24:14.059   01 Jun 2027 11:25:40.993            86.934                Anadyr1         10866.750
        31   01 Jun 2027 11:27:05.589   01 Jun 2027 11:28:49.834           104.245                Anadyr2         13030.625
        32   01 Jun 2027 11:31:11.894   01 Jun 2027 11:33:38.028           146.134                Anadyr2         18266.750
        33   01 Jun 2027 13:02:50.544   01 Jun 2027 13:08:30.890           340.346               Magadan1         42543.250
        34   01 Jun 2027 15:31:17.812   01 Jun 2027 15:34:54.933           217.121            RioGallegos         27140.125
        35   01 Jun 2027 16:20:36.250   01 Jun 2027 16:22:33.216           116.966                Irkutsk         14620.750
        36   01 Jun 2027 16:32:48.203   01 Jun 2027 16:33:10.550            22.347                Sumatra          2793.375
        37   01 Jun 2027 16:34:24.040   01 Jun 2027 16:36:14.515           110.475                Sumatra         13809.375
        38   01 Jun 2027 17:53:59.858   01 Jun 2027 17:56:45.814           165.956                Novosib         20744.500
        39   01 Jun 2027 18:02:54.289   01 Jun 2027 18:04:02.091            67.802                  Delhi          8475.250
        40   01 Jun 2027 18:08:11.788   01 Jun 2027 18:10:25.355           133.567                  Delhi         12511.625
        41   02 Jun 2027 03:28:01.094   02 Jun 2027 03:30:01.976           120.882              Murmansk2         15110.250
        42   02 Jun 2027 04:38:31.783   02 Jun 2027 04:39:29.278            57.495                Sumatra          7186.875
        43   02 Jun 2027 04:41:13.384   02 Jun 2027 04:42:11.735            58.351                Sumatra          7293.875
        44   02 Jun 2027 05:01:29.674   02 Jun 2027 05:02:34.690            65.016                Irkutsk          8127.000
        45   02 Jun 2027 05:03:09.885   02 Jun 2027 05:03:48.700            38.815                Irkutsk          4851.875
        46   02 Jun 2027 05:03:56.758   02 Jun 2027 05:08:46.428           289.670                Norilsk         36208.750
        47   02 Jun 2027 05:09:16.188   02 Jun 2027 05:11:26.867           130.679              Murmansk1         16334.875
        48   02 Jun 2027 06:20:30.485   02 Jun 2027 06:25:10.416           279.931                Sumatra         34991.375
        49   02 Jun 2027 06:28:29.128   02 Jun 2027 06:29:16.730            47.602                Novosib          5950.250
        50   02 Jun 2027 06:29:32.036   02 Jun 2027 06:33:40.772           248.736                  Delhi         31092.000
        51   02 Jun 2027 06:39:36.173   02 Jun 2027 06:40:25.638            49.465              Murmansk1          6183.125
        52   02 Jun 2027 06:40:32.715   02 Jun 2027 06:41:15.342            42.627                Novosib          5328.375
        53   02 Jun 2027 06:41:42.100   02 Jun 2027 06:46:39.670           297.570              Murmansk2         37196.250
        54   02 Jun 2027 08:05:31.510   02 Jun 2027 08:06:00.121            28.611                  Delhi          3576.375
        55   02 Jun 2027 08:07:12.801   02 Jun 2027 08:11:25.422           252.621                Novosib         31577.625
        56   02 Jun 2027 08:15:06.693   02 Jun 2027 08:15:47.741            41.048              Murmansk2          5131.000
        57   02 Jun 2027 08:16:04.311   02 Jun 2027 08:17:32.001            87.690                Norilsk         10961.250
        58   02 Jun 2027 08:17:32.506   02 Jun 2027 08:22:23.301           290.795              Murmansk2         36349.375
        59   02 Jun 2027 09:45:11.591   02 Jun 2027 09:45:36.957            25.366                 Moscow          3170.750
        60   02 Jun 2027 09:48:46.081   02 Jun 2027 09:52:09.648           203.567              Murmansk1         25445.875
        61   02 Jun 2027 09:52:10.691   02 Jun 2027 09:54:45.276           154.585                 Moscow         19323.125
        62   02 Jun 2027 09:55:11.516   02 Jun 2027 09:58:20.223           188.707              Murmansk1         23588.375
        63   02 Jun 2027 10:01:40.939   02 Jun 2027 10:05:09.781           208.842                Anadyr1         26105.250
        64   02 Jun 2027 11:36:11.979   02 Jun 2027 11:37:23.434            71.455                Anadyr2          8931.875
        65   02 Jun 2027 13:14:42.768   02 Jun 2027 13:19:07.855           265.087               Magadan2         33135.875
        66   02 Jun 2027 15:42:53.441   02 Jun 2027 15:46:46.997           233.556            RioGallegos         29194.500
        67   02 Jun 2027 16:30:13.214   02 Jun 2027 16:30:59.637            46.423                Irkutsk          5802.875
        68   02 Jun 2027 16:32:53.183   02 Jun 2027 16:34:29.397            96.214                Irkutsk         12026.750
        69   02 Jun 2027 16:44:17.802   02 Jun 2027 16:45:44.986            87.184                Sumatra         10898.000
        70   02 Jun 2027 16:55:31.674   02 Jun 2027 16:55:39.518             7.844                Sumatra           980.500
        71   02 Jun 2027 18:05:52.706   02 Jun 2027 18:08:25.159           152.453                Novosib         19056.625
        72   02 Jun 2027 18:14:16.200   02 Jun 2027 18:16:02.868           106.668                  Delhi         13333.500
        73   02 Jun 2027 18:20:30.791   02 Jun 2027 18:22:19.855           109.064                  Delhi         13633.000
        74   02 Jun 2027 19:47:43.265   02 Jun 2027 19:48:06.297            23.032                 Moscow          2879.000
        75   02 Jun 2027 21:18:27.052   02 Jun 2027 21:19:00.347            33.295              Murmansk2          4161.875
        76   02 Jun 2027 21:19:19.123   02 Jun 2027 21:21:14.873           115.750                 Moscow         14468.750
        77   02 Jun 2027 21:44:14.677   02 Jun 2027 21:45:26.383            71.706               CapeTown          8963.250
        78   02 Jun 2027 21:46:06.487   02 Jun 2027 21:47:48.372           101.885               CapeTown         11504.750
        79   03 Jun 2027 03:39:52.204   03 Jun 2027 03:41:18.225            86.021                Norilsk         10752.625
        80   03 Jun 2027 04:50:05.963   03 Jun 2027 04:51:58.170           112.207                Sumatra         14025.875
        81   03 Jun 2027 05:04:34.295   03 Jun 2027 05:05:54.344            80.049                  Delhi         10006.125
        82   03 Jun 2027 05:15:14.427   03 Jun 2027 05:15:48.261            33.834                Irkutsk          4229.250
        83   03 Jun 2027 05:15:58.564   03 Jun 2027 05:20:47.883           289.319                Norilsk         36164.875
        84   03 Jun 2027 05:21:03.761   03 Jun 2027 05:23:20.463           136.702              Murmansk1         17087.750
        85   03 Jun 2027 06:40:37.789   03 Jun 2027 06:41:55.261            77.472                Novosib          9684.000
        86   03 Jun 2027 06:43:16.546   03 Jun 2027 06:46:23.997           187.451                  Delhi         23431.375
        87   03 Jun 2027 06:46:43.137   03 Jun 2027 06:46:56.501            13.364                Irkutsk          1670.500
        88   03 Jun 2027 06:51:48.945   03 Jun 2027 06:52:28.675            39.730                 Moscow          4966.250
        89   03 Jun 2027 06:52:49.505   03 Jun 2027 06:53:14.191            24.686                Novosib          3085.750
        90   03 Jun 2027 06:53:41.822   03 Jun 2027 06:55:10.945            89.123              Murmansk2         11140.375
        91   03 Jun 2027 06:55:10.945   03 Jun 2027 06:58:38.172           207.227              Murmansk1         25903.375
        92   03 Jun 2027 08:17:22.389   03 Jun 2027 08:18:11.869            49.480                  Delhi          6185.000
        93   03 Jun 2027 08:20:00.363   03 Jun 2027 08:23:08.066           187.703                Novosib         23462.875
        94   03 Jun 2027 08:27:53.355   03 Jun 2027 08:30:52.619           179.264                 Moscow         22408.000
        95   03 Jun 2027 08:30:55.270   03 Jun 2027 08:34:24.344           209.074              Murmansk1         26134.250
        96   03 Jun 2027 09:37:47.289   03 Jun 2027 09:38:33.872            46.583               CapeTown          5822.875
        97   03 Jun 2027 09:57:10.444   03 Jun 2027 09:58:18.433            67.989                 Moscow          8498.625
        98   03 Jun 2027 10:01:09.971   03 Jun 2027 10:03:58.372           168.401              Murmansk1         21050.125
        99   03 Jun 2027 10:04:02.075   03 Jun 2027 10:06:43.386           161.311                 Moscow         20163.875
       100   03 Jun 2027 10:07:18.422   03 Jun 2027 10:10:21.882           183.460              Murmansk1         22932.500
       101   03 Jun 2027 10:13:16.443   03 Jun 2027 10:19:28.864           372.421                Anadyr2         46552.625
       102   03 Jun 2027 11:15:15.644   03 Jun 2027 11:20:14.773           299.129               CapeTown         37391.125
       103   03 Jun 2027 11:37:30.452   03 Jun 2027 11:38:20.924            50.472                 Moscow          6309.000
       104   03 Jun 2027 11:41:15.813   03 Jun 2027 11:45:58.081           282.268              Murmansk1         35283.500
       105   03 Jun 2027 13:26:36.927   03 Jun 2027 13:31:06.338           269.411               Magadan1         33676.375
       106   03 Jun 2027 13:31:08.036   03 Jun 2027 13:33:42.913           154.877               Magadan2         19359.625
       107   03 Jun 2027 15:56:33.300   03 Jun 2027 16:00:46.370           253.070            RioGallegos         31633.750
       108   03 Jun 2027 16:44:56.024   03 Jun 2027 16:45:31.129            35.105                Irkutsk          4388.125
       109   03 Jun 2027 16:46:22.601   03 Jun 2027 16:47:20.093            57.492                Novosib          7186.500
       110   03 Jun 2027 16:55:56.049   03 Jun 2027 16:57:52.749           116.700                Sumatra         14587.500
       111   03 Jun 2027 17:00:11.804   03 Jun 2027 17:01:32.725            80.921                Sumatra         10115.125
       112   03 Jun 2027 18:17:47.377   03 Jun 2027 18:19:43.888           116.511                Novosib         14563.875
       113   03 Jun 2027 18:25:49.125   03 Jun 2027 18:27:58.348           129.223                  Delhi         16152.875
       114   03 Jun 2027 19:58:15.180   03 Jun 2027 19:59:24.462            69.282              Murmansk2          8660.250
       115   03 Jun 2027 20:00:28.534   03 Jun 2027 20:02:31.445           122.911                 Moscow         15363.875
       116   03 Jun 2027 21:55:49.146   03 Jun 2027 21:57:43.210           114.064               CapeTown         13800.625
       117   04 Jun 2027 03:52:00.791   04 Jun 2027 03:52:57.558            56.767                Novosib          7095.875
       118   04 Jun 2027 03:53:01.622   04 Jun 2027 03:55:55.521           173.899              Murmansk1         21737.375
       119   04 Jun 2027 05:01:47.889   04 Jun 2027 05:02:20.658            32.769                Sumatra          4096.125
       120   04 Jun 2027 05:03:40.378   04 Jun 2027 05:06:14.636           154.258                Sumatra         19282.250
       121   04 Jun 2027 05:27:57.569   04 Jun 2027 05:28:11.969            14.400              Murmansk2          1800.000
       122   04 Jun 2027 05:28:44.056   04 Jun 2027 05:32:49.468           245.412                Norilsk         30676.500
       123   04 Jun 2027 05:32:49.714   04 Jun 2027 05:35:14.787           145.073              Murmansk2         18134.125
       124   04 Jun 2027 06:52:49.726   04 Jun 2027 06:55:10.884           141.158                Novosib         17644.750
       125   04 Jun 2027 06:55:14.138   04 Jun 2027 06:58:26.788           192.650                  Delhi         24081.250
       126   04 Jun 2027 06:58:34.479   04 Jun 2027 06:59:47.348            72.869                Irkutsk          9108.625
       127   04 Jun 2027 07:03:30.206   04 Jun 2027 07:04:01.339            31.133              Murmansk2          3891.625
       128   04 Jun 2027 07:04:08.954   04 Jun 2027 07:04:21.821            12.867                Norilsk          1608.375
       129   04 Jun 2027 07:04:30.244   04 Jun 2027 07:05:12.089            41.845                Novosib          5230.625
       130   04 Jun 2027 07:05:41.875   04 Jun 2027 07:07:22.634           100.759              Murmansk2         12594.875
       131   04 Jun 2027 07:07:22.634   04 Jun 2027 07:10:37.123           194.489              Murmansk1         24311.125
       132   04 Jun 2027 08:30:17.215   04 Jun 2027 08:30:53.516            36.301                 Moscow          4537.625
       133   04 Jun 2027 08:32:59.656   04 Jun 2027 08:34:42.743           103.087                Novosib         12885.875
       134   04 Jun 2027 08:38:53.857   04 Jun 2027 08:39:46.434            52.577                 Moscow          6572.125
       135   04 Jun 2027 08:40:13.492   04 Jun 2027 08:41:30.341            76.849                Norilsk          9606.125
       136   04 Jun 2027 08:41:30.895   04 Jun 2027 08:42:55.409            84.514                 Moscow         10564.250
       137   04 Jun 2027 08:43:04.344   04 Jun 2027 08:46:25.559           201.215              Murmansk1         25151.875
       138   04 Jun 2027 09:50:24.124   04 Jun 2027 09:52:45.381           141.257               CapeTown         17657.125
       139   04 Jun 2027 10:09:35.617   04 Jun 2027 10:09:42.054             6.437                 Moscow           804.625
       140   04 Jun 2027 10:13:11.303   04 Jun 2027 10:15:04.237           112.934              Murmansk2         14116.750
       141   04 Jun 2027 10:15:39.163   04 Jun 2027 10:18:40.415           181.252                 Moscow         22656.500
       142   04 Jun 2027 10:19:05.784   04 Jun 2027 10:22:23.486           197.702              Murmansk1         24712.750
       143   04 Jun 2027 10:25:00.670   04 Jun 2027 10:32:20.862           440.192                Anadyr2         55024.000
       144   04 Jun 2027 11:27:07.097   04 Jun 2027 11:32:18.038           310.941               CapeTown         38867.625
       145   04 Jun 2027 11:49:09.341   04 Jun 2027 11:51:20.339           130.998              Murmansk1         16374.750
       146   04 Jun 2027 12:05:12.437   04 Jun 2027 12:06:43.223            90.786               Magadan1         11348.250
       147   04 Jun 2027 13:38:32.588   04 Jun 2027 13:40:13.301           100.713               Magadan2         12589.125
       148   04 Jun 2027 13:40:13.301   04 Jun 2027 13:40:14.351             1.050               Magadan1           131.250
       149   04 Jun 2027 13:41:36.675   04 Jun 2027 13:43:05.525            88.850               Magadan2         11106.250
       150   04 Jun 2027 13:46:51.630   04 Jun 2027 13:47:53.494            61.864               Magadan2          7733.000
       151   04 Jun 2027 16:06:22.612   04 Jun 2027 16:09:00.739           158.127            RioGallegos         19765.875
       152   04 Jun 2027 16:09:53.163   04 Jun 2027 16:12:13.233           140.070            RioGallegos         17508.750
       153   04 Jun 2027 16:53:57.074   04 Jun 2027 16:55:56.637           119.563                Irkutsk         14945.375
       154   04 Jun 2027 16:59:06.130   04 Jun 2027 17:01:17.898           131.768                Novosib         16471.000
       155   04 Jun 2027 17:08:37.152   04 Jun 2027 17:09:25.787            48.635                Sumatra          6079.375
       156   04 Jun 2027 18:29:43.521   04 Jun 2027 18:31:17.828            94.307                Novosib         11788.375
       157   04 Jun 2027 18:37:29.516   04 Jun 2027 18:39:12.296           102.780                  Delhi         12847.500
       158   04 Jun 2027 18:44:50.111   04 Jun 2027 18:46:46.277           116.166                  Delhi         14520.750
       159   04 Jun 2027 20:09:40.423   04 Jun 2027 20:12:29.239           168.816                 Moscow         21102.000
       160   04 Jun 2027 21:51:07.966   04 Jun 2027 21:52:43.586            95.620                 Moscow          6744.125
       161   05 Jun 2027 04:04:03.504   05 Jun 2027 04:05:04.580            61.076                Novosib          7634.500
       162   05 Jun 2027 04:05:06.888   05 Jun 2027 04:09:09.938           243.050              Murmansk1         30381.250
       163   05 Jun 2027 05:13:36.363   05 Jun 2027 05:14:56.855            80.492                Sumatra         10061.500
       164   05 Jun 2027 05:16:31.319   05 Jun 2027 05:18:14.099           102.780                Sumatra         12847.500
       165   05 Jun 2027 05:39:42.491   05 Jun 2027 05:41:17.606            95.115                 Moscow         11889.375
       166   05 Jun 2027 05:41:19.122   05 Jun 2027 05:41:25.145             6.023                Novosib           752.875
       167   05 Jun 2027 05:41:34.753   05 Jun 2027 05:44:51.173           196.420                Norilsk         24552.500
       168   05 Jun 2027 05:45:04.333   05 Jun 2027 05:47:09.816           125.483              Murmansk2         15685.375
       169   05 Jun 2027 07:05:09.324   05 Jun 2027 07:10:26.302           316.978                  Delhi         39622.250
       170   05 Jun 2027 07:10:51.730   05 Jun 2027 07:11:46.435            54.705                Irkutsk          6838.125
       171   05 Jun 2027 07:15:24.334   05 Jun 2027 07:16:20.343            56.009              Murmansk1          7001.125
       172   05 Jun 2027 07:17:01.409   05 Jun 2027 07:17:08.874             7.465                Novosib           933.125
       173   05 Jun 2027 07:17:42.222   05 Jun 2027 07:19:10.952            88.730              Murmansk2         11091.250
       174   05 Jun 2027 07:19:10.952   05 Jun 2027 07:22:36.473           205.521              Murmansk1         25690.125
       175   05 Jun 2027 08:50:56.178   05 Jun 2027 08:52:00.984            64.806              Murmansk2          8100.750
       176   05 Jun 2027 08:52:50.536   05 Jun 2027 08:54:57.688           127.152                 Moscow         15894.000
       177   05 Jun 2027 08:55:05.423   05 Jun 2027 08:58:26.915           201.492              Murmansk1         25186.500
       178   05 Jun 2027 10:02:51.862   05 Jun 2027 10:05:54.509           182.647               CapeTown         22830.875
       179   05 Jun 2027 10:25:12.759   05 Jun 2027 10:26:57.881           105.122              Murmansk1         13140.250
       180   05 Jun 2027 10:27:44.895   05 Jun 2027 10:30:36.157           171.262                 Moscow         21407.750
       181   05 Jun 2027 10:30:53.041   05 Jun 2027 10:33:16.094           143.053              Murmansk1         17881.625
       182   05 Jun 2027 10:33:16.094   05 Jun 2027 10:34:24.998            68.904              Murmansk2          8613.000
       183   05 Jun 2027 10:37:03.195   05 Jun 2027 10:45:05.616           482.421                Anadyr2         60302.625
       184   05 Jun 2027 11:39:24.772   05 Jun 2027 11:44:16.305           291.533               CapeTown         36441.625
       185   05 Jun 2027 12:01:10.718   05 Jun 2027 12:10:12.419           541.701              Murmansk1         67712.625
       186   05 Jun 2027 12:12:09.708   05 Jun 2027 12:15:52.361           222.653                Anadyr1         27831.625
       187   05 Jun 2027 12:16:17.898   05 Jun 2027 12:19:26.533           188.635               Magadan1         23579.375
       188   05 Jun 2027 13:50:29.449   05 Jun 2027 13:51:52.919            83.470               Magadan2         10433.750
       189   05 Jun 2027 13:53:39.079   05 Jun 2027 13:55:05.313            86.234               Magadan1         10779.250
       190   05 Jun 2027 15:32:46.711   05 Jun 2027 15:35:23.578           156.867                Irkutsk         19608.375
       191   05 Jun 2027 16:18:12.701   05 Jun 2027 16:19:38.413            85.712            RioGallegos         10714.000
       192   05 Jun 2027 16:21:03.196   05 Jun 2027 16:22:06.959            63.763            RioGallegos          7970.375
       193   05 Jun 2027 17:05:52.037   05 Jun 2027 17:07:45.043           113.006                Irkutsk         14125.750
       194   05 Jun 2027 17:08:13.666   05 Jun 2027 17:10:56.613           162.947                Novosib         20368.375
       195   05 Jun 2027 17:11:42.483   05 Jun 2027 17:14:25.953           163.470                Novosib         20433.750
       196   05 Jun 2027 18:46:19.309   05 Jun 2027 18:46:52.340            33.031                Novosib          4128.875
       197   05 Jun 2027 18:48:30.103   05 Jun 2027 18:49:37.817            67.714                Novosib          8464.250
       198   05 Jun 2027 18:51:33.017   05 Jun 2027 18:53:39.441           126.424                  Delhi         15803.000
       199   05 Jun 2027 20:20:28.276   05 Jun 2027 20:21:58.174            89.898                 Moscow         11237.250
       200   05 Jun 2027 21:55:10.304   05 Jun 2027 21:56:06.296            55.992                 Moscow          6999.000
       201   05 Jun 2027 21:59:51.004   05 Jun 2027 22:00:19.002            27.998                 Moscow          3499.750
       202   05 Jun 2027 22:19:15.474   05 Jun 2027 22:19:50.229            34.755               CapeTown          1029.250
       203   06 Jun 2027 04:16:05.514   06 Jun 2027 04:20:01.511           235.997                Norilsk         29499.625
       204   06 Jun 2027 05:25:30.730   06 Jun 2027 05:27:49.972           139.242                Sumatra         17405.250
       205   06 Jun 2027 05:36:07.279   06 Jun 2027 05:36:59.011            51.732                  Delhi          6466.500
       206   06 Jun 2027 05:41:28.294   06 Jun 2027 05:43:23.077           114.783                  Delhi         14347.875
       207   06 Jun 2027 05:52:13.213   06 Jun 2027 05:56:52.962           279.749                Norilsk         34968.625
       208   06 Jun 2027 05:57:14.926   06 Jun 2027 05:59:05.517           110.591              Murmansk2         13823.875
       209   06 Jun 2027 07:17:46.939   06 Jun 2027 07:22:22.416           275.477                  Delhi         34434.625
       210   06 Jun 2027 07:22:24.306   06 Jun 2027 07:22:38.096            13.790                 Moscow          1723.750
       211   06 Jun 2027 07:23:14.804   06 Jun 2027 07:23:44.418            29.614                Irkutsk          3701.750
       212   06 Jun 2027 07:27:47.091   06 Jun 2027 07:28:20.978            33.887              Murmansk2          4235.875
       213   06 Jun 2027 07:28:26.262   06 Jun 2027 07:29:04.318            38.056                Novosib          4757.000
       214   06 Jun 2027 07:29:42.843   06 Jun 2027 07:31:11.200            88.357              Murmansk1         11044.625
       215   06 Jun 2027 07:31:11.200   06 Jun 2027 07:34:36.186           204.986              Murmansk2         25623.250
       216   06 Jun 2027 09:04:07.088   06 Jun 2027 09:05:29.745            82.657                Norilsk         10332.125
       217   06 Jun 2027 09:05:38.436   06 Jun 2027 09:06:59.438            81.002                 Moscow         10125.250
       218   06 Jun 2027 09:07:08.020   06 Jun 2027 09:10:28.394           200.374              Murmansk2         25046.750
       219   06 Jun 2027 10:37:14.308   06 Jun 2027 10:46:26.384           552.076              Murmansk2         69009.500
       220   06 Jun 2027 10:48:41.742   06 Jun 2027 10:57:44.887           543.145                Anadyr2         67893.125
       221   06 Jun 2027 11:48:32.587   06 Jun 2027 11:56:09.631           457.044               CapeTown         57130.500
       222   06 Jun 2027 12:13:36.057   06 Jun 2027 12:19:10.162           334.105              Murmansk1         41763.125
       223   06 Jun 2027 12:19:10.162   06 Jun 2027 12:22:09.893           179.731              Murmansk2         22466.375
       224   06 Jun 2027 12:24:09.877   06 Jun 2027 12:30:20.753           370.876                Anadyr2         46359.500
       225   06 Jun 2027 12:31:39.174   06 Jun 2027 12:34:48.012           188.838               Magadan1         23604.750
       226   06 Jun 2027 14:02:27.284   06 Jun 2027 14:03:37.772            70.488               Magadan1          8811.000
       227   06 Jun 2027 14:05:39.038   06 Jun 2027 14:07:05.610            86.572               Magadan2         10821.500
       228   06 Jun 2027 15:43:51.096   06 Jun 2027 15:47:10.535           199.439                Irkutsk         24929.875
       229   06 Jun 2027 16:00:27.601   06 Jun 2027 16:04:21.330           233.729                Sumatra         29216.125
       230   06 Jun 2027 17:17:48.535   06 Jun 2027 17:17:59.550            11.015                Irkutsk          1376.875
       231   06 Jun 2027 17:18:53.287   06 Jun 2027 17:22:49.012           235.725                Novosib         29465.625
       232   06 Jun 2027 17:39:13.688   06 Jun 2027 17:40:29.297            75.609                Sumatra          9451.125
       233   06 Jun 2027 18:58:20.539   06 Jun 2027 18:58:47.311            26.772                Novosib          3346.500
       234   06 Jun 2027 19:01:06.096   06 Jun 2027 19:04:46.199           220.103                  Delhi         27512.875
       235   06 Jun 2027 20:31:22.135   06 Jun 2027 20:31:50.444            28.309              Murmansk1          3538.625
       236   06 Jun 2027 20:32:10.266   06 Jun 2027 20:34:12.285           122.019                 Moscow         15252.375
       237   06 Jun 2027 22:14:06.501   06 Jun 2027 22:14:40.445            33.944                 Moscow          1763.876
       238   07 Jun 2027 04:27:57.485   07 Jun 2027 04:27:59.405             1.920                Irkutsk           240.000
       239   07 Jun 2027 04:27:59.697   07 Jun 2027 04:29:16.556            76.859                Novosib          9607.375
       240   07 Jun 2027 04:29:18.639   07 Jun 2027 04:32:33.565           194.926                Norilsk         24365.750
       241   07 Jun 2027 05:37:30.706   07 Jun 2027 05:39:52.045           141.339                Sumatra         17667.375
       242   07 Jun 2027 05:47:57.321   07 Jun 2027 05:48:58.310            60.989                  Delhi          7623.625
       243   07 Jun 2027 06:04:01.248   07 Jun 2027 06:05:28.955            87.707                Novosib         10963.375
       244   07 Jun 2027 06:05:49.098   07 Jun 2027 06:08:54.817           185.719                Norilsk         23214.875
       245   07 Jun 2027 06:09:06.449   07 Jun 2027 06:11:01.864           115.415              Murmansk2         14426.875
       246   07 Jun 2027 07:28:29.690   07 Jun 2027 07:34:14.842           345.152                  Delhi         43144.000
       247   07 Jun 2027 07:39:42.944   07 Jun 2027 07:40:17.346            34.402              Murmansk1          4300.250
       248   07 Jun 2027 07:40:34.304   07 Jun 2027 07:41:55.335            81.031                Norilsk         10128.875
       249   07 Jun 2027 07:42:03.950   07 Jun 2027 07:43:06.531            62.581              Murmansk2          7822.625
       250   07 Jun 2027 07:43:06.531   07 Jun 2027 07:46:36.237           209.706              Murmansk1         26213.250
       251   07 Jun 2027 09:09:25.192   07 Jun 2027 09:10:06.740            41.548                 Moscow          5193.500
       252   07 Jun 2027 09:15:31.366   07 Jun 2027 09:19:00.605           209.239                 Moscow         26154.875
       253   07 Jun 2027 09:19:44.221   07 Jun 2027 09:22:29.965           165.744              Murmansk2         20718.000
       254   07 Jun 2027 10:27:16.045   07 Jun 2027 10:31:19.684           243.639               CapeTown         30454.875
       255   07 Jun 2027 10:48:52.115   07 Jun 2027 10:58:27.589           575.474              Murmansk1         71934.250
       256   07 Jun 2027 11:00:35.952   07 Jun 2027 11:10:19.640           583.688                Anadyr1         72961.000
       257   07 Jun 2027 11:58:33.159   07 Jun 2027 12:07:57.935           564.776               CapeTown         70597.000
       258   07 Jun 2027 12:39:29.329   07 Jun 2027 12:43:32.968           243.639               Magadan2         30454.875
       259   07 Jun 2027 14:14:25.923   07 Jun 2027 14:15:04.217            38.294               Magadan1          4786.750
       260   07 Jun 2027 14:19:32.675   07 Jun 2027 14:21:18.687           106.012               Magadan1         13251.500
       261   07 Jun 2027 15:09:12.994   07 Jun 2027 15:11:13.039           120.045            RioGallegos         15005.625
       262   07 Jun 2027 15:55:18.616   07 Jun 2027 15:56:39.325            80.709                Irkutsk         10088.625
       263   07 Jun 2027 15:59:00.717   07 Jun 2027 16:00:19.353            78.636                Irkutsk          9829.500
       264   07 Jun 2027 16:10:44.375   07 Jun 2027 16:12:55.229           130.854                Sumatra         16356.750
       265   07 Jun 2027 16:14:59.406   07 Jun 2027 16:17:12.547           133.141                Sumatra         16642.625
       266   07 Jun 2027 17:31:48.078   07 Jun 2027 17:32:44.029            55.951                Novosib          6993.875
       267   07 Jun 2027 17:36:38.662   07 Jun 2027 17:39:19.879           161.217                Novosib         20152.125
       268   07 Jun 2027 17:42:15.115   07 Jun 2027 17:42:49.371            34.256                  Delhi          4282.000
       269   07 Jun 2027 19:13:00.555   07 Jun 2027 19:14:43.141           102.586                  Delhi         12823.250
       270   07 Jun 2027 20:40:01.776   07 Jun 2027 20:40:31.524            29.748              Murmansk1          3718.500
       271   07 Jun 2027 20:42:20.542   07 Jun 2027 20:44:00.883           100.341              Murmansk1         12542.625
       272   07 Jun 2027 20:46:22.999   07 Jun 2027 20:48:10.704           107.705                 Moscow          8881.625
       273   08 Jun 2027 04:16:11.316   08 Jun 2027 04:18:46.303           154.987                Sumatra         19373.375
       274   08 Jun 2027 04:40:10.414   08 Jun 2027 04:47:56.504           466.090              Murmansk2         58261.250
       275   08 Jun 2027 05:17:28.508   08 Jun 2027 05:26:45.588           557.080            RioGallegos         69635.000
       276   08 Jun 2027 05:49:36.306   08 Jun 2027 05:50:33.252            56.946                Sumatra          7118.250
       277   08 Jun 2027 06:14:31.447   08 Jun 2027 06:15:18.118            46.671                Irkutsk          5833.875
       278   08 Jun 2027 06:15:48.326   08 Jun 2027 06:17:29.994           101.668                Novosib         12708.500
       279   08 Jun 2027 06:17:49.854   08 Jun 2027 06:20:56.711           186.857                Norilsk         23357.125
       280   08 Jun 2027 06:21:03.694   08 Jun 2027 06:22:58.806           115.112              Murmansk2         14389.000
       281   08 Jun 2027 07:41:53.195   08 Jun 2027 07:46:03.050           249.855                  Delhi         31231.875
       282   08 Jun 2027 07:51:36.243   08 Jun 2027 07:51:39.591             3.348                Novosib           418.500
       283   08 Jun 2027 07:52:13.868   08 Jun 2027 07:52:21.259             7.391              Murmansk2           923.875
       284   08 Jun 2027 07:52:28.281   08 Jun 2027 07:53:52.517            84.236                Norilsk         10529.500
       285   08 Jun 2027 07:54:03.050   08 Jun 2027 07:58:36.576           273.526              Murmansk2         34190.750
       286   08 Jun 2027 09:21:26.236   08 Jun 2027 09:22:13.988            47.752                 Moscow          5969.000
       287   08 Jun 2027 09:26:30.800   08 Jun 2027 09:28:47.231           136.431              Murmansk2         17053.875
       288   08 Jun 2027 09:28:50.298   08 Jun 2027 09:31:01.134           130.836                 Moscow         16354.500
       289   08 Jun 2027 09:31:15.607   08 Jun 2027 09:34:31.602           195.995              Murmansk1         24499.375
       290   08 Jun 2027 10:36:42.286   08 Jun 2027 10:43:47.084           424.798               CapeTown         53099.750
       291   08 Jun 2027 11:01:17.581   08 Jun 2027 11:02:09.912            52.331              Murmansk2          6541.375
       292   08 Jun 2027 11:02:58.752   08 Jun 2027 11:06:12.279           193.527                 Moscow         24190.875
       293   08 Jun 2027 11:06:15.389   08 Jun 2027 11:10:28.569           253.180              Murmansk2         31647.500
       294   08 Jun 2027 11:12:51.625   08 Jun 2027 11:21:52.066           540.441                Anadyr2         67555.125
       295   08 Jun 2027 12:51:15.418   08 Jun 2027 12:55:28.349           252.931               Magadan1         31616.375
       296   08 Jun 2027 12:57:02.722   08 Jun 2027 12:57:11.994             9.272               Magadan2          1159.000
       297   08 Jun 2027 14:26:25.245   08 Jun 2027 14:27:18.255            53.010               Magadan2          6626.250
       298   08 Jun 2027 15:20:07.909   08 Jun 2027 15:23:20.134           192.225            RioGallegos         24028.125
       299   08 Jun 2027 16:06:56.271   08 Jun 2027 16:08:52.590           116.319                Irkutsk         14539.875
       300   08 Jun 2027 16:12:46.287   08 Jun 2027 16:13:33.411            47.124                Irkutsk          5890.500
       301   08 Jun 2027 16:21:44.264   08 Jun 2027 16:24:39.060           174.796                Sumatra         21849.500
       302   08 Jun 2027 17:44:54.060   08 Jun 2027 17:46:39.194           105.134                Novosib         13141.750
       303   08 Jun 2027 17:52:05.832   08 Jun 2027 17:54:28.302           142.470                  Delhi         17808.750
       304   08 Jun 2027 17:56:00.613   08 Jun 2027 17:58:22.805           142.192                  Delhi         17774.000
       305   08 Jun 2027 20:55:46.960   08 Jun 2027 20:58:30.494           163.534                 Moscow         20441.750
       306   08 Jun 2027 21:22:08.584   08 Jun 2027 21:24:28.492           139.908               CapeTown          8989.375
       307   09 Jun 2027 03:14:54.484   09 Jun 2027 03:15:04.712            10.228                Irkutsk          1278.500
       308   09 Jun 2027 03:16:00.623   09 Jun 2027 03:16:13.008            12.385              Murmansk2          1548.125
       309   09 Jun 2027 03:16:13.008   09 Jun 2027 03:24:07.618           474.610              Murmansk1         59326.250
       310   09 Jun 2027 04:27:21.606   09 Jun 2027 04:30:33.392           191.786                Sumatra         23973.250
       311   09 Jun 2027 04:52:09.892   09 Jun 2027 04:56:59.866           289.974                Norilsk         36246.750
       312   09 Jun 2027 04:57:02.603   09 Jun 2027 04:59:48.612           166.009              Murmansk2         20751.125
       313   09 Jun 2027 06:09:39.669   09 Jun 2027 06:13:47.016           247.347                Sumatra         30918.375
       314   09 Jun 2027 06:19:55.598   09 Jun 2027 06:23:36.471           220.873                Novosib         27609.125
       315   09 Jun 2027 06:27:12.353   09 Jun 2027 06:29:30.384           138.031                Novosib         17253.875
       316   09 Jun 2027 06:29:57.551   09 Jun 2027 06:34:56.320           298.769              Murmansk1         37346.125
       317   09 Jun 2027 07:53:51.376   09 Jun 2027 07:54:27.867            36.491                  Delhi          4561.375
       318   09 Jun 2027 07:55:13.411   09 Jun 2027 07:58:15.147           181.736                Novosib         22717.000
       319   09 Jun 2027 07:58:43.031   09 Jun 2027 07:59:32.903            49.872                Novosib          6234.000
       320   09 Jun 2027 08:03:33.602   09 Jun 2027 08:04:38.988            65.386                Novosib          8173.250
       321   09 Jun 2027 08:05:45.980   09 Jun 2027 08:07:14.338            88.358              Murmansk2         11044.750
       322   09 Jun 2027 08:07:14.338   09 Jun 2027 08:10:37.187           202.849              Murmansk1         25356.125
       323   09 Jun 2027 09:33:48.339   09 Jun 2027 09:34:21.431            33.092                 Moscow          4136.500
       324   09 Jun 2027 09:37:00.083   09 Jun 2027 09:37:22.396            22.313              Murmansk2          2789.125
       325   09 Jun 2027 09:38:06.262   09 Jun 2027 09:40:37.251           150.989              Murmansk2         18873.625
       326   09 Jun 2027 09:40:47.561   09 Jun 2027 09:43:27.897           160.336                Norilsk         20042.000
       327   09 Jun 2027 09:43:51.985   09 Jun 2027 09:46:33.278           161.293              Murmansk2         20161.625
       328   09 Jun 2027 09:51:40.355   09 Jun 2027 09:53:11.995            91.640                Anadyr1         11455.000
       329   09 Jun 2027 10:49:41.765   09 Jun 2027 10:56:07.238           385.473               CapeTown         48184.125
       330   09 Jun 2027 11:13:19.244   09 Jun 2027 11:14:11.179            51.935              Murmansk2          6491.875
       331   09 Jun 2027 11:14:28.195   09 Jun 2027 11:17:58.587           210.392                 Moscow         26299.000
       332   09 Jun 2027 11:18:03.403   09 Jun 2027 11:19:35.677            92.274              Murmansk2         11534.250
       333   09 Jun 2027 11:28:47.849   09 Jun 2027 11:29:41.282            53.433                Anadyr2          6679.125
       334   09 Jun 2027 13:03:05.115   09 Jun 2027 13:09:26.148           381.033               Magadan2         47629.125
       335   09 Jun 2027 15:31:32.099   09 Jun 2027 15:35:09.592           217.493            RioGallegos         27186.625
       336   09 Jun 2027 16:22:47.959   09 Jun 2027 16:24:44.513           116.554                Irkutsk         14569.250
       337   09 Jun 2027 16:33:02.406   09 Jun 2027 16:34:38.835            96.429                Sumatra         12053.625
       338   09 Jun 2027 16:39:28.796   09 Jun 2027 16:41:01.230            92.434                Sumatra         11554.250
       339   09 Jun 2027 17:57:00.910   09 Jun 2027 17:58:14.312            73.402                Novosib          9175.250
       340   09 Jun 2027 18:03:08.343   09 Jun 2027 18:06:13.192           184.849                  Delhi         23106.125
       341   09 Jun 2027 21:06:08.129   09 Jun 2027 21:06:31.184            23.055              Murmansk2          2881.875
       342   09 Jun 2027 21:07:39.406   09 Jun 2027 21:09:04.459            85.053                 Moscow         10631.625
       343   09 Jun 2027 21:33:01.246   09 Jun 2027 21:34:22.969            81.723               CapeTown         10215.375
       344   10 Jun 2027 03:28:17.274   10 Jun 2027 03:31:31.633           194.359                Norilsk         24294.875
       345   10 Jun 2027 04:38:46.056   10 Jun 2027 04:39:44.471            58.415                Sumatra          7301.875
       346   10 Jun 2027 04:41:30.312   10 Jun 2027 04:42:26.489            56.177                Sumatra          7022.125
       347   10 Jun 2027 05:03:54.975   10 Jun 2027 05:04:03.411             8.436                Irkutsk          1054.500
       348   10 Jun 2027 05:04:11.614   10 Jun 2027 05:09:01.157           289.543                Norilsk         36192.875
       349   10 Jun 2027 05:09:30.679   10 Jun 2027 05:11:41.475           130.796              Murmansk1         16349.500
       350   10 Jun 2027 06:21:39.842   10 Jun 2027 06:25:24.754           224.912                Sumatra         28114.000
       351   10 Jun 2027 06:28:43.937   10 Jun 2027 06:29:30.961            47.024                Novosib          5878.000
       352   10 Jun 2027 06:29:46.828   10 Jun 2027 06:34:32.695           285.867                  Delhi         35733.375
       353   10 Jun 2027 06:34:38.324   10 Jun 2027 06:35:51.176            72.852                Irkutsk          9106.500
       354   10 Jun 2027 06:39:51.763   10 Jun 2027 06:40:34.144            42.381              Murmansk1          5297.625
       355   10 Jun 2027 06:40:47.467   10 Jun 2027 06:41:30.043            42.576                Novosib          5322.000
       356   10 Jun 2027 06:41:56.912   10 Jun 2027 06:43:30.505            93.593              Murmansk2         11699.125
       357   10 Jun 2027 06:43:30.505   10 Jun 2027 06:46:54.351           203.846              Murmansk1         25480.750
       358   10 Jun 2027 08:05:46.061   10 Jun 2027 08:06:14.943            28.882                  Delhi          3610.250
       359   10 Jun 2027 08:07:28.118   10 Jun 2027 08:11:40.870           252.752                Novosib         31594.000
       360   10 Jun 2027 08:15:23.485   10 Jun 2027 08:16:02.993            39.508              Murmansk1          4938.500
       361   10 Jun 2027 08:16:19.210   10 Jun 2027 08:20:55.712           276.502                Norilsk         34562.750
       362   10 Jun 2027 08:21:22.804   10 Jun 2027 08:22:38.023            75.219              Murmansk1          9402.375
       363   10 Jun 2027 09:45:26.292   10 Jun 2027 09:46:27.640            61.348                 Moscow          7668.500
       364   10 Jun 2027 09:49:01.097   10 Jun 2027 09:52:26.544           205.447              Murmansk1         25680.875
       365   10 Jun 2027 09:52:29.096   10 Jun 2027 09:54:59.968           150.872                 Moscow         18859.000
       366   10 Jun 2027 09:55:01.340   10 Jun 2027 09:58:34.959           213.619              Murmansk1         26702.375
       367   10 Jun 2027 10:01:55.176   10 Jun 2027 10:06:41.381           286.205                Anadyr1         35775.625
       368   10 Jun 2027 11:03:36.869   10 Jun 2027 11:05:50.511           133.642               CapeTown         16705.250
       369   10 Jun 2027 13:14:57.375   10 Jun 2027 13:18:14.660           197.285               Magadan2         24660.625
       370   10 Jun 2027 13:18:35.532   10 Jun 2027 13:19:22.640            47.108               Magadan1          5888.500
       371   10 Jun 2027 13:20:07.236   10 Jun 2027 13:21:45.994            98.758               Magadan2         12344.750
       372   10 Jun 2027 15:43:07.852   10 Jun 2027 15:47:01.698           233.846            RioGallegos         29230.750
       373   10 Jun 2027 15:48:54.133   10 Jun 2027 15:49:56.499            62.366            RioGallegos          7795.750
       374   10 Jun 2027 16:34:06.087   10 Jun 2027 16:34:44.159            38.072                Irkutsk          4759.000
       375   10 Jun 2027 16:44:32.146   10 Jun 2027 16:46:00.101            87.955                Sumatra         10994.375
       376   10 Jun 2027 16:48:25.168   10 Jun 2027 16:48:34.901             9.733                Sumatra          1216.625
       377   10 Jun 2027 16:53:48.784   10 Jun 2027 16:55:46.221           117.437                Sumatra         14679.625
       378   10 Jun 2027 18:06:07.322   10 Jun 2027 18:07:39.328            92.006                Novosib         11500.750
       379   10 Jun 2027 18:14:30.451   10 Jun 2027 18:18:02.823           212.372                  Delhi         26546.500
       380   10 Jun 2027 19:47:31.303   10 Jun 2027 19:48:27.810            56.507                 Moscow          7063.375
       381   10 Jun 2027 21:19:33.759   10 Jun 2027 21:21:29.915           116.156                 Moscow         14519.500
       382   10 Jun 2027 21:45:41.360   10 Jun 2027 21:48:03.071           141.711               CapeTown         16815.374
       383   11 Jun 2027 03:40:07.000   11 Jun 2027 03:41:35.056            88.056                Norilsk         11007.000
       384   11 Jun 2027 04:50:20.363   11 Jun 2027 04:52:13.219           112.856                Sumatra         14107.000
       385   11 Jun 2027 05:04:47.406   11 Jun 2027 05:06:16.553            89.147                  Delhi         11143.375
       386   11 Jun 2027 05:15:30.314   11 Jun 2027 05:16:02.959            32.645                Irkutsk          4080.625
       387   11 Jun 2027 05:16:13.423   11 Jun 2027 05:21:02.615           289.192                Norilsk         36149.000
       388   11 Jun 2027 05:21:18.256   11 Jun 2027 05:23:35.081           136.825              Murmansk1         17103.125
       389   11 Jun 2027 06:40:52.644   11 Jun 2027 06:42:07.371            74.727                Novosib          9340.875
       390   11 Jun 2027 06:43:31.184   11 Jun 2027 06:46:38.768           187.584                  Delhi         23448.000
       391   11 Jun 2027 06:46:57.684   11 Jun 2027 06:47:10.686            13.002                Irkutsk          1625.250
       392   11 Jun 2027 06:52:06.730   11 Jun 2027 06:52:45.270            38.540                 Moscow          4817.500
       393   11 Jun 2027 06:53:03.918   11 Jun 2027 06:53:28.879            24.961                Novosib          3120.125
       394   11 Jun 2027 06:53:56.641   11 Jun 2027 06:55:26.219            89.578              Murmansk1         11197.250
       395   11 Jun 2027 06:55:26.219   11 Jun 2027 06:58:52.860           206.641              Murmansk2         25830.125
       396   11 Jun 2027 08:17:36.888   11 Jun 2027 08:18:26.634            49.746                  Delhi          6218.250
       397   11 Jun 2027 08:20:15.813   11 Jun 2027 08:23:22.630           186.817                Novosib         23352.125
       398   11 Jun 2027 08:28:07.948   11 Jun 2027 08:31:07.370           179.422                 Moscow         22427.750
       399   11 Jun 2027 08:31:10.396   11 Jun 2027 08:34:39.070           208.674              Murmansk2         26084.250
       400   11 Jun 2027 09:38:02.834   11 Jun 2027 09:38:52.238            49.404               CapeTown          6175.500
       401   11 Jun 2027 09:57:25.133   11 Jun 2027 09:58:32.753            67.620                 Moscow          8452.500
       402   11 Jun 2027 10:01:24.603   11 Jun 2027 10:03:52.456           147.853              Murmansk1         18481.625
       403   11 Jun 2027 10:04:16.649   11 Jun 2027 10:06:58.064           161.415                 Moscow         20176.875
       404   11 Jun 2027 10:07:14.764   11 Jun 2027 10:10:36.617           201.853              Murmansk2         25231.625
       405   11 Jun 2027 10:13:30.865   11 Jun 2027 10:19:44.391           373.526                Anadyr2         46690.750
       406   11 Jun 2027 11:15:30.319   11 Jun 2027 11:20:29.565           299.246               CapeTown         37405.750
       407   11 Jun 2027 11:37:44.965   11 Jun 2027 11:38:54.598            69.633                 Moscow          8704.125
       408   11 Jun 2027 11:41:30.609   11 Jun 2027 11:43:30.286           119.677              Murmansk2         14959.625
       409   11 Jun 2027 11:43:30.286   11 Jun 2027 11:45:52.348           142.062              Murmansk1         17757.750
       410   11 Jun 2027 13:26:51.560   11 Jun 2027 13:32:13.978           322.418               Magadan2         40302.250
       411   11 Jun 2027 13:33:58.480   11 Jun 2027 13:36:22.539           144.059               Magadan1         18007.375
       412   11 Jun 2027 15:56:49.185   11 Jun 2027 16:01:00.496           251.311            RioGallegos         31413.875
       413   11 Jun 2027 16:45:29.984   11 Jun 2027 16:47:34.639           124.655                Novosib         15581.875
       414   11 Jun 2027 16:56:10.501   11 Jun 2027 16:58:07.260           116.759                Sumatra         14594.875
       415   11 Jun 2027 17:07:20.838   11 Jun 2027 17:08:12.286            51.448                Sumatra          6431.000
       416   11 Jun 2027 18:18:02.018   11 Jun 2027 18:19:58.138           116.120                Novosib         14515.000
       417   11 Jun 2027 18:26:54.147   11 Jun 2027 18:28:13.179            79.032                  Delhi          9879.000
       418   11 Jun 2027 18:28:43.745   11 Jun 2027 18:29:56.478            72.733                  Delhi          9091.625
       419   11 Jun 2027 19:58:28.840   11 Jun 2027 20:00:44.069           135.229                 Moscow         16903.625
       420   11 Jun 2027 21:56:03.537   11 Jun 2027 21:57:58.123           114.586               CapeTown         13217.750
       421   12 Jun 2027 03:52:18.334   12 Jun 2027 03:56:17.741           239.407                Norilsk         29925.875
       422   12 Jun 2027 05:02:02.389   12 Jun 2027 05:02:36.280            33.891                Sumatra          4236.375
       423   12 Jun 2027 05:03:54.801   12 Jun 2027 05:06:29.584           154.783                Sumatra         19347.875
       424   12 Jun 2027 05:28:15.299   12 Jun 2027 05:33:04.201           288.902                Norilsk         36112.750
       425   12 Jun 2027 05:33:06.205   12 Jun 2027 05:35:29.416           143.211              Murmansk1         17901.375
       426   12 Jun 2027 06:53:04.628   12 Jun 2027 06:55:25.304           140.676                Novosib         17584.500
       427   12 Jun 2027 06:55:28.851   12 Jun 2027 06:58:41.514           192.663                  Delhi         24082.875
       428   12 Jun 2027 06:58:48.993   12 Jun 2027 07:00:01.984            72.991                Irkutsk          9123.875
       429   12 Jun 2027 07:03:45.746   12 Jun 2027 07:04:08.832            23.086              Murmansk2          2885.750
       430   12 Jun 2027 07:04:11.418   12 Jun 2027 07:05:02.849            51.431                 Moscow          6428.875
       431   12 Jun 2027 07:05:56.701   12 Jun 2027 07:10:51.817           295.116              Murmansk1         36889.500
       432   12 Jun 2027 08:30:31.815   12 Jun 2027 08:31:11.787            39.972                 Moscow          4996.500
       433   12 Jun 2027 08:33:15.316   12 Jun 2027 08:34:57.396           102.080                Novosib         12760.000
       434   12 Jun 2027 08:39:17.549   12 Jun 2027 08:39:39.477            21.928              Murmansk2          2741.000
       435   12 Jun 2027 08:40:30.139   12 Jun 2027 08:41:46.300            76.161                Norilsk          9520.125
       436   12 Jun 2027 08:41:50.442   12 Jun 2027 08:46:40.286           289.844              Murmansk1         36230.500
       437   12 Jun 2027 09:50:39.498   12 Jun 2027 09:53:01.303           141.805               CapeTown         17725.625
       438   12 Jun 2027 10:09:50.465   12 Jun 2027 10:09:56.355             5.890                 Moscow           736.250
       439   12 Jun 2027 10:13:25.936   12 Jun 2027 10:15:49.563           143.627              Murmansk2         17953.375
       440   12 Jun 2027 10:15:54.120   12 Jun 2027 10:18:55.076           180.956                 Moscow         22619.500
       441   12 Jun 2027 10:19:22.375   12 Jun 2027 10:21:33.423           131.048              Murmansk1         16381.000
       442   12 Jun 2027 10:21:33.423   12 Jun 2027 10:22:38.221            64.798              Murmansk2          8099.750
       443   12 Jun 2027 10:25:15.183   12 Jun 2027 10:32:36.262           441.079                Anadyr2         55134.875
       444   12 Jun 2027 11:27:21.997   12 Jun 2027 11:32:32.758           310.761               CapeTown         38845.125
       445   12 Jun 2027 11:49:53.772   12 Jun 2027 11:52:30.682           156.910              Murmansk1         19613.750
       446   12 Jun 2027 12:05:25.893   12 Jun 2027 12:06:58.861            92.968               Magadan1         11621.000
       447   12 Jun 2027 13:38:47.240   12 Jun 2027 13:40:28.360           101.120               Magadan2         12640.000
       448   12 Jun 2027 13:44:03.602   12 Jun 2027 13:46:16.003           132.401               Magadan2         16550.125
       449   12 Jun 2027 16:06:37.154   12 Jun 2027 16:09:15.809           158.655            RioGallegos         19831.875
       450   12 Jun 2027 16:10:08.629   12 Jun 2027 16:12:27.535           138.906            RioGallegos         17363.250
       451   12 Jun 2027 16:54:11.696   12 Jun 2027 16:56:11.678           119.982                Irkutsk         14997.750
       452   12 Jun 2027 16:56:46.703   12 Jun 2027 16:59:21.307           154.604                Novosib         19325.500
       453   12 Jun 2027 17:09:40.110   12 Jun 2027 17:10:40.493            60.383                Sumatra          7547.875
       454   12 Jun 2027 17:18:45.674   12 Jun 2027 17:19:00.958            15.284                Sumatra          1910.500
       455   12 Jun 2027 18:29:58.182   12 Jun 2027 18:31:32.196            94.014                Novosib         11751.750
       456   12 Jun 2027 18:37:43.988   12 Jun 2027 18:39:27.412           103.424                  Delhi         12928.000
       457   12 Jun 2027 18:40:03.198   12 Jun 2027 18:41:53.715           110.517                  Delhi         13814.625
       458   12 Jun 2027 20:09:08.014   12 Jun 2027 20:09:55.822            47.808                 Moscow          5976.000
       459   12 Jun 2027 20:12:43.896   12 Jun 2027 20:13:21.654            37.758                 Moscow          4719.750
       460   12 Jun 2027 21:43:26.787   12 Jun 2027 21:45:50.736           143.949                 Moscow         17993.625
       461   12 Jun 2027 21:52:58.640   12 Jun 2027 21:52:59.806             1.166                 Moscow             8.875
       462   13 Jun 2027 04:04:19.242   13 Jun 2027 04:09:10.943           291.701                Norilsk         36462.625
       463   13 Jun 2027 05:13:50.952   13 Jun 2027 05:15:12.751            81.799                Sumatra         10224.875
       464   13 Jun 2027 05:16:46.169   13 Jun 2027 05:18:27.281           101.112                Sumatra         12639.000
       465   13 Jun 2027 05:39:56.666   13 Jun 2027 05:41:32.757            96.091                 Moscow         12011.375
       466   13 Jun 2027 05:41:34.061   13 Jun 2027 05:41:39.889             5.828                Novosib           728.500
       467   13 Jun 2027 05:41:49.542   13 Jun 2027 05:45:05.908           196.366                Norilsk         24545.750
       468   13 Jun 2027 05:45:23.198   13 Jun 2027 05:47:24.456           121.258              Murmansk2         15157.250
       469   13 Jun 2027 07:05:23.917   13 Jun 2027 07:10:40.981           317.064                  Delhi         39633.000
       470   13 Jun 2027 07:11:09.020   13 Jun 2027 07:12:01.056            52.036                Irkutsk          6504.500
       471   13 Jun 2027 07:15:38.947   13 Jun 2027 07:16:37.556            58.609              Murmansk2          7326.125
       472   13 Jun 2027 07:17:15.608   13 Jun 2027 07:17:23.531             7.923                Novosib           990.375
       473   13 Jun 2027 07:17:57.054   13 Jun 2027 07:22:51.174           294.120              Murmansk1         36765.000
       474   13 Jun 2027 08:51:04.692   13 Jun 2027 08:52:14.421            69.729              Murmansk2          8716.125
       475   13 Jun 2027 08:53:01.796   13 Jun 2027 08:53:37.742            35.946                Norilsk          4493.250
       476   13 Jun 2027 08:53:52.099   13 Jun 2027 08:58:41.645           289.546              Murmansk1         36193.250
       477   13 Jun 2027 10:03:07.094   13 Jun 2027 10:06:10.028           182.934               CapeTown         22866.750
       478   13 Jun 2027 10:25:27.393   13 Jun 2027 10:27:37.552           130.159              Murmansk2         16269.875
       479   13 Jun 2027 10:27:59.841   13 Jun 2027 10:30:50.798           170.957                 Moscow         21369.625
       480   13 Jun 2027 10:31:09.633   13 Jun 2027 10:34:39.730           210.097              Murmansk1         26262.125
       481   13 Jun 2027 10:37:04.243   13 Jun 2027 10:45:20.925           496.682                Anadyr1         62085.250
       482   13 Jun 2027 11:39:39.594   13 Jun 2027 11:44:30.954           291.360               CapeTown         36420.000
