uniorb/output/strategy_4/Drop/Drop_KinoSat_111908.txt

KinoSat_111908
-------------------------
    Access    *     Start Time (UTCG)     *     Stop Time (UTCG)  *   Duration (s)        *       Station  *  Data (Mbytes)
         1   01 Jun 2027 04:11:13.908   01 Jun 2027 04:11:49.777            35.869              Murmansk2          1120.906
         2   01 Jun 2027 04:11:50.063   01 Jun 2027 04:11:53.549             3.486                Novosib           108.938
         3   01 Jun 2027 04:12:01.657   01 Jun 2027 04:12:17.293            15.636              Murmansk2           488.625
         4   01 Jun 2027 04:12:37.150   01 Jun 2027 04:14:36.799           119.649                Novosib          3739.031
         5   01 Jun 2027 04:14:37.540   01 Jun 2027 04:14:50.966            13.426                 Moscow           419.562
         6   01 Jun 2027 04:14:51.979   01 Jun 2027 04:16:14.671            82.692              Murmansk2          2584.125
         7   01 Jun 2027 04:16:17.544   01 Jun 2027 04:23:23.635           426.091                  Delhi         13315.344
         8   01 Jun 2027 05:49:22.554   01 Jun 2027 05:49:56.336            33.782                Novosib          1055.687
         9   01 Jun 2027 05:50:03.881   01 Jun 2027 05:50:43.853            39.972                Novosib          1249.125
        10   01 Jun 2027 05:50:53.210   01 Jun 2027 05:51:26.831            33.621                Novosib          1050.656
        11   01 Jun 2027 05:51:29.643   01 Jun 2027 05:51:46.143            16.500              Murmansk1           515.625
        12   01 Jun 2027 05:52:08.355   01 Jun 2027 05:54:39.370           151.015              Murmansk1          4719.219
        13   01 Jun 2027 05:55:01.079   01 Jun 2027 05:57:36.402           155.323                 Moscow          4853.844
        14   01 Jun 2027 06:09:25.595   01 Jun 2027 06:10:26.614            61.019               CapeTown          1906.844
        15   01 Jun 2027 06:13:10.454   01 Jun 2027 06:13:52.767            42.313               CapeTown          1322.281
        16   01 Jun 2027 07:13:58.880   01 Jun 2027 07:14:29.156            30.276               Magadan2           946.125
        17   01 Jun 2027 07:14:29.156   01 Jun 2027 07:17:03.774           154.618               Magadan1          4831.812
        18   01 Jun 2027 07:17:21.302   01 Jun 2027 07:17:41.779            20.477               Magadan2           639.906
        19   01 Jun 2027 07:18:30.637   01 Jun 2027 07:18:58.029            27.392                Anadyr2           856.000
        20   01 Jun 2027 07:25:01.023   01 Jun 2027 07:25:53.568            52.545                Norilsk          1642.031
        21   01 Jun 2027 07:26:03.897   01 Jun 2027 07:28:38.571           154.674              Murmansk2          4833.563
        22   01 Jun 2027 07:30:01.164   01 Jun 2027 07:30:30.049            28.885                 Moscow           902.656
        23   01 Jun 2027 07:47:09.462   01 Jun 2027 07:51:47.485           278.023               CapeTown          8688.219
        24   01 Jun 2027 08:49:01.574   01 Jun 2027 08:51:39.188           157.614                Anadyr1          4925.438
        25   01 Jun 2027 08:52:39.954   01 Jun 2027 08:54:49.795           129.841                Anadyr1          4057.531
        26   01 Jun 2027 10:22:56.399   01 Jun 2027 10:29:56.499           420.100                Anadyr2         13128.125
        27   01 Jun 2027 11:58:35.011   01 Jun 2027 12:04:50.963           375.952               Magadan1         11748.500
        28   01 Jun 2027 14:21:29.915   01 Jun 2027 14:27:24.606           354.691            RioGallegos         11084.094
        29   01 Jun 2027 16:52:53.465   01 Jun 2027 16:54:24.538            91.073                Norilsk          2846.031
        30   01 Jun 2027 16:55:19.363   01 Jun 2027 16:57:53.605           154.242                Norilsk          4820.062
        31   01 Jun 2027 20:04:21.641   01 Jun 2027 20:05:45.426            83.785              Murmansk1          2618.281
        32   01 Jun 2027 20:06:32.931   01 Jun 2027 20:12:29.087           356.156              Murmansk2         11129.875
        33   01 Jun 2027 23:26:14.872   01 Jun 2027 23:27:28.164            73.292                Anadyr1          2290.375
        34   01 Jun 2027 23:28:23.111   01 Jun 2027 23:29:47.259            84.148                Norilsk          2629.625
        35   01 Jun 2027 23:30:08.790   01 Jun 2027 23:31:00.463            51.673               Magadan2          1614.781
        36   01 Jun 2027 23:32:53.746   01 Jun 2027 23:33:31.743            37.997               Magadan2          1187.406
        37   01 Jun 2027 23:34:43.471   01 Jun 2027 23:35:05.270            21.799                Irkutsk           681.219
        38   01 Jun 2027 23:36:37.653   01 Jun 2027 23:36:39.586             1.933                Irkutsk            60.406
        39   01 Jun 2027 23:36:40.170   01 Jun 2027 23:37:32.510            52.340               Magadan2          1635.625
        40   01 Jun 2027 23:40:49.240   01 Jun 2027 23:41:23.200            33.960                Irkutsk          1061.250
        41   01 Jun 2027 23:49:15.313   01 Jun 2027 23:50:51.352            96.039                Sumatra          3001.219
        42   02 Jun 2027 00:23:32.287   02 Jun 2027 00:23:58.802            26.515            RioGallegos           828.594
        43   02 Jun 2027 00:25:45.722   02 Jun 2027 00:26:10.978            25.256            RioGallegos           789.250
        44   02 Jun 2027 00:27:40.970   02 Jun 2027 00:27:48.288             7.318            RioGallegos           228.688
        45   02 Jun 2027 00:27:52.535   02 Jun 2027 00:28:09.513            16.978            RioGallegos           530.563
        46   02 Jun 2027 00:31:02.197   02 Jun 2027 00:31:15.956            13.759            RioGallegos           429.969
        47   02 Jun 2027 01:01:37.633   02 Jun 2027 01:02:12.104            34.471                Anadyr2          1077.219
        48   02 Jun 2027 01:02:41.415   02 Jun 2027 01:03:13.989            32.574                Anadyr1          1017.937
        49   02 Jun 2027 01:03:54.568   02 Jun 2027 01:04:25.256            30.688                Anadyr2           959.000
        50   02 Jun 2027 01:04:28.930   02 Jun 2027 01:04:53.011            24.081                Anadyr2           752.531
        51   02 Jun 2027 01:05:12.473   02 Jun 2027 01:05:59.732            47.259                Norilsk          1476.844
        52   02 Jun 2027 01:06:18.032   02 Jun 2027 01:07:12.848            54.816               Magadan1          1713.000
        53   02 Jun 2027 01:08:03.932   02 Jun 2027 01:11:03.493           179.561                Irkutsk          5611.281
        54   02 Jun 2027 01:16:48.571   02 Jun 2027 01:17:33.474            44.903                Novosib          1403.219
        55   02 Jun 2027 01:18:54.080   02 Jun 2027 01:20:30.035            95.955                Irkutsk          2998.594
        56   02 Jun 2027 01:27:32.984   02 Jun 2027 01:28:18.754            45.770                Sumatra          1430.312
        57   02 Jun 2027 01:59:51.113   02 Jun 2027 02:00:05.591            14.478            RioGallegos           452.437
        58   02 Jun 2027 02:00:54.524   02 Jun 2027 02:01:41.430            46.906            RioGallegos          1465.812
        59   02 Jun 2027 02:02:42.454   02 Jun 2027 02:02:47.915             5.461            RioGallegos           170.656
        60   02 Jun 2027 02:04:55.638   02 Jun 2027 02:05:13.636            17.998            RioGallegos           562.438
        61   02 Jun 2027 02:05:42.832   02 Jun 2027 02:07:33.551           110.719            RioGallegos          3459.969
        62   02 Jun 2027 02:40:06.572   02 Jun 2027 02:40:50.998            44.426                Norilsk          1388.312
        63   02 Jun 2027 02:42:50.067   02 Jun 2027 02:42:53.546             3.479                Norilsk           108.719
        64   02 Jun 2027 02:43:15.825   02 Jun 2027 02:44:09.322            53.497              Murmansk2          1671.781
        65   02 Jun 2027 02:44:22.955   02 Jun 2027 02:45:36.463            73.508                Irkutsk          2297.125
        66   02 Jun 2027 02:49:28.987   02 Jun 2027 02:51:07.276            98.289                Irkutsk          3071.531
        67   02 Jun 2027 02:58:15.752   02 Jun 2027 02:58:38.739            22.987                  Delhi           718.344
        68   02 Jun 2027 03:01:34.538   02 Jun 2027 03:03:39.676           125.138                  Delhi          3910.562
        69   02 Jun 2027 03:32:57.903   02 Jun 2027 03:35:01.385           123.482            RioGallegos          3858.812
        70   02 Jun 2027 04:24:19.275   02 Jun 2027 04:27:35.800           196.525                Irkutsk          6141.406
        71   02 Jun 2027 04:28:30.785   02 Jun 2027 04:28:46.837            16.052                  Delhi           501.625
        72   02 Jun 2027 04:29:38.421   02 Jun 2027 04:35:02.377           323.956                  Delhi         10123.625
        73   02 Jun 2027 06:03:10.433   02 Jun 2027 06:03:35.948            25.515                Novosib           797.344
        74   02 Jun 2027 06:03:48.501   02 Jun 2027 06:03:56.196             7.695                Novosib           240.469
        75   02 Jun 2027 06:04:12.820   02 Jun 2027 06:04:38.319            25.499              Murmansk2           796.844
        76   02 Jun 2027 06:06:08.474   02 Jun 2027 06:07:59.812           111.338                 Moscow          3479.312
        77   02 Jun 2027 06:09:00.406   02 Jun 2027 06:09:14.033            13.627                 Moscow           425.844
        78   02 Jun 2027 07:24:50.868   02 Jun 2027 07:25:36.844            45.976               Magadan1          1436.750
        79   02 Jun 2027 07:26:01.677   02 Jun 2027 07:26:32.548            30.871               Magadan2           964.719
        80   02 Jun 2027 07:26:32.548   02 Jun 2027 07:27:08.922            36.374               Magadan1          1136.687
        81   02 Jun 2027 09:02:39.947   02 Jun 2027 09:02:55.461            15.514               Magadan1           484.813
        82   02 Jun 2027 09:02:55.461   02 Jun 2027 09:03:17.800            22.339               Magadan2           698.094
        83   02 Jun 2027 09:04:35.487   02 Jun 2027 09:06:49.429           133.942                Anadyr2          4185.687
        84   02 Jun 2027 10:35:47.625   02 Jun 2027 10:36:02.049            14.424               Magadan2           450.750
        85   02 Jun 2027 10:36:27.386   02 Jun 2027 10:38:33.573           126.187               Magadan2          3943.344
        86   02 Jun 2027 10:38:33.573   02 Jun 2027 10:42:20.835           227.262               Magadan1          7101.937
        87   02 Jun 2027 12:11:50.516   02 Jun 2027 12:16:13.150           262.634               Magadan1          8207.312
        88   02 Jun 2027 13:42:30.124   02 Jun 2027 13:43:06.702            36.578                Irkutsk          1143.063
        89   02 Jun 2027 13:47:35.154   02 Jun 2027 13:47:38.374             3.220                Irkutsk           100.625
        90   02 Jun 2027 13:50:10.679   02 Jun 2027 13:52:26.334           135.655                Irkutsk          4239.219
        91   02 Jun 2027 14:35:15.300   02 Jun 2027 14:38:12.695           177.395            RioGallegos          5543.594
        92   02 Jun 2027 15:12:24.030   02 Jun 2027 15:12:54.140            30.110                  Delhi           940.938
        93   02 Jun 2027 15:20:27.356   02 Jun 2027 15:21:24.543            57.187                Novosib          1787.094
        94   02 Jun 2027 15:25:06.576   02 Jun 2027 15:25:46.577            40.001                Novosib          1250.031
        95   02 Jun 2027 15:27:35.691   02 Jun 2027 15:31:12.026           216.335                Novosib          6760.469
        96   02 Jun 2027 16:58:22.143   02 Jun 2027 16:59:34.588            72.445                 Moscow          2263.906
        97   02 Jun 2027 17:04:45.736   02 Jun 2027 17:09:08.780           263.044                Norilsk          8220.125
        98   02 Jun 2027 18:34:23.048   02 Jun 2027 18:35:54.211            91.163                 Moscow          2848.844
        99   02 Jun 2027 18:37:17.552   02 Jun 2027 18:39:13.085           115.533              Murmansk2          3610.406
       100   02 Jun 2027 18:40:59.288   02 Jun 2027 18:41:20.661            21.373              Murmansk1           667.906
       101   02 Jun 2027 18:46:47.945   02 Jun 2027 18:46:57.053             9.108              Murmansk2           284.625
       102   02 Jun 2027 18:55:52.214   02 Jun 2027 18:55:57.501             5.287                Anadyr2           165.219
       103   02 Jun 2027 18:59:16.961   02 Jun 2027 18:59:51.670            34.709                Anadyr2          1084.656
       104   02 Jun 2027 19:00:20.168   02 Jun 2027 19:00:38.290            18.122                Anadyr2           566.313
       105   02 Jun 2027 19:46:04.493   02 Jun 2027 19:48:41.057           156.564               CapeTown          4892.625
       106   02 Jun 2027 20:17:03.117   02 Jun 2027 20:19:13.746           130.629              Murmansk1          4082.156
       107   02 Jun 2027 20:19:42.411   02 Jun 2027 20:23:00.529           198.118              Murmansk2          6191.187
       108   02 Jun 2027 22:02:25.043   02 Jun 2027 22:06:16.029           230.986                Anadyr1          7218.313
       109   02 Jun 2027 22:06:25.695   02 Jun 2027 22:07:39.379            73.684                Anadyr2          2302.625
       110   02 Jun 2027 22:07:40.429   02 Jun 2027 22:08:50.016            69.587               Magadan1          2174.594
       111   02 Jun 2027 22:09:03.450   02 Jun 2027 22:09:42.264            38.814               Magadan1          1212.938
       112   02 Jun 2027 22:10:00.516   02 Jun 2027 22:10:26.778            26.262               Magadan1           820.687
       113   02 Jun 2027 22:12:41.614   02 Jun 2027 22:12:43.185             1.571               Magadan1            49.094
       114   02 Jun 2027 22:12:57.364   02 Jun 2027 22:13:38.418            41.054               Magadan1          1282.937
       115   02 Jun 2027 22:58:28.322   02 Jun 2027 23:01:05.266           156.944            RioGallegos          4904.500
       116   02 Jun 2027 23:38:14.675   02 Jun 2027 23:39:36.135            81.460                Anadyr2          2545.625
       117   02 Jun 2027 23:39:46.103   02 Jun 2027 23:40:14.137            28.034                Anadyr1           876.063
       118   02 Jun 2027 23:40:20.185   02 Jun 2027 23:42:01.885           101.700                Norilsk          3178.125
       119   02 Jun 2027 23:42:16.808   02 Jun 2027 23:43:36.523            79.715               Magadan2          2491.094
       120   02 Jun 2027 23:44:56.281   02 Jun 2027 23:45:34.356            38.075               Magadan1          1189.844
       121   02 Jun 2027 23:45:55.969   02 Jun 2027 23:46:01.413             5.444                Irkutsk           170.125
       122   02 Jun 2027 23:47:07.191   02 Jun 2027 23:47:37.308            30.117                Irkutsk           941.156
       123   02 Jun 2027 23:49:33.037   02 Jun 2027 23:49:40.858             7.821                Irkutsk           244.406
       124   03 Jun 2027 00:00:10.422   03 Jun 2027 00:02:08.497           118.075                Sumatra          3689.844
       125   03 Jun 2027 00:06:19.190   03 Jun 2027 00:08:21.240           122.050                Sumatra          3814.062
       126   03 Jun 2027 01:13:31.170   03 Jun 2027 01:13:57.362            26.192                Anadyr1           818.500
       127   03 Jun 2027 01:14:28.408   03 Jun 2027 01:15:13.305            44.897                Anadyr1          1403.031
       128   03 Jun 2027 01:15:45.295   03 Jun 2027 01:16:08.022            22.727                Anadyr1           710.219
       129   03 Jun 2027 01:16:32.572   03 Jun 2027 01:18:02.020            89.448                Norilsk          2795.250
       130   03 Jun 2027 01:18:08.570   03 Jun 2027 01:19:55.251           106.681               Magadan1          3333.781
       131   03 Jun 2027 01:20:03.295   03 Jun 2027 01:22:45.202           161.907                Irkutsk          5059.594
       132   03 Jun 2027 01:33:58.136   03 Jun 2027 01:36:51.194           173.058                Sumatra          5408.063
       133   03 Jun 2027 02:17:28.708   03 Jun 2027 02:17:48.456            19.748            RioGallegos           617.125
       134   03 Jun 2027 02:47:37.630   03 Jun 2027 02:47:50.657            13.027                Anadyr1           407.094
       135   03 Jun 2027 02:49:09.873   03 Jun 2027 02:49:32.353            22.480                Anadyr2           702.500
       136   03 Jun 2027 02:50:14.650   03 Jun 2027 02:50:16.448             1.798                Anadyr2            56.187
       137   03 Jun 2027 02:51:03.681   03 Jun 2027 02:51:23.219            19.538                Anadyr1           610.563
       138   03 Jun 2027 02:52:08.927   03 Jun 2027 02:53:16.597            67.670                Norilsk          2114.687
       139   03 Jun 2027 02:54:59.583   03 Jun 2027 02:55:54.947            55.364              Murmansk1          1730.125
       140   03 Jun 2027 02:55:56.637   03 Jun 2027 02:57:02.259            65.622                Novosib          2050.687
       141   03 Jun 2027 02:57:35.067   03 Jun 2027 02:58:27.510            52.443                Novosib          1638.844
       142   03 Jun 2027 02:59:37.917   03 Jun 2027 03:00:19.113            41.196                Irkutsk          1287.375
       143   03 Jun 2027 03:00:46.375   03 Jun 2027 03:00:53.862             7.487                Norilsk           233.969
       144   03 Jun 2027 03:01:14.419   03 Jun 2027 03:04:27.743           193.324                Irkutsk          6041.375
       145   03 Jun 2027 03:45:15.912   03 Jun 2027 03:45:59.792            43.880            RioGallegos          1371.250
       146   03 Jun 2027 04:36:28.898   03 Jun 2027 04:37:57.016            88.118              Murmansk2          2753.687
       147   03 Jun 2027 04:38:27.268   03 Jun 2027 04:38:41.212            13.944                Irkutsk           435.750
       148   03 Jun 2027 04:38:47.828   03 Jun 2027 04:39:02.207            14.379                Novosib           449.344
       149   03 Jun 2027 04:39:20.396   03 Jun 2027 04:39:27.042             6.646                 Moscow           207.688
       150   03 Jun 2027 04:39:38.653   03 Jun 2027 04:39:56.153            17.500                 Moscow           546.875
       151   03 Jun 2027 04:40:07.143   03 Jun 2027 04:41:42.532            95.389                Novosib          2980.906
       152   03 Jun 2027 04:44:19.120   03 Jun 2027 04:46:21.106           121.986                  Delhi          3812.062
       153   03 Jun 2027 06:16:07.270   03 Jun 2027 06:16:25.425            18.155              Murmansk2           567.344
       154   03 Jun 2027 06:16:33.062   03 Jun 2027 06:16:48.633            15.571                 Moscow           486.594
       155   03 Jun 2027 06:17:11.891   03 Jun 2027 06:17:43.680            31.789                 Moscow           993.406
       156   03 Jun 2027 06:33:21.341   03 Jun 2027 06:36:34.800           193.459               CapeTown          6045.594
       157   03 Jun 2027 07:36:22.866   03 Jun 2027 07:37:17.033            54.167                Anadyr2          1692.719
       158   03 Jun 2027 07:37:40.731   03 Jun 2027 07:38:29.325            48.594                Anadyr2          1518.563
       159   03 Jun 2027 07:48:13.590   03 Jun 2027 07:49:15.175            61.585                 Moscow          1924.531
       160   03 Jun 2027 08:13:25.845   03 Jun 2027 08:17:03.718           217.873               CapeTown          6808.531
       161   03 Jun 2027 09:12:46.312   03 Jun 2027 09:13:24.260            37.948                Anadyr2          1185.875
       162   03 Jun 2027 09:13:49.343   03 Jun 2027 09:14:19.704            30.361               Magadan2           948.781
       163   03 Jun 2027 09:14:27.307   03 Jun 2027 09:14:42.546            15.239               Magadan2           476.219
       164   03 Jun 2027 09:14:53.865   03 Jun 2027 09:15:13.328            19.463                Anadyr1           608.219
       165   03 Jun 2027 09:15:19.255   03 Jun 2027 09:16:39.046            79.791               Magadan1          2493.469
       166   03 Jun 2027 10:44:46.025   03 Jun 2027 10:45:19.500            33.475               Magadan1          1046.094
       167   03 Jun 2027 10:47:57.685   03 Jun 2027 10:48:21.614            23.929               Magadan1           747.781
       168   03 Jun 2027 10:48:21.614   03 Jun 2027 10:49:07.270            45.656               Magadan2          1426.750
       169   03 Jun 2027 10:49:33.669   03 Jun 2027 10:51:41.628           127.959               Magadan1          3998.719
       170   03 Jun 2027 10:52:45.604   03 Jun 2027 10:53:00.447            14.843                Irkutsk           463.844
       171   03 Jun 2027 10:53:01.809   03 Jun 2027 10:53:10.323             8.514                Anadyr1           266.062
       172   03 Jun 2027 10:53:16.358   03 Jun 2027 10:53:43.214            26.856                Norilsk           839.250
       173   03 Jun 2027 10:53:45.517   03 Jun 2027 10:54:00.179            14.662                Norilsk           458.187
       174   03 Jun 2027 10:54:21.873   03 Jun 2027 10:54:47.051            25.178                Norilsk           786.812
       175   03 Jun 2027 11:29:14.930   03 Jun 2027 11:30:22.205            67.275            RioGallegos          2102.344
       176   03 Jun 2027 12:07:37.699   03 Jun 2027 12:07:56.157            18.458                Sumatra           576.812
       177   03 Jun 2027 12:08:53.322   03 Jun 2027 12:09:55.388            62.066                Sumatra          1939.562
       178   03 Jun 2027 12:17:28.469   03 Jun 2027 12:18:44.323            75.854                Irkutsk          2370.437
       179   03 Jun 2027 12:19:26.068   03 Jun 2027 12:20:14.399            48.331                Irkutsk          1510.344
       180   03 Jun 2027 12:33:23.142   03 Jun 2027 12:33:58.490            35.348                Norilsk          1104.625
       181   03 Jun 2027 13:05:42.846   03 Jun 2027 13:05:52.899            10.053            RioGallegos           314.156
       182   03 Jun 2027 13:07:58.255   03 Jun 2027 13:10:37.664           159.409            RioGallegos          4981.531
       183   03 Jun 2027 13:40:04.514   03 Jun 2027 13:40:21.020            16.506                Sumatra           515.813
       184   03 Jun 2027 13:42:46.102   03 Jun 2027 13:44:51.176           125.074                Sumatra          3908.563
       185   03 Jun 2027 13:54:58.475   03 Jun 2027 13:56:13.928            75.453                Irkutsk          2357.906
       186   03 Jun 2027 13:59:28.596   03 Jun 2027 13:59:54.943            26.347                Irkutsk           823.344
       187   03 Jun 2027 14:10:59.913   03 Jun 2027 14:11:17.886            17.973                Norilsk           561.656
       188   03 Jun 2027 15:24:45.892   03 Jun 2027 15:26:47.714           121.822                  Delhi          3806.938
       189   03 Jun 2027 15:29:41.126   03 Jun 2027 15:30:07.270            26.144                  Delhi           817.000
       190   03 Jun 2027 15:31:11.103   03 Jun 2027 15:32:48.178            97.075                  Delhi          3033.594
       191   03 Jun 2027 15:32:59.939   03 Jun 2027 15:34:42.948           103.009                Novosib          3219.031
       192   03 Jun 2027 15:36:50.321   03 Jun 2027 15:37:48.968            58.647                Novosib          1832.719
       193   03 Jun 2027 15:40:56.761   03 Jun 2027 15:41:30.604            33.843                Norilsk          1057.594
       194   03 Jun 2027 15:42:29.329   03 Jun 2027 15:43:02.334            33.005                Novosib          1031.406
       195   03 Jun 2027 15:46:11.615   03 Jun 2027 15:46:47.296            35.681                Norilsk          1115.031
       196   03 Jun 2027 17:08:30.791   03 Jun 2027 17:09:38.198            67.407                 Moscow          2106.469
       197   03 Jun 2027 17:11:42.681   03 Jun 2027 17:12:03.274            20.593                 Moscow           643.531
       198   03 Jun 2027 17:13:21.922   03 Jun 2027 17:14:59.299            97.377              Murmansk2          3043.031
       199   03 Jun 2027 17:17:38.339   03 Jun 2027 17:22:37.371           299.032                Norilsk          9344.750
       200   03 Jun 2027 18:47:00.365   03 Jun 2027 18:49:35.488           155.123                 Moscow          4847.594
       201   03 Jun 2027 18:51:19.837   03 Jun 2027 18:51:41.513            21.676                 Moscow           677.375
       202   03 Jun 2027 19:58:16.543   03 Jun 2027 20:00:23.999           127.456               CapeTown          3983.000
       203   03 Jun 2027 20:02:12.912   03 Jun 2027 20:02:51.931            39.019               CapeTown          1219.344
       204   03 Jun 2027 20:29:49.105   03 Jun 2027 20:34:13.780           264.675              Murmansk1          8271.094
       205   03 Jun 2027 20:35:01.369   03 Jun 2027 20:36:04.055            62.686              Murmansk2          1958.938
       206   03 Jun 2027 20:50:50.619   03 Jun 2027 20:50:57.614             6.995               Magadan1           218.594
       207   03 Jun 2027 20:51:13.896   03 Jun 2027 20:51:14.072             0.176               Magadan1             5.500
       208   03 Jun 2027 22:14:26.753   03 Jun 2027 22:18:17.273           230.520                Anadyr1          7203.750
       209   03 Jun 2027 22:18:27.871   03 Jun 2027 22:22:24.264           236.393               Magadan1          7387.281
       210   03 Jun 2027 22:27:36.566   03 Jun 2027 22:27:53.567            17.001               Magadan2           531.281
       211   03 Jun 2027 23:09:51.344   03 Jun 2027 23:12:04.278           132.934            RioGallegos          4154.187
       212   03 Jun 2027 23:12:46.447   03 Jun 2027 23:12:50.031             3.584            RioGallegos           112.000
       213   03 Jun 2027 23:14:53.177   03 Jun 2027 23:14:58.600             5.423            RioGallegos           169.469
       214   03 Jun 2027 23:15:35.608   03 Jun 2027 23:16:11.982            36.374            RioGallegos          1136.687
       215   03 Jun 2027 23:50:13.983   03 Jun 2027 23:51:30.115            76.132                Anadyr2          2379.125
       216   03 Jun 2027 23:51:44.147   03 Jun 2027 23:52:29.743            45.596                Anadyr1          1424.875
       217   03 Jun 2027 23:52:30.966   03 Jun 2027 23:53:50.920            79.954                Norilsk          2498.563
       218   03 Jun 2027 23:53:59.948   03 Jun 2027 23:54:06.451             6.503               Magadan1           203.219
       219   03 Jun 2027 23:54:27.765   03 Jun 2027 23:55:20.158            52.393               Magadan2          1637.281
       220   03 Jun 2027 23:56:58.309   03 Jun 2027 23:58:00.042            61.733                Irkutsk          1929.156
       221   03 Jun 2027 23:59:21.934   04 Jun 2027 00:00:21.297            59.363                Irkutsk          1855.094
       222   04 Jun 2027 00:11:26.236   04 Jun 2027 00:11:49.615            23.379                Sumatra           730.594
       223   04 Jun 2027 00:12:58.968   04 Jun 2027 00:14:11.363            72.395                Sumatra          2262.344
       224   04 Jun 2027 00:16:06.332   04 Jun 2027 00:16:36.720            30.388                Sumatra           949.625
       225   04 Jun 2027 00:20:28.903   04 Jun 2027 00:20:34.617             5.714                Sumatra           178.563
       226   04 Jun 2027 00:44:12.092   04 Jun 2027 00:44:15.421             3.329            RioGallegos           104.031
       227   04 Jun 2027 00:45:27.233   04 Jun 2027 00:45:38.799            11.566            RioGallegos           361.437
       228   04 Jun 2027 00:47:12.390   04 Jun 2027 00:47:37.553            25.163            RioGallegos           786.344
       229   04 Jun 2027 00:50:32.511   04 Jun 2027 00:51:17.203            44.692            RioGallegos          1396.625
       230   04 Jun 2027 01:25:23.506   04 Jun 2027 01:26:32.573            69.067                Anadyr2          2158.344
       231   04 Jun 2027 01:26:50.986   04 Jun 2027 01:27:13.056            22.070                Anadyr1           689.688
       232   04 Jun 2027 01:27:32.233   04 Jun 2027 01:27:51.700            19.467                Anadyr1           608.344
       233   04 Jun 2027 01:28:09.994   04 Jun 2027 01:30:04.265           114.271                Norilsk          3570.969
       234   04 Jun 2027 01:30:33.814   04 Jun 2027 01:31:26.878            53.064               Magadan1          1658.250
       235   04 Jun 2027 01:32:03.689   04 Jun 2027 01:33:58.397           114.708                Irkutsk          3584.625
       236   04 Jun 2027 01:41:18.989   04 Jun 2027 01:41:42.089            23.100                Irkutsk           721.875
       237   04 Jun 2027 01:43:37.506   04 Jun 2027 01:44:01.798            24.292                  Delhi           759.125
       238   04 Jun 2027 01:46:12.567   04 Jun 2027 01:47:01.276            48.709                Sumatra          1522.156
       239   04 Jun 2027 01:48:39.419   04 Jun 2027 01:51:11.023           151.604                Sumatra          4737.625
       240   04 Jun 2027 02:29:55.035   04 Jun 2027 02:30:29.558            34.523            RioGallegos          1078.844
       241   04 Jun 2027 02:31:26.538   04 Jun 2027 02:31:35.715             9.177            RioGallegos           286.781
       242   04 Jun 2027 03:08:18.827   04 Jun 2027 03:09:38.688            79.861               Magadan1          2495.656
       243   04 Jun 2027 03:10:54.605   04 Jun 2027 03:11:16.660            22.055                Novosib           689.219
       244   04 Jun 2027 03:11:18.958   04 Jun 2027 03:11:54.052            35.094                Irkutsk          1096.687
       245   04 Jun 2027 03:12:02.914   04 Jun 2027 03:12:40.543            37.629                Norilsk          1175.906
       246   04 Jun 2027 03:12:47.451   04 Jun 2027 03:13:34.692            47.241                Irkutsk          1476.281
       247   04 Jun 2027 03:13:36.603   04 Jun 2027 03:13:39.362             2.759                Novosib            86.219
       248   04 Jun 2027 03:13:47.146   04 Jun 2027 03:13:57.750            10.604                Norilsk           331.375
       249   04 Jun 2027 03:14:09.736   04 Jun 2027 03:15:01.647            51.911                Novosib          1622.219
       250   04 Jun 2027 03:15:11.683   04 Jun 2027 03:18:13.005           181.322                Irkutsk          5666.312
       251   04 Jun 2027 03:18:29.878   04 Jun 2027 03:18:44.505            14.627                  Delhi           457.094
       252   04 Jun 2027 03:57:39.440   04 Jun 2027 04:02:45.195           305.755            RioGallegos          9554.844
       253   04 Jun 2027 04:49:03.321   04 Jun 2027 04:49:20.609            17.288                Irkutsk           540.250
       254   04 Jun 2027 04:49:29.877   04 Jun 2027 04:49:30.820             0.943                Irkutsk            29.469
       255   04 Jun 2027 04:51:17.825   04 Jun 2027 04:53:33.803           135.978                Novosib          4249.313
       256   04 Jun 2027 04:54:17.055   04 Jun 2027 04:58:52.022           274.967                  Delhi          8592.719
       257   04 Jun 2027 06:28:02.419   04 Jun 2027 06:28:12.547            10.128              Murmansk2           316.500
       258   04 Jun 2027 06:28:24.643   04 Jun 2027 06:29:18.717            54.074              Murmansk2          1689.813
       259   04 Jun 2027 06:45:26.885   04 Jun 2027 06:48:25.684           178.799               CapeTown          5587.469
       260   04 Jun 2027 07:48:14.208   04 Jun 2027 07:49:18.270            64.062                Anadyr1          2001.937
       261   04 Jun 2027 07:49:35.977   04 Jun 2027 07:49:42.572             6.595               Magadan2           206.094
       262   04 Jun 2027 07:50:09.401   04 Jun 2027 07:50:46.653            37.252                Anadyr2          1164.125
       263   04 Jun 2027 07:50:46.653   04 Jun 2027 07:50:48.365             1.712                Anadyr1            53.500
       264   04 Jun 2027 07:51:54.258   04 Jun 2027 07:53:03.949            69.691                Anadyr1          2177.844
       265   04 Jun 2027 09:24:54.859   04 Jun 2027 09:25:25.969            31.110               Magadan1           972.188
       266   04 Jun 2027 09:25:35.812   04 Jun 2027 09:26:04.200            28.388               Magadan1           887.125
       267   04 Jun 2027 09:26:07.382   04 Jun 2027 09:28:16.217           128.835                Anadyr1          4026.094
       268   04 Jun 2027 11:00:13.759   04 Jun 2027 11:02:31.269           137.510               Magadan1          4297.188
       269   04 Jun 2027 11:02:54.097   04 Jun 2027 11:03:24.706            30.609               Magadan2           956.531
       270   04 Jun 2027 11:04:01.059   04 Jun 2027 11:04:23.311            22.252                Norilsk           695.375
       271   04 Jun 2027 11:04:27.894   04 Jun 2027 11:04:58.933            31.039                Irkutsk           969.969
       272   04 Jun 2027 11:05:16.045   04 Jun 2027 11:05:16.163             0.118                Norilsk             3.688
       273   04 Jun 2027 11:05:18.352   04 Jun 2027 11:05:30.215            11.863                Norilsk           370.719
       274   04 Jun 2027 11:05:33.029   04 Jun 2027 11:06:13.009            39.980               Magadan1          1249.375
       275   04 Jun 2027 11:41:08.746   04 Jun 2027 11:42:22.090            73.344            RioGallegos          2292.000
       276   04 Jun 2027 12:17:09.125   04 Jun 2027 12:17:54.314            45.189                Sumatra          1412.156
       277   04 Jun 2027 12:22:05.915   04 Jun 2027 12:22:19.439            13.524                Sumatra           422.625
       278   04 Jun 2027 12:29:29.323   04 Jun 2027 12:32:40.020           190.697                Irkutsk          5959.281
       279   04 Jun 2027 13:18:06.306   04 Jun 2027 13:18:46.594            40.288            RioGallegos          1259.000
       280   04 Jun 2027 13:19:55.208   04 Jun 2027 13:23:11.189           195.981            RioGallegos          6124.406
       281   04 Jun 2027 13:52:22.445   04 Jun 2027 13:54:01.397            98.952                Sumatra          3092.250
       282   04 Jun 2027 14:07:32.749   04 Jun 2027 14:09:58.497           145.748                Irkutsk          4554.625
       283   04 Jun 2027 15:37:15.906   04 Jun 2027 15:42:11.660           295.754                  Delhi          9242.313
       284   04 Jun 2027 15:45:38.671   04 Jun 2027 15:47:59.277           140.606                Novosib          4393.937
       285   04 Jun 2027 15:51:25.478   04 Jun 2027 15:51:42.108            16.630                Novosib           519.687
       286   04 Jun 2027 17:20:38.679   04 Jun 2027 17:23:46.038           187.359                 Moscow          5854.969
       287   04 Jun 2027 17:30:40.354   04 Jun 2027 17:34:03.744           203.390                Norilsk          6355.938
       288   04 Jun 2027 18:43:00.587   04 Jun 2027 18:43:18.405            17.818               CapeTown           556.813
       289   04 Jun 2027 18:44:41.958   04 Jun 2027 18:45:20.133            38.175               CapeTown          1192.969
       290   04 Jun 2027 18:59:45.019   04 Jun 2027 19:04:14.219           269.200                 Moscow          8412.500
       291   04 Jun 2027 19:09:25.351   04 Jun 2027 19:10:45.252            79.901              Murmansk1          2496.906
       292   04 Jun 2027 20:10:32.444   04 Jun 2027 20:11:01.764            29.320               CapeTown           916.250
       293   04 Jun 2027 20:12:43.335   04 Jun 2027 20:13:34.737            51.402               CapeTown          1606.313
       294   04 Jun 2027 20:15:18.005   04 Jun 2027 20:15:23.592             5.587               CapeTown           174.594
       295   04 Jun 2027 20:42:41.004   04 Jun 2027 20:48:07.369           326.365              Murmansk1         10198.906
       296   04 Jun 2027 21:02:50.942   04 Jun 2027 21:03:03.501            12.559               Magadan2           392.469
       297   04 Jun 2027 21:03:14.498   04 Jun 2027 21:03:44.080            29.582               Magadan2           924.437
       298   04 Jun 2027 22:26:28.322   04 Jun 2027 22:31:12.986           284.664                Anadyr1          8895.750
       299   04 Jun 2027 22:31:59.088   04 Jun 2027 22:34:11.365           132.277               Magadan1          4133.656
       300   04 Jun 2027 23:21:26.789   04 Jun 2027 23:24:38.740           191.951            RioGallegos          5998.469
       301   05 Jun 2027 00:02:12.710   05 Jun 2027 00:03:22.948            70.238                Anadyr2          2194.938
       302   05 Jun 2027 00:03:25.165   05 Jun 2027 00:03:38.276            13.111                Anadyr1           409.719
       303   05 Jun 2027 00:04:18.069   05 Jun 2027 00:05:52.570            94.501                Norilsk          2953.156
       304   05 Jun 2027 00:05:57.655   05 Jun 2027 00:06:56.476            58.821               Magadan2          1838.156
       305   05 Jun 2027 00:07:16.502   05 Jun 2027 00:07:50.527            34.025               Magadan1          1063.281
       306   05 Jun 2027 00:08:46.286   05 Jun 2027 00:09:59.755            73.469                Irkutsk          2295.906
       307   05 Jun 2027 00:10:57.364   05 Jun 2027 00:13:13.471           136.107                Irkutsk          4253.344
       308   05 Jun 2027 00:23:51.050   05 Jun 2027 00:24:00.572             9.522                Sumatra           297.563
       309   05 Jun 2027 00:24:14.128   05 Jun 2027 00:25:59.265           105.137                Sumatra          3285.531
       310   05 Jun 2027 01:05:04.517   05 Jun 2027 01:05:45.837            41.320            RioGallegos          1291.250
       311   05 Jun 2027 01:37:14.570   05 Jun 2027 01:37:55.811            41.241                Anadyr2          1288.781
       312   05 Jun 2027 01:38:30.774   05 Jun 2027 01:39:12.868            42.094                Anadyr2          1315.438
       313   05 Jun 2027 01:39:36.437   05 Jun 2027 01:40:03.059            26.622                Anadyr1           831.938
       314   05 Jun 2027 01:40:38.358   05 Jun 2027 01:42:06.310            87.952                Norilsk          2748.500
       315   05 Jun 2027 01:42:57.218   05 Jun 2027 01:43:08.572            11.354               Magadan1           354.813
       316   05 Jun 2027 01:43:50.527   05 Jun 2027 01:44:09.460            18.933               Magadan2           591.656
       317   05 Jun 2027 01:44:18.276   05 Jun 2027 01:46:33.947           135.671                Irkutsk          4239.719
       318   05 Jun 2027 01:49:32.343   05 Jun 2027 01:50:11.507            39.164                Novosib          1223.875
       319   05 Jun 2027 01:52:52.366   05 Jun 2027 01:53:13.463            21.097                  Delhi           659.281
       320   05 Jun 2027 01:55:29.361   05 Jun 2027 01:55:44.820            15.459                  Delhi           483.094
       321   05 Jun 2027 01:58:34.336   05 Jun 2027 02:00:20.861           106.525                Sumatra          3328.906
       322   05 Jun 2027 02:02:41.928   05 Jun 2027 02:03:44.156            62.228                Sumatra          1944.625
       323   05 Jun 2027 02:37:07.822   05 Jun 2027 02:37:54.292            46.470            RioGallegos          1452.188
       324   05 Jun 2027 02:40:32.764   05 Jun 2027 02:40:39.355             6.591            RioGallegos           205.969
       325   05 Jun 2027 03:20:58.405   05 Jun 2027 03:21:07.226             8.821               Magadan2           275.656
       326   05 Jun 2027 03:23:17.916   05 Jun 2027 03:23:53.714            35.798                Novosib          1118.687
       327   05 Jun 2027 03:24:16.076   05 Jun 2027 03:24:49.697            33.621                Novosib          1050.656
       328   05 Jun 2027 03:25:15.609   05 Jun 2027 03:25:25.621            10.012              Murmansk1           312.875
       329   05 Jun 2027 03:25:36.366   05 Jun 2027 03:30:53.059           316.693                Irkutsk          9896.656
       330   05 Jun 2027 03:31:30.230   05 Jun 2027 03:32:51.088            80.858                Novosib          2526.812
       331   05 Jun 2027 03:33:38.684   05 Jun 2027 03:39:52.823           374.139                  Delhi         11691.844
       332   05 Jun 2027 04:10:14.119   05 Jun 2027 04:14:10.176           236.057            RioGallegos          7376.781
       333   05 Jun 2027 04:58:12.113   05 Jun 2027 04:58:53.317            41.204                Novosib          1287.625
       334   05 Jun 2027 05:00:51.861   05 Jun 2027 05:02:38.071           106.210                Novosib          3319.063
       335   05 Jun 2027 05:02:55.056   05 Jun 2027 05:04:26.350            91.294                Novosib          2852.938
       336   05 Jun 2027 05:04:50.527   05 Jun 2027 05:06:15.289            84.762                Novosib          2648.813
       337   05 Jun 2027 06:37:46.699   05 Jun 2027 06:38:24.936            38.237                Norilsk          1194.906
       338   05 Jun 2027 06:39:58.234   05 Jun 2027 06:39:59.806             1.572              Murmansk2            49.125
       339   05 Jun 2027 06:40:12.612   05 Jun 2027 06:40:58.105            45.493              Murmansk2          1421.656
       340   05 Jun 2027 06:59:31.409   05 Jun 2027 07:02:18.751           167.342               CapeTown          5229.437
       341   05 Jun 2027 08:00:30.186   05 Jun 2027 08:00:35.113             4.927               Magadan2           153.969
       342   05 Jun 2027 08:00:47.162   05 Jun 2027 08:00:59.760            12.598               Magadan2           393.687
       343   05 Jun 2027 08:01:19.235   05 Jun 2027 08:02:37.732            78.497                Anadyr1          2453.031
       344   05 Jun 2027 08:02:42.757   05 Jun 2027 08:02:44.039             1.282               Magadan2            40.062
       345   05 Jun 2027 08:02:45.201   05 Jun 2027 08:03:06.648            21.447                Anadyr2           670.219
       346   05 Jun 2027 08:03:06.648   05 Jun 2027 08:03:09.713             3.065                Anadyr1            95.781
       347   05 Jun 2027 08:04:04.239   05 Jun 2027 08:05:03.923            59.684                Anadyr1          1865.125
       348   05 Jun 2027 09:36:55.104   05 Jun 2027 09:38:00.143            65.039               Magadan2          2032.469
       349   05 Jun 2027 09:38:08.203   05 Jun 2027 09:38:23.331            15.128               Magadan2           472.750
       350   05 Jun 2027 09:38:45.353   05 Jun 2027 09:38:58.240            12.887                Anadyr2           402.719
       351   05 Jun 2027 09:39:14.606   05 Jun 2027 09:39:29.868            15.262               Magadan2           476.938
       352   05 Jun 2027 09:40:07.747   05 Jun 2027 09:41:17.015            69.268                Anadyr2          2164.625
       353   05 Jun 2027 09:41:17.015   05 Jun 2027 09:42:37.804            80.789                Anadyr1          2524.656
       354   05 Jun 2027 11:12:03.088   05 Jun 2027 11:13:19.803            76.715               Magadan2          2397.344
       355   05 Jun 2027 11:13:19.803   05 Jun 2027 11:14:28.729            68.926               Magadan1          2153.937
       356   05 Jun 2027 11:14:59.808   05 Jun 2027 11:17:52.515           172.707               Magadan1          5397.094
       357   05 Jun 2027 11:17:52.515   05 Jun 2027 11:17:56.357             3.842               Magadan2           120.063
       358   05 Jun 2027 11:18:14.481   05 Jun 2027 11:18:22.009             7.528                Norilsk           235.250
       359   05 Jun 2027 11:53:05.817   05 Jun 2027 11:54:20.815            74.998            RioGallegos          2343.687
       360   05 Jun 2027 12:28:42.368   05 Jun 2027 12:30:08.495            86.127                Sumatra          2691.469
       361   05 Jun 2027 12:41:33.483   05 Jun 2027 12:44:48.566           195.083                Irkutsk          6096.344
       362   05 Jun 2027 13:30:35.038   05 Jun 2027 13:31:57.512            82.474            RioGallegos          2577.313
       363   05 Jun 2027 13:35:01.362   05 Jun 2027 13:35:31.055            29.693            RioGallegos           927.906
       364   05 Jun 2027 14:04:48.523   05 Jun 2027 14:09:51.315           302.792                Sumatra          9462.250
       365   05 Jun 2027 14:20:14.258   05 Jun 2027 14:22:37.152           142.894                Irkutsk          4465.438
       366   05 Jun 2027 14:24:30.461   05 Jun 2027 14:26:37.798           127.337                Irkutsk          3979.281
       367   05 Jun 2027 15:52:03.011   05 Jun 2027 15:54:35.298           152.287                  Delhi          4758.969
       368   05 Jun 2027 15:58:25.164   05 Jun 2027 16:02:51.448           266.284                Novosib          8321.375
       369   05 Jun 2027 17:35:45.607   05 Jun 2027 17:36:48.143            62.536                 Moscow          1954.250
       370   05 Jun 2027 17:44:09.904   05 Jun 2027 17:45:36.824            86.920                Norilsk          2716.250
       371   05 Jun 2027 18:46:06.746   05 Jun 2027 18:47:56.022           109.276               CapeTown          3414.875
       372   05 Jun 2027 19:12:39.656   05 Jun 2027 19:16:53.095           253.439                 Moscow          7919.969
       373   05 Jun 2027 19:24:48.412   05 Jun 2027 19:24:49.987             1.575              Murmansk1            49.219
       374   05 Jun 2027 20:22:53.218   05 Jun 2027 20:26:29.079           215.861               CapeTown          6745.656
       375   05 Jun 2027 20:29:46.568   05 Jun 2027 20:30:02.503            15.935               CapeTown           497.969
       376   05 Jun 2027 20:55:42.047   05 Jun 2027 20:59:43.397           241.350              Murmansk2          7542.188
       377   05 Jun 2027 21:05:09.661   05 Jun 2027 21:05:43.323            33.662               Magadan1          1051.937
       378   05 Jun 2027 21:06:05.543   05 Jun 2027 21:06:18.788            13.245               Magadan1           413.906
       379   05 Jun 2027 21:11:02.700   05 Jun 2027 21:11:20.789            18.089               Magadan1           565.281
       380   05 Jun 2027 21:11:45.717   05 Jun 2027 21:11:51.780             6.063               Magadan1           189.469
       381   05 Jun 2027 21:13:48.328   05 Jun 2027 21:13:54.995             6.667               Magadan2           208.344
       382   05 Jun 2027 21:15:22.556   05 Jun 2027 21:15:55.193            32.637               Magadan1          1019.906
       383   05 Jun 2027 22:38:29.714   05 Jun 2027 22:42:18.983           229.269                Anadyr2          7164.656
       384   05 Jun 2027 22:42:19.540   05 Jun 2027 22:43:50.374            90.834                Norilsk          2838.562
       385   05 Jun 2027 22:43:53.548   05 Jun 2027 22:45:00.699            67.151               Magadan2          2098.469
       386   05 Jun 2027 22:45:03.896   05 Jun 2027 22:45:18.822            14.926               Magadan2           466.438
       387   05 Jun 2027 22:46:02.241   05 Jun 2027 22:47:07.041            64.800               Magadan1          2025.000
       388   05 Jun 2027 23:33:09.246   05 Jun 2027 23:35:49.886           160.640            RioGallegos          5020.000
       389   06 Jun 2027 00:14:10.793   06 Jun 2027 00:15:22.112            71.319                Anadyr1          2228.719
       390   06 Jun 2027 00:15:32.617   06 Jun 2027 00:16:27.147            54.530                Anadyr2          1704.062
       391   06 Jun 2027 00:16:47.962   06 Jun 2027 00:19:58.816           190.854               Magadan2          5964.188
       392   06 Jun 2027 00:20:37.383   06 Jun 2027 00:22:00.447            83.064                Irkutsk          2595.750
       393   06 Jun 2027 00:23:42.230   06 Jun 2027 00:23:59.036            16.806                Novosib           525.187
       394   06 Jun 2027 00:24:25.964   06 Jun 2027 00:24:50.471            24.507                Novosib           765.844
       395   06 Jun 2027 00:34:32.135   06 Jun 2027 00:36:18.229           106.094                Sumatra          3315.437
       396   06 Jun 2027 00:40:59.745   06 Jun 2027 00:41:01.216             1.471                Sumatra            45.969
       397   06 Jun 2027 00:43:53.851   06 Jun 2027 00:44:40.275            46.424                Sumatra          1450.750
       398   06 Jun 2027 01:12:03.905   06 Jun 2027 01:12:15.222            11.317            RioGallegos           353.656
       399   06 Jun 2027 01:14:13.285   06 Jun 2027 01:15:16.127            62.842            RioGallegos          1963.812
       400   06 Jun 2027 01:49:04.310   06 Jun 2027 01:49:07.014             2.704                Anadyr1            84.500
       401   06 Jun 2027 01:49:30.519   06 Jun 2027 01:50:30.804            60.285                Anadyr2          1883.906
       402   06 Jun 2027 01:51:13.609   06 Jun 2027 01:51:41.983            28.374                Anadyr1           886.687
       403   06 Jun 2027 01:52:14.707   06 Jun 2027 01:52:34.911            20.204                Norilsk           631.375
       404   06 Jun 2027 01:52:56.062   06 Jun 2027 01:53:53.491            57.429               Magadan2          1794.656
       405   06 Jun 2027 01:53:55.612   06 Jun 2027 01:54:32.334            36.722                Norilsk          1147.563
       406   06 Jun 2027 01:56:07.201   06 Jun 2027 01:58:59.084           171.883                Irkutsk          5371.344
       407   06 Jun 2027 02:05:08.545   06 Jun 2027 02:07:28.836           140.291                  Delhi          4384.094
       408   06 Jun 2027 02:11:05.391   06 Jun 2027 02:11:54.201            48.810                Sumatra          1525.313
       409   06 Jun 2027 02:13:38.365   06 Jun 2027 02:16:00.215           141.850                Sumatra          4432.813
       410   06 Jun 2027 03:35:13.639   06 Jun 2027 03:35:42.179            28.540                Irkutsk           891.875
       411   06 Jun 2027 03:35:48.689   06 Jun 2027 03:37:44.871           116.182              Murmansk1          3630.688
       412   06 Jun 2027 03:38:01.941   06 Jun 2027 03:38:16.036            14.095                 Moscow           440.469
       413   06 Jun 2027 03:38:23.513   06 Jun 2027 03:39:14.452            50.939                 Moscow          1591.844
       414   06 Jun 2027 03:39:20.472   06 Jun 2027 03:39:52.073            31.601                Novosib           987.531
       415   06 Jun 2027 03:40:13.637   06 Jun 2027 03:41:12.455            58.818                Norilsk          1838.062
       416   06 Jun 2027 03:41:14.702   06 Jun 2027 03:42:24.905            70.203                Irkutsk          2193.844
       417   06 Jun 2027 03:43:00.196   06 Jun 2027 03:43:36.196            36.000                Novosib          1125.000
       418   06 Jun 2027 03:44:29.240   06 Jun 2027 03:47:24.807           175.567                  Delhi          5486.469
       419   06 Jun 2027 03:47:35.869   06 Jun 2027 03:47:55.184            19.315                  Delhi           603.594
       420   06 Jun 2027 05:13:31.489   06 Jun 2027 05:14:02.339            30.850                 Moscow           964.063
       421   06 Jun 2027 05:15:00.246   06 Jun 2027 05:15:14.180            13.934                 Moscow           435.438
       422   06 Jun 2027 05:15:31.139   06 Jun 2027 05:17:55.663           144.524                Novosib          4516.375
       423   06 Jun 2027 05:18:02.177   06 Jun 2027 05:18:22.366            20.189                Novosib           630.906
       424   06 Jun 2027 05:19:03.821   06 Jun 2027 05:19:20.655            16.834                 Moscow           526.063
       425   06 Jun 2027 05:34:26.689   06 Jun 2027 05:35:27.712            61.023               CapeTown          1906.969
       426   06 Jun 2027 05:36:14.322   06 Jun 2027 05:37:34.013            79.691               CapeTown          2490.344
       427   06 Jun 2027 06:51:54.687   06 Jun 2027 06:51:57.079             2.392              Murmansk2            74.750
       428   06 Jun 2027 06:52:00.192   06 Jun 2027 06:52:53.962            53.770              Murmansk2          1680.312
       429   06 Jun 2027 07:09:54.662   06 Jun 2027 07:10:29.100            34.438               CapeTown          1076.187
       430   06 Jun 2027 07:12:22.928   06 Jun 2027 07:14:54.552           151.624               CapeTown          4738.250
       431   06 Jun 2027 08:13:02.396   06 Jun 2027 08:13:06.643             4.247               Magadan2           132.719
       432   06 Jun 2027 08:13:19.866   06 Jun 2027 08:14:40.671            80.805                Anadyr2          2525.156
       433   06 Jun 2027 08:14:46.069   06 Jun 2027 08:15:25.043            38.974               Magadan2          1217.938
       434   06 Jun 2027 08:16:16.531   06 Jun 2027 08:16:28.511            11.980                Anadyr1           374.375
       435   06 Jun 2027 08:25:15.045   06 Jun 2027 08:25:34.603            19.558                 Moscow           611.188
       436   06 Jun 2027 09:01:43.468   06 Jun 2027 09:02:10.769            27.301            RioGallegos           853.156
       437   06 Jun 2027 09:48:40.500   06 Jun 2027 09:50:39.202           118.702                Anadyr1          3709.437
       438   06 Jun 2027 09:50:45.404   06 Jun 2027 09:51:39.217            53.813               Magadan1          1681.656
       439   06 Jun 2027 09:52:34.491   06 Jun 2027 09:53:03.933            29.442               Magadan2           920.062
       440   06 Jun 2027 10:30:50.563   06 Jun 2027 10:31:02.991            12.428            RioGallegos           388.375
       441   06 Jun 2027 10:32:00.593   06 Jun 2027 10:32:07.813             7.220            RioGallegos           225.625
       442   06 Jun 2027 10:33:01.231   06 Jun 2027 10:33:19.822            18.591            RioGallegos           580.969
       443   06 Jun 2027 11:23:48.389   06 Jun 2027 11:25:14.045            85.656               Magadan2          2676.750
       444   06 Jun 2027 11:26:12.609   06 Jun 2027 11:28:42.436           149.827               Magadan1          4682.094
       445   06 Jun 2027 11:28:42.436   06 Jun 2027 11:29:39.014            56.578               Magadan2          1768.062
       446   06 Jun 2027 11:29:53.446   06 Jun 2027 11:29:57.891             4.445                Irkutsk           138.906
       447   06 Jun 2027 11:30:33.686   06 Jun 2027 11:30:35.587             1.901                Norilsk            59.406
       448   06 Jun 2027 12:05:06.197   06 Jun 2027 12:05:20.824            14.627            RioGallegos           457.094
       449   06 Jun 2027 12:06:18.232   06 Jun 2027 12:08:16.003           117.771            RioGallegos          3680.344
       450   06 Jun 2027 12:40:23.730   06 Jun 2027 12:41:08.195            44.465                Sumatra          1389.531
       451   06 Jun 2027 12:53:41.072   06 Jun 2027 12:56:48.659           187.587                Irkutsk          5862.094
       452   06 Jun 2027 13:43:09.957   06 Jun 2027 13:45:59.421           169.464            RioGallegos          5295.750
       453   06 Jun 2027 14:17:25.526   06 Jun 2027 14:22:11.024           285.498                Sumatra          8921.813
       454   06 Jun 2027 14:33:05.353   06 Jun 2027 14:36:01.556           176.203                Irkutsk          5506.344
       455   06 Jun 2027 16:02:52.434   06 Jun 2027 16:08:09.868           317.434                  Delhi          9919.812
       456   06 Jun 2027 16:11:22.510   06 Jun 2027 16:17:23.561           361.051                Novosib         11282.844
       457   06 Jun 2027 18:58:04.295   06 Jun 2027 18:58:53.265            48.970               CapeTown          1530.313
       458   06 Jun 2027 19:05:00.953   06 Jun 2027 19:05:25.405            24.452               CapeTown           764.125
       459   06 Jun 2027 19:25:50.548   06 Jun 2027 19:29:39.767           229.219                 Moscow          7163.094
       460   06 Jun 2027 19:30:26.464   06 Jun 2027 19:30:51.772            25.308              Murmansk1           790.875
       461   06 Jun 2027 19:31:02.364   06 Jun 2027 19:32:59.659           117.295              Murmansk1          3665.469
       462   06 Jun 2027 20:35:20.731   06 Jun 2027 20:38:44.736           204.005               CapeTown          6375.156
       463   06 Jun 2027 20:40:20.205   06 Jun 2027 20:41:38.136            77.931               CapeTown          2435.344
       464   06 Jun 2027 21:09:05.107   06 Jun 2027 21:11:12.157           127.050              Murmansk1          3970.313
       465   06 Jun 2027 21:17:56.477   06 Jun 2027 21:18:15.529            19.052               Magadan1           595.375
       466   06 Jun 2027 21:19:46.761   06 Jun 2027 21:20:12.489            25.728               Magadan1           804.000
       467   06 Jun 2027 21:25:44.060   06 Jun 2027 21:26:00.144            16.084               Magadan1           502.625
       468   06 Jun 2027 22:50:30.875   06 Jun 2027 22:54:19.340           228.465                Anadyr1          7139.531
       469   06 Jun 2027 22:54:19.768   06 Jun 2027 22:55:41.054            81.286                Anadyr2          2540.187
       470   06 Jun 2027 22:55:52.187   06 Jun 2027 22:56:22.385            30.198                Norilsk           943.687
       471   06 Jun 2027 22:56:26.978   06 Jun 2027 22:58:26.794           119.816               Magadan2          3744.250
       472   06 Jun 2027 23:04:52.916   06 Jun 2027 23:05:05.764            12.848               Magadan2           401.500
       473   06 Jun 2027 23:44:56.332   06 Jun 2027 23:47:55.063           178.731            RioGallegos          5585.344
       474   06 Jun 2027 23:49:21.325   06 Jun 2027 23:49:51.549            30.224            RioGallegos           944.500
       475   06 Jun 2027 23:50:46.195   06 Jun 2027 23:51:05.296            19.101            RioGallegos           596.906
       476   07 Jun 2027 00:26:08.131   07 Jun 2027 00:27:04.887            56.756                Anadyr2          1773.625
       477   07 Jun 2027 00:27:34.477   07 Jun 2027 00:27:48.428            13.951                Anadyr1           435.969
       478   07 Jun 2027 00:28:19.027   07 Jun 2027 00:30:09.901           110.874                Norilsk          3464.813
       479   07 Jun 2027 00:30:47.949   07 Jun 2027 00:32:37.795           109.846               Magadan2          3432.688
       480   07 Jun 2027 00:33:29.081   07 Jun 2027 00:34:02.025            32.944                Irkutsk          1029.500
       481   07 Jun 2027 00:34:26.028   07 Jun 2027 00:35:47.944            81.916                Novosib          2559.875
       482   07 Jun 2027 00:46:17.015   07 Jun 2027 00:48:43.963           146.948                Sumatra          4592.125
