uniorb/output/strategy_4/Drop/Drop_KinoSat_110506.txt

KinoSat_110506
-------------------------
    Access    *     Start Time (UTCG)     *     Stop Time (UTCG)  *   Duration (s)        *       Station  *  Data (Mbytes)
         1   01 Jun 2027 03:38:49.485   01 Jun 2027 03:39:21.527            32.042               Magadan2          4005.250
         2   01 Jun 2027 03:39:33.572   01 Jun 2027 03:39:51.131            17.559                Anadyr2          2194.875
         3   01 Jun 2027 03:39:51.131   01 Jun 2027 03:40:27.072            35.941                Anadyr1          4492.625
         4   01 Jun 2027 03:40:48.867   01 Jun 2027 03:42:16.178            87.311               Magadan2         10913.875
         5   01 Jun 2027 03:42:16.178   01 Jun 2027 03:42:23.230             7.052               Magadan1           881.500
         6   01 Jun 2027 03:42:28.074   01 Jun 2027 03:43:45.719            77.645                Anadyr1          9705.625
         7   01 Jun 2027 05:16:03.803   01 Jun 2027 05:16:19.398            15.595               Magadan1          1949.375
         8   01 Jun 2027 05:16:38.142   01 Jun 2027 05:18:02.939            84.797                Irkutsk         10599.625
         9   01 Jun 2027 05:18:19.524   01 Jun 2027 05:20:47.914           148.390                Irkutsk         18548.750
        10   01 Jun 2027 06:30:37.909   01 Jun 2027 06:31:04.239            26.330                Sumatra          3291.250
        11   01 Jun 2027 06:33:35.231   01 Jun 2027 06:34:31.524            56.293                Sumatra          7036.625
        12   01 Jun 2027 06:49:51.030   01 Jun 2027 06:49:56.985             5.955                  Delhi           744.375
        13   01 Jun 2027 06:52:51.605   01 Jun 2027 06:53:37.933            46.328                Novosib          5791.000
        14   01 Jun 2027 06:53:47.781   01 Jun 2027 06:54:16.124            28.343              Murmansk2          3542.875
        15   01 Jun 2027 06:54:33.853   01 Jun 2027 06:55:04.328            30.475                Irkutsk          3809.375
        16   01 Jun 2027 06:55:10.553   01 Jun 2027 06:57:25.154           134.601                Novosib         16825.125
        17   01 Jun 2027 08:14:42.612   01 Jun 2027 08:15:09.606            26.994                  Delhi          3374.250
        18   01 Jun 2027 08:30:50.326   01 Jun 2027 08:31:56.805            66.479                 Moscow          8309.875
        19   01 Jun 2027 08:32:16.988   01 Jun 2027 08:35:32.491           195.503                 Moscow         24437.875
        20   01 Jun 2027 10:04:46.920   01 Jun 2027 10:04:58.974            12.054                 Moscow          1506.750
        21   01 Jun 2027 10:05:07.362   01 Jun 2027 10:07:25.046           137.684                Novosib         17210.500
        22   01 Jun 2027 10:07:53.224   01 Jun 2027 10:08:36.658            43.434              Murmansk2          5429.250
        23   01 Jun 2027 10:08:44.496   01 Jun 2027 10:12:00.590           196.094                 Moscow         24511.750
        24   01 Jun 2027 10:12:00.738   01 Jun 2027 10:13:39.646            98.908                Norilsk         12363.500
        25   01 Jun 2027 10:14:03.299   01 Jun 2027 10:15:29.735            86.436              Murmansk2         10804.500
        26   01 Jun 2027 11:17:03.349   01 Jun 2027 11:23:04.575           361.226               CapeTown         45153.250
        27   01 Jun 2027 11:35:56.207   01 Jun 2027 11:36:20.154            23.947                 Moscow          2993.375
        28   01 Jun 2027 11:53:51.215   01 Jun 2027 11:57:59.609           248.394                Anadyr2         31049.250
        29   01 Jun 2027 11:58:39.058   01 Jun 2027 12:00:29.929           110.871                Anadyr1         13858.875
        30   01 Jun 2027 13:33:15.957   01 Jun 2027 13:36:38.866           202.909               Magadan1         25363.625
        31   01 Jun 2027 13:38:36.702   01 Jun 2027 13:38:56.218            19.516               Magadan2          2439.500
        32   01 Jun 2027 16:49:39.481   01 Jun 2027 16:54:03.299           263.818                Irkutsk         32977.250
        33   01 Jun 2027 18:24:15.950   01 Jun 2027 18:31:36.264           440.314                Novosib         55039.250
        34   01 Jun 2027 21:33:51.565   01 Jun 2027 21:34:41.921            50.356              Murmansk1          6294.500
        35   01 Jun 2027 21:36:15.623   01 Jun 2027 21:38:27.131           131.508              Murmansk1         16438.500
        36   01 Jun 2027 21:39:02.360   01 Jun 2027 21:40:33.090            90.730                 Moscow          5352.749
        37   02 Jun 2027 03:54:38.837   02 Jun 2027 03:54:48.696             9.859               Magadan1          1232.375
        38   02 Jun 2027 03:54:48.696   02 Jun 2027 03:55:18.445            29.749               Magadan2          3718.625
        39   02 Jun 2027 03:55:38.014   02 Jun 2027 03:56:33.616            55.602               Magadan1          6950.250
        40   02 Jun 2027 03:56:35.919   02 Jun 2027 03:56:49.259            13.340               Magadan2          1667.500
        41   02 Jun 2027 05:13:17.721   02 Jun 2027 05:13:39.355            21.634                Sumatra          2704.250
        42   02 Jun 2027 05:28:24.671   02 Jun 2027 05:28:52.372            27.701                Irkutsk          3462.625
        43   02 Jun 2027 05:29:30.161   02 Jun 2027 05:31:17.324           107.163               Magadan2         13395.375
        44   02 Jun 2027 05:32:29.460   02 Jun 2027 05:32:59.553            30.093                Irkutsk          3761.625
        45   02 Jun 2027 05:33:03.544   02 Jun 2027 05:34:14.367            70.823                Novosib          8852.875
        46   02 Jun 2027 05:34:49.885   02 Jun 2027 05:35:35.980            46.095              Murmansk1          5761.875
        47   02 Jun 2027 05:35:45.490   02 Jun 2027 05:37:38.109           112.619              Murmansk2         14077.375
        48   02 Jun 2027 05:37:38.349   02 Jun 2027 05:37:59.926            21.577                Norilsk          2697.125
        49   02 Jun 2027 05:39:27.860   02 Jun 2027 05:41:15.898           108.038              Murmansk1         13504.750
        50   02 Jun 2027 06:15:06.103   02 Jun 2027 06:20:25.024           318.921            RioGallegos         39865.125
        51   02 Jun 2027 06:48:10.258   02 Jun 2027 06:52:07.675           237.417                Sumatra         29677.125
        52   02 Jun 2027 07:08:38.241   02 Jun 2027 07:08:41.337             3.096                 Moscow           387.000
        53   02 Jun 2027 07:09:00.574   02 Jun 2027 07:13:55.804           295.230                Norilsk         36903.750
        54   02 Jun 2027 07:15:14.763   02 Jun 2027 07:16:07.664            52.901              Murmansk2          6612.625
        55   02 Jun 2027 07:47:30.160   02 Jun 2027 07:54:31.803           421.643            RioGallegos         52705.375
        56   02 Jun 2027 08:23:02.095   02 Jun 2027 08:25:41.168           159.073                Sumatra         19884.125
        57   02 Jun 2027 08:33:45.542   02 Jun 2027 08:39:24.219           338.677                  Delhi         42334.625
        58   02 Jun 2027 08:39:48.796   02 Jun 2027 08:40:37.273            48.477                Irkutsk          6059.625
        59   02 Jun 2027 08:44:50.447   02 Jun 2027 08:49:55.272           304.825                Norilsk         38103.125
        60   02 Jun 2027 08:51:09.664   02 Jun 2027 08:51:38.821            29.157              Murmansk1          3644.625
        61   02 Jun 2027 10:13:50.811   02 Jun 2027 10:14:04.283            13.472                 Moscow          1684.000
        62   02 Jun 2027 10:20:56.608   02 Jun 2027 10:21:12.205            15.597                Norilsk          1949.625
        63   02 Jun 2027 10:21:22.999   02 Jun 2027 10:25:36.034           253.035                Norilsk         31629.375
        64   02 Jun 2027 10:26:00.790   02 Jun 2027 10:27:31.208            90.418              Murmansk2         11302.250
        65   02 Jun 2027 11:51:32.119   02 Jun 2027 11:54:02.976           150.857              Murmansk2         18857.125
        66   02 Jun 2027 11:54:02.976   02 Jun 2027 12:03:29.120           566.144              Murmansk1         70768.000
        67   02 Jun 2027 12:05:43.586   02 Jun 2027 12:14:52.324           548.738                Anadyr2         68592.250
        68   02 Jun 2027 13:01:44.194   02 Jun 2027 13:13:10.980           686.786               CapeTown         85848.250
        69   02 Jun 2027 13:30:43.681   02 Jun 2027 13:34:28.298           224.617              Murmansk1         28077.125
        70   02 Jun 2027 13:44:48.490   02 Jun 2027 13:50:49.053           360.563               Magadan2         45070.375
        71   02 Jun 2027 17:00:48.667   02 Jun 2027 17:06:21.107           332.440                Irkutsk         41555.000
        72   02 Jun 2027 17:17:10.831   02 Jun 2027 17:19:16.729           125.898                Sumatra         15737.250
        73   02 Jun 2027 17:19:53.043   02 Jun 2027 17:21:42.408           109.365                Sumatra         13670.625
        74   02 Jun 2027 18:35:53.445   02 Jun 2027 18:39:02.424           188.979                Novosib         23622.375
        75   02 Jun 2027 18:40:57.175   02 Jun 2027 18:42:19.204            82.029                Novosib         10253.625
        76   02 Jun 2027 21:45:04.857   02 Jun 2027 21:46:28.489            83.632              Murmansk1         10454.000
        77   02 Jun 2027 21:48:56.489   02 Jun 2027 21:50:23.388            86.899              Murmansk2         10862.375
        78   02 Jun 2027 21:51:00.451   02 Jun 2027 21:53:05.651           125.200                 Moscow         15650.000
        79   02 Jun 2027 21:55:52.588   02 Jun 2027 21:57:28.179            95.591                 Moscow          2910.125
        80   03 Jun 2027 04:07:48.141   03 Jun 2027 04:08:21.971            33.830                Anadyr1          4228.750
        81   03 Jun 2027 04:09:07.634   03 Jun 2027 04:14:18.937           311.303                Norilsk         38912.875
        82   03 Jun 2027 04:14:31.306   03 Jun 2027 04:18:45.527           254.221              Murmansk2         31777.625
        83   03 Jun 2027 05:22:16.762   03 Jun 2027 05:23:14.033            57.271                Sumatra          7158.875
        84   03 Jun 2027 05:28:32.318   03 Jun 2027 05:28:32.941             0.623                Sumatra            77.875
        85   03 Jun 2027 05:45:17.498   03 Jun 2027 05:46:20.669            63.171                Norilsk          7896.375
        86   03 Jun 2027 05:46:47.050   03 Jun 2027 05:47:28.314            41.264              Murmansk1          5158.000
        87   03 Jun 2027 05:47:38.178   03 Jun 2027 05:49:51.989           133.811              Murmansk2         16726.375
        88   03 Jun 2027 05:51:26.963   03 Jun 2027 05:53:06.621            99.658              Murmansk1         12457.250
        89   03 Jun 2027 06:26:58.366   03 Jun 2027 06:32:21.980           323.614            RioGallegos         40451.750
        90   03 Jun 2027 07:01:25.501   03 Jun 2027 07:07:12.806           347.305                Sumatra         43413.125
        91   03 Jun 2027 07:09:38.411   03 Jun 2027 07:10:26.990            48.579                Novosib          6072.375
        92   03 Jun 2027 07:10:57.552   03 Jun 2027 07:14:30.700           213.148                Irkutsk         26643.500
        93   03 Jun 2027 07:19:57.549   03 Jun 2027 07:20:35.233            37.684                Novosib          4710.500
        94   03 Jun 2027 07:21:15.026   03 Jun 2027 07:25:57.650           282.624                Norilsk         35328.000
        95   03 Jun 2027 07:27:16.063   03 Jun 2027 07:28:04.081            48.018              Murmansk2          6002.250
        96   03 Jun 2027 08:00:46.154   03 Jun 2027 08:05:45.824           299.670            RioGallegos         37458.750
        97   03 Jun 2027 08:45:23.800   03 Jun 2027 08:51:16.098           352.298                  Delhi         44037.250
        98   03 Jun 2027 08:56:33.917   03 Jun 2027 08:57:59.697            85.780                Novosib         10722.500
        99   03 Jun 2027 08:58:01.051   03 Jun 2027 09:01:56.501           235.450                Norilsk         29431.250
       100   03 Jun 2027 09:03:11.079   03 Jun 2027 09:03:38.895            27.816              Murmansk2          3477.000
       101   03 Jun 2027 10:25:47.098   03 Jun 2027 10:26:27.971            40.873                 Moscow          5109.125
       102   03 Jun 2027 10:31:45.705   03 Jun 2027 10:37:30.428           344.723                Norilsk         43090.375
       103   03 Jun 2027 10:37:58.814   03 Jun 2027 10:39:32.772            93.958              Murmansk2         11744.750
       104   03 Jun 2027 12:00:46.654   03 Jun 2027 12:11:23.872           637.218                 Moscow         79652.250
       105   03 Jun 2027 12:11:53.888   03 Jun 2027 12:15:30.278           216.390              Murmansk2         27048.750
       106   03 Jun 2027 12:17:38.013   03 Jun 2027 12:27:26.517           588.504                Anadyr2         73563.000
       107   03 Jun 2027 13:15:34.361   03 Jun 2027 13:24:58.588           564.227               CapeTown         70528.375
       108   03 Jun 2027 13:43:22.339   03 Jun 2027 13:46:56.341           214.002              Murmansk2         26750.250
       109   03 Jun 2027 13:56:29.940   03 Jun 2027 14:02:58.553           388.613               Magadan1         48576.625
       110   03 Jun 2027 16:26:03.440   03 Jun 2027 16:28:26.809           143.369            RioGallegos         17921.125
       111   03 Jun 2027 17:12:17.901   03 Jun 2027 17:15:51.860           213.959                Irkutsk         26744.875
       112   03 Jun 2027 17:18:26.282   03 Jun 2027 17:19:39.623            73.341                Irkutsk          9167.625
       113   03 Jun 2027 17:27:37.438   03 Jun 2027 17:29:48.410           130.972                Sumatra         16371.500
       114   03 Jun 2027 17:33:48.237   03 Jun 2027 17:34:01.400            13.163                Sumatra          1645.375
       115   03 Jun 2027 18:49:48.079   03 Jun 2027 18:53:23.633           215.554                Novosib         26944.250
       116   03 Jun 2027 18:58:45.096   03 Jun 2027 18:59:43.565            58.469                  Delhi          7308.625
       117   03 Jun 2027 20:23:07.457   03 Jun 2027 20:25:26.154           138.697              Murmansk1         17337.125
       118   03 Jun 2027 22:00:58.152   03 Jun 2027 22:02:49.314           111.162                 Moscow         11993.750
       119   04 Jun 2027 04:21:06.946   04 Jun 2027 04:22:04.650            57.704                Norilsk          7213.000
       120   04 Jun 2027 04:22:05.568   04 Jun 2027 04:30:27.375           501.807              Murmansk2         62725.875
       121   04 Jun 2027 05:33:06.206   04 Jun 2027 05:35:33.569           147.363                Sumatra         18420.375
       122   04 Jun 2027 05:56:57.397   04 Jun 2027 05:58:42.163           104.766                Norilsk         13095.750
       123   04 Jun 2027 05:58:44.766   04 Jun 2027 05:59:59.876            75.110              Murmansk2          9388.750
       124   04 Jun 2027 05:59:59.876   04 Jun 2027 06:01:56.249           116.373              Murmansk1         14546.625
       125   04 Jun 2027 06:03:26.464   04 Jun 2027 06:04:58.073            91.609              Murmansk2         11451.125
       126   04 Jun 2027 06:38:48.039   04 Jun 2027 06:44:17.414           329.375            RioGallegos         41171.875
       127   04 Jun 2027 07:12:56.584   04 Jun 2027 07:19:03.079           366.495                Sumatra         45811.875
       128   04 Jun 2027 07:21:38.507   04 Jun 2027 07:23:49.085           130.578                Novosib         16322.250
       129   04 Jun 2027 07:24:15.387   04 Jun 2027 07:27:41.514           206.127                Novosib         25765.875
       130   04 Jun 2027 07:32:49.496   04 Jun 2027 07:34:09.517            80.021                 Moscow         10002.625
       131   04 Jun 2027 07:34:26.706   04 Jun 2027 07:37:41.636           194.930              Murmansk1         24366.250
       132   04 Jun 2027 07:39:17.511   04 Jun 2027 07:40:01.088            43.577              Murmansk2          5447.125
       133   04 Jun 2027 08:56:53.725   04 Jun 2027 09:03:03.670           369.945                  Delhi         46243.125
       134   04 Jun 2027 09:03:04.759   04 Jun 2027 09:03:48.088            43.329                Novosib          5416.125
       135   04 Jun 2027 09:08:32.029   04 Jun 2027 09:08:51.223            19.194              Murmansk1          2399.250
       136   04 Jun 2027 09:08:57.346   04 Jun 2027 09:09:51.122            53.776                Novosib          6722.000
       137   04 Jun 2027 09:09:51.650   04 Jun 2027 09:13:57.446           245.796                Norilsk         30724.500
       138   04 Jun 2027 09:14:14.784   04 Jun 2027 09:15:39.255            84.471              Murmansk1         10558.875
       139   04 Jun 2027 10:37:41.951   04 Jun 2027 10:40:24.994           163.043                 Moscow         20380.375
       140   04 Jun 2027 10:43:39.425   04 Jun 2027 10:48:03.729           264.304                 Moscow         33038.000
       141   04 Jun 2027 10:48:06.664   04 Jun 2027 10:49:21.760            75.096                Norilsk          9387.000
       142   04 Jun 2027 10:49:57.326   04 Jun 2027 10:51:34.398            97.072              Murmansk1         12134.000
       143   04 Jun 2027 12:00:49.203   04 Jun 2027 12:00:52.750             3.547               CapeTown           443.375
       144   04 Jun 2027 12:13:47.418   04 Jun 2027 12:23:13.165           565.747                 Moscow         70718.375
       145   04 Jun 2027 12:23:50.659   04 Jun 2027 12:27:31.203           220.544              Murmansk2         27568.000
       146   04 Jun 2027 12:29:33.953   04 Jun 2027 12:39:56.874           622.921                Anadyr1         77865.125
       147   04 Jun 2027 14:08:16.570   04 Jun 2027 14:12:18.607           242.037               Magadan1         30254.625
       148   04 Jun 2027 14:13:47.290   04 Jun 2027 14:15:05.336            78.046               Magadan2          9755.750
       149   04 Jun 2027 14:16:40.884   04 Jun 2027 14:16:43.859             2.975               Magadan2           371.875
       150   04 Jun 2027 16:37:04.897   04 Jun 2027 16:40:11.971           187.074            RioGallegos         23384.250
       151   04 Jun 2027 16:42:28.838   04 Jun 2027 16:43:27.110            58.272            RioGallegos          7284.000
       152   04 Jun 2027 17:25:10.613   04 Jun 2027 17:27:44.050           153.437                Irkutsk         19179.625
       153   04 Jun 2027 17:29:31.031   04 Jun 2027 17:30:23.469            52.438                Irkutsk          6554.750
       154   04 Jun 2027 17:38:40.451   04 Jun 2027 17:41:30.955           170.504                Sumatra         21313.000
       155   04 Jun 2027 17:41:46.415   04 Jun 2027 17:43:17.724            91.309                Sumatra         11413.625
       156   04 Jun 2027 17:45:52.100   04 Jun 2027 17:47:41.981           109.881                Sumatra         13735.125
       157   04 Jun 2027 19:03:04.739   04 Jun 2027 19:03:29.328            24.589                Novosib          3073.625
       158   04 Jun 2027 19:08:59.068   04 Jun 2027 19:11:21.172           142.104                  Delhi         17763.000
       159   04 Jun 2027 20:35:05.274   04 Jun 2027 20:35:19.224            13.950              Murmansk1          1743.750
       160   04 Jun 2027 20:36:21.545   04 Jun 2027 20:37:27.051            65.506              Murmansk1          8188.250
       161   04 Jun 2027 22:12:48.490   04 Jun 2027 22:14:38.755           110.265                 Moscow         10429.250
       162   05 Jun 2027 04:32:26.184   05 Jun 2027 04:32:42.021            15.837                Irkutsk          1979.625
       163   05 Jun 2027 04:32:43.943   05 Jun 2027 04:32:48.495             4.552                Irkutsk           569.000
       164   05 Jun 2027 04:33:01.589   05 Jun 2027 04:38:05.793           304.204              Murmansk2         38025.500
       165   05 Jun 2027 05:44:18.791   05 Jun 2027 05:47:24.703           185.912                Sumatra         23239.000
       166   05 Jun 2027 06:08:58.942   05 Jun 2027 06:10:36.297            97.355                Norilsk         12169.375
       167   05 Jun 2027 06:10:42.995   05 Jun 2027 06:13:45.195           182.200              Murmansk1         22775.000
       168   05 Jun 2027 06:13:59.067   05 Jun 2027 06:14:02.614             3.547                Norilsk           443.375
       169   05 Jun 2027 06:15:26.320   05 Jun 2027 06:16:50.274            83.954              Murmansk2         10494.250
       170   05 Jun 2027 06:50:34.318   05 Jun 2027 06:56:11.044           336.726            RioGallegos         42090.750
       171   05 Jun 2027 07:24:16.643   05 Jun 2027 07:30:47.055           390.412                Sumatra         48801.500
       172   05 Jun 2027 07:34:35.258   05 Jun 2027 07:34:47.664            12.406                Irkutsk          1550.750
       173   05 Jun 2027 07:35:01.587   05 Jun 2027 07:35:15.789            14.202                Novosib          1775.250
       174   05 Jun 2027 07:35:53.450   05 Jun 2027 07:39:31.610           218.160                Irkutsk         27270.000
       175   05 Jun 2027 07:44:04.272   05 Jun 2027 07:44:17.185            12.913                Irkutsk          1614.125
       176   05 Jun 2027 07:44:23.833   05 Jun 2027 07:45:03.847            40.014              Murmansk2          5001.750
       177   05 Jun 2027 07:45:05.860   05 Jun 2027 07:50:01.420           295.560                Norilsk         36945.000
       178   05 Jun 2027 07:51:19.063   05 Jun 2027 07:51:58.659            39.596              Murmansk1          4949.500
       179   05 Jun 2027 09:08:10.765   05 Jun 2027 09:14:46.038           395.273                  Delhi         49409.125
       180   05 Jun 2027 09:15:38.220   05 Jun 2027 09:15:55.857            17.637                Novosib          2204.625
       181   05 Jun 2027 09:20:32.267   05 Jun 2027 09:21:39.769            67.502                Novosib          8437.750
       182   05 Jun 2027 09:21:42.951   05 Jun 2027 09:25:58.034           255.083                Norilsk         31885.375
       183   05 Jun 2027 09:26:04.836   05 Jun 2027 09:27:39.884            95.048              Murmansk1         11881.000
       184   05 Jun 2027 10:50:29.194   05 Jun 2027 10:52:23.153           113.959                 Moscow         14244.875
       185   05 Jun 2027 10:53:36.182   05 Jun 2027 10:54:28.473            52.291              Murmansk1          6536.375
       186   05 Jun 2027 10:55:02.988   05 Jun 2027 11:00:03.432           300.444                 Moscow         37555.500
       187   05 Jun 2027 11:00:08.538   05 Jun 2027 11:01:07.709            59.171                Norilsk          7396.375
       188   05 Jun 2027 11:01:26.054   05 Jun 2027 11:03:36.060           130.006              Murmansk1         16250.750
       189   05 Jun 2027 11:07:36.688   05 Jun 2027 11:10:29.467           172.779                Anadyr1         21597.375
       190   05 Jun 2027 12:07:19.324   05 Jun 2027 12:13:12.013           352.689               CapeTown         44086.125
       191   05 Jun 2027 12:41:31.063   05 Jun 2027 12:42:28.018            56.955                Anadyr1          7119.375
       192   05 Jun 2027 14:20:06.634   05 Jun 2027 14:25:52.286           345.652               Magadan1         43206.500
       193   05 Jun 2027 16:48:31.075   05 Jun 2027 16:52:00.817           209.742            RioGallegos         26217.750
       194   05 Jun 2027 16:54:33.689   05 Jun 2027 16:56:11.889            98.200            RioGallegos         12275.000
       195   05 Jun 2027 17:38:45.403   05 Jun 2027 17:39:38.276            52.873                Irkutsk          6609.125
       196   05 Jun 2027 17:52:38.662   05 Jun 2027 17:57:29.356           290.694                Sumatra         36336.750
       197   05 Jun 2027 19:20:05.118   05 Jun 2027 19:23:05.036           179.918                  Delhi         22489.750
       198   05 Jun 2027 20:47:01.629   05 Jun 2027 20:49:28.195           146.566              Murmansk1         18320.750
       199   05 Jun 2027 22:54:04.156   05 Jun 2027 22:57:11.834           187.678               CapeTown         14673.500
       200   06 Jun 2027 04:45:06.623   06 Jun 2027 04:45:22.761            16.138                Norilsk          2017.250
       201   06 Jun 2027 04:48:36.612   06 Jun 2027 04:49:53.420            76.808              Murmansk2          9601.000
       202   06 Jun 2027 04:50:02.518   06 Jun 2027 04:50:14.798            12.280                Norilsk          1535.000
       203   06 Jun 2027 04:51:51.069   06 Jun 2027 04:54:13.959           142.890              Murmansk1         17861.250
       204   06 Jun 2027 05:25:24.526   06 Jun 2027 05:32:40.239           435.713            RioGallegos         54464.125
       205   06 Jun 2027 06:06:40.531   06 Jun 2027 06:06:48.683             8.152                Sumatra          1019.000
       206   06 Jun 2027 06:08:13.722   06 Jun 2027 06:13:02.604           288.882                Irkutsk         36110.250
       207   06 Jun 2027 06:21:00.611   06 Jun 2027 06:22:28.413            87.802                Norilsk         10975.250
       208   06 Jun 2027 06:22:41.687   06 Jun 2027 06:24:35.652           113.965              Murmansk2         14245.625
       209   06 Jun 2027 06:24:35.652   06 Jun 2027 06:25:44.136            68.484              Murmansk1          8560.500
       210   06 Jun 2027 06:25:44.578   06 Jun 2027 06:26:03.912            19.334                Norilsk          2416.750
       211   06 Jun 2027 06:27:26.497   06 Jun 2027 06:28:43.223            76.726              Murmansk2          9590.750
       212   06 Jun 2027 07:02:15.890   06 Jun 2027 07:08:02.455           346.565            RioGallegos         43320.625
       213   06 Jun 2027 07:35:19.842   06 Jun 2027 07:42:23.728           423.886                Sumatra         52985.750
       214   06 Jun 2027 07:46:28.807   06 Jun 2027 07:46:40.099            11.292                Irkutsk          1411.500
       215   06 Jun 2027 07:48:16.039   06 Jun 2027 07:52:17.551           241.512                Irkutsk         30189.000
       216   06 Jun 2027 07:57:00.482   06 Jun 2027 08:02:03.290           302.808                Norilsk         37851.000
       217   06 Jun 2027 08:03:20.374   06 Jun 2027 08:03:56.742            36.368              Murmansk1          4546.000
       218   06 Jun 2027 09:19:01.886   06 Jun 2027 09:26:21.664           439.778                  Delhi         54972.250
       219   06 Jun 2027 09:26:29.327   06 Jun 2027 09:28:22.053           112.726                Novosib         14090.750
       220   06 Jun 2027 09:32:29.687   06 Jun 2027 09:36:07.169           217.482                 Moscow         27185.250
       221   06 Jun 2027 09:36:10.214   06 Jun 2027 09:37:58.164           107.950                Norilsk         13493.750
       222   06 Jun 2027 09:38:25.034   06 Jun 2027 09:39:40.732            75.698              Murmansk2          9462.250
       223   06 Jun 2027 11:01:25.830   06 Jun 2027 11:01:35.636             9.806                 Moscow          1225.750
       224   06 Jun 2027 11:05:37.261   06 Jun 2027 11:06:53.985            76.724              Murmansk2          9590.500
       225   06 Jun 2027 11:06:53.985   06 Jun 2027 11:15:37.722           523.737              Murmansk1         65467.125
       226   06 Jun 2027 11:21:06.514   06 Jun 2027 11:23:53.006           166.492                Anadyr1         20811.500
       227   06 Jun 2027 12:20:26.887   06 Jun 2027 12:22:19.637           112.750               CapeTown         14093.750
       228   06 Jun 2027 14:31:59.156   06 Jun 2027 14:34:41.217           162.061               Magadan1         20257.625
       229   06 Jun 2027 17:00:58.363   06 Jun 2027 17:06:42.256           343.893            RioGallegos         42986.625
       230   06 Jun 2027 17:45:16.811   06 Jun 2027 17:47:22.575           125.764                Norilsk         15720.500
       231   06 Jun 2027 18:06:29.714   06 Jun 2027 18:08:19.407           109.693                Sumatra         13711.625
       232   06 Jun 2027 19:31:28.980   06 Jun 2027 19:34:53.820           204.840                  Delhi         25605.000
       233   06 Jun 2027 19:36:59.340   06 Jun 2027 19:38:51.853           112.513                  Delhi         14064.125
       234   06 Jun 2027 20:57:53.321   06 Jun 2027 20:58:22.429            29.108              Murmansk1          3638.500
       235   06 Jun 2027 20:58:55.894   06 Jun 2027 21:01:29.542           153.648              Murmansk2         19206.000
       236   06 Jun 2027 21:04:03.814   06 Jun 2027 21:04:38.694            34.880                 Moscow          4360.000
       237   06 Jun 2027 23:06:53.851   06 Jun 2027 23:07:10.378            16.527               CapeTown          2065.875
       238   06 Jun 2027 23:07:53.768   06 Jun 2027 23:08:15.133            21.365               CapeTown          2670.625
       239   07 Jun 2027 04:57:03.999   07 Jun 2027 04:57:40.755            36.756                Novosib          4594.500
       240   07 Jun 2027 05:00:26.406   07 Jun 2027 05:02:20.644           114.238              Murmansk2         14279.750
       241   07 Jun 2027 05:03:48.213   07 Jun 2027 05:06:02.214           134.001              Murmansk1         16750.125
       242   07 Jun 2027 05:39:32.955   07 Jun 2027 05:44:41.588           308.633            RioGallegos         38579.125
       243   07 Jun 2027 06:18:22.721   07 Jun 2027 06:19:09.171            46.450                Sumatra          5806.250
       244   07 Jun 2027 06:22:04.098   07 Jun 2027 06:27:32.075           327.977                Irkutsk         40997.125
       245   07 Jun 2027 06:33:02.372   07 Jun 2027 06:38:05.373           303.001                Norilsk         37875.125
       246   07 Jun 2027 06:39:26.958   07 Jun 2027 06:40:36.916            69.958              Murmansk2          8744.750
       247   07 Jun 2027 07:13:50.286   07 Jun 2027 07:19:51.026           360.740            RioGallegos         45092.500
       248   07 Jun 2027 07:45:46.957   07 Jun 2027 07:53:51.297           484.340                Sumatra         60542.500
       249   07 Jun 2027 07:57:56.614   07 Jun 2027 07:58:17.906            21.292                Novosib          2661.500
       250   07 Jun 2027 07:58:33.315   07 Jun 2027 08:00:01.693            88.378                  Delhi         11047.250
       251   07 Jun 2027 08:08:53.806   07 Jun 2027 08:09:03.417             9.611              Murmansk2          1201.375
       252   07 Jun 2027 08:09:05.084   07 Jun 2027 08:14:05.108           300.024                Norilsk         37503.000
       253   07 Jun 2027 08:15:21.081   07 Jun 2027 08:15:55.297            34.216              Murmansk1          4277.000
       254   07 Jun 2027 09:28:53.487   07 Jun 2027 09:37:47.731           534.244                  Delhi         66780.500
       255   07 Jun 2027 09:37:55.678   07 Jun 2027 09:40:48.425           172.747                Novosib         21593.375
       256   07 Jun 2027 09:45:28.018   07 Jun 2027 09:49:57.700           269.682                Norilsk         33710.250
       257   07 Jun 2027 09:50:25.185   07 Jun 2027 09:51:41.787            76.602              Murmansk1          9575.250
       258   07 Jun 2027 11:13:13.647   07 Jun 2027 11:13:47.362            33.715                 Moscow          4214.375
       259   07 Jun 2027 11:18:03.515   07 Jun 2027 11:18:55.306            51.791              Murmansk2          6473.875
       260   07 Jun 2027 11:19:17.433   07 Jun 2027 11:24:00.249           282.816                 Moscow         35352.000
       261   07 Jun 2027 11:24:17.654   07 Jun 2027 11:27:39.356           201.702              Murmansk1         25212.750
       262   07 Jun 2027 11:33:46.824   07 Jun 2027 11:36:17.217           150.393                Anadyr2         18799.125
       263   07 Jun 2027 14:43:53.539   07 Jun 2027 14:46:04.010           130.471               Magadan1         16308.875
       264   07 Jun 2027 14:53:24.651   07 Jun 2027 14:55:03.718            99.067               Magadan2         12383.375
       265   07 Jun 2027 17:14:45.731   07 Jun 2027 17:17:59.813           194.082            RioGallegos         24260.250
       266   07 Jun 2027 18:02:06.718   07 Jun 2027 18:05:08.573           181.855                Novosib         22731.875
       267   07 Jun 2027 18:19:27.566   07 Jun 2027 18:19:32.296             4.730                Sumatra           591.250
       268   07 Jun 2027 19:46:51.720   07 Jun 2027 19:49:42.276           170.556                  Delhi         21319.500
       269   07 Jun 2027 21:10:46.989   07 Jun 2027 21:11:58.264            71.275              Murmansk2          8909.375
       270   07 Jun 2027 21:13:20.290   07 Jun 2027 21:14:55.525            95.235              Murmansk2         11904.375
       271   07 Jun 2027 21:15:19.370   07 Jun 2027 21:17:46.364           146.994                 Moscow         18374.250
       272   07 Jun 2027 21:19:47.549   07 Jun 2027 21:20:00.913            13.364                 Moscow          1670.500
       273   08 Jun 2027 05:11:12.095   08 Jun 2027 05:12:03.589            51.494              Murmansk1          6436.750
       274   08 Jun 2027 05:12:16.887   08 Jun 2027 05:14:09.325           112.438              Murmansk2         14054.750
       275   08 Jun 2027 05:15:45.916   08 Jun 2027 05:17:50.996           125.080              Murmansk1         15635.000
       276   08 Jun 2027 05:51:30.378   08 Jun 2027 05:56:42.000           311.622            RioGallegos         38952.750
       277   08 Jun 2027 06:29:57.229   08 Jun 2027 06:31:22.561            85.332                Sumatra         10666.500
       278   08 Jun 2027 06:33:27.460   08 Jun 2027 06:38:33.536           306.076                Irkutsk         38259.500
       279   08 Jun 2027 06:45:04.203   08 Jun 2027 06:50:06.963           302.760                Norilsk         37845.000
       280   08 Jun 2027 06:51:27.684   08 Jun 2027 06:52:31.334            63.650              Murmansk2          7956.250
       281   08 Jun 2027 07:25:11.828   08 Jun 2027 07:31:35.818           383.990            RioGallegos         47998.750
       282   08 Jun 2027 07:56:19.395   08 Jun 2027 08:05:06.319           526.924                Sumatra         65865.500
       283   08 Jun 2027 08:10:09.037   08 Jun 2027 08:10:55.723            46.686                Novosib          5835.750
       284   08 Jun 2027 08:11:03.661   08 Jun 2027 08:15:44.179           280.518                  Delhi         35064.750
       285   08 Jun 2027 08:15:59.376   08 Jun 2027 08:16:54.659            55.283                Irkutsk          6910.375
       286   08 Jun 2027 08:20:40.669   08 Jun 2027 08:26:06.846           326.177                Norilsk         40772.125
       287   08 Jun 2027 08:27:22.000   08 Jun 2027 08:27:54.295            32.295              Murmansk1          4036.875
       288   08 Jun 2027 09:41:54.795   08 Jun 2027 09:48:57.989           423.194                  Delhi         52899.250
       289   08 Jun 2027 09:50:27.164   08 Jun 2027 09:52:24.417           117.253                Novosib         14656.625
       290   08 Jun 2027 09:56:18.536   08 Jun 2027 09:56:53.349            34.813                 Moscow          4351.625
       291   08 Jun 2027 09:57:37.634   08 Jun 2027 10:01:56.470           258.836                Norilsk         32354.500
       292   08 Jun 2027 10:02:16.080   08 Jun 2027 10:03:43.007            86.927              Murmansk2         10865.875
       293   08 Jun 2027 11:26:25.172   08 Jun 2027 11:26:58.410            33.238                 Moscow          4154.750
       294   08 Jun 2027 11:30:05.141   08 Jun 2027 11:30:56.759            51.618              Murmansk1          6452.250
       295   08 Jun 2027 11:31:30.799   08 Jun 2027 11:35:57.085           266.286                 Moscow         33285.750
       296   08 Jun 2027 11:36:14.901   08 Jun 2027 11:39:40.931           206.030              Murmansk2         25753.750
       297   08 Jun 2027 11:48:24.560   08 Jun 2027 11:49:44.952            80.392                Anadyr1         10049.000
       298   08 Jun 2027 12:44:10.603   08 Jun 2027 12:49:35.349           324.746               CapeTown         40593.250
       299   08 Jun 2027 13:05:03.244   08 Jun 2027 13:09:12.975           249.731                 Moscow         31216.375
       300   08 Jun 2027 13:22:18.527   08 Jun 2027 13:25:46.158           207.631               Magadan2         25953.875
       301   08 Jun 2027 14:57:34.059   08 Jun 2027 14:57:40.854             6.795               Magadan1           849.375
       302   08 Jun 2027 17:27:53.052   08 Jun 2027 17:29:32.311            99.259            RioGallegos         12407.375
       303   08 Jun 2027 18:13:03.735   08 Jun 2027 18:18:46.366           342.631                Novosib         42828.875
       304   08 Jun 2027 20:00:06.220   08 Jun 2027 20:00:59.031            52.811                  Delhi          6601.375
       305   08 Jun 2027 21:22:32.595   08 Jun 2027 21:23:19.176            46.581              Murmansk1          5822.625
       306   08 Jun 2027 21:23:45.438   08 Jun 2027 21:26:47.282           181.844              Murmansk2         22730.500
       307   08 Jun 2027 21:26:51.731   08 Jun 2027 21:30:18.697           206.966              Murmansk1         25870.750
       308   08 Jun 2027 21:31:57.299   08 Jun 2027 21:33:10.283            72.984                 Moscow          9123.000
       309   09 Jun 2027 03:43:34.191   09 Jun 2027 03:45:23.621           109.430               Magadan1         13678.750
       310   09 Jun 2027 03:45:24.659   09 Jun 2027 03:46:07.442            42.783              Murmansk2          5347.875
       311   09 Jun 2027 05:21:02.224   09 Jun 2027 05:21:10.654             8.430                Irkutsk          1053.750
       312   09 Jun 2027 05:22:18.944   09 Jun 2027 05:22:22.879             3.935                Novosib           491.875
       313   09 Jun 2027 05:23:08.056   09 Jun 2027 05:23:58.065            50.009              Murmansk2          6251.125
       314   09 Jun 2027 05:24:08.090   09 Jun 2027 05:25:57.037           108.947              Murmansk1         13618.375
       315   09 Jun 2027 05:27:44.128   09 Jun 2027 05:29:40.371           116.243              Murmansk2         14530.375
       316   09 Jun 2027 06:03:26.364   09 Jun 2027 06:08:41.376           315.012            RioGallegos         39376.500
       317   09 Jun 2027 06:38:14.278   09 Jun 2027 06:43:29.804           315.526                Sumatra         39440.750
       318   09 Jun 2027 06:46:01.369   09 Jun 2027 06:50:39.002           277.633                Irkutsk         34704.125
       319   09 Jun 2027 06:56:57.162   09 Jun 2027 07:02:08.658           311.496                Norilsk         38937.000
       320   09 Jun 2027 07:03:28.625   09 Jun 2027 07:04:26.452            57.827              Murmansk2          7228.375
       321   09 Jun 2027 07:35:56.242   09 Jun 2027 07:43:15.204           438.962            RioGallegos         54870.250
       322   09 Jun 2027 08:09:19.055   09 Jun 2027 08:16:00.542           401.487                Sumatra         50185.875
       323   09 Jun 2027 08:22:15.663   09 Jun 2027 08:27:43.189           327.526                  Delhi         40940.750
       324   09 Jun 2027 08:27:47.080   09 Jun 2027 08:29:02.837            75.757                Irkutsk          9469.625
       325   09 Jun 2027 08:32:40.158   09 Jun 2027 08:34:25.490           105.332                Novosib         13166.500
       326   09 Jun 2027 08:34:29.984   09 Jun 2027 08:38:08.458           218.474                Norilsk         27309.250
       327   09 Jun 2027 08:39:23.119   09 Jun 2027 08:39:53.687            30.568              Murmansk1          3821.000
       328   09 Jun 2027 09:55:36.939   09 Jun 2027 09:59:29.380           232.441                  Delhi         29055.125
       329   09 Jun 2027 10:08:26.227   09 Jun 2027 10:08:35.210             8.983              Murmansk1          1122.875
       330   09 Jun 2027 10:09:37.902   09 Jun 2027 10:09:43.141             5.239                Norilsk           654.875
       331   09 Jun 2027 10:10:17.401   09 Jun 2027 10:13:54.224           216.823                Norilsk         27102.875
       332   09 Jun 2027 10:14:18.443   09 Jun 2027 10:15:44.368            85.925              Murmansk2         10740.625
       333   09 Jun 2027 11:38:21.756   09 Jun 2027 11:39:29.119            67.363                 Moscow          8420.375
       334   09 Jun 2027 11:42:06.696   09 Jun 2027 11:42:44.388            37.692              Murmansk1          4711.500
       335   09 Jun 2027 11:43:41.841   09 Jun 2027 11:47:52.595           250.754                 Moscow         31344.250
       336   09 Jun 2027 11:47:59.547   09 Jun 2027 11:51:42.406           222.859              Murmansk1         27857.375
       337   09 Jun 2027 11:55:04.179   09 Jun 2027 11:59:55.050           290.871                Anadyr2         36358.875
       338   09 Jun 2027 11:59:55.050   09 Jun 2027 12:02:28.817           153.767                Anadyr1         19220.875
       339   09 Jun 2027 12:55:54.764   09 Jun 2027 13:01:32.881           338.117               CapeTown         42264.625
       340   09 Jun 2027 13:18:23.524   09 Jun 2027 13:27:29.237           545.713              Murmansk2         68214.125
       341   09 Jun 2027 13:29:26.997   09 Jun 2027 13:34:43.529           316.532                Anadyr1         39566.500
       342   09 Jun 2027 13:36:04.295   09 Jun 2027 13:36:53.382            49.087               Magadan2          6135.875
       343   09 Jun 2027 13:38:51.765   09 Jun 2027 13:39:11.666            19.901               Magadan2          2487.625
       344   09 Jun 2027 15:14:08.576   09 Jun 2027 15:15:01.961            53.385               Magadan1          6673.125
       345   09 Jun 2027 16:49:53.264   09 Jun 2027 16:54:19.150           265.886                Irkutsk         33235.750
       346   09 Jun 2027 18:24:30.256   09 Jun 2027 18:31:51.557           441.301                Novosib         55162.625
       347   09 Jun 2027 21:34:05.777   09 Jun 2027 21:34:56.893            51.116              Murmansk1          6389.500
       348   09 Jun 2027 21:36:30.796   09 Jun 2027 21:38:41.732           130.936              Murmansk1         16367.000
       349   09 Jun 2027 21:38:41.895   09 Jun 2027 21:45:40.423           418.528                 Moscow         52316.000
       350   09 Jun 2027 22:06:33.868   09 Jun 2027 22:07:54.185            80.317               CapeTown          5903.125
       351   10 Jun 2027 03:55:54.841   10 Jun 2027 03:56:48.398            53.557               Magadan2          6694.625
       352   10 Jun 2027 03:56:50.707   10 Jun 2027 03:57:22.289            31.582               Magadan1          3947.750
       353   10 Jun 2027 03:57:23.347   10 Jun 2027 03:58:10.558            47.211                Norilsk          5901.375
       354   10 Jun 2027 03:58:28.766   10 Jun 2027 04:01:11.444           162.678              Murmansk2         20334.750
       355   10 Jun 2027 05:13:19.160   10 Jun 2027 05:14:07.055            47.895                Sumatra          5986.875
       356   10 Jun 2027 05:33:22.075   10 Jun 2027 05:34:29.055            66.980                Novosib          8372.500
       357   10 Jun 2027 05:35:04.649   10 Jun 2027 05:35:51.411            46.762              Murmansk2          5845.250
       358   10 Jun 2027 05:36:00.031   10 Jun 2027 05:37:57.082           117.051              Murmansk1         14631.375
       359   10 Jun 2027 05:39:42.811   10 Jun 2027 05:41:30.403           107.592              Murmansk2         13449.000
       360   10 Jun 2027 06:15:20.661   10 Jun 2027 06:20:39.611           318.950            RioGallegos         39868.750
       361   10 Jun 2027 06:50:00.506   10 Jun 2027 06:55:31.359           330.853                Sumatra         41356.625
       362   10 Jun 2027 06:58:24.282   10 Jun 2027 07:02:47.844           263.562                Irkutsk         32945.250
       363   10 Jun 2027 07:08:51.158   10 Jun 2027 07:08:54.846             3.688              Murmansk2           461.000
       364   10 Jun 2027 07:09:16.014   10 Jun 2027 07:14:10.443           294.429                Norilsk         36803.625
       365   10 Jun 2027 07:15:29.771   10 Jun 2027 07:16:22.237            52.466              Murmansk1          6558.250
       366   10 Jun 2027 07:47:45.548   10 Jun 2027 07:54:45.990           420.442            RioGallegos         52555.250
       367   10 Jun 2027 08:23:19.515   10 Jun 2027 08:25:52.885           153.370                Sumatra         19171.250
       368   10 Jun 2027 08:33:59.951   10 Jun 2027 08:39:38.761           338.810                  Delhi         42351.250
       369   10 Jun 2027 08:40:04.041   10 Jun 2027 08:40:51.189            47.148                Irkutsk          5893.500
       370   10 Jun 2027 08:45:05.057   10 Jun 2027 08:45:17.048            11.991              Murmansk1          1498.875
       371   10 Jun 2027 08:45:44.325   10 Jun 2027 08:50:09.902           265.577                Norilsk         33197.125
       372   10 Jun 2027 08:51:24.392   10 Jun 2027 08:51:53.438            29.046              Murmansk2          3630.750
       373   10 Jun 2027 10:14:05.480   10 Jun 2027 10:14:41.067            35.587                 Moscow          4448.375
       374   10 Jun 2027 10:20:20.659   10 Jun 2027 10:25:50.590           329.931                Norilsk         41241.375
       375   10 Jun 2027 10:26:15.948   10 Jun 2027 10:27:45.843            89.895              Murmansk1         11236.875
       376   10 Jun 2027 11:50:16.974   10 Jun 2027 11:59:46.500           569.526                 Moscow         71190.750
       377   10 Jun 2027 12:00:11.034   10 Jun 2027 12:03:43.750           212.716              Murmansk1         26589.500
       378   10 Jun 2027 12:08:18.066   10 Jun 2027 12:15:07.373           409.307                Anadyr2         51163.375
       379   10 Jun 2027 13:05:51.772   10 Jun 2027 13:13:25.479           453.707               CapeTown         56713.375
       380   10 Jun 2027 13:30:58.745   10 Jun 2027 13:39:26.510           507.765              Murmansk2         63470.625
       381   10 Jun 2027 13:41:27.200   10 Jun 2027 13:43:11.424           104.224                Anadyr1         13028.000
       382   10 Jun 2027 13:45:02.846   10 Jun 2027 13:48:03.746           180.900               Magadan2         22612.500
       383   10 Jun 2027 13:49:01.558   10 Jun 2027 13:51:04.065           122.507               Magadan2         15313.375
       384   10 Jun 2027 17:01:02.840   10 Jun 2027 17:07:40.940           398.100                Irkutsk         49762.500
       385   10 Jun 2027 17:17:23.858   10 Jun 2027 17:18:27.732            63.874                Sumatra          7984.250
       386   10 Jun 2027 17:19:31.780   10 Jun 2027 17:20:07.681            35.901                Sumatra          4487.625
       387   10 Jun 2027 18:36:07.841   10 Jun 2027 18:39:54.357           226.516                Novosib         28314.500
       388   10 Jun 2027 18:42:34.104   10 Jun 2027 18:42:41.740             7.636                Novosib           954.500
       389   10 Jun 2027 21:45:19.470   10 Jun 2027 21:46:43.089            83.619              Murmansk2         10452.375
       390   10 Jun 2027 21:49:11.611   10 Jun 2027 21:51:21.176           129.565              Murmansk1         16195.625
       391   10 Jun 2027 21:52:48.653   10 Jun 2027 21:55:04.282           135.629                 Moscow         16953.625
       392   10 Jun 2027 21:57:42.870   10 Jun 2027 21:58:47.461            64.591                 Moscow          8073.875
       393   10 Jun 2027 22:18:25.633   10 Jun 2027 22:19:17.396            51.763               CapeTown           814.000
       394   11 Jun 2027 04:04:06.229   11 Jun 2027 04:04:25.367            19.138                Irkutsk          2392.250
       395   11 Jun 2027 04:08:03.368   11 Jun 2027 04:08:37.984            34.616                Anadyr2          4327.000
       396   11 Jun 2027 04:09:22.000   11 Jun 2027 04:09:36.318            14.318                Novosib          1789.750
       397   11 Jun 2027 04:09:38.287   11 Jun 2027 04:17:10.489           452.202              Murmansk2         56525.250
       398   11 Jun 2027 05:22:30.307   11 Jun 2027 05:23:29.131            58.824                Sumatra          7353.000
       399   11 Jun 2027 05:26:01.352   11 Jun 2027 05:28:03.095           121.743                Sumatra         15217.875
       400   11 Jun 2027 05:45:32.741   11 Jun 2027 05:46:35.466            62.725                Norilsk          7840.625
       401   11 Jun 2027 05:47:01.824   11 Jun 2027 05:47:43.706            41.882              Murmansk2          5235.250
       402   11 Jun 2027 05:47:52.728   11 Jun 2027 05:50:10.793           138.065              Murmansk1         17258.125
       403   11 Jun 2027 05:51:41.924   11 Jun 2027 05:53:21.135            99.211              Murmansk2         12401.375
       404   11 Jun 2027 06:27:12.894   11 Jun 2027 06:32:36.550           323.656            RioGallegos         40457.000
       405   11 Jun 2027 07:01:39.834   11 Jun 2027 07:07:27.341           347.507                Sumatra         43438.375
       406   11 Jun 2027 07:09:13.885   11 Jun 2027 07:14:45.439           331.554                Irkutsk         41444.250
       407   11 Jun 2027 07:20:13.057   11 Jun 2027 07:20:52.705            39.648                Novosib          4956.000
       408   11 Jun 2027 07:21:31.760   11 Jun 2027 07:26:12.288           280.528                Norilsk         35066.000
       409   11 Jun 2027 07:27:31.075   11 Jun 2027 07:28:18.661            47.586              Murmansk1          5948.250
       410   11 Jun 2027 08:01:01.900   11 Jun 2027 08:05:59.689           297.789            RioGallegos         37223.625
       411   11 Jun 2027 08:45:38.122   11 Jun 2027 08:51:30.592           352.470                  Delhi         44058.750
       412   11 Jun 2027 08:56:49.237   11 Jun 2027 08:58:14.222            84.985                Novosib         10623.125
       413   11 Jun 2027 08:58:17.032   11 Jun 2027 09:02:11.127           234.095                Norilsk         29261.875
       414   11 Jun 2027 09:03:25.806   11 Jun 2027 09:03:53.515            27.709              Murmansk2          3463.625
       415   11 Jun 2027 10:26:01.749   11 Jun 2027 10:26:42.602            40.853                 Moscow          5106.625
       416   11 Jun 2027 10:32:24.267   11 Jun 2027 10:37:44.951           320.684                Norilsk         40085.500
       417   11 Jun 2027 10:38:13.983   11 Jun 2027 10:39:47.407            93.424              Murmansk2         11678.000
       418   11 Jun 2027 12:01:01.633   11 Jun 2027 12:11:38.373           636.740                 Moscow         79592.500
       419   11 Jun 2027 12:12:09.839   11 Jun 2027 12:15:44.904           215.065              Murmansk2         26883.125
       420   11 Jun 2027 12:17:52.579   11 Jun 2027 12:27:41.516           588.937                Anadyr2         73617.125
       421   11 Jun 2027 13:15:48.847   11 Jun 2027 13:24:57.035           548.188               CapeTown         68523.500
       422   11 Jun 2027 13:56:44.382   11 Jun 2027 14:00:38.101           233.719               Magadan1         29214.875
       423   11 Jun 2027 14:01:34.181   11 Jun 2027 14:03:13.518            99.337               Magadan2         12417.125
       424   11 Jun 2027 16:26:17.048   11 Jun 2027 16:28:41.234           144.186            RioGallegos         18023.250
       425   11 Jun 2027 17:12:32.223   11 Jun 2027 17:17:18.161           285.938                Irkutsk         35742.250
       426   11 Jun 2027 17:18:41.167   11 Jun 2027 17:19:52.607            71.440                Irkutsk          8930.000
       427   11 Jun 2027 17:27:51.227   11 Jun 2027 17:30:02.783           131.556                Sumatra         16444.500
       428   11 Jun 2027 17:34:14.947   11 Jun 2027 17:35:24.376            69.429                Sumatra          8678.625
       429   11 Jun 2027 18:51:18.124   11 Jun 2027 18:51:48.340            30.216                Novosib          3777.000
       430   11 Jun 2027 18:54:37.059   11 Jun 2027 18:56:11.878            94.819                Novosib         11852.375
       431   11 Jun 2027 18:58:57.429   11 Jun 2027 18:59:57.876            60.447                  Delhi          7555.875
       432   11 Jun 2027 19:01:48.803   11 Jun 2027 19:01:53.718             4.915                  Delhi           614.375
       433   11 Jun 2027 20:23:25.169   11 Jun 2027 20:24:30.273            65.104              Murmansk1          8138.000
       434   11 Jun 2027 22:01:12.642   11 Jun 2027 22:03:04.100           111.458                 Moscow         13932.250
       435   11 Jun 2027 22:04:32.638   11 Jun 2027 22:07:27.124           174.486                 Moscow          7923.751
       436   12 Jun 2027 04:21:21.579   12 Jun 2027 04:22:19.257            57.678                Norilsk          7209.750
       437   12 Jun 2027 04:22:20.635   12 Jun 2027 04:30:43.126           502.491              Murmansk2         62811.375
       438   12 Jun 2027 05:33:20.150   12 Jun 2027 05:35:48.796           148.646                Sumatra         18580.750
       439   12 Jun 2027 05:57:12.054   12 Jun 2027 05:58:56.764           104.710                Norilsk         13088.750
       440   12 Jun 2027 05:58:59.550   12 Jun 2027 06:00:14.615            75.065              Murmansk2          9383.125
       441   12 Jun 2027 06:00:14.615   12 Jun 2027 06:02:12.076           117.461              Murmansk1         14682.625
       442   12 Jun 2027 06:03:41.434   12 Jun 2027 06:05:12.596            91.162              Murmansk2         11395.250
       443   12 Jun 2027 06:39:02.530   12 Jun 2027 06:44:31.963           329.433            RioGallegos         41179.125
       444   12 Jun 2027 07:13:10.799   12 Jun 2027 07:19:17.541           366.742                Sumatra         45842.750
       445   12 Jun 2027 07:21:53.143   12 Jun 2027 07:27:59.094           365.951                Novosib         45743.875
       446   12 Jun 2027 07:33:11.100   12 Jun 2027 07:34:47.295            96.195                Novosib         12024.375
       447   12 Jun 2027 07:34:47.334   12 Jun 2027 07:37:56.339           189.005              Murmansk1         23625.625
       448   12 Jun 2027 07:39:32.527   12 Jun 2027 07:40:15.675            43.148              Murmansk2          5393.500
       449   12 Jun 2027 08:57:07.923   12 Jun 2027 09:03:18.106           370.183                  Delhi         46272.875
       450   12 Jun 2027 09:03:19.815   12 Jun 2027 09:04:02.444            42.629                Novosib          5328.625
       451   12 Jun 2027 09:08:46.562   12 Jun 2027 09:09:06.136            19.574              Murmansk2          2446.750
       452   12 Jun 2027 09:09:12.182   12 Jun 2027 09:10:05.615            53.433                Novosib          6679.125
       453   12 Jun 2027 09:10:07.671   12 Jun 2027 09:14:12.066           244.395                Norilsk         30549.375
       454   12 Jun 2027 09:14:29.345   12 Jun 2027 09:15:53.879            84.534              Murmansk1         10566.750
       455   12 Jun 2027 10:37:56.580   12 Jun 2027 10:40:25.181           148.601                 Moscow         18575.125
       456   12 Jun 2027 10:43:53.603   12 Jun 2027 10:48:18.345           264.742                 Moscow         33092.750
       457   12 Jun 2027 10:48:21.902   12 Jun 2027 10:49:36.231            74.329                Norilsk          9291.125
       458   12 Jun 2027 10:50:12.506   12 Jun 2027 10:51:49.033            96.527              Murmansk2         12065.875
       459   12 Jun 2027 12:01:03.753   12 Jun 2027 12:01:07.637             3.884               CapeTown           485.500
       460   12 Jun 2027 12:14:01.911   12 Jun 2027 12:23:27.627           565.716                 Moscow         70714.500
       461   12 Jun 2027 12:24:07.046   12 Jun 2027 12:27:45.824           218.778              Murmansk2         27347.250
       462   12 Jun 2027 12:29:48.535   12 Jun 2027 12:39:20.695           572.160                Anadyr1         71520.000
       463   12 Jun 2027 14:08:31.057   12 Jun 2027 14:12:33.193           242.136               Magadan2         30267.000
       464   12 Jun 2027 14:14:02.255   12 Jun 2027 14:14:28.744            26.489               Magadan1          3311.125
       465   12 Jun 2027 14:15:20.254   12 Jun 2027 14:16:55.911            95.657               Magadan2         11957.125
       466   12 Jun 2027 16:37:19.023   12 Jun 2027 16:40:26.450           187.427            RioGallegos         23428.375
       467   12 Jun 2027 17:25:26.859   12 Jun 2027 17:29:45.986           259.127                Irkutsk         32390.875
       468   12 Jun 2027 17:38:54.506   12 Jun 2027 17:43:32.124           277.618                Sumatra         34702.250
       469   12 Jun 2027 17:46:06.905   12 Jun 2027 17:47:56.166           109.261                Sumatra         13657.625
       470   12 Jun 2027 19:09:12.875   12 Jun 2027 19:11:35.574           142.699                  Delhi         17837.375
       471   12 Jun 2027 19:13:42.640   12 Jun 2027 19:15:32.678           110.038                  Delhi         13754.750
       472   12 Jun 2027 22:11:52.599   12 Jun 2027 22:13:39.360           106.761              Murmansk1          5083.000
       473   13 Jun 2027 04:32:58.683   13 Jun 2027 04:33:03.203             4.520                Irkutsk           565.000
       474   13 Jun 2027 04:33:16.059   13 Jun 2027 04:39:18.199           362.140              Murmansk1         45267.500
       475   13 Jun 2027 05:44:32.932   13 Jun 2027 05:47:39.206           186.274                Sumatra         23284.250
       476   13 Jun 2027 06:09:13.601   13 Jun 2027 06:10:51.140            97.539                Norilsk         12192.375
       477   13 Jun 2027 06:10:57.789   13 Jun 2027 06:13:59.734           181.945              Murmansk1         22743.125
       478   13 Jun 2027 06:14:15.593   13 Jun 2027 06:14:17.246             1.653                Norilsk           206.625
       479   13 Jun 2027 06:15:41.299   13 Jun 2027 06:17:04.806            83.507              Murmansk2         10438.375
       480   13 Jun 2027 06:50:48.758   13 Jun 2027 06:56:25.572           336.814            RioGallegos         42101.750
       481   13 Jun 2027 07:24:30.692   13 Jun 2027 07:31:01.435           390.743                Sumatra         48842.875
       482   13 Jun 2027 07:34:50.081   13 Jun 2027 07:35:02.168            12.087                Irkutsk          1510.875
