uniorb/output/strategy_4/Drop/Drop_KinoSat_110809.txt

KinoSat_110809
-------------------------
    Access    *     Start Time (UTCG)     *     Stop Time (UTCG)  *   Duration (s)        *       Station  *  Data (Mbytes)
         1   01 Jun 2027 04:35:24.229   01 Jun 2027 04:35:54.977            30.748               Magadan2           960.875
         2   01 Jun 2027 04:36:01.518   01 Jun 2027 04:37:24.342            82.824                Anadyr1          2588.250
         3   01 Jun 2027 04:38:42.255   01 Jun 2027 04:39:22.195            39.940                Anadyr2          1248.125
         4   01 Jun 2027 05:16:50.681   01 Jun 2027 05:17:19.004            28.323            RioGallegos           885.094
         5   01 Jun 2027 06:08:58.300   01 Jun 2027 06:09:41.910            43.610                Irkutsk          1362.812
         6   01 Jun 2027 06:09:45.450   01 Jun 2027 06:11:26.676           101.226               Magadan1          3163.312
         7   01 Jun 2027 06:11:31.649   01 Jun 2027 06:13:20.622           108.973                Anadyr2          3405.406
         8   01 Jun 2027 06:13:39.604   01 Jun 2027 06:15:24.193           104.589                Novosib          3268.406
         9   01 Jun 2027 06:16:32.459   01 Jun 2027 06:16:40.330             7.871                Norilsk           245.969
        10   01 Jun 2027 06:50:00.947   01 Jun 2027 06:52:44.009           163.062            RioGallegos          5095.688
        11   01 Jun 2027 07:26:16.553   01 Jun 2027 07:28:34.388           137.835                Sumatra          4307.344
        12   01 Jun 2027 07:46:40.625   01 Jun 2027 07:47:05.440            24.815                Irkutsk           775.469
        13   01 Jun 2027 07:47:14.586   01 Jun 2027 07:48:07.939            53.353                Norilsk          1667.281
        14   01 Jun 2027 07:48:17.206   01 Jun 2027 07:48:36.556            19.350              Murmansk2           604.688
        15   01 Jun 2027 07:48:36.556   01 Jun 2027 07:52:35.665           239.109              Murmansk1          7472.156
        16   01 Jun 2027 07:55:47.934   01 Jun 2027 07:56:13.750            25.816              Murmansk2           806.750
        17   01 Jun 2027 07:57:11.670   01 Jun 2027 07:57:29.743            18.073              Murmansk2           564.781
        18   01 Jun 2027 08:26:44.548   01 Jun 2027 08:27:20.179            35.631            RioGallegos          1113.469
        19   01 Jun 2027 08:27:43.234   01 Jun 2027 08:28:25.978            42.744            RioGallegos          1335.750
        20   01 Jun 2027 09:01:01.986   01 Jun 2027 09:02:25.946            83.960                Sumatra          2623.750
        21   01 Jun 2027 09:10:50.963   01 Jun 2027 09:11:51.450            60.487                  Delhi          1890.219
        22   01 Jun 2027 09:22:46.516   01 Jun 2027 09:23:36.582            50.066                Irkutsk          1564.563
        23   01 Jun 2027 09:24:43.781   01 Jun 2027 09:25:41.871            58.090                Irkutsk          1815.312
        24   01 Jun 2027 09:26:09.664   01 Jun 2027 09:26:20.654            10.990                Irkutsk           343.438
        25   01 Jun 2027 11:00:21.675   01 Jun 2027 11:03:33.471           191.796                Novosib          5993.625
        26   01 Jun 2027 12:32:55.889   01 Jun 2027 12:34:16.579            80.690              Murmansk1          2521.562
        27   01 Jun 2027 12:34:24.026   01 Jun 2027 12:35:01.137            37.111              Murmansk1          1159.719
        28   01 Jun 2027 12:36:48.876   01 Jun 2027 12:37:33.334            44.458              Murmansk2          1389.313
        29   01 Jun 2027 12:49:29.428   01 Jun 2027 12:52:57.538           208.110                Anadyr2          6503.438
        30   01 Jun 2027 13:44:45.973   01 Jun 2027 13:45:32.984            47.011               CapeTown          1469.094
        31   01 Jun 2027 14:10:42.029   01 Jun 2027 14:12:09.902            87.873              Murmansk1          2746.031
        32   01 Jun 2027 14:13:34.988   01 Jun 2027 14:14:05.238            30.250              Murmansk1           945.312
        33   01 Jun 2027 14:15:24.074   01 Jun 2027 14:15:50.315            26.241              Murmansk2           820.031
        34   01 Jun 2027 14:23:36.417   01 Jun 2027 14:25:38.738           122.321                Anadyr2          3822.531
        35   01 Jun 2027 14:26:12.465   01 Jun 2027 14:27:58.398           105.933                Anadyr1          3310.406
        36   01 Jun 2027 15:19:12.357   01 Jun 2027 15:19:42.806            30.449               CapeTown           951.531
        37   01 Jun 2027 15:51:09.427   01 Jun 2027 15:53:15.797           126.370              Murmansk2          3949.063
        38   01 Jun 2027 15:53:38.404   01 Jun 2027 15:54:08.668            30.264              Murmansk1           945.750
        39   01 Jun 2027 15:59:21.036   01 Jun 2027 16:00:55.654            94.618                Anadyr1          2956.812
        40   01 Jun 2027 16:01:20.188   01 Jun 2027 16:02:28.173            67.985                Anadyr2          2124.531
        41   01 Jun 2027 16:03:09.677   01 Jun 2027 16:05:17.944           128.267               Magadan1          4008.344
        42   01 Jun 2027 16:05:29.746   01 Jun 2027 16:07:26.397           116.651               Magadan2          3645.344
        43   01 Jun 2027 17:35:16.437   01 Jun 2027 17:36:48.052            91.615                Anadyr2          2862.969
        44   01 Jun 2027 17:36:48.594   01 Jun 2027 17:38:20.963            92.369                Anadyr1          2886.531
        45   01 Jun 2027 17:38:36.501   01 Jun 2027 17:39:23.456            46.955                Anadyr1          1467.344
        46   01 Jun 2027 17:39:36.051   01 Jun 2027 17:40:54.481            78.430               Magadan1          2450.938
        47   01 Jun 2027 17:43:55.732   01 Jun 2027 17:45:03.172            67.440               Magadan2          2107.500
        48   01 Jun 2027 18:30:31.198   01 Jun 2027 18:33:49.545           198.347            RioGallegos          6198.344
        49   01 Jun 2027 19:12:41.093   01 Jun 2027 19:12:52.280            11.187                Anadyr2           349.594
        50   01 Jun 2027 19:13:11.378   01 Jun 2027 19:17:17.789           246.411                Norilsk          7700.344
        51   01 Jun 2027 19:17:43.850   01 Jun 2027 19:20:04.852           141.002                Irkutsk          4406.312
        52   01 Jun 2027 19:21:12.555   01 Jun 2027 19:21:25.714            13.159                Irkutsk           411.219
        53   01 Jun 2027 19:31:59.380   01 Jun 2027 19:34:46.195           166.815                Sumatra          5212.969
        54   01 Jun 2027 19:37:59.957   01 Jun 2027 19:39:04.026            64.069                Sumatra          2002.156
        55   01 Jun 2027 20:49:02.145   01 Jun 2027 20:50:33.248            91.103                Norilsk          2846.969
        56   01 Jun 2027 20:52:53.991   01 Jun 2027 20:54:29.365            95.374                Irkutsk          2980.437
        57   01 Jun 2027 20:54:29.365   01 Jun 2027 20:56:13.395           104.030                Novosib          3250.937
        58   01 Jun 2027 21:02:02.147   01 Jun 2027 21:04:54.875           172.728                  Delhi          5397.750
        59   01 Jun 2027 21:08:43.296   01 Jun 2027 21:09:53.240            69.944                  Delhi          2185.750
        60   01 Jun 2027 22:27:40.875   01 Jun 2027 22:31:35.140           234.265              Murmansk2          7320.781
        61   01 Jun 2027 22:32:13.990   01 Jun 2027 22:34:35.017           141.027              Murmansk1          4407.094
        62   01 Jun 2027 23:58:59.637   01 Jun 2027 23:59:54.299            54.662               Magadan2          1708.187
        63   02 Jun 2027 00:00:46.802   02 Jun 2027 00:00:58.589            11.787               Magadan2           368.344
        64   02 Jun 2027 00:01:43.159   02 Jun 2027 00:02:20.647            37.488               Magadan1          1171.500
        65   02 Jun 2027 00:03:11.105   02 Jun 2027 00:04:49.663            98.558              Murmansk2          3079.938
        66   02 Jun 2027 00:06:30.159   02 Jun 2027 00:07:07.175            37.016              Murmansk1          1156.750
        67   02 Jun 2027 00:07:33.238   02 Jun 2027 00:09:42.559           129.321                 Moscow          4041.281
        68   02 Jun 2027 00:11:13.551   02 Jun 2027 00:12:52.438            98.887                 Moscow          3090.219
        69   02 Jun 2027 00:31:57.840   02 Jun 2027 00:32:36.174            38.334               CapeTown          1197.937
        70   02 Jun 2027 00:33:33.978   02 Jun 2027 00:34:54.888            80.910               CapeTown          2528.437
        71   02 Jun 2027 00:37:29.811   02 Jun 2027 00:38:04.290            34.479               CapeTown          1077.469
        72   02 Jun 2027 00:38:46.284   02 Jun 2027 00:38:57.343            11.059               CapeTown           345.594
        73   02 Jun 2027 01:31:47.616   02 Jun 2027 01:32:11.507            23.891               Magadan2           746.594
        74   02 Jun 2027 01:34:14.647   02 Jun 2027 01:34:39.381            24.734               Magadan2           772.938
        75   02 Jun 2027 01:35:17.857   02 Jun 2027 01:35:58.635            40.778               Magadan2          1274.313
        76   02 Jun 2027 01:39:07.956   02 Jun 2027 01:40:04.886            56.930              Murmansk1          1779.063
        77   02 Jun 2027 01:41:10.412   02 Jun 2027 01:41:21.307            10.895              Murmansk1           340.469
        78   02 Jun 2027 01:41:58.938   02 Jun 2027 01:42:34.199            35.261                Novosib          1101.906
        79   02 Jun 2027 01:42:44.206   02 Jun 2027 01:42:50.036             5.830                Novosib           182.188
        80   02 Jun 2027 01:42:52.761   02 Jun 2027 01:43:39.366            46.605                 Moscow          1456.406
        81   02 Jun 2027 01:50:54.439   02 Jun 2027 01:51:19.237            24.798              Murmansk1           774.937
        82   02 Jun 2027 01:52:16.630   02 Jun 2027 01:53:00.674            44.044                 Moscow          1376.375
        83   02 Jun 2027 02:11:26.683   02 Jun 2027 02:11:44.126            17.443               CapeTown           545.094
        84   02 Jun 2027 02:15:47.490   02 Jun 2027 02:16:05.935            18.445               CapeTown           576.406
        85   02 Jun 2027 02:17:31.669   02 Jun 2027 02:18:17.107            45.438               CapeTown          1419.938
        86   02 Jun 2027 03:03:07.346   02 Jun 2027 03:03:18.374            11.028                Anadyr2           344.625
        87   02 Jun 2027 03:05:53.667   02 Jun 2027 03:06:17.498            23.831                Anadyr1           744.719
        88   02 Jun 2027 03:08:52.326   02 Jun 2027 03:09:18.201            25.875                Anadyr1           808.594
        89   02 Jun 2027 03:09:19.485   02 Jun 2027 03:09:41.793            22.308                Anadyr1           697.125
        90   02 Jun 2027 03:09:56.325   02 Jun 2027 03:12:59.726           183.401                Anadyr1          5731.281
        91   02 Jun 2027 03:13:16.318   02 Jun 2027 03:13:36.728            20.410                Anadyr1           637.812
        92   02 Jun 2027 03:14:09.449   02 Jun 2027 03:15:31.030            81.581               Magadan1          2549.406
        93   02 Jun 2027 04:47:58.251   02 Jun 2027 04:49:07.741            69.490               Magadan2          2171.562
        94   02 Jun 2027 04:49:25.299   02 Jun 2027 04:51:12.421           107.122                Anadyr2          3347.562
        95   02 Jun 2027 04:51:12.421   02 Jun 2027 04:51:23.757            11.336                Anadyr1           354.250
        96   02 Jun 2027 06:23:32.087   02 Jun 2027 06:24:10.066            37.979                Novosib          1186.844
        97   02 Jun 2027 06:25:02.988   02 Jun 2027 06:27:02.578           119.590                Irkutsk          3737.188
        98   02 Jun 2027 06:27:04.598   02 Jun 2027 06:28:07.203            62.605                Novosib          1956.406
        99   02 Jun 2027 08:00:13.418   02 Jun 2027 08:03:11.961           178.543                Irkutsk          5579.469
       100   02 Jun 2027 09:37:52.472   02 Jun 2027 09:38:21.841            29.369                Norilsk           917.781
       101   02 Jun 2027 09:38:31.947   02 Jun 2027 09:38:58.142            26.195                Novosib           818.594
       102   02 Jun 2027 10:58:24.102   02 Jun 2027 11:00:52.620           148.518                  Delhi          4641.187
       103   02 Jun 2027 11:12:13.087   02 Jun 2027 11:13:00.660            47.573              Murmansk1          1486.656
       104   02 Jun 2027 11:14:12.046   02 Jun 2027 11:14:34.555            22.509                Norilsk           703.406
       105   02 Jun 2027 12:41:33.464   02 Jun 2027 12:42:54.412            80.948                 Moscow          2529.625
       106   02 Jun 2027 12:44:34.602   02 Jun 2027 12:45:38.367            63.765                 Moscow          1992.656
       107   02 Jun 2027 12:45:44.067   02 Jun 2027 12:46:58.289            74.222              Murmansk1          2319.438
       108   02 Jun 2027 12:46:58.289   02 Jun 2027 12:47:44.724            46.435              Murmansk2          1451.094
       109   02 Jun 2027 12:48:08.282   02 Jun 2027 12:48:19.278            10.996              Murmansk2           343.625
       110   02 Jun 2027 12:48:43.514   02 Jun 2027 12:49:38.348            54.834              Murmansk2          1713.562
       111   02 Jun 2027 12:50:43.584   02 Jun 2027 12:51:07.125            23.541              Murmansk2           735.656
       112   02 Jun 2027 12:54:39.822   02 Jun 2027 12:54:46.877             7.055              Murmansk1           220.469
       113   02 Jun 2027 13:00:53.690   02 Jun 2027 13:04:17.286           203.596                Anadyr1          6362.375
       114   02 Jun 2027 13:04:40.153   02 Jun 2027 13:06:13.682            93.529                Anadyr2          2922.781
       115   02 Jun 2027 14:23:06.794   02 Jun 2027 14:23:37.620            30.826              Murmansk1           963.313
       116   02 Jun 2027 14:24:03.605   02 Jun 2027 14:24:09.890             6.285              Murmansk1           196.406
       117   02 Jun 2027 14:25:36.610   02 Jun 2027 14:26:05.871            29.261              Murmansk2           914.406
       118   02 Jun 2027 14:27:32.150   02 Jun 2027 14:27:50.558            18.408              Murmansk1           575.250
       119   02 Jun 2027 14:31:17.317   02 Jun 2027 14:31:34.444            17.127              Murmansk1           535.219
       120   02 Jun 2027 14:35:34.655   02 Jun 2027 14:37:29.973           115.318                Anadyr1          3603.688
       121   02 Jun 2027 14:38:11.671   02 Jun 2027 14:39:40.186            88.515                Anadyr2          2766.094
       122   02 Jun 2027 15:35:28.578   02 Jun 2027 15:36:31.522            62.944               CapeTown          1967.000
       123   02 Jun 2027 16:04:06.285   02 Jun 2027 16:05:11.097            64.812              Murmansk2          2025.375
       124   02 Jun 2027 16:11:22.226   02 Jun 2027 16:12:55.791            93.565                Anadyr1          2923.906
       125   02 Jun 2027 16:13:01.546   02 Jun 2027 16:13:41.869            40.323                Anadyr2          1260.094
       126   02 Jun 2027 16:14:03.414   02 Jun 2027 16:14:05.778             2.364                Anadyr2            73.875
       127   02 Jun 2027 16:14:38.979   02 Jun 2027 16:15:17.302            38.323                Anadyr1          1197.594
       128   02 Jun 2027 16:15:28.869   02 Jun 2027 16:19:10.416           221.547               Magadan1          6923.344
       129   02 Jun 2027 17:47:17.398   02 Jun 2027 17:48:49.498            92.100                Anadyr2          2878.125
       130   02 Jun 2027 17:49:34.343   02 Jun 2027 17:51:13.961            99.618               Magadan2          3113.062
       131   02 Jun 2027 17:52:16.944   02 Jun 2027 17:52:32.240            15.296               Magadan2           478.000
       132   02 Jun 2027 17:52:51.131   02 Jun 2027 17:53:34.697            43.566               Magadan1          1361.437
       133   02 Jun 2027 17:57:02.047   02 Jun 2027 17:57:27.650            25.603               Magadan1           800.094
       134   02 Jun 2027 18:02:13.231   02 Jun 2027 18:02:28.807            15.576               Magadan1           486.750
       135   02 Jun 2027 18:42:09.649   02 Jun 2027 18:48:36.009           386.360            RioGallegos         12073.750
       136   02 Jun 2027 19:25:10.463   02 Jun 2027 19:29:18.505           248.042                Norilsk          7751.313
       137   02 Jun 2027 19:29:42.051   02 Jun 2027 19:30:09.480            27.429                Irkutsk           857.156
       138   02 Jun 2027 19:31:02.918   02 Jun 2027 19:32:11.443            68.525                Irkutsk          2141.406
       139   02 Jun 2027 19:38:33.209   02 Jun 2027 19:39:34.844            61.635                Irkutsk          1926.094
       140   02 Jun 2027 19:43:32.349   02 Jun 2027 19:45:18.002           105.653                Sumatra          3301.656
       141   02 Jun 2027 19:45:25.737   02 Jun 2027 19:47:01.768            96.031                Sumatra          3000.969
       142   02 Jun 2027 21:05:28.331   02 Jun 2027 21:05:50.551            22.220                Novosib           694.375
       143   02 Jun 2027 21:13:28.650   02 Jun 2027 21:15:41.435           132.785                  Delhi          4149.531
       144   02 Jun 2027 21:16:42.210   02 Jun 2027 21:16:42.463             0.253                  Delhi             7.906
       145   02 Jun 2027 21:18:25.615   02 Jun 2027 21:18:39.502            13.887                  Delhi           433.969
       146   02 Jun 2027 21:19:13.683   02 Jun 2027 21:20:42.747            89.064                  Delhi          2783.250
       147   02 Jun 2027 22:39:34.697   02 Jun 2027 22:44:07.464           272.767              Murmansk2          8523.969
       148   02 Jun 2027 22:44:07.464   02 Jun 2027 22:45:23.425            75.961              Murmansk1          2373.781
       149   02 Jun 2027 22:45:42.004   02 Jun 2027 22:48:47.053           185.049                 Moscow          5782.781
       150   03 Jun 2027 00:15:12.058   03 Jun 2027 00:16:36.649            84.591              Murmansk2          2643.469
       151   03 Jun 2027 00:18:05.311   03 Jun 2027 00:18:31.760            26.449              Murmansk1           826.531
       152   03 Jun 2027 00:19:04.210   03 Jun 2027 00:19:21.846            17.636                 Moscow           551.125
       153   03 Jun 2027 00:19:43.387   03 Jun 2027 00:20:36.871            53.484                 Moscow          1671.375
       154   03 Jun 2027 00:21:15.163   03 Jun 2027 00:21:49.138            33.975              Murmansk2          1061.719
       155   03 Jun 2027 00:22:52.654   03 Jun 2027 00:23:33.065            40.411                 Moscow          1262.844
       156   03 Jun 2027 00:26:23.540   03 Jun 2027 00:26:43.222            19.682                 Moscow           615.063
       157   03 Jun 2027 00:29:55.553   03 Jun 2027 00:30:13.361            17.808                 Moscow           556.500
       158   03 Jun 2027 00:43:28.058   03 Jun 2027 00:46:06.249           158.191               CapeTown          4943.469
       159   03 Jun 2027 01:42:35.051   03 Jun 2027 01:43:20.108            45.057               Magadan2          1408.031
       160   03 Jun 2027 01:44:42.385   03 Jun 2027 01:44:53.171            10.786               Magadan2           337.063
       161   03 Jun 2027 01:46:52.068   03 Jun 2027 01:47:19.591            27.523               Magadan1           860.094
       162   03 Jun 2027 01:50:26.077   03 Jun 2027 01:50:35.624             9.547                Norilsk           298.344
       163   03 Jun 2027 01:51:09.623   03 Jun 2027 01:53:00.113           110.490              Murmansk2          3452.812
       164   03 Jun 2027 01:54:16.945   03 Jun 2027 01:55:20.327            63.382              Murmansk1          1980.688
       165   03 Jun 2027 01:58:20.369   03 Jun 2027 01:58:29.062             8.693                 Moscow           271.656
       166   03 Jun 2027 02:01:18.482   03 Jun 2027 02:02:58.413            99.931                 Moscow          3122.844
       167   03 Jun 2027 02:26:57.792   03 Jun 2027 02:28:23.838            86.046               CapeTown          2688.938
       168   03 Jun 2027 03:21:06.723   03 Jun 2027 03:23:07.510           120.787               Magadan2          3774.594
       169   03 Jun 2027 03:23:08.419   03 Jun 2027 03:23:41.419            33.000               Magadan1          1031.250
       170   03 Jun 2027 03:23:45.662   03 Jun 2027 03:25:31.550           105.888                Anadyr2          3309.000
       171   03 Jun 2027 03:25:31.550   03 Jun 2027 03:26:37.563            66.013                Anadyr1          2062.906
       172   03 Jun 2027 03:27:29.626   03 Jun 2027 03:27:42.805            13.179                Anadyr2           411.844
       173   03 Jun 2027 05:00:39.804   03 Jun 2027 05:01:35.305            55.501                Irkutsk          1734.406
       174   03 Jun 2027 05:02:14.834   03 Jun 2027 05:03:14.458            59.624                Anadyr2          1863.250
       175   03 Jun 2027 06:34:02.255   03 Jun 2027 06:34:55.550            53.295               Magadan2          1665.469
       176   03 Jun 2027 06:35:06.031   03 Jun 2027 06:35:16.079            10.048               Magadan1           314.000
       177   03 Jun 2027 06:35:17.640   03 Jun 2027 06:35:21.920             4.280               Magadan2           133.750
       178   03 Jun 2027 06:35:21.920   03 Jun 2027 06:35:23.892             1.972               Magadan1            61.625
       179   03 Jun 2027 06:35:43.134   03 Jun 2027 06:37:02.435            79.301               Magadan2          2478.156
       180   03 Jun 2027 06:37:17.973   03 Jun 2027 06:38:10.818            52.845               Magadan1          1651.406
       181   03 Jun 2027 06:38:31.343   03 Jun 2027 06:38:49.109            17.766               Magadan2           555.187
       182   03 Jun 2027 06:40:48.874   03 Jun 2027 06:41:16.953            28.079              Murmansk1           877.469
       183   03 Jun 2027 08:09:38.086   03 Jun 2027 08:10:08.070            29.984                Irkutsk           937.000
       184   03 Jun 2027 08:13:52.527   03 Jun 2027 08:13:55.761             3.234                Novosib           101.063
       185   03 Jun 2027 08:14:19.027   03 Jun 2027 08:15:11.188            52.161                Irkutsk          1630.031
       186   03 Jun 2027 08:52:29.755   03 Jun 2027 08:53:05.582            35.827            RioGallegos          1119.594
       187   03 Jun 2027 09:25:53.103   03 Jun 2027 09:26:16.303            23.200                Sumatra           725.000
       188   03 Jun 2027 09:28:04.100   03 Jun 2027 09:29:03.293            59.193                Sumatra          1849.781
       189   03 Jun 2027 09:47:15.735   03 Jun 2027 09:47:20.994             5.259                Novosib           164.344
       190   03 Jun 2027 09:49:49.766   03 Jun 2027 09:50:12.234            22.468                Novosib           702.125
       191   03 Jun 2027 09:50:17.685   03 Jun 2027 09:50:38.026            20.341                Novosib           635.656
       192   03 Jun 2027 09:50:49.368   03 Jun 2027 09:50:52.643             3.275                Novosib           102.344
       193   03 Jun 2027 11:11:10.770   03 Jun 2027 11:13:35.078           144.308                  Delhi          4509.625
       194   03 Jun 2027 11:15:22.066   03 Jun 2027 11:15:22.575             0.509                  Delhi            15.906
       195   03 Jun 2027 11:19:22.059   03 Jun 2027 11:19:44.979            22.920                  Delhi           716.250
       196   03 Jun 2027 11:27:36.104   03 Jun 2027 11:27:53.718            17.614                Norilsk           550.437
       197   03 Jun 2027 12:53:45.938   03 Jun 2027 12:54:45.404            59.466                 Moscow          1858.313
       198   03 Jun 2027 12:57:14.572   03 Jun 2027 12:59:03.363           108.791              Murmansk2          3399.719
       199   03 Jun 2027 12:59:34.973   03 Jun 2027 13:00:38.876            63.903              Murmansk1          1996.969
       200   03 Jun 2027 13:01:39.897   03 Jun 2027 13:02:29.125            49.228              Murmansk1          1538.375
       201   03 Jun 2027 13:06:33.984   03 Jun 2027 13:06:58.578            24.594              Murmansk1           768.563
       202   03 Jun 2027 13:12:33.162   03 Jun 2027 13:16:10.134           216.972                Anadyr1          6780.375
       203   03 Jun 2027 13:17:01.061   03 Jun 2027 13:19:03.301           122.240                Anadyr2          3820.000
       204   03 Jun 2027 14:35:34.051   03 Jun 2027 14:35:58.246            24.195              Murmansk2           756.094
       205   03 Jun 2027 14:36:03.697   03 Jun 2027 14:37:35.706            92.009              Murmansk2          2875.281
       206   03 Jun 2027 14:47:33.589   03 Jun 2027 14:48:50.954            77.365                Anadyr2          2417.656
       207   03 Jun 2027 14:48:50.954   03 Jun 2027 14:49:23.622            32.668                Anadyr1          1020.875
       208   03 Jun 2027 14:50:10.374   03 Jun 2027 14:50:45.463            35.089                Anadyr2          1096.531
       209   03 Jun 2027 16:17:18.484   03 Jun 2027 16:19:25.862           127.378              Murmansk1          3980.562
       210   03 Jun 2027 16:19:33.122   03 Jun 2027 16:19:37.613             4.491              Murmansk2           140.344
       211   03 Jun 2027 16:23:23.520   03 Jun 2027 16:24:56.275            92.755                Anadyr1          2898.594
       212   03 Jun 2027 16:25:17.181   03 Jun 2027 16:26:01.414            44.233                Anadyr2          1382.281
       213   03 Jun 2027 16:26:39.569   03 Jun 2027 16:26:43.929             4.360                Anadyr2           136.250
       214   03 Jun 2027 16:27:03.866   03 Jun 2027 16:29:57.230           173.364               Magadan1          5417.625
       215   03 Jun 2027 16:31:04.607   03 Jun 2027 16:31:44.114            39.507               Magadan2          1234.594
       216   03 Jun 2027 16:33:26.396   03 Jun 2027 16:34:09.307            42.911               Magadan1          1340.969
       217   03 Jun 2027 17:59:18.156   03 Jun 2027 18:01:53.471           155.315                Anadyr1          4853.594
       218   03 Jun 2027 18:01:58.110   03 Jun 2027 18:03:20.916            82.806               Magadan2          2587.688
       219   03 Jun 2027 18:03:20.916   03 Jun 2027 18:04:05.691            44.775               Magadan1          1399.219
       220   03 Jun 2027 18:04:05.875   03 Jun 2027 18:05:35.546            89.671                Norilsk          2802.219
       221   03 Jun 2027 18:53:53.827   03 Jun 2027 18:57:33.797           219.970            RioGallegos          6874.063
       222   03 Jun 2027 18:57:58.812   03 Jun 2027 18:58:52.553            53.741            RioGallegos          1679.406
       223   03 Jun 2027 19:37:10.257   03 Jun 2027 19:41:19.555           249.298                Norilsk          7790.563
       224   03 Jun 2027 19:41:24.509   03 Jun 2027 19:41:57.688            33.179                Irkutsk          1036.844
       225   03 Jun 2027 19:42:33.838   03 Jun 2027 19:42:44.631            10.793                Norilsk           337.281
       226   03 Jun 2027 19:43:04.114   03 Jun 2027 19:44:14.495            70.381                Irkutsk          2199.406
       227   03 Jun 2027 19:44:28.244   03 Jun 2027 19:46:17.700           109.456                Novosib          3420.500
       228   03 Jun 2027 19:57:39.220   03 Jun 2027 19:59:00.768            81.548                Sumatra          2548.375
       229   03 Jun 2027 21:17:09.108   03 Jun 2027 21:18:23.050            73.942                Novosib          2310.687
       230   03 Jun 2027 21:19:06.776   03 Jun 2027 21:20:06.987            60.211                Novosib          1881.594
       231   03 Jun 2027 21:25:04.578   03 Jun 2027 21:27:52.874           168.296                  Delhi          5259.250
       232   03 Jun 2027 21:31:28.921   03 Jun 2027 21:31:36.256             7.335                  Delhi           229.219
       233   03 Jun 2027 21:35:53.079   03 Jun 2027 21:36:14.605            21.526                  Delhi           672.687
       234   03 Jun 2027 22:49:16.482   03 Jun 2027 22:49:42.477            25.995               Magadan2           812.344
       235   03 Jun 2027 22:50:23.512   03 Jun 2027 22:50:31.211             7.699                Norilsk           240.594
       236   03 Jun 2027 22:50:43.115   03 Jun 2027 22:51:09.621            26.506               Magadan1           828.312
       237   03 Jun 2027 22:51:30.541   03 Jun 2027 22:53:57.272           146.731              Murmansk1          4585.344
       238   03 Jun 2027 22:54:11.541   03 Jun 2027 22:55:32.505            80.964              Murmansk2          2530.125
       239   03 Jun 2027 22:56:39.835   03 Jun 2027 23:02:20.997           341.162                 Moscow         10661.312
       240   04 Jun 2027 00:27:13.248   04 Jun 2027 00:27:27.302            14.054              Murmansk2           439.188
       241   04 Jun 2027 00:27:54.030   04 Jun 2027 00:29:07.594            73.564              Murmansk1          2298.875
       242   04 Jun 2027 00:29:16.221   04 Jun 2027 00:29:21.058             4.837              Murmansk1           151.156
       243   04 Jun 2027 00:29:51.223   04 Jun 2027 00:30:33.282            42.059              Murmansk2          1314.344
       244   04 Jun 2027 00:30:37.097   04 Jun 2027 00:31:07.814            30.717                 Moscow           959.906
       245   04 Jun 2027 00:32:29.766   04 Jun 2027 00:33:06.074            36.308                 Moscow          1134.625
       246   04 Jun 2027 00:33:42.549   04 Jun 2027 00:34:29.100            46.551                 Moscow          1454.719
       247   04 Jun 2027 00:55:04.767   04 Jun 2027 00:56:31.713            86.946               CapeTown          2717.063
       248   04 Jun 2027 00:57:11.521   04 Jun 2027 00:58:29.655            78.134               CapeTown          2441.687
       249   04 Jun 2027 01:53:45.725   04 Jun 2027 01:55:21.016            95.291               Magadan2          2977.844
       250   04 Jun 2027 01:59:07.787   04 Jun 2027 01:59:21.674            13.887               Magadan1           433.969
       251   04 Jun 2027 02:02:11.641   04 Jun 2027 02:02:22.932            11.291                Norilsk           352.844
       252   04 Jun 2027 02:03:11.232   04 Jun 2027 02:03:42.102            30.870              Murmansk1           964.687
       253   04 Jun 2027 02:03:42.102   04 Jun 2027 02:04:56.157            74.055              Murmansk2          2314.219
       254   04 Jun 2027 02:06:24.821   04 Jun 2027 02:07:03.080            38.259                 Moscow          1195.594
       255   04 Jun 2027 02:07:17.033   04 Jun 2027 02:07:55.468            38.435                 Moscow          1201.094
       256   04 Jun 2027 02:16:44.240   04 Jun 2027 02:17:16.296            32.056                 Moscow          1001.750
       257   04 Jun 2027 02:30:54.066   04 Jun 2027 02:31:23.160            29.094               CapeTown           909.188
       258   04 Jun 2027 02:36:02.437   04 Jun 2027 02:36:15.386            12.949               CapeTown           404.656
       259   04 Jun 2027 02:38:54.962   04 Jun 2027 02:39:49.283            54.321               CapeTown          1697.531
       260   04 Jun 2027 03:31:24.719   04 Jun 2027 03:31:25.789             1.070               Magadan1            33.438
       261   04 Jun 2027 03:31:51.967   04 Jun 2027 03:32:04.159            12.192                Anadyr2           381.000
       262   04 Jun 2027 03:33:16.980   04 Jun 2027 03:33:30.883            13.903               Magadan2           434.469
       263   04 Jun 2027 03:33:35.758   04 Jun 2027 03:35:46.338           130.580                Anadyr2          4080.625
       264   04 Jun 2027 03:35:50.930   04 Jun 2027 03:36:22.016            31.086                Anadyr2           971.437
       265   04 Jun 2027 03:36:56.391   04 Jun 2027 03:37:12.708            16.317                Anadyr1           509.906
       266   04 Jun 2027 03:38:08.369   04 Jun 2027 03:38:35.211            26.842                Anadyr1           838.813
       267   04 Jun 2027 04:21:16.016   04 Jun 2027 04:21:59.410            43.394            RioGallegos          1356.062
       268   04 Jun 2027 05:10:58.283   04 Jun 2027 05:10:58.878             0.595                Irkutsk            18.594
       269   04 Jun 2027 05:12:40.917   04 Jun 2027 05:13:08.086            27.169               Magadan1           849.031
       270   04 Jun 2027 05:13:09.174   04 Jun 2027 05:13:32.756            23.582               Magadan1           736.938
       271   04 Jun 2027 05:14:02.403   04 Jun 2027 05:15:02.032            59.629               Magadan1          1863.406
       272   04 Jun 2027 06:46:43.091   04 Jun 2027 06:46:59.106            16.015               Magadan1           500.469
       273   04 Jun 2027 06:47:18.271   04 Jun 2027 06:47:20.910             2.639               Magadan1            82.469
       274   04 Jun 2027 06:47:44.750   04 Jun 2027 06:48:27.966            43.216               Magadan2          1350.500
       275   04 Jun 2027 06:49:01.981   04 Jun 2027 06:49:20.934            18.953               Magadan2           592.281
       276   04 Jun 2027 06:49:52.515   04 Jun 2027 06:50:03.386            10.871               Magadan2           339.719
       277   04 Jun 2027 06:50:34.645   04 Jun 2027 06:51:06.637            31.992                Novosib           999.750
       278   04 Jun 2027 06:51:09.259   04 Jun 2027 06:51:29.024            19.765                Novosib           617.656
       279   04 Jun 2027 08:05:20.727   04 Jun 2027 08:06:31.471            70.744                Sumatra          2210.750
       280   04 Jun 2027 08:21:56.413   04 Jun 2027 08:22:23.300            26.887                Irkutsk           840.219
       281   04 Jun 2027 08:26:27.472   04 Jun 2027 08:26:30.281             2.809                Irkutsk            87.781
       282   04 Jun 2027 08:27:11.719   04 Jun 2027 08:28:08.007            56.288                Norilsk          1759.000
       283   04 Jun 2027 09:04:41.323   04 Jun 2027 09:05:13.972            32.649            RioGallegos          1020.281
       284   04 Jun 2027 09:38:36.202   04 Jun 2027 09:40:40.708           124.506                Sumatra          3890.813
       285   04 Jun 2027 10:00:14.779   04 Jun 2027 10:00:37.835            23.056                Novosib           720.500
       286   04 Jun 2027 10:00:59.624   04 Jun 2027 10:01:55.193            55.569                Novosib          1736.531
       287   04 Jun 2027 10:02:05.771   04 Jun 2027 10:02:20.487            14.716                Novosib           459.875
       288   04 Jun 2027 10:02:28.830   04 Jun 2027 10:02:30.326             1.496                Norilsk            46.750
       289   04 Jun 2027 10:02:38.332   04 Jun 2027 10:02:49.163            10.831                Norilsk           338.469
       290   04 Jun 2027 11:24:17.609   04 Jun 2027 11:27:29.876           192.267                  Delhi          6008.344
       291   04 Jun 2027 11:41:39.317   04 Jun 2027 11:41:46.823             7.506                Norilsk           234.562
       292   04 Jun 2027 13:06:01.924   04 Jun 2027 13:06:53.577            51.653                 Moscow          1614.156
       293   04 Jun 2027 13:08:05.522   04 Jun 2027 13:08:30.701            25.179                 Moscow           786.844
       294   04 Jun 2027 13:09:05.306   04 Jun 2027 13:09:18.635            13.329                 Moscow           416.531
       295   04 Jun 2027 13:09:26.649   04 Jun 2027 13:09:36.860            10.211              Murmansk1           319.094
       296   04 Jun 2027 13:09:46.661   04 Jun 2027 13:10:09.346            22.685              Murmansk2           708.906
       297   04 Jun 2027 13:10:09.346   04 Jun 2027 13:11:15.301            65.955              Murmansk1          2061.094
       298   04 Jun 2027 13:11:45.641   04 Jun 2027 13:13:41.537           115.896              Murmansk2          3621.750
       299   04 Jun 2027 13:24:19.441   04 Jun 2027 13:29:14.896           295.455                Anadyr2          9232.969
       300   04 Jun 2027 13:29:45.637   04 Jun 2027 13:31:10.719            85.082                Anadyr2          2658.812
       301   04 Jun 2027 14:48:03.965   04 Jun 2027 14:48:34.015            30.050              Murmansk2           939.062
       302   04 Jun 2027 14:49:39.441   04 Jun 2027 14:50:04.192            24.751              Murmansk1           773.469
       303   04 Jun 2027 14:59:33.084   04 Jun 2027 15:01:19.009           105.925                Anadyr1          3310.156
       304   04 Jun 2027 15:02:20.170   04 Jun 2027 15:02:46.796            26.626                Anadyr2           832.062
       305   04 Jun 2027 15:04:10.156   04 Jun 2027 15:08:14.813           244.657               Magadan2          7645.531
       306   04 Jun 2027 16:35:24.875   04 Jun 2027 16:36:57.035            92.160                Anadyr2          2880.000
       307   04 Jun 2027 16:37:07.635   04 Jun 2027 16:37:41.171            33.536                Anadyr1          1048.000
       308   04 Jun 2027 16:37:54.607   04 Jun 2027 16:38:43.902            49.295               Magadan2          1540.469
       309   04 Jun 2027 16:38:43.902   04 Jun 2027 16:40:15.328            91.426               Magadan1          2857.062
       310   04 Jun 2027 16:40:48.847   04 Jun 2027 16:40:58.614             9.767               Magadan1           305.219
       311   04 Jun 2027 16:42:45.309   04 Jun 2027 16:44:16.775            91.466               Magadan1          2858.312
       312   04 Jun 2027 18:11:18.676   04 Jun 2027 18:14:27.991           189.315                Anadyr2          5916.094
       313   04 Jun 2027 18:15:00.005   04 Jun 2027 18:17:38.500           158.495                Norilsk          4952.969
       314   04 Jun 2027 19:05:41.970   04 Jun 2027 19:08:22.128           160.158            RioGallegos          5004.938
       315   04 Jun 2027 19:15:09.167   04 Jun 2027 19:15:38.956            29.789            RioGallegos           930.906
       316   04 Jun 2027 19:48:31.802   04 Jun 2027 19:48:41.222             9.420                Anadyr1           294.375
       317   04 Jun 2027 19:49:10.590   04 Jun 2027 19:50:52.492           101.902                Norilsk          3184.438
       318   04 Jun 2027 19:52:06.838   04 Jun 2027 19:53:06.131            59.293               Magadan2          1852.906
       319   04 Jun 2027 19:53:18.353   04 Jun 2027 19:53:35.065            16.712                Irkutsk           522.250
       320   04 Jun 2027 19:54:06.926   04 Jun 2027 19:54:43.746            36.820                Norilsk          1150.625
       321   04 Jun 2027 19:55:00.844   04 Jun 2027 19:59:06.437           245.593                Novosib          7674.781
       322   04 Jun 2027 20:00:46.085   04 Jun 2027 20:01:08.390            22.305                Novosib           697.031
       323   04 Jun 2027 20:07:00.926   04 Jun 2027 20:08:15.124            74.198                Sumatra          2318.688
       324   04 Jun 2027 20:08:57.949   04 Jun 2027 20:09:53.214            55.265                Sumatra          1727.031
       325   04 Jun 2027 20:17:30.320   04 Jun 2027 20:19:01.490            91.170                Sumatra          2849.062
       326   04 Jun 2027 21:28:59.895   04 Jun 2027 21:29:14.284            14.389                Irkutsk           449.656
       327   04 Jun 2027 21:31:07.618   04 Jun 2027 21:32:13.091            65.473                Novosib          2046.031
       328   04 Jun 2027 21:36:47.184   04 Jun 2027 21:40:29.991           222.807                  Delhi          6962.719
       329   04 Jun 2027 23:01:05.929   04 Jun 2027 23:01:13.531             7.602               Magadan2           237.562
       330   04 Jun 2027 23:02:12.510   04 Jun 2027 23:02:38.071            25.561               Magadan1           798.781
       331   04 Jun 2027 23:03:27.814   04 Jun 2027 23:05:36.477           128.663              Murmansk1          4020.719
       332   04 Jun 2027 23:06:12.392   04 Jun 2027 23:07:32.229            79.837              Murmansk2          2494.906
       333   04 Jun 2027 23:08:06.600   04 Jun 2027 23:12:33.026           266.426                 Moscow          8325.813
       334   05 Jun 2027 00:33:25.299   05 Jun 2027 00:34:06.798            41.499               Magadan2          1296.844
       335   05 Jun 2027 00:37:09.084   05 Jun 2027 00:37:30.269            21.185               Magadan1           662.031
       336   05 Jun 2027 00:39:14.629   05 Jun 2027 00:39:17.040             2.411              Murmansk2            75.344
       337   05 Jun 2027 00:39:44.803   05 Jun 2027 00:40:47.754            62.951              Murmansk2          1967.219
       338   05 Jun 2027 00:41:12.994   05 Jun 2027 00:42:48.744            95.750              Murmansk1          2992.187
       339   05 Jun 2027 00:42:51.152   05 Jun 2027 00:44:38.310           107.158                 Moscow          3348.687
       340   05 Jun 2027 00:47:17.256   05 Jun 2027 00:47:56.493            39.237                 Moscow          1226.156
       341   05 Jun 2027 01:06:47.230   05 Jun 2027 01:08:20.837            93.607               CapeTown          2925.219
       342   05 Jun 2027 02:03:08.048   05 Jun 2027 02:03:36.619            28.571                Anadyr1           892.844
       343   05 Jun 2027 02:04:05.620   05 Jun 2027 02:04:31.889            26.269                Anadyr2           820.906
       344   05 Jun 2027 02:05:21.583   05 Jun 2027 02:05:42.380            20.797               Magadan1           649.906
       345   05 Jun 2027 02:05:42.380   05 Jun 2027 02:06:35.744            53.364               Magadan2          1667.625
       346   05 Jun 2027 02:07:55.325   05 Jun 2027 02:08:10.043            14.718               Magadan1           459.938
       347   05 Jun 2027 02:08:32.123   05 Jun 2027 02:08:50.231            18.108               Magadan2           565.875
       348   05 Jun 2027 02:11:24.018   05 Jun 2027 02:11:45.545            21.527               Magadan1           672.719
       349   05 Jun 2027 02:15:12.748   05 Jun 2027 02:16:27.770            75.022              Murmansk2          2344.437
       350   05 Jun 2027 02:16:27.770   05 Jun 2027 02:16:42.755            14.985              Murmansk1           468.281
       351   05 Jun 2027 02:17:52.372   05 Jun 2027 02:18:24.365            31.993              Murmansk2           999.781
       352   05 Jun 2027 02:18:27.856   05 Jun 2027 02:18:40.972            13.116                 Moscow           409.875
       353   05 Jun 2027 02:19:55.915   05 Jun 2027 02:21:19.085            83.170                 Moscow          2599.062
       354   05 Jun 2027 02:43:46.685   05 Jun 2027 02:43:48.791             2.106               CapeTown            65.813
       355   05 Jun 2027 02:44:01.341   05 Jun 2027 02:44:52.191            50.850               CapeTown          1589.063
       356   05 Jun 2027 03:43:53.342   05 Jun 2027 03:44:43.395            50.053                Anadyr2          1564.156
       357   05 Jun 2027 03:45:16.319   05 Jun 2027 03:45:43.860            27.541               Magadan1           860.656
       358   05 Jun 2027 03:46:04.142   05 Jun 2027 03:50:57.919           293.777               Magadan2          9180.531
       359   05 Jun 2027 03:50:57.919   05 Jun 2027 03:51:37.895            39.976               Magadan1          1249.250
       360   05 Jun 2027 04:32:03.807   05 Jun 2027 04:33:49.148           105.341            RioGallegos          3291.906
       361   05 Jun 2027 05:21:36.491   05 Jun 2027 05:22:21.233            44.742                Irkutsk          1398.187
       362   05 Jun 2027 05:23:12.491   05 Jun 2027 05:23:17.136             4.645                Anadyr1           145.156
       363   05 Jun 2027 05:23:17.136   05 Jun 2027 05:25:43.443           146.307                Anadyr2          4572.094
       364   05 Jun 2027 06:58:32.770   05 Jun 2027 06:58:34.670             1.900               Magadan2            59.375
       365   05 Jun 2027 06:58:36.047   05 Jun 2027 06:59:20.210            44.163               Magadan2          1380.094
       366   05 Jun 2027 06:59:24.249   05 Jun 2027 06:59:48.881            24.632               Magadan1           769.750
       367   05 Jun 2027 06:59:48.881   05 Jun 2027 07:01:00.868            71.987               Magadan2          2249.594
       368   05 Jun 2027 07:01:23.762   05 Jun 2027 07:01:34.060            10.298               Magadan2           321.812
       369   05 Jun 2027 07:01:34.060   05 Jun 2027 07:01:58.217            24.157               Magadan1           754.906
       370   05 Jun 2027 07:02:07.870   05 Jun 2027 07:02:23.737            15.867               Magadan2           495.844
       371   05 Jun 2027 07:02:37.255   05 Jun 2027 07:03:07.292            30.037                Novosib           938.656
       372   05 Jun 2027 07:04:27.084   05 Jun 2027 07:04:35.212             8.128              Murmansk2           254.000
       373   05 Jun 2027 07:43:28.074   05 Jun 2027 07:44:14.542            46.468            RioGallegos          1452.125
       374   05 Jun 2027 08:24:10.389   05 Jun 2027 08:25:25.421            75.032                Sumatra          2344.750
       375   05 Jun 2027 08:34:33.682   05 Jun 2027 08:35:10.852            37.170                Irkutsk          1161.562
       376   05 Jun 2027 08:35:52.454   05 Jun 2027 08:36:34.942            42.488                Irkutsk          1327.750
       377   05 Jun 2027 08:38:06.148   05 Jun 2027 08:38:14.426             8.278                Novosib           258.688
       378   05 Jun 2027 08:38:27.595   05 Jun 2027 08:38:34.824             7.229                Irkutsk           225.906
       379   05 Jun 2027 08:38:58.391   05 Jun 2027 08:39:06.194             7.803                Irkutsk           243.844
       380   05 Jun 2027 09:17:06.255   05 Jun 2027 09:17:15.865             9.610            RioGallegos           300.312
       381   05 Jun 2027 09:17:49.683   05 Jun 2027 09:18:28.391            38.708            RioGallegos          1209.625
       382   05 Jun 2027 09:20:32.940   05 Jun 2027 09:20:58.170            25.230            RioGallegos           788.437
       383   05 Jun 2027 09:51:42.646   05 Jun 2027 09:52:25.376            42.730                Sumatra          1335.312
       384   05 Jun 2027 09:53:15.844   05 Jun 2027 09:55:05.762           109.918                Sumatra          3434.937
       385   05 Jun 2027 10:11:04.970   05 Jun 2027 10:11:45.297            40.327                Norilsk          1260.219
       386   05 Jun 2027 10:12:01.244   05 Jun 2027 10:12:20.489            19.245                Novosib           601.406
       387   05 Jun 2027 10:12:37.126   05 Jun 2027 10:13:40.819            63.693                Novosib          1990.406
       388   05 Jun 2027 10:13:46.937   05 Jun 2027 10:13:51.588             4.651                Norilsk           145.344
       389   05 Jun 2027 10:13:57.113   05 Jun 2027 10:14:27.480            30.367                Norilsk           948.969
       390   05 Jun 2027 10:14:50.307   05 Jun 2027 10:15:10.369            20.062                Norilsk           626.938
       391   05 Jun 2027 11:38:22.188   05 Jun 2027 11:40:21.604           119.416                  Delhi          3731.750
       392   05 Jun 2027 11:53:48.444   05 Jun 2027 11:54:02.525            14.081                Norilsk           440.031
       393   05 Jun 2027 12:56:43.366   05 Jun 2027 12:58:17.052            93.686               CapeTown          2927.688
       394   05 Jun 2027 13:18:21.718   05 Jun 2027 13:18:57.514            35.796                 Moscow          1118.625
       395   05 Jun 2027 13:21:40.643   05 Jun 2027 13:23:46.501           125.858              Murmansk2          3933.063
       396   05 Jun 2027 13:24:13.206   05 Jun 2027 13:24:31.656            18.450              Murmansk1           576.562
       397   05 Jun 2027 13:25:29.206   05 Jun 2027 13:25:43.250            14.044              Murmansk1           438.875
       398   05 Jun 2027 13:25:55.430   05 Jun 2027 13:26:32.496            37.066              Murmansk1          1158.313
       399   05 Jun 2027 13:29:13.530   05 Jun 2027 13:29:37.742            24.212              Murmansk2           756.625
       400   05 Jun 2027 13:31:23.932   05 Jun 2027 13:31:49.906            25.974              Murmansk1           811.688
       401   05 Jun 2027 13:32:38.935   05 Jun 2027 13:33:21.756            42.821              Murmansk1          1338.156
       402   05 Jun 2027 13:36:09.739   05 Jun 2027 13:40:16.711           246.972                Anadyr2          7717.875
       403   05 Jun 2027 15:00:36.765   05 Jun 2027 15:00:46.245             9.480              Murmansk1           296.250
       404   05 Jun 2027 15:01:40.555   05 Jun 2027 15:02:17.032            36.477              Murmansk1          1139.906
       405   05 Jun 2027 15:03:27.029   05 Jun 2027 15:03:53.105            26.076              Murmansk1           814.875
       406   05 Jun 2027 15:03:59.158   05 Jun 2027 15:05:11.762            72.604              Murmansk2          2268.875
       407   05 Jun 2027 15:11:33.035   05 Jun 2027 15:12:36.734            63.699                Anadyr2          1990.594
       408   05 Jun 2027 15:13:10.052   05 Jun 2027 15:13:15.714             5.662                Anadyr2           176.938
       409   05 Jun 2027 15:13:42.473   05 Jun 2027 15:13:57.934            15.461                Anadyr1           483.156
       410   05 Jun 2027 15:14:48.129   05 Jun 2027 15:15:41.899            53.770                Anadyr1          1680.312
       411   05 Jun 2027 15:16:38.515   05 Jun 2027 15:18:58.920           140.405               Magadan2          4387.656
       412   05 Jun 2027 15:18:58.920   05 Jun 2027 15:21:25.752           146.832               Magadan1          4588.500
       413   05 Jun 2027 16:47:47.805   05 Jun 2027 16:48:09.175            21.370                Anadyr1           667.813
       414   05 Jun 2027 16:48:32.129   05 Jun 2027 16:48:56.808            24.679                Anadyr2           771.219
       415   05 Jun 2027 16:48:56.808   05 Jun 2027 16:48:58.024             1.216                Anadyr1            38.000
       416   05 Jun 2027 16:49:51.870   05 Jun 2027 16:51:53.393           121.523               Magadan2          3797.594
       417   05 Jun 2027 16:51:53.393   05 Jun 2027 16:52:06.541            13.148               Magadan1           410.875
       418   05 Jun 2027 16:52:41.382   05 Jun 2027 16:52:51.086             9.704               Magadan1           303.250
       419   05 Jun 2027 16:55:47.962   05 Jun 2027 16:56:14.200            26.238               Magadan2           819.937
       420   05 Jun 2027 16:57:34.869   05 Jun 2027 16:57:57.548            22.679               Magadan1           708.719
       421   05 Jun 2027 17:01:30.464   05 Jun 2027 17:01:33.126             2.662               Magadan1            83.188
       422   05 Jun 2027 18:23:18.911   05 Jun 2027 18:26:44.400           205.489                Anadyr2          6421.531
       423   05 Jun 2027 18:26:57.193   05 Jun 2027 18:28:28.094            90.901               Magadan2          2840.656
       424   05 Jun 2027 18:28:33.178   05 Jun 2027 18:29:35.338            62.160                Norilsk          1942.500
       425   05 Jun 2027 18:30:58.307   05 Jun 2027 18:31:33.265            34.958                Norilsk          1092.437
       426   05 Jun 2027 18:31:45.092   05 Jun 2027 18:34:20.917           155.825                Irkutsk          4869.531
       427   05 Jun 2027 19:17:33.061   05 Jun 2027 19:18:01.614            28.553            RioGallegos           892.281
       428   05 Jun 2027 19:19:11.837   05 Jun 2027 19:20:27.476            75.639            RioGallegos          2363.719
       429   05 Jun 2027 20:01:42.448   05 Jun 2027 20:03:11.361            88.913               Magadan1          2778.531
       430   05 Jun 2027 20:05:13.927   05 Jun 2027 20:07:08.290           114.363                Irkutsk          3573.844
       431   05 Jun 2027 20:07:56.308   05 Jun 2027 20:11:22.374           206.066                Novosib          6439.563
       432   05 Jun 2027 20:12:50.457   05 Jun 2027 20:13:27.668            37.211                Novosib          1162.844
       433   05 Jun 2027 20:18:54.520   05 Jun 2027 20:19:50.045            55.525                Sumatra          1735.156
       434   05 Jun 2027 20:21:05.640   05 Jun 2027 20:21:12.829             7.189                Sumatra           224.656
       435   05 Jun 2027 20:28:57.762   05 Jun 2027 20:29:24.420            26.658                Sumatra           833.063
       436   05 Jun 2027 21:37:45.811   05 Jun 2027 21:38:04.446            18.635               Magadan2           582.344
       437   05 Jun 2027 21:38:45.682   05 Jun 2027 21:39:14.536            28.854               Magadan2           901.688
       438   05 Jun 2027 21:41:03.417   05 Jun 2027 21:41:11.157             7.740                Irkutsk           241.875
       439   05 Jun 2027 21:41:16.600   05 Jun 2027 21:43:07.033           110.433                Novosib          3451.031
       440   05 Jun 2027 21:45:55.277   05 Jun 2027 21:46:17.746            22.469                Novosib           702.156
       441   05 Jun 2027 21:48:34.962   05 Jun 2027 21:51:07.252           152.290                  Delhi          4759.063
       442   05 Jun 2027 21:57:01.116   05 Jun 2027 21:58:02.823            61.707                  Delhi          1928.344
       443   05 Jun 2027 23:12:51.341   05 Jun 2027 23:13:25.977            34.636               Magadan1          1082.375
       444   05 Jun 2027 23:14:12.522   05 Jun 2027 23:14:38.695            26.173                Norilsk           817.906
       445   05 Jun 2027 23:15:12.442   05 Jun 2027 23:15:48.217            35.775               Magadan1          1117.969
       446   05 Jun 2027 23:16:08.506   05 Jun 2027 23:17:24.121            75.615              Murmansk2          2362.969
       447   05 Jun 2027 23:18:12.625   05 Jun 2027 23:20:37.496           144.871              Murmansk1          4527.219
       448   05 Jun 2027 23:21:09.143   05 Jun 2027 23:24:15.005           185.862                 Moscow          5808.187
       449   05 Jun 2027 23:48:10.279   05 Jun 2027 23:48:58.043            47.764               CapeTown          1492.625
       450   05 Jun 2027 23:50:24.552   05 Jun 2027 23:50:42.918            18.366               CapeTown           573.938
       451   06 Jun 2027 00:44:53.382   06 Jun 2027 00:45:21.358            27.976               Magadan1           874.250
       452   06 Jun 2027 00:45:21.358   06 Jun 2027 00:46:07.684            46.326               Magadan2          1447.687
       453   06 Jun 2027 00:48:37.775   06 Jun 2027 00:48:59.082            21.307               Magadan2           665.844
       454   06 Jun 2027 00:51:16.144   06 Jun 2027 00:51:34.754            18.610              Murmansk1           581.563
       455   06 Jun 2027 00:51:34.754   06 Jun 2027 00:52:48.207            73.453              Murmansk2          2295.406
       456   06 Jun 2027 00:53:26.800   06 Jun 2027 00:54:34.584            67.784                Novosib          2118.250
       457   06 Jun 2027 00:57:40.710   06 Jun 2027 00:58:11.527            30.817                 Moscow           963.031
       458   06 Jun 2027 01:02:27.879   06 Jun 2027 01:02:38.397            10.518                 Moscow           328.688
       459   06 Jun 2027 01:18:34.999   06 Jun 2027 01:20:13.788            98.789               CapeTown          3087.156
       460   06 Jun 2027 01:23:52.162   06 Jun 2027 01:24:38.639            46.477               CapeTown          1452.406
       461   06 Jun 2027 02:15:07.037   06 Jun 2027 02:15:20.842            13.805                Anadyr1           431.406
       462   06 Jun 2027 02:15:20.842   06 Jun 2027 02:16:06.046            45.204                Anadyr2          1412.625
       463   06 Jun 2027 02:16:59.140   06 Jun 2027 02:17:58.562            59.422               Magadan2          1856.937
       464   06 Jun 2027 02:19:24.404   06 Jun 2027 02:20:10.417            46.013               Magadan2          1437.906
       465   06 Jun 2027 02:26:06.054   06 Jun 2027 02:26:14.743             8.689                Norilsk           271.531
       466   06 Jun 2027 02:26:17.160   06 Jun 2027 02:26:42.081            24.921                Norilsk           778.781
       467   06 Jun 2027 02:27:14.159   06 Jun 2027 02:27:25.126            10.967              Murmansk2           342.719
       468   06 Jun 2027 02:27:25.126   06 Jun 2027 02:27:35.319            10.193              Murmansk1           318.531
       469   06 Jun 2027 02:28:29.678   06 Jun 2027 02:28:55.401            25.723              Murmansk1           803.844
       470   06 Jun 2027 02:29:00.481   06 Jun 2027 02:29:06.042             5.561              Murmansk2           173.781
       471   06 Jun 2027 02:29:40.724   06 Jun 2027 02:30:23.550            42.826              Murmansk2          1338.313
       472   06 Jun 2027 02:30:31.363   06 Jun 2027 02:31:13.364            42.001                 Moscow          1312.531
       473   06 Jun 2027 02:37:24.147   06 Jun 2027 02:39:03.397            99.250                 Moscow          3101.563
       474   06 Jun 2027 03:04:44.886   06 Jun 2027 03:05:34.577            49.691               CapeTown          1552.844
       475   06 Jun 2027 03:55:46.420   06 Jun 2027 03:56:41.008            54.588               Magadan2          1705.875
       476   06 Jun 2027 03:57:14.992   06 Jun 2027 03:58:54.668            99.676               Magadan1          3114.875
       477   06 Jun 2027 03:59:12.433   06 Jun 2027 04:03:39.945           267.512               Magadan1          8359.750
       478   06 Jun 2027 04:43:08.286   06 Jun 2027 04:45:13.179           124.893            RioGallegos          3902.906
       479   06 Jun 2027 04:46:33.169   06 Jun 2027 04:48:00.265            87.096            RioGallegos          2721.750
       480   06 Jun 2027 05:33:06.882   06 Jun 2027 05:33:17.378            10.496                Irkutsk           328.000
       481   06 Jun 2027 05:33:21.166   06 Jun 2027 05:33:29.938             8.772               Magadan2           274.125
       482   06 Jun 2027 05:33:37.134   06 Jun 2027 05:37:40.296           243.162                Irkutsk          7598.813
