uniorb/output/strategy_4/Drop/Drop_KinoSat_110402.txt

KinoSat_110402
-------------------------
    Access    *     Start Time (UTCG)     *     Stop Time (UTCG)  *   Duration (s)        *       Station  *  Data (Mbytes)
         1   01 Jun 2027 04:22:37.746   01 Jun 2027 04:23:08.229            30.483               Magadan1          3810.375
         2   01 Jun 2027 04:23:19.896   01 Jun 2027 04:24:28.411            68.515               Magadan2          8564.375
         3   01 Jun 2027 04:24:32.409   01 Jun 2027 04:25:19.003            46.594                Irkutsk          5824.250
         4   01 Jun 2027 04:25:20.262   01 Jun 2027 04:26:20.805            60.543                Irkutsk          7567.875
         5   01 Jun 2027 04:27:21.644   01 Jun 2027 04:27:23.924             2.280               Magadan1           285.000
         6   01 Jun 2027 04:27:39.347   01 Jun 2027 04:28:26.191            46.844                Norilsk          5855.500
         7   01 Jun 2027 04:28:26.553   01 Jun 2027 04:28:57.715            31.162              Murmansk2          3895.250
         8   01 Jun 2027 04:29:11.031   01 Jun 2027 04:30:00.963            49.932              Murmansk2          6241.500
         9   01 Jun 2027 05:02:34.135   01 Jun 2027 05:03:43.500            69.365            RioGallegos          8670.625
        10   01 Jun 2027 05:06:17.719   01 Jun 2027 05:06:39.366            21.647            RioGallegos          2705.875
        11   01 Jun 2027 05:37:53.696   01 Jun 2027 05:39:43.094           109.398                Sumatra         13674.750
        12   01 Jun 2027 06:00:02.960   01 Jun 2027 06:02:38.798           155.838                Irkutsk         19479.750
        13   01 Jun 2027 06:03:24.584   01 Jun 2027 06:04:12.839            48.255              Murmansk1          6031.875
        14   01 Jun 2027 06:40:51.729   01 Jun 2027 06:41:03.804            12.075            RioGallegos          1509.375
        15   01 Jun 2027 07:14:48.586   01 Jun 2027 07:15:07.921            19.335                Sumatra          2416.875
        16   01 Jun 2027 07:16:12.878   01 Jun 2027 07:17:12.572            59.694                Sumatra          7461.750
        17   01 Jun 2027 07:21:44.584   01 Jun 2027 07:22:36.256            51.672                  Delhi          6459.000
        18   01 Jun 2027 07:24:17.068   01 Jun 2027 07:24:49.317            32.249                  Delhi          4031.125
        19   01 Jun 2027 07:38:35.326   01 Jun 2027 07:38:46.299            10.973                Novosib          1371.625
        20   01 Jun 2027 07:39:02.878   01 Jun 2027 07:40:37.021            94.143              Murmansk2         11767.875
        21   01 Jun 2027 07:45:49.858   01 Jun 2027 07:45:55.827             5.969              Murmansk2           746.125
        22   01 Jun 2027 09:00:15.108   01 Jun 2027 09:01:26.657            71.549                  Delhi          8943.625
        23   01 Jun 2027 09:06:44.069   01 Jun 2027 09:06:50.678             6.609                  Delhi           826.125
        24   01 Jun 2027 09:13:35.991   01 Jun 2027 09:15:31.097           115.106                Novosib         14388.250
        25   01 Jun 2027 09:16:15.747   01 Jun 2027 09:20:42.290           266.543                Norilsk         33317.875
        26   01 Jun 2027 09:21:27.157   01 Jun 2027 09:22:27.787            60.630              Murmansk2          7578.750
        27   01 Jun 2027 10:22:46.090   01 Jun 2027 10:25:02.212           136.122               CapeTown         17015.250
        28   01 Jun 2027 10:26:07.689   01 Jun 2027 10:27:21.994            74.305               CapeTown          9288.125
        29   01 Jun 2027 10:42:31.486   01 Jun 2027 10:43:48.629            77.143                 Moscow          9642.875
        30   01 Jun 2027 11:01:06.190   01 Jun 2027 11:05:10.392           244.202                Anadyr2         30525.250
        31   01 Jun 2027 11:07:37.805   01 Jun 2027 11:08:12.801            34.996                Anadyr2          4374.500
        32   01 Jun 2027 12:39:34.434   01 Jun 2027 12:40:46.873            72.439                Anadyr1          9054.875
        33   01 Jun 2027 12:41:38.277   01 Jun 2027 12:43:42.701           124.424               Magadan1         15553.000
        34   01 Jun 2027 14:14:35.952   01 Jun 2027 14:16:27.530           111.578               Magadan1         13947.250
        35   01 Jun 2027 14:17:24.414   01 Jun 2027 14:18:59.264            94.850               Magadan2         11856.250
        36   01 Jun 2027 14:19:55.689   01 Jun 2027 14:19:59.371             3.682               Magadan2           460.250
        37   01 Jun 2027 14:23:14.130   01 Jun 2027 14:23:42.874            28.744               Magadan1          3593.000
        38   01 Jun 2027 16:42:27.686   01 Jun 2027 16:48:23.928           356.242            RioGallegos         44530.250
        39   01 Jun 2027 17:31:54.003   01 Jun 2027 17:34:22.037           148.034                Irkutsk         18504.250
        40   01 Jun 2027 17:34:46.885   01 Jun 2027 17:37:02.331           135.446                Novosib         16930.750
        41   01 Jun 2027 17:45:30.791   01 Jun 2027 17:49:30.064           239.273                Sumatra         27003.250
        42   02 Jun 2027 04:38:24.308   02 Jun 2027 04:39:11.655            47.347               Magadan1          5918.375
        43   02 Jun 2027 04:39:25.934   02 Jun 2027 04:39:54.417            28.483                Irkutsk          3560.375
        44   02 Jun 2027 04:39:54.889   02 Jun 2027 04:41:05.694            70.805                Novosib          8850.625
        45   02 Jun 2027 04:41:17.903   02 Jun 2027 04:44:20.822           182.919              Murmansk2         22864.875
        46   02 Jun 2027 04:44:45.031   02 Jun 2027 04:44:59.306            14.275                Norilsk          1784.375
        47   02 Jun 2027 04:45:45.269   02 Jun 2027 04:46:16.309            31.040              Murmansk1          3880.000
        48   02 Jun 2027 05:14:37.276   02 Jun 2027 05:15:53.141            75.865            RioGallegos          9483.125
        49   02 Jun 2027 05:49:40.825   02 Jun 2027 05:50:26.457            45.632                Sumatra          5704.000
        50   02 Jun 2027 05:51:16.276   02 Jun 2027 05:52:31.551            75.275                Sumatra          9409.375
        51   02 Jun 2027 06:01:15.173   02 Jun 2027 06:02:39.653            84.480                  Delhi         10560.000
        52   02 Jun 2027 06:15:15.616   02 Jun 2027 06:17:12.738           117.122                 Moscow         14640.250
        53   02 Jun 2027 06:17:16.920   02 Jun 2027 06:20:30.473           193.553              Murmansk2         24194.125
        54   02 Jun 2027 06:20:30.473   02 Jun 2027 06:21:57.069            86.596              Murmansk1         10824.500
        55   02 Jun 2027 06:53:17.340   02 Jun 2027 06:56:50.846           213.506            RioGallegos         26688.250
        56   02 Jun 2027 07:01:31.320   02 Jun 2027 07:01:56.173            24.853            RioGallegos          3106.625
        57   02 Jun 2027 07:27:39.468   02 Jun 2027 07:31:04.346           204.878                Sumatra         25609.750
        58   02 Jun 2027 07:33:42.098   02 Jun 2027 07:35:44.156           122.058                  Delhi         15257.250
        59   02 Jun 2027 07:41:04.023   02 Jun 2027 07:44:16.694           192.671                Novosib         24083.875
        60   02 Jun 2027 07:45:09.401   02 Jun 2027 07:46:11.744            62.343                Irkutsk          7792.875
        61   02 Jun 2027 07:51:37.821   02 Jun 2027 07:53:12.129            94.308                Novosib         11788.500
        62   02 Jun 2027 07:53:27.706   02 Jun 2027 07:56:34.742           187.036                Norilsk         23379.500
        63   02 Jun 2027 07:58:21.342   02 Jun 2027 07:58:39.096            17.754              Murmansk2          2219.250
        64   02 Jun 2027 09:13:36.552   02 Jun 2027 09:16:02.376           145.824                  Delhi         18228.000
        65   02 Jun 2027 09:26:53.503   02 Jun 2027 09:27:16.472            22.969                 Moscow          2871.125
        66   02 Jun 2027 09:28:44.935   02 Jun 2027 09:34:29.101           344.166              Murmansk1         43020.750
        67   02 Jun 2027 10:33:46.439   02 Jun 2027 10:41:44.295           477.856               CapeTown         59732.000
        68   02 Jun 2027 10:54:49.022   02 Jun 2027 11:04:40.384           591.362                 Moscow         73920.250
        69   02 Jun 2027 11:05:08.775   02 Jun 2027 11:10:27.141           318.366              Murmansk1         39795.750
        70   02 Jun 2027 11:12:54.331   02 Jun 2027 11:17:06.678           252.347                Anadyr2         31543.375
        71   02 Jun 2027 11:17:39.982   02 Jun 2027 11:19:50.262           130.280                Anadyr1         16285.000
        72   02 Jun 2027 12:07:32.223   02 Jun 2027 12:08:25.581            53.358               CapeTown          6669.750
        73   02 Jun 2027 12:09:45.736   02 Jun 2027 12:10:45.989            60.253               CapeTown          7531.625
        74   02 Jun 2027 12:48:47.062   02 Jun 2027 12:50:34.637           107.575                Anadyr2         13446.875
        75   02 Jun 2027 12:52:29.038   02 Jun 2027 12:57:30.190           301.152               Magadan2         37644.000
        76   02 Jun 2027 16:09:09.272   02 Jun 2027 16:10:46.339            97.067                Irkutsk         12133.375
        77   02 Jun 2027 16:11:25.595   02 Jun 2027 16:12:21.486            55.891                Irkutsk          6986.375
        78   02 Jun 2027 16:54:17.132   02 Jun 2027 16:55:34.555            77.423            RioGallegos          9677.875
        79   02 Jun 2027 16:56:52.304   02 Jun 2027 16:58:05.997            73.693            RioGallegos          9211.625
        80   02 Jun 2027 17:41:55.501   02 Jun 2027 17:43:57.872           122.371                Irkutsk         15296.375
        81   02 Jun 2027 17:46:21.224   02 Jun 2027 17:46:56.138            34.914                Novosib          4364.250
        82   02 Jun 2027 17:47:25.687   02 Jun 2027 17:49:33.063           127.376                Novosib         15922.000
        83   02 Jun 2027 19:25:20.637   02 Jun 2027 19:29:34.879           254.242                  Delhi         31780.250
        84   02 Jun 2027 20:52:44.629   02 Jun 2027 20:53:42.273            57.644              Murmansk1          7205.500
        85   02 Jun 2027 20:56:35.574   02 Jun 2027 20:59:52.150           196.576                 Moscow         24572.000
        86   03 Jun 2027 03:14:32.447   03 Jun 2027 03:15:11.599            39.152               Magadan1          4894.000
        87   03 Jun 2027 03:15:37.636   03 Jun 2027 03:15:49.332            11.696                Novosib          1462.000
        88   03 Jun 2027 03:15:55.593   03 Jun 2027 03:16:08.113            12.520               Magadan1          1565.000
        89   03 Jun 2027 03:16:12.992   03 Jun 2027 03:19:07.351           174.359              Murmansk2         21794.875
        90   03 Jun 2027 04:52:01.097   03 Jun 2027 04:56:59.616           298.519                Norilsk         37314.875
        91   03 Jun 2027 04:57:08.797   03 Jun 2027 05:00:19.149           190.352              Murmansk1         23794.000
        92   03 Jun 2027 05:26:43.856   03 Jun 2027 05:30:28.414           224.558            RioGallegos         28069.750
        93   03 Jun 2027 05:31:04.483   03 Jun 2027 05:31:28.798            24.315            RioGallegos          3039.375
        94   03 Jun 2027 05:31:41.336   03 Jun 2027 05:32:13.229            31.893            RioGallegos          3986.625
        95   03 Jun 2027 05:33:35.769   03 Jun 2027 05:34:58.727            82.958            RioGallegos         10369.750
        96   03 Jun 2027 06:01:33.950   03 Jun 2027 06:03:09.582            95.632                Sumatra         11954.000
        97   03 Jun 2027 06:04:39.744   03 Jun 2027 06:04:55.691            15.947                Sumatra          1993.375
        98   03 Jun 2027 06:08:55.720   03 Jun 2027 06:11:07.052           131.332                Sumatra         16416.500
        99   03 Jun 2027 06:12:19.774   03 Jun 2027 06:14:57.105           157.331                  Delhi         19666.375
       100   03 Jun 2027 06:15:33.234   03 Jun 2027 06:18:05.519           152.285                Irkutsk         19035.625
       101   03 Jun 2027 06:18:12.084   03 Jun 2027 06:20:11.154           119.070                Irkutsk         14883.750
       102   03 Jun 2027 06:20:22.796   03 Jun 2027 06:21:14.999            52.203                Norilsk          6525.375
       103   03 Jun 2027 06:27:59.237   03 Jun 2027 06:29:41.144           101.907                 Moscow         12738.375
       104   03 Jun 2027 06:29:41.308   03 Jun 2027 06:35:08.914           327.606              Murmansk2         40950.750
       105   03 Jun 2027 07:06:08.794   03 Jun 2027 07:09:20.757           191.963            RioGallegos         23995.375
       106   03 Jun 2027 07:41:05.181   03 Jun 2027 07:44:36.342           211.161                Sumatra         26395.125
       107   03 Jun 2027 07:53:22.345   03 Jun 2027 07:53:57.697            35.352                Novosib          4419.000
       108   03 Jun 2027 07:55:36.846   03 Jun 2027 07:58:10.656           153.810                Novosib         19226.250
       109   03 Jun 2027 07:58:16.559   03 Jun 2027 07:58:33.963            17.404              Murmansk1          2175.500
       110   03 Jun 2027 07:58:37.431   03 Jun 2027 07:59:39.360            61.929                Novosib          7741.125
       111   03 Jun 2027 08:03:25.502   03 Jun 2027 08:04:22.080            56.578                Norilsk          7072.250
       112   03 Jun 2027 08:04:23.591   03 Jun 2027 08:05:07.867            44.276                Novosib          5534.500
       113   03 Jun 2027 08:05:11.459   03 Jun 2027 08:07:32.511           141.052              Murmansk1         17631.500
       114   03 Jun 2027 08:07:32.511   03 Jun 2027 08:08:32.650            60.139              Murmansk2          7517.375
       115   03 Jun 2027 08:08:35.707   03 Jun 2027 08:08:54.667            18.960                Norilsk          2370.000
       116   03 Jun 2027 08:10:22.632   03 Jun 2027 08:10:38.726            16.094              Murmansk1          2011.750
       117   03 Jun 2027 09:30:10.218   03 Jun 2027 09:30:35.227            25.009                 Moscow          3126.125
       118   03 Jun 2027 09:32:01.621   03 Jun 2027 09:32:22.799            21.178                 Moscow          2647.250
       119   03 Jun 2027 09:40:16.278   03 Jun 2027 09:44:37.391           261.113                Norilsk         32639.125
       120   03 Jun 2027 09:45:07.504   03 Jun 2027 09:46:30.549            83.045              Murmansk2         10380.625
       121   03 Jun 2027 10:45:08.160   03 Jun 2027 10:54:20.413           552.253               CapeTown         69031.625
       122   03 Jun 2027 11:07:10.501   03 Jun 2027 11:17:05.307           594.806                 Moscow         74350.750
       123   03 Jun 2027 11:17:07.853   03 Jun 2027 11:22:28.545           320.692              Murmansk1         40086.500
       124   03 Jun 2027 11:24:45.815   03 Jun 2027 11:33:39.265           533.450                Anadyr2         66681.250
       125   03 Jun 2027 12:19:34.481   03 Jun 2027 12:25:59.693           385.212               CapeTown         48151.500
       126   03 Jun 2027 12:27:10.142   03 Jun 2027 12:27:45.247            35.105               CapeTown          4388.125
       127   03 Jun 2027 12:31:04.386   03 Jun 2027 12:32:13.973            69.587               CapeTown          8698.375
       128   03 Jun 2027 12:49:30.863   03 Jun 2027 12:50:34.109            63.246              Murmansk1          7905.750
       129   03 Jun 2027 13:03:56.570   03 Jun 2027 13:07:07.904           191.334               Magadan1         23916.750
       130   03 Jun 2027 13:10:09.332   03 Jun 2027 13:10:37.953            28.621               Magadan2          3577.625
       131   03 Jun 2027 14:38:41.906   03 Jun 2027 14:40:53.591           131.685               Magadan2         16460.625
       132   03 Jun 2027 16:20:02.876   03 Jun 2027 16:25:40.914           338.038                Irkutsk         42254.750
       133   03 Jun 2027 16:37:11.713   03 Jun 2027 16:37:25.709            13.996                Sumatra          1749.500
       134   03 Jun 2027 16:38:16.837   03 Jun 2027 16:39:10.812            53.975                Sumatra          6746.875
       135   03 Jun 2027 17:55:00.257   03 Jun 2027 17:58:21.516           201.259                Novosib         25157.375
       136   03 Jun 2027 19:39:53.494   03 Jun 2027 19:40:52.816            59.322                  Delhi          7415.250
       137   03 Jun 2027 21:04:04.987   03 Jun 2027 21:05:23.341            78.354              Murmansk2          9794.250
       138   03 Jun 2027 21:08:16.244   03 Jun 2027 21:09:55.328            99.084                 Moscow         12385.500
       139   03 Jun 2027 21:13:16.225   03 Jun 2027 21:13:23.609             7.384              Murmansk1           923.000
       140   03 Jun 2027 21:13:51.128   03 Jun 2027 21:15:11.860            80.732                 Moscow         10091.500
       141   03 Jun 2027 21:38:58.716   03 Jun 2027 21:40:44.817           106.101               CapeTown         13262.625
       142   04 Jun 2027 03:26:44.668   04 Jun 2027 03:27:05.538            20.870                Norilsk          2608.750
       143   04 Jun 2027 03:27:49.221   04 Jun 2027 03:37:55.786           606.565              Murmansk2         75820.625
       144   04 Jun 2027 04:03:21.526   04 Jun 2027 04:04:40.045            78.519            RioGallegos          9814.875
       145   04 Jun 2027 04:41:52.010   04 Jun 2027 04:42:34.957            42.947                Sumatra          5368.375
       146   04 Jun 2027 05:04:02.310   04 Jun 2027 05:09:00.195           297.885                Norilsk         37235.625
       147   04 Jun 2027 05:09:10.912   04 Jun 2027 05:12:09.626           178.714              Murmansk1         22339.250
       148   04 Jun 2027 05:38:54.053   04 Jun 2027 05:43:42.316           288.263            RioGallegos         36032.875
       149   04 Jun 2027 05:46:33.916   04 Jun 2027 05:46:59.898            25.982            RioGallegos          3247.750
       150   04 Jun 2027 05:48:23.780   04 Jun 2027 05:48:39.481            15.701            RioGallegos          1962.625
       151   04 Jun 2027 06:13:32.714   04 Jun 2027 06:16:16.100           163.386                Sumatra         20423.250
       152   04 Jun 2027 06:23:37.445   04 Jun 2027 06:26:40.925           183.480                  Delhi         22935.000
       153   04 Jun 2027 06:27:51.472   04 Jun 2027 06:29:46.766           115.294                Irkutsk         14411.750
       154   04 Jun 2027 06:30:08.025   04 Jun 2027 06:32:19.327           131.302                Irkutsk         16412.750
       155   04 Jun 2027 06:32:40.127   04 Jun 2027 06:33:09.456            29.329                Norilsk          3666.125
       156   04 Jun 2027 06:40:03.706   04 Jun 2027 06:44:56.872           293.166                Norilsk         36645.750
       157   04 Jun 2027 06:45:08.900   04 Jun 2027 06:47:05.114           116.214              Murmansk2         14526.750
       158   04 Jun 2027 07:19:16.078   04 Jun 2027 07:21:57.155           161.077            RioGallegos         20134.625
       159   04 Jun 2027 07:57:53.267   04 Jun 2027 08:03:53.455           360.188                  Delhi         45023.500
       160   04 Jun 2027 08:05:44.687   04 Jun 2027 08:10:48.031           303.344                Novosib         37918.000
       161   04 Jun 2027 08:10:49.236   04 Jun 2027 08:11:09.231            19.995              Murmansk1          2499.375
       162   04 Jun 2027 08:15:36.115   04 Jun 2027 08:20:53.865           317.750              Murmansk1         39718.750
       163   04 Jun 2027 08:20:54.100   04 Jun 2027 08:20:55.981             1.881                Norilsk           235.125
       164   04 Jun 2027 08:22:24.063   04 Jun 2027 08:22:38.693            14.630              Murmansk2          1828.750
       165   04 Jun 2027 09:42:08.749   04 Jun 2027 09:42:55.024            46.275                 Moscow          5784.375
       166   04 Jun 2027 09:51:35.240   04 Jun 2027 09:56:32.578           297.338                Norilsk         37167.250
       167   04 Jun 2027 09:56:56.585   04 Jun 2027 09:58:32.086            95.501              Murmansk1         11937.625
       168   04 Jun 2027 10:56:41.107   04 Jun 2027 11:07:15.154           634.047               CapeTown         79255.875
       169   04 Jun 2027 11:19:36.350   04 Jun 2027 11:29:35.064           598.714                 Moscow         74839.250
       170   04 Jun 2027 11:29:57.823   04 Jun 2027 11:34:29.778           271.955              Murmansk1         33994.375
       171   04 Jun 2027 11:36:39.598   04 Jun 2027 11:46:10.404           570.806                Anadyr1         71350.750
       172   04 Jun 2027 12:31:39.479   04 Jun 2027 12:32:38.904            59.425               CapeTown          7428.125
       173   04 Jun 2027 12:33:40.494   04 Jun 2027 12:34:37.704            57.210               CapeTown          7151.250
       174   04 Jun 2027 13:02:08.250   04 Jun 2027 13:04:41.767           153.517              Murmansk1         19189.625
       175   04 Jun 2027 13:15:35.528   04 Jun 2027 13:19:07.991           212.463               Magadan2         26557.875
       176   04 Jun 2027 15:45:42.417   04 Jun 2027 15:47:36.619           114.202            RioGallegos         14275.250
       177   04 Jun 2027 16:31:27.117   04 Jun 2027 16:36:03.881           276.764                Irkutsk         34595.500
       178   04 Jun 2027 16:37:45.723   04 Jun 2027 16:39:05.560            79.837                Irkutsk          9979.625
       179   04 Jun 2027 16:47:03.650   04 Jun 2027 16:48:59.048           115.398                Sumatra         14424.750
       180   04 Jun 2027 16:50:55.919   04 Jun 2027 16:53:01.237           125.318                Sumatra         15664.750
       181   04 Jun 2027 18:12:25.621   04 Jun 2027 18:12:56.677            31.056                Novosib          3882.000
       182   04 Jun 2027 21:16:04.369   04 Jun 2027 21:18:26.854           142.485              Murmansk1         17810.625
       183   04 Jun 2027 21:20:02.057   04 Jun 2027 21:22:07.753           125.696                 Moscow         15712.000
       184   04 Jun 2027 21:23:54.415   04 Jun 2027 21:26:14.843           140.428                 Moscow         17553.500
       185   04 Jun 2027 21:46:49.002   04 Jun 2027 21:47:54.706            65.704               CapeTown          8213.000
       186   04 Jun 2027 21:50:56.052   04 Jun 2027 21:52:36.639           100.587               CapeTown         12573.375
       187   05 Jun 2027 03:38:52.033   05 Jun 2027 03:39:37.436            45.403                Irkutsk          5675.375
       188   05 Jun 2027 03:40:03.752   05 Jun 2027 03:44:54.798           291.046              Murmansk1         36380.750
       189   05 Jun 2027 04:52:27.175   05 Jun 2027 04:54:48.775           141.600                Sumatra         17700.000
       190   05 Jun 2027 05:16:02.156   05 Jun 2027 05:17:23.125            80.969                Novosib         10121.125
       191   05 Jun 2027 05:17:23.770   05 Jun 2027 05:24:00.824           397.054              Murmansk2         49631.750
       192   05 Jun 2027 05:51:08.094   05 Jun 2027 05:53:47.860           159.766            RioGallegos         19970.750
       193   05 Jun 2027 05:54:35.615   05 Jun 2027 05:54:39.087             3.472            RioGallegos           434.000
       194   05 Jun 2027 05:55:22.496   05 Jun 2027 05:55:46.664            24.168            RioGallegos          3021.000
       195   05 Jun 2027 06:25:37.075   05 Jun 2027 06:27:25.781           108.706                Sumatra         13588.250
       196   05 Jun 2027 06:28:14.099   05 Jun 2027 06:30:45.173           151.074                Sumatra         18884.250
       197   05 Jun 2027 06:39:55.350   05 Jun 2027 06:41:38.389           103.039                  Delhi         12879.875
       198   05 Jun 2027 06:42:02.320   05 Jun 2027 06:44:31.087           148.767                Irkutsk         18595.875
       199   05 Jun 2027 06:44:47.567   05 Jun 2027 06:45:33.133            45.566                Novosib          5695.750
       200   05 Jun 2027 06:51:50.884   05 Jun 2027 06:56:29.039           278.155              Murmansk2         34769.375
       201   05 Jun 2027 06:56:29.039   05 Jun 2027 06:59:01.924           152.885              Murmansk1         19110.625
       202   05 Jun 2027 07:33:03.261   05 Jun 2027 07:35:42.208           158.947            RioGallegos         19868.375
       203   05 Jun 2027 08:10:07.550   05 Jun 2027 08:16:40.742           393.192                  Delhi         49149.000
       204   05 Jun 2027 08:18:11.505   05 Jun 2027 08:22:53.807           282.302                Novosib         35287.750
       205   05 Jun 2027 08:27:37.617   05 Jun 2027 08:30:57.674           200.057                 Moscow         25007.125
       206   05 Jun 2027 08:31:05.972   05 Jun 2027 08:34:38.960           212.988              Murmansk2         26623.500
       207   05 Jun 2027 09:54:37.540   05 Jun 2027 09:55:18.991            41.451                 Moscow          5181.375
       208   05 Jun 2027 09:57:40.053   05 Jun 2027 09:58:54.826            74.773              Murmansk1          9346.625
       209   05 Jun 2027 10:02:39.953   05 Jun 2027 10:10:33.698           473.745              Murmansk2         59218.125
       210   05 Jun 2027 11:10:35.241   05 Jun 2027 11:12:22.079           106.838               CapeTown         13354.750
       211   05 Jun 2027 11:12:47.620   05 Jun 2027 11:14:38.630           111.010               CapeTown         13876.250
       212   05 Jun 2027 11:32:07.164   05 Jun 2027 11:36:03.642           236.478                 Moscow         29559.750
       213   05 Jun 2027 11:36:14.016   05 Jun 2027 11:41:02.947           288.931              Murmansk1         36116.375
       214   05 Jun 2027 11:41:31.231   05 Jun 2027 11:42:11.805            40.574              Murmansk2          5071.750
       215   05 Jun 2027 11:42:48.859   05 Jun 2027 11:43:07.364            18.505              Murmansk1          2313.125
       216   05 Jun 2027 11:43:31.662   05 Jun 2027 11:44:08.141            36.479              Murmansk1          4559.875
       217   05 Jun 2027 11:44:53.585   05 Jun 2027 11:45:35.397            41.812              Murmansk1          5226.500
       218   05 Jun 2027 11:48:35.065   05 Jun 2027 11:54:56.674           381.609                Anadyr2         47701.125
       219   05 Jun 2027 12:43:47.347   05 Jun 2027 12:44:29.125            41.778               CapeTown          5222.250
       220   05 Jun 2027 12:46:26.076   05 Jun 2027 12:47:43.362            77.286               CapeTown          9660.750
       221   05 Jun 2027 12:51:53.405   05 Jun 2027 12:53:30.426            97.021               CapeTown         12127.625
       222   05 Jun 2027 13:27:20.615   05 Jun 2027 13:32:48.950           328.335               Magadan2         41041.875
       223   05 Jun 2027 15:56:20.824   05 Jun 2027 15:58:35.320           134.496            RioGallegos         16812.000
       224   05 Jun 2027 16:43:03.033   05 Jun 2027 16:46:29.320           206.287                Irkutsk         25785.875
       225   05 Jun 2027 16:57:57.796   05 Jun 2027 17:00:40.285           162.489                Sumatra         20311.125
       226   05 Jun 2027 17:02:33.910   05 Jun 2027 17:03:07.579            33.669                Sumatra          4208.625
       227   05 Jun 2027 18:21:18.798   05 Jun 2027 18:24:23.104           184.306                Novosib         23038.250
       228   05 Jun 2027 18:28:25.518   05 Jun 2027 18:30:31.396           125.878                  Delhi         15734.750
       229   05 Jun 2027 21:31:51.408   05 Jun 2027 21:34:16.883           145.475                 Moscow         18184.375
       230   05 Jun 2027 21:35:56.424   05 Jun 2027 21:38:34.415           157.991                 Moscow         19748.875
       231   05 Jun 2027 22:02:50.320   05 Jun 2027 22:04:33.417           103.097               CapeTown          8165.750
       232   06 Jun 2027 03:52:05.859   06 Jun 2027 03:58:21.201           375.342              Murmansk2         46917.750
       233   06 Jun 2027 03:58:21.201   06 Jun 2027 03:58:49.349            28.148              Murmansk1          3518.500
       234   06 Jun 2027 05:03:33.389   06 Jun 2027 05:06:33.446           180.057                Sumatra         22507.125
       235   06 Jun 2027 05:28:01.042   06 Jun 2027 05:28:38.710            37.668              Murmansk2          4708.500
       236   06 Jun 2027 05:28:38.710   06 Jun 2027 05:33:08.098           269.388              Murmansk1         33673.500
       237   06 Jun 2027 05:35:43.696   06 Jun 2027 05:35:52.761             9.065              Murmansk1          1133.125
       238   06 Jun 2027 06:03:26.288   06 Jun 2027 06:05:28.018           121.730            RioGallegos         15216.250
       239   06 Jun 2027 06:07:29.637   06 Jun 2027 06:07:49.556            19.919            RioGallegos          2489.875
       240   06 Jun 2027 06:13:33.194   06 Jun 2027 06:14:44.402            71.208            RioGallegos          8901.000
       241   06 Jun 2027 06:37:47.295   06 Jun 2027 06:38:58.742            71.447                Sumatra          8930.875
       242   06 Jun 2027 06:40:44.412   06 Jun 2027 06:42:40.321           115.909                Sumatra         14488.625
       243   06 Jun 2027 06:52:17.499   06 Jun 2027 06:52:40.647            23.148                  Delhi          2893.500
       244   06 Jun 2027 06:52:41.847   06 Jun 2027 06:56:46.680           244.833                Irkutsk         30604.125
       245   06 Jun 2027 07:03:33.975   06 Jun 2027 07:08:42.496           308.521              Murmansk2         38565.125
       246   06 Jun 2027 07:08:42.496   06 Jun 2027 07:10:59.304           136.808              Murmansk1         17101.000
       247   06 Jun 2027 08:22:28.523   06 Jun 2027 08:29:48.747           440.224                  Delhi         55028.000
       248   06 Jun 2027 08:30:26.383   06 Jun 2027 08:32:06.967           100.584                  Delhi         12573.000
       249   06 Jun 2027 08:32:15.294   06 Jun 2027 08:34:37.256           141.962                Novosib         17745.250
       250   06 Jun 2027 08:39:24.312   06 Jun 2027 08:40:43.995            79.683                Novosib          9960.375
       251   06 Jun 2027 08:40:54.725   06 Jun 2027 08:44:50.345           235.620              Murmansk2         29452.500
       252   06 Jun 2027 08:44:50.895   06 Jun 2027 08:44:57.773             6.878                Norilsk           859.750
       253   06 Jun 2027 08:46:27.214   06 Jun 2027 08:46:39.505            12.291              Murmansk2          1536.375
       254   06 Jun 2027 10:06:14.443   06 Jun 2027 10:07:47.651            93.208                 Moscow         11651.000
       255   06 Jun 2027 10:09:45.821   06 Jun 2027 10:11:33.536           107.715              Murmansk1         13464.375
       256   06 Jun 2027 10:14:11.360   06 Jun 2027 10:19:03.496           292.136                 Moscow         36517.000
       257   06 Jun 2027 10:19:54.044   06 Jun 2027 10:22:35.356           161.312              Murmansk2         20164.000
       258   06 Jun 2027 10:27:08.842   06 Jun 2027 10:28:42.182            93.340                Anadyr2         11667.500
       259   06 Jun 2027 11:25:48.249   06 Jun 2027 11:26:04.995            16.746               CapeTown          2093.250
       260   06 Jun 2027 11:47:23.156   06 Jun 2027 11:58:31.534           668.378              Murmansk2         83547.250
       261   06 Jun 2027 12:00:31.809   06 Jun 2027 12:02:09.035            97.226                Anadyr1         12153.250
       262   06 Jun 2027 12:03:05.200   06 Jun 2027 12:04:54.882           109.682                Anadyr1         13710.250
       263   06 Jun 2027 12:04:54.882   06 Jun 2027 12:04:57.707             2.825                Anadyr2           353.125
       264   06 Jun 2027 12:08:10.388   06 Jun 2027 12:09:42.428            92.040                Anadyr2         11505.000
       265   06 Jun 2027 13:39:09.627   06 Jun 2027 13:45:13.781           364.154               Magadan2         45519.250
       266   06 Jun 2027 16:07:41.150   06 Jun 2027 16:11:09.221           208.071            RioGallegos         26008.875
       267   06 Jun 2027 16:56:47.507   06 Jun 2027 16:58:31.274           103.767                Irkutsk         12970.875
       268   06 Jun 2027 16:58:45.781   06 Jun 2027 17:00:55.752           129.971                Irkutsk         16246.375
       269   06 Jun 2027 17:09:12.784   06 Jun 2027 17:12:28.159           195.375                Sumatra         24421.875
       270   06 Jun 2027 17:17:14.464   06 Jun 2027 17:17:17.342             2.878                Sumatra           359.750
       271   06 Jun 2027 18:34:20.580   06 Jun 2027 18:34:20.862             0.282                Novosib            35.250
       272   06 Jun 2027 18:35:48.651   06 Jun 2027 18:36:00.642            11.991                Novosib          1498.875
       273   06 Jun 2027 18:39:21.118   06 Jun 2027 18:42:14.220           173.102                  Delhi         21637.750
       274   06 Jun 2027 18:44:14.081   06 Jun 2027 18:44:33.921            19.840                  Delhi          2480.000
       275   06 Jun 2027 21:42:26.354   06 Jun 2027 21:45:12.163           165.809              Murmansk2         20726.125
       276   06 Jun 2027 21:46:22.877   06 Jun 2027 21:47:58.949            96.072                 Moscow         12009.000
       277   06 Jun 2027 22:09:11.662   06 Jun 2027 22:10:12.547            60.885               CapeTown          7610.625
       278   06 Jun 2027 22:12:14.215   06 Jun 2027 22:14:41.116           146.901               CapeTown          6570.750
       279   07 Jun 2027 04:03:34.851   07 Jun 2027 04:03:52.912            18.061                Irkutsk          2257.625
       280   07 Jun 2027 05:15:39.304   07 Jun 2027 05:16:28.880            49.576                Sumatra          6197.000
       281   07 Jun 2027 05:17:29.263   07 Jun 2027 05:18:24.350            55.087                Sumatra          6885.875
       282   07 Jun 2027 05:39:57.459   07 Jun 2027 05:45:03.313           305.854                Norilsk         38231.750
       283   07 Jun 2027 05:45:17.257   07 Jun 2027 05:47:45.452           148.195              Murmansk2         18524.375
       284   07 Jun 2027 06:15:49.057   07 Jun 2027 06:18:23.702           154.645            RioGallegos         19330.625
       285   07 Jun 2027 06:19:35.759   07 Jun 2027 06:20:06.032            30.273            RioGallegos          3784.125
       286   07 Jun 2027 06:50:04.070   07 Jun 2027 06:52:15.191           131.121                Sumatra         16390.125
       287   07 Jun 2027 06:53:05.579   07 Jun 2027 06:54:38.870            93.291                Sumatra         11661.375
       288   07 Jun 2027 07:00:30.897   07 Jun 2027 07:00:50.849            19.952                  Delhi          2494.000
       289   07 Jun 2027 07:04:32.224   07 Jun 2027 07:05:10.999            38.775                  Delhi          4846.875
       290   07 Jun 2027 07:05:15.375   07 Jun 2027 07:09:06.445           231.070                Irkutsk         28883.750
       291   07 Jun 2027 07:09:10.201   07 Jun 2027 07:11:03.949           113.748                Norilsk         14218.500
       292   07 Jun 2027 07:15:23.529   07 Jun 2027 07:16:49.975            86.446              Murmansk1         10805.750
       293   07 Jun 2027 07:16:53.248   07 Jun 2027 07:17:39.590            46.342                 Moscow          5792.750
       294   07 Jun 2027 07:17:42.177   07 Jun 2027 07:20:36.760           174.583                Norilsk         21822.875
       295   07 Jun 2027 07:20:40.412   07 Jun 2027 07:21:12.074            31.662              Murmansk2          3957.750
       296   07 Jun 2027 08:34:57.444   07 Jun 2027 08:36:14.372            76.928                  Delhi          9616.000
       297   07 Jun 2027 08:37:32.315   07 Jun 2027 08:37:39.401             7.086                  Delhi           885.750
       298   07 Jun 2027 08:38:24.913   07 Jun 2027 08:39:05.068            40.155                  Delhi          5019.375
       299   07 Jun 2027 08:40:17.851   07 Jun 2027 08:41:30.594            72.743                  Delhi          9092.875
       300   07 Jun 2027 08:42:41.213   07 Jun 2027 08:44:00.067            78.854                  Delhi          9856.750
       301   07 Jun 2027 08:44:29.194   07 Jun 2027 08:47:01.123           151.929                Novosib         18991.125
       302   07 Jun 2027 08:47:02.926   07 Jun 2027 08:47:16.375            13.449                Norilsk          1681.125
       303   07 Jun 2027 08:51:23.675   07 Jun 2027 08:52:30.322            66.647                Novosib          8330.875
       304   07 Jun 2027 08:52:30.566   07 Jun 2027 08:56:58.077           267.511                Norilsk         33438.875
       305   07 Jun 2027 08:57:03.782   07 Jun 2027 08:58:19.990            76.208              Murmansk1          9526.000
       306   07 Jun 2027 08:58:19.990   07 Jun 2027 08:58:40.284            20.294              Murmansk2          2536.750
       307   07 Jun 2027 10:21:53.267   07 Jun 2027 10:22:51.396            58.129              Murmansk1          7266.125
       308   07 Jun 2027 10:22:59.799   07 Jun 2027 10:23:08.135             8.336              Murmansk1          1042.000
       309   07 Jun 2027 10:23:21.390   07 Jun 2027 10:23:48.243            26.853              Murmansk2          3356.625
       310   07 Jun 2027 10:25:01.156   07 Jun 2027 10:26:15.124            73.968              Murmansk2          9246.000
       311   07 Jun 2027 10:26:44.651   07 Jun 2027 10:26:50.521             5.870              Murmansk2           733.750
       312   07 Jun 2027 10:27:13.326   07 Jun 2027 10:27:46.704            33.378              Murmansk2          4172.250
       313   07 Jun 2027 10:28:30.564   07 Jun 2027 10:31:52.853           202.289                Norilsk         25286.125
       314   07 Jun 2027 10:38:05.115   07 Jun 2027 10:42:27.679           262.564                Anadyr2         32820.500
       315   07 Jun 2027 11:59:46.546   07 Jun 2027 12:02:42.368           175.822              Murmansk1         21977.750
       316   07 Jun 2027 12:04:48.876   07 Jun 2027 12:05:29.541            40.665              Murmansk1          5083.125
       317   07 Jun 2027 12:06:00.832   07 Jun 2027 12:06:26.143            25.311              Murmansk1          3163.875
       318   07 Jun 2027 12:06:53.652   07 Jun 2027 12:07:18.094            24.442              Murmansk1          3055.250
       319   07 Jun 2027 12:08:13.009   07 Jun 2027 12:09:29.642            76.633              Murmansk1          9579.125
       320   07 Jun 2027 12:13:45.373   07 Jun 2027 12:13:52.329             6.956                Anadyr2           869.500
       321   07 Jun 2027 13:51:01.379   07 Jun 2027 13:54:16.242           194.863               Magadan2         24357.875
       322   07 Jun 2027 13:54:41.886   07 Jun 2027 13:55:19.406            37.520               Magadan1          4690.000
       323   07 Jun 2027 13:56:42.038   07 Jun 2027 13:57:34.910            52.872               Magadan2          6609.000
       324   07 Jun 2027 13:59:56.344   07 Jun 2027 14:01:26.673            90.329               Magadan2         11291.125
       325   07 Jun 2027 16:19:14.953   07 Jun 2027 16:23:00.387           225.434            RioGallegos         28179.250
       326   07 Jun 2027 16:24:40.499   07 Jun 2027 16:25:54.240            73.741            RioGallegos          9217.625
       327   07 Jun 2027 17:10:11.866   07 Jun 2027 17:10:41.400            29.534                Irkutsk          3691.750
       328   07 Jun 2027 17:15:59.122   07 Jun 2027 17:17:10.650            71.528                Irkutsk          8941.000
       329   07 Jun 2027 17:20:40.340   07 Jun 2027 17:21:56.146            75.806                Sumatra          9475.750
       330   07 Jun 2027 17:24:21.971   07 Jun 2027 17:26:34.810           132.839                Sumatra         16604.875
       331   07 Jun 2027 17:27:28.778   07 Jun 2027 17:27:44.332            15.554                Sumatra          1944.250
       332   07 Jun 2027 18:42:11.186   07 Jun 2027 18:43:35.843            84.657                Novosib         10582.125
       333   07 Jun 2027 18:44:52.976   07 Jun 2027 18:46:28.785            95.809                Novosib         11976.125
       334   07 Jun 2027 18:50:40.031   07 Jun 2027 18:52:07.994            87.963                  Delhi         10995.375
       335   07 Jun 2027 18:58:31.542   07 Jun 2027 18:58:51.251            19.709                  Delhi          2463.625
       336   07 Jun 2027 20:23:16.316   07 Jun 2027 20:23:48.016            31.700              Murmansk2          3962.500
       337   07 Jun 2027 21:55:37.324   07 Jun 2027 21:58:25.873           168.549                 Moscow         21068.625
       338   07 Jun 2027 22:05:08.208   07 Jun 2027 22:07:19.675           131.467                 Moscow          9581.500
       339   08 Jun 2027 05:26:27.662   08 Jun 2027 05:28:10.291           102.629                Sumatra         12828.625
       340   08 Jun 2027 05:33:10.698   08 Jun 2027 05:33:13.178             2.480                Sumatra           310.000
       341   08 Jun 2027 05:52:01.538   08 Jun 2027 05:53:35.760            94.222                Novosib         11777.750
       342   08 Jun 2027 05:53:43.268   08 Jun 2027 05:57:04.726           201.458                Norilsk         25182.250
       343   08 Jun 2027 05:57:19.280   08 Jun 2027 05:59:38.890           139.610              Murmansk2         17451.250
       344   08 Jun 2027 06:28:17.007   08 Jun 2027 06:29:29.238            72.231            RioGallegos          9028.875
       345   08 Jun 2027 06:30:39.868   08 Jun 2027 06:31:40.945            61.077            RioGallegos          7634.625
       346   08 Jun 2027 06:32:08.316   08 Jun 2027 06:32:21.504            13.188            RioGallegos          1648.500
       347   08 Jun 2027 06:37:04.525   08 Jun 2027 06:38:07.846            63.321            RioGallegos          7915.125
       348   08 Jun 2027 07:02:28.703   08 Jun 2027 07:03:53.035            84.332                Sumatra         10541.500
       349   08 Jun 2027 07:05:16.206   08 Jun 2027 07:06:28.560            72.354                Sumatra          9044.250
       350   08 Jun 2027 07:09:44.048   08 Jun 2027 07:11:56.198           132.150                Sumatra         16518.750
       351   08 Jun 2027 07:13:00.505   08 Jun 2027 07:13:57.560            57.055                  Delhi          7131.875
       352   08 Jun 2027 07:16:52.943   08 Jun 2027 07:17:47.508            54.565                Novosib          6820.625
       353   08 Jun 2027 07:17:56.036   08 Jun 2027 07:21:30.832           214.796                Irkutsk         26849.500
       354   08 Jun 2027 07:21:52.340   08 Jun 2027 07:23:07.210            74.870                 Moscow          9358.750
       355   08 Jun 2027 07:27:48.989   08 Jun 2027 07:27:54.241             5.252                 Moscow           656.500
       356   08 Jun 2027 07:27:55.970   08 Jun 2027 07:29:31.625            95.655                Novosib         11956.875
       357   08 Jun 2027 07:29:39.497   08 Jun 2027 07:32:35.128           175.631                Norilsk         21953.875
       358   08 Jun 2027 07:32:37.008   08 Jun 2027 07:33:39.581            62.573              Murmansk1          7821.625
       359   08 Jun 2027 07:34:14.867   08 Jun 2027 07:34:55.617            40.750              Murmansk2          5093.750
       360   08 Jun 2027 08:47:36.583   08 Jun 2027 08:49:41.973           125.390                  Delhi         15673.750
       361   08 Jun 2027 08:50:00.135   08 Jun 2027 08:51:21.617            81.482                  Delhi         10185.250
       362   08 Jun 2027 08:55:51.624   08 Jun 2027 08:56:05.960            14.336                  Delhi          1792.000
       363   08 Jun 2027 08:56:07.184   08 Jun 2027 08:59:07.911           180.727                Novosib         22590.875
       364   08 Jun 2027 09:04:12.218   08 Jun 2027 09:07:09.165           176.947                 Moscow         22118.375
       365   08 Jun 2027 09:07:14.543   08 Jun 2027 09:10:41.273           206.730              Murmansk2         25841.250
       366   08 Jun 2027 10:33:20.957   08 Jun 2027 10:36:14.365           173.408                 Moscow         21676.000
       367   08 Jun 2027 10:36:46.589   08 Jun 2027 10:37:40.760            54.171              Murmansk1          6771.375
       368   08 Jun 2027 10:38:02.378   08 Jun 2027 10:38:26.452            24.074              Murmansk1          3009.250
       369   08 Jun 2027 10:39:07.375   08 Jun 2027 10:39:43.271            35.896              Murmansk1          4487.000
       370   08 Jun 2027 10:41:36.755   08 Jun 2027 10:43:36.781           120.026              Murmansk1         15003.250
       371   08 Jun 2027 10:43:36.781   08 Jun 2027 10:43:54.831            18.050              Murmansk2          2256.250
       372   08 Jun 2027 10:49:37.782   08 Jun 2027 10:53:30.125           232.343                Anadyr1         29042.875
       373   08 Jun 2027 10:55:33.884   08 Jun 2027 10:55:34.230             0.346                Anadyr2            43.250
       374   08 Jun 2027 12:12:12.354   08 Jun 2027 12:14:27.273           134.919              Murmansk1         16864.875
       375   08 Jun 2027 12:14:27.273   08 Jun 2027 12:18:41.932           254.659              Murmansk2         31832.375
       376   08 Jun 2027 12:18:55.905   08 Jun 2027 12:20:14.380            78.475              Murmansk1          9809.375
       377   08 Jun 2027 12:26:42.441   08 Jun 2027 12:29:00.491           138.050                Anadyr2         17256.250
       378   08 Jun 2027 14:02:55.171   08 Jun 2027 14:05:13.139           137.968               Magadan2         17246.000
       379   08 Jun 2027 14:05:33.097   08 Jun 2027 14:07:12.423            99.326               Magadan1         12415.750
       380   08 Jun 2027 16:30:56.151   08 Jun 2027 16:37:11.957           375.806            RioGallegos         46975.750
       381   08 Jun 2027 17:19:42.162   08 Jun 2027 17:20:59.842            77.680                Irkutsk          9710.000
       382   08 Jun 2027 17:22:08.047   08 Jun 2027 17:22:54.079            46.032                Novosib          5754.000
       383   08 Jun 2027 17:32:16.991   08 Jun 2027 17:34:07.938           110.947                Sumatra         13868.375
       384   08 Jun 2027 17:36:19.068   08 Jun 2027 17:38:47.478           148.410                Sumatra         18551.250
       385   08 Jun 2027 18:54:05.507   08 Jun 2027 18:56:01.334           115.827                Novosib         14478.375
       386   08 Jun 2027 19:02:11.091   08 Jun 2027 19:02:47.965            36.874                  Delhi          4609.250
       387   08 Jun 2027 19:04:45.259   08 Jun 2027 19:05:54.364            69.105                  Delhi          8638.125
       388   08 Jun 2027 20:34:02.537   08 Jun 2027 20:36:07.585           125.048                 Moscow         15631.000
       389   08 Jun 2027 22:04:13.637   08 Jun 2027 22:04:53.370            39.733              Murmansk1          4966.625
       390   08 Jun 2027 22:09:49.237   08 Jun 2027 22:10:25.971            36.734                 Moscow          4591.750
       391   08 Jun 2027 22:32:10.932   08 Jun 2027 22:33:57.345           106.413               CapeTown            98.250
       392   09 Jun 2027 04:23:28.164   09 Jun 2027 04:24:14.323            46.159                Irkutsk          5769.875
       393   09 Jun 2027 05:38:08.135   09 Jun 2027 05:38:11.590             3.455                Sumatra           431.875
       394   09 Jun 2027 05:39:57.540   09 Jun 2027 05:40:31.960            34.420                Sumatra          4302.500
       395   09 Jun 2027 05:41:35.359   09 Jun 2027 05:42:23.216            47.857                Sumatra          5982.125
       396   09 Jun 2027 06:03:50.908   09 Jun 2027 06:05:39.016           108.108                Novosib         13513.500
       397   09 Jun 2027 06:05:41.396   09 Jun 2027 06:08:57.927           196.531                Norilsk         24566.375
       398   09 Jun 2027 06:09:21.208   09 Jun 2027 06:11:33.056           131.848              Murmansk2         16481.000
       399   09 Jun 2027 06:40:51.034   09 Jun 2027 06:44:41.268           230.234            RioGallegos         28779.250
       400   09 Jun 2027 06:49:14.256   09 Jun 2027 06:50:14.710            60.454            RioGallegos          7556.750
       401   09 Jun 2027 07:15:03.749   09 Jun 2027 07:18:59.881           236.132                Sumatra         29516.500
       402   09 Jun 2027 07:23:54.258   09 Jun 2027 07:24:23.668            29.410                Sumatra          3676.250
       403   09 Jun 2027 07:29:04.192   09 Jun 2027 07:30:24.225            80.033                Novosib         10004.125
       404   09 Jun 2027 07:30:46.139   09 Jun 2027 07:34:54.919           248.780                Irkutsk         31097.500
       405   09 Jun 2027 07:34:55.369   09 Jun 2027 07:35:04.374             9.005                 Moscow          1125.625
       406   09 Jun 2027 07:35:30.197   09 Jun 2027 07:35:35.934             5.737                Norilsk           717.125
       407   09 Jun 2027 07:39:57.348   09 Jun 2027 07:42:49.782           172.434                 Moscow         21554.250
       408   09 Jun 2027 07:42:57.514   09 Jun 2027 07:44:32.342            94.828              Murmansk1         11853.500
       409   09 Jun 2027 07:44:32.342   09 Jun 2027 07:45:11.810            39.468              Murmansk2          4933.500
       410   09 Jun 2027 07:45:26.728   09 Jun 2027 07:46:04.667            37.939              Murmansk2          4742.375
       411   09 Jun 2027 07:46:35.057   09 Jun 2027 07:46:54.463            19.406              Murmansk2          2425.750
       412   09 Jun 2027 09:00:30.552   09 Jun 2027 09:03:45.227           194.675                  Delhi         24334.375
       413   09 Jun 2027 09:09:03.648   09 Jun 2027 09:11:11.615           127.967                Novosib         15995.875
       414   09 Jun 2027 09:15:13.784   09 Jun 2027 09:15:29.641            15.857              Murmansk2          1982.125
       415   09 Jun 2027 09:16:30.367   09 Jun 2027 09:20:56.917           266.550                Norilsk         33318.750
       416   09 Jun 2027 09:21:44.234   09 Jun 2027 09:22:42.442            58.208              Murmansk2          7276.000
       417   09 Jun 2027 10:42:46.323   09 Jun 2027 10:46:04.390           198.067                 Moscow         24758.375
       418   09 Jun 2027 10:46:13.474   09 Jun 2027 10:51:02.157           288.683              Murmansk1         36085.375
       419   09 Jun 2027 10:51:41.156   09 Jun 2027 10:52:30.190            49.034              Murmansk1          6129.250
       420   09 Jun 2027 10:54:36.268   09 Jun 2027 10:55:42.961            66.693              Murmansk2          8336.625
       421   09 Jun 2027 11:01:20.654   09 Jun 2027 11:07:43.610           382.956                Anadyr1         47869.500
       422   09 Jun 2027 12:23:31.666   09 Jun 2027 12:25:28.758           117.092                 Moscow         14636.500
       423   09 Jun 2027 12:39:49.984   09 Jun 2027 12:41:01.594            71.610                Anadyr1          8951.250
       424   09 Jun 2027 12:41:51.227   09 Jun 2027 12:43:59.532           128.305               Magadan2         16038.125
       425   09 Jun 2027 14:14:50.545   09 Jun 2027 14:16:41.878           111.333               Magadan2         13916.625
       426   09 Jun 2027 14:17:39.324   09 Jun 2027 14:19:14.291            94.967               Magadan1         11870.875
       427   09 Jun 2027 16:42:42.173   09 Jun 2027 16:48:38.222           356.049            RioGallegos         44506.125
       428   09 Jun 2027 17:30:15.486   09 Jun 2027 17:32:08.950           113.464                Irkutsk         14183.000
       429   09 Jun 2027 17:32:19.997   09 Jun 2027 17:34:36.640           136.643                Novosib         17080.375
       430   09 Jun 2027 17:44:25.425   09 Jun 2027 17:45:45.162            79.737                Sumatra          9967.125
       431   09 Jun 2027 17:48:26.450   09 Jun 2027 17:49:42.106            75.656                Sumatra          9457.000
       432   09 Jun 2027 19:13:50.149   09 Jun 2027 19:15:23.457            93.308                  Delhi         11663.500
       433   09 Jun 2027 20:41:13.997   09 Jun 2027 20:41:45.628            31.631              Murmansk2          3953.875
       434   09 Jun 2027 20:44:36.990   09 Jun 2027 20:44:51.925            14.935              Murmansk2          1866.875
       435   09 Jun 2027 20:45:17.537   09 Jun 2027 20:48:06.980           169.443                 Moscow         21180.375
       436   09 Jun 2027 22:43:50.226   09 Jun 2027 22:46:03.365           133.139               CapeTown         12616.875
       437   10 Jun 2027 04:40:09.328   10 Jun 2027 04:41:20.416            71.088                Novosib          8886.000
       438   10 Jun 2027 04:41:23.867   10 Jun 2027 04:44:36.851           192.984              Murmansk2         24123.000
       439   10 Jun 2027 04:44:36.851   10 Jun 2027 04:44:56.361            19.510              Murmansk1          2438.750
       440   10 Jun 2027 04:44:59.884   10 Jun 2027 04:45:13.943            14.059                Norilsk          1757.375
       441   10 Jun 2027 05:14:51.977   10 Jun 2027 05:18:07.348           195.371            RioGallegos         24421.375
       442   10 Jun 2027 05:18:38.233   10 Jun 2027 05:19:08.138            29.905            RioGallegos          3738.125
       443   10 Jun 2027 05:19:23.708   10 Jun 2027 05:19:58.185            34.477            RioGallegos          4309.625
       444   10 Jun 2027 05:49:55.343   10 Jun 2027 05:50:41.893            46.550                Sumatra          5818.750
       445   10 Jun 2027 05:52:46.329   10 Jun 2027 05:54:30.769           104.440                Sumatra         13055.000
       446   10 Jun 2027 06:01:29.011   10 Jun 2027 06:02:54.934            85.923                  Delhi         10740.375
       447   10 Jun 2027 06:16:07.240   10 Jun 2027 06:17:27.850            80.610                 Moscow         10076.250
       448   10 Jun 2027 06:17:32.915   10 Jun 2027 06:20:37.933           185.018                Norilsk         23127.250
       449   10 Jun 2027 06:20:46.094   10 Jun 2027 06:21:14.273            28.179              Murmansk1          3522.375
       450   10 Jun 2027 06:21:14.273   10 Jun 2027 06:23:27.940           133.667              Murmansk2         16708.375
       451   10 Jun 2027 06:53:32.553   10 Jun 2027 06:57:05.790           213.237            RioGallegos         26654.625
       452   10 Jun 2027 07:27:54.896   10 Jun 2027 07:31:19.245           204.349                Sumatra         25543.625
       453   10 Jun 2027 07:33:56.740   10 Jun 2027 07:35:59.914           123.174                  Delhi         15396.750
       454   10 Jun 2027 07:41:18.868   10 Jun 2027 07:44:32.476           193.608                Novosib         24201.000
       455   10 Jun 2027 07:45:24.286   10 Jun 2027 07:47:08.684           104.398                Irkutsk         13049.750
       456   10 Jun 2027 07:51:34.861   10 Jun 2027 07:54:56.344           201.483                 Moscow         25185.375
       457   10 Jun 2027 07:55:04.327   10 Jun 2027 07:56:51.578           107.251                Norilsk         13406.375
       458   10 Jun 2027 07:58:36.188   10 Jun 2027 07:58:53.728            17.540              Murmansk1          2192.500
       459   10 Jun 2027 09:13:52.539   10 Jun 2027 09:16:17.441           144.902                  Delhi         18112.750
       460   10 Jun 2027 09:19:02.506   10 Jun 2027 09:19:08.618             6.112                  Delhi           764.000
       461   10 Jun 2027 09:27:08.337   10 Jun 2027 09:27:26.897            18.560                 Moscow          2320.000
       462   10 Jun 2027 09:28:30.868   10 Jun 2027 09:32:55.073           264.205                Norilsk         33025.625
       463   10 Jun 2027 09:33:34.730   10 Jun 2027 09:34:43.758            69.028              Murmansk1          8628.500
       464   10 Jun 2027 10:34:00.498   10 Jun 2027 10:41:59.701           479.203               CapeTown         59900.375
       465   10 Jun 2027 10:55:03.905   10 Jun 2027 11:02:54.895           470.990                 Moscow         58873.750
       466   10 Jun 2027 11:02:57.637   10 Jun 2027 11:10:41.800           464.163              Murmansk2         58020.375
       467   10 Jun 2027 11:13:08.843   10 Jun 2027 11:17:21.336           252.493                Anadyr2         31561.625
       468   10 Jun 2027 11:17:55.131   10 Jun 2027 11:19:01.162            66.031                Anadyr1          8253.875
       469   10 Jun 2027 12:07:46.874   10 Jun 2027 12:12:42.283           295.409               CapeTown         36926.125
       470   10 Jun 2027 12:16:06.451   10 Jun 2027 12:17:23.023            76.572               CapeTown          9571.500
       471   10 Jun 2027 12:37:11.838   10 Jun 2027 12:37:41.519            29.681              Murmansk2          3710.125
       472   10 Jun 2027 12:49:02.163   10 Jun 2027 12:50:49.493           107.330                Anadyr2         13416.250
       473   10 Jun 2027 12:52:43.146   10 Jun 2027 12:57:45.819           302.673               Magadan2         37834.125
       474   10 Jun 2027 16:09:22.581   10 Jun 2027 16:11:40.058           137.477                Irkutsk         17184.625
       475   10 Jun 2027 16:54:31.656   10 Jun 2027 16:57:07.174           155.518            RioGallegos         19439.750
       476   10 Jun 2027 17:42:10.082   10 Jun 2027 17:44:12.178           122.096                Irkutsk         15262.000
       477   10 Jun 2027 17:46:36.202   10 Jun 2027 17:47:10.703            34.501                Novosib          4312.625
       478   10 Jun 2027 17:49:48.197   10 Jun 2027 17:50:30.753            42.556                Novosib          5319.500
       479   10 Jun 2027 17:58:51.130   10 Jun 2027 17:59:44.745            53.615                Sumatra          6701.875
       480   10 Jun 2027 19:25:35.119   10 Jun 2027 19:29:49.602           254.483                  Delhi         31810.375
       481   10 Jun 2027 20:53:00.764   10 Jun 2027 20:53:56.642            55.878              Murmansk1          6984.750
       482   10 Jun 2027 20:56:49.927   10 Jun 2027 21:00:07.142           197.215                 Moscow         24651.875
