uniorb/output/strategy_4/Drop/Drop_KinoSat_111203.txt

KinoSat_111203
-------------------------
    Access    *     Start Time (UTCG)     *     Stop Time (UTCG)  *   Duration (s)        *       Station  *  Data (Mbytes)
         1   01 Jun 2027 03:54:19.558   01 Jun 2027 03:55:56.187            96.629                 Moscow          3019.656
         2   01 Jun 2027 03:56:09.370   01 Jun 2027 03:57:42.865            93.495              Murmansk1          2921.719
         3   01 Jun 2027 03:58:54.191   01 Jun 2027 04:00:41.255           107.064                 Moscow          3345.750
         4   01 Jun 2027 04:17:01.097   01 Jun 2027 04:18:42.455           101.358               CapeTown          3167.438
         5   01 Jun 2027 04:22:05.670   01 Jun 2027 04:22:51.699            46.029               CapeTown          1438.406
         6   01 Jun 2027 05:16:04.857   01 Jun 2027 05:17:38.990            94.133                Anadyr2          2941.656
         7   01 Jun 2027 05:17:44.524   01 Jun 2027 05:18:06.956            22.432                Anadyr1           701.000
         8   01 Jun 2027 05:19:49.888   01 Jun 2027 05:20:00.697            10.809                Anadyr1           337.781
         9   01 Jun 2027 05:20:15.256   01 Jun 2027 05:21:09.431            54.175                Anadyr1          1692.969
        10   01 Jun 2027 06:52:43.292   01 Jun 2027 06:53:14.406            31.114                Anadyr2           972.312
        11   01 Jun 2027 06:53:22.018   01 Jun 2027 06:55:05.473           103.455               Magadan1          3232.969
        12   01 Jun 2027 06:55:50.665   01 Jun 2027 06:56:27.167            36.502                Anadyr1          1140.687
        13   01 Jun 2027 08:26:16.189   01 Jun 2027 08:27:37.747            81.558               Magadan1          2548.688
        14   01 Jun 2027 08:28:51.498   01 Jun 2027 08:29:39.630            48.132               Magadan1          1504.125
        15   01 Jun 2027 08:30:09.460   01 Jun 2027 08:32:25.075           135.615               Magadan2          4237.969
        16   01 Jun 2027 08:33:01.004   01 Jun 2027 08:33:08.726             7.722              Murmansk2           241.312
        17   01 Jun 2027 08:33:49.921   01 Jun 2027 08:33:53.646             3.725                Novosib           116.406
        18   01 Jun 2027 09:07:31.790   01 Jun 2027 09:08:43.771            71.981            RioGallegos          2249.406
        19   01 Jun 2027 09:09:19.572   01 Jun 2027 09:10:02.244            42.672            RioGallegos          1333.500
        20   01 Jun 2027 09:42:55.088   01 Jun 2027 09:44:15.299            80.211                Sumatra          2506.594
        21   01 Jun 2027 09:56:14.398   01 Jun 2027 09:56:52.877            38.479                  Delhi          1202.469
        22   01 Jun 2027 10:04:27.355   01 Jun 2027 10:04:38.777            11.422                Novosib           356.937
        23   01 Jun 2027 10:04:40.726   01 Jun 2027 10:04:46.380             5.654                Irkutsk           176.688
        24   01 Jun 2027 10:04:54.613   01 Jun 2027 10:05:07.362            12.749                Novosib           398.406
        25   01 Jun 2027 10:05:13.206   01 Jun 2027 10:05:26.584            13.378                Irkutsk           418.063
        26   01 Jun 2027 10:05:26.878   01 Jun 2027 10:07:11.700           104.822              Murmansk1          3275.687
        27   01 Jun 2027 10:07:22.978   01 Jun 2027 10:08:48.173            85.195                Irkutsk          2662.344
        28   01 Jun 2027 10:09:00.606   01 Jun 2027 10:10:28.669            88.063                Norilsk          2751.969
        29   01 Jun 2027 10:11:37.026   01 Jun 2027 10:12:00.738            23.712                Norilsk           741.000
        30   01 Jun 2027 10:45:25.401   01 Jun 2027 10:45:55.704            30.303            RioGallegos           946.969
        31   01 Jun 2027 10:50:04.299   01 Jun 2027 10:50:26.191            21.892            RioGallegos           684.125
        32   01 Jun 2027 11:19:38.125   01 Jun 2027 11:20:26.821            48.696                Sumatra          1521.750
        33   01 Jun 2027 11:21:47.728   01 Jun 2027 11:22:57.000            69.272                Sumatra          2164.750
        34   01 Jun 2027 11:24:31.312   01 Jun 2027 11:24:41.098             9.786                Sumatra           305.812
        35   01 Jun 2027 11:33:38.865   01 Jun 2027 11:35:00.993            82.128                  Delhi          2566.500
        36   01 Jun 2027 11:41:52.941   01 Jun 2027 11:42:36.073            43.132                Irkutsk          1347.875
        37   01 Jun 2027 11:42:55.916   01 Jun 2027 11:43:18.078            22.162                Irkutsk           692.562
        38   01 Jun 2027 11:43:23.347   01 Jun 2027 11:44:20.726            57.379              Murmansk1          1793.094
        39   01 Jun 2027 11:44:20.726   01 Jun 2027 11:45:42.899            82.173              Murmansk2          2567.906
        40   01 Jun 2027 11:47:56.793   01 Jun 2027 11:48:07.690            10.897              Murmansk1           340.531
        41   01 Jun 2027 11:48:47.720   01 Jun 2027 11:49:49.496            61.776                Norilsk          1930.500
        42   01 Jun 2027 13:04:59.460   01 Jun 2027 13:09:36.259           276.799                  Delhi          8649.969
        43   01 Jun 2027 13:10:45.251   01 Jun 2027 13:11:10.010            24.759                  Delhi           773.719
        44   01 Jun 2027 13:12:54.407   01 Jun 2027 13:13:13.394            18.987                  Delhi           593.344
        45   01 Jun 2027 13:13:31.577   01 Jun 2027 13:15:32.442           120.865                Novosib          3777.031
        46   01 Jun 2027 13:15:56.602   01 Jun 2027 13:16:42.918            46.316              Murmansk1          1447.375
        47   01 Jun 2027 13:16:45.297   01 Jun 2027 13:17:39.708            54.411                Novosib          1700.344
        48   01 Jun 2027 13:19:50.983   01 Jun 2027 13:20:18.747            27.764                Norilsk           867.625
        49   01 Jun 2027 14:28:00.832   01 Jun 2027 14:29:44.716           103.884               CapeTown          3246.375
        50   01 Jun 2027 14:30:29.041   01 Jun 2027 14:31:22.039            52.998               CapeTown          1656.188
        51   01 Jun 2027 14:47:25.907   01 Jun 2027 14:48:33.742            67.835                 Moscow          2119.844
        52   01 Jun 2027 14:50:53.843   01 Jun 2027 14:53:47.686           173.843              Murmansk1          5432.594
        53   01 Jun 2027 15:03:19.268   01 Jun 2027 15:03:23.557             4.289              Murmansk2           134.031
        54   01 Jun 2027 15:06:05.449   01 Jun 2027 15:08:24.880           139.431                Anadyr2          4357.219
        55   01 Jun 2027 15:08:29.774   01 Jun 2027 15:08:58.789            29.015                Anadyr1           906.719
        56   01 Jun 2027 15:10:16.184   01 Jun 2027 15:11:03.570            47.386                Anadyr2          1480.813
        57   01 Jun 2027 15:12:38.962   01 Jun 2027 15:13:01.237            22.275                Anadyr2           696.094
        58   01 Jun 2027 16:04:20.805   01 Jun 2027 16:04:23.575             2.770               CapeTown            86.562
        59   01 Jun 2027 16:04:31.913   01 Jun 2027 16:06:22.899           110.986               CapeTown          3468.312
        60   01 Jun 2027 16:28:30.362   01 Jun 2027 16:29:04.351            33.989                 Moscow          1062.156
        61   01 Jun 2027 16:29:16.550   01 Jun 2027 16:30:05.811            49.261              Murmansk2          1539.406
        62   01 Jun 2027 16:32:33.976   01 Jun 2027 16:33:25.848            51.872              Murmansk1          1621.000
        63   01 Jun 2027 16:37:38.212   01 Jun 2027 16:38:14.665            36.453              Murmansk1          1139.156
        64   01 Jun 2027 16:41:10.085   01 Jun 2027 16:42:17.724            67.639                Anadyr1          2113.719
        65   01 Jun 2027 16:42:57.780   01 Jun 2027 16:43:13.864            16.084                Anadyr2           502.625
        66   01 Jun 2027 16:43:20.064   01 Jun 2027 16:43:25.419             5.355                Anadyr1           167.344
        67   01 Jun 2027 16:44:25.121   01 Jun 2027 16:44:38.353            13.232                Anadyr1           413.500
        68   01 Jun 2027 16:45:23.209   01 Jun 2027 16:46:11.156            47.947                Anadyr1          1498.344
        69   01 Jun 2027 16:47:12.877   01 Jun 2027 16:47:54.747            41.870               Magadan1          1308.438
        70   01 Jun 2027 16:50:37.972   01 Jun 2027 16:50:44.294             6.322                Anadyr2           197.563
        71   01 Jun 2027 16:51:59.506   01 Jun 2027 16:52:26.833            27.327                Anadyr2           853.969
        72   01 Jun 2027 16:52:35.139   01 Jun 2027 16:52:49.428            14.289                Anadyr2           446.531
        73   01 Jun 2027 17:44:15.690   01 Jun 2027 17:44:39.755            24.065               CapeTown           752.031
        74   01 Jun 2027 17:46:33.349   01 Jun 2027 17:46:33.789             0.440               CapeTown            13.750
        75   01 Jun 2027 18:11:10.435   01 Jun 2027 18:13:43.868           153.433              Murmansk1          4794.781
        76   01 Jun 2027 18:17:00.882   01 Jun 2027 18:19:09.036           128.154                Anadyr2          4004.813
        77   01 Jun 2027 18:19:22.743   01 Jun 2027 18:20:21.564            58.821                Anadyr1          1838.156
        78   01 Jun 2027 18:20:25.891   01 Jun 2027 18:20:55.037            29.146               Magadan1           910.812
        79   01 Jun 2027 18:21:03.226   01 Jun 2027 18:23:09.573           126.347               Magadan1          3948.344
        80   01 Jun 2027 19:52:55.735   01 Jun 2027 19:54:59.635           123.900                Anadyr2          3871.875
        81   01 Jun 2027 19:55:12.647   01 Jun 2027 19:59:44.708           272.061               Magadan2          8501.906
        82   01 Jun 2027 20:04:02.420   01 Jun 2027 20:04:16.359            13.939               Magadan1           435.594
        83   01 Jun 2027 20:04:59.807   01 Jun 2027 20:05:13.730            13.923               Magadan2           435.094
        84   01 Jun 2027 20:05:42.808   01 Jun 2027 20:05:50.007             7.199               Magadan2           224.969
        85   01 Jun 2027 20:06:06.433   01 Jun 2027 20:06:18.857            12.424               Magadan2           388.250
        86   01 Jun 2027 20:47:27.507   01 Jun 2027 20:49:51.879           144.372            RioGallegos          4511.625
        87   01 Jun 2027 20:50:52.312   01 Jun 2027 20:51:19.144            26.832            RioGallegos           838.500
        88   01 Jun 2027 20:56:37.072   01 Jun 2027 20:56:52.949            15.877            RioGallegos           496.156
        89   01 Jun 2027 21:28:33.334   01 Jun 2027 21:29:15.920            42.586                Anadyr2          1330.813
        90   01 Jun 2027 21:30:46.596   01 Jun 2027 21:30:50.366             3.770                Norilsk           117.813
        91   01 Jun 2027 21:31:15.149   01 Jun 2027 21:33:13.109           117.960               Magadan1          3686.250
        92   01 Jun 2027 21:33:19.576   01 Jun 2027 21:34:43.833            84.257               Magadan2          2633.031
        93   01 Jun 2027 21:34:59.721   01 Jun 2027 21:35:36.324            36.603                Irkutsk          1143.844
        94   01 Jun 2027 21:35:59.216   01 Jun 2027 21:36:23.667            24.451                Irkutsk           764.094
        95   01 Jun 2027 21:37:13.562   01 Jun 2027 21:38:40.555            86.993                Novosib          2718.531
        96   01 Jun 2027 21:48:47.220   01 Jun 2027 21:49:36.846            49.626                Sumatra          1550.813
        97   01 Jun 2027 21:51:00.701   01 Jun 2027 21:51:19.705            19.004                Sumatra           593.875
        98   01 Jun 2027 21:51:33.526   01 Jun 2027 21:52:17.718            44.192                Sumatra          1381.000
        99   01 Jun 2027 21:59:02.222   01 Jun 2027 22:01:04.861           122.639                Sumatra          3832.469
       100   01 Jun 2027 23:04:42.429   01 Jun 2027 23:05:28.254            45.825                Anadyr1          1432.031
       101   01 Jun 2027 23:06:43.057   01 Jun 2027 23:07:23.700            40.643                Norilsk          1270.094
       102   01 Jun 2027 23:08:20.214   01 Jun 2027 23:08:46.149            25.935               Magadan2           810.469
       103   01 Jun 2027 23:09:12.167   01 Jun 2027 23:09:23.787            11.620               Magadan1           363.125
       104   01 Jun 2027 23:09:53.403   01 Jun 2027 23:10:11.110            17.707               Magadan2           553.344
       105   01 Jun 2027 23:10:31.003   01 Jun 2027 23:11:02.190            31.187               Magadan2           974.594
       106   01 Jun 2027 23:11:04.005   01 Jun 2027 23:12:58.435           114.430                Novosib          3575.938
       107   01 Jun 2027 23:17:26.978   01 Jun 2027 23:17:54.180            27.202                Novosib           850.062
       108   01 Jun 2027 23:18:37.189   01 Jun 2027 23:19:14.431            37.242                  Delhi          1163.813
       109   01 Jun 2027 23:19:59.669   01 Jun 2027 23:23:00.681           181.012                  Delhi          5656.625
       110   02 Jun 2027 00:36:55.117   02 Jun 2027 00:37:10.637            15.520                Anadyr1           485.000
       111   02 Jun 2027 00:37:23.027   02 Jun 2027 00:38:07.428            44.401                Anadyr1          1387.531
       112   02 Jun 2027 00:38:26.030   02 Jun 2027 00:38:32.799             6.769                Anadyr1           211.531
       113   02 Jun 2027 00:38:54.281   02 Jun 2027 00:39:26.574            32.293                Anadyr2          1009.156
       114   02 Jun 2027 00:39:41.204   02 Jun 2027 00:39:55.020            13.816                Anadyr1           431.750
       115   02 Jun 2027 00:42:21.078   02 Jun 2027 00:42:26.535             5.457                Anadyr1           170.531
       116   02 Jun 2027 00:42:30.011   02 Jun 2027 00:42:33.491             3.480                Anadyr1           108.750
       117   02 Jun 2027 00:42:37.162   02 Jun 2027 00:42:44.605             7.443                Anadyr1           232.594
       118   02 Jun 2027 00:42:54.379   02 Jun 2027 00:44:46.258           111.879               Magadan1          3496.219
       119   02 Jun 2027 00:45:05.896   02 Jun 2027 00:47:03.599           117.703              Murmansk2          3678.219
       120   02 Jun 2027 00:47:20.523   02 Jun 2027 00:48:14.614            54.091              Murmansk1          1690.344
       121   02 Jun 2027 00:50:07.013   02 Jun 2027 00:52:05.392           118.379                 Moscow          3699.344
       122   02 Jun 2027 01:04:15.231   02 Jun 2027 01:04:41.548            26.317                  Delhi           822.406
       123   02 Jun 2027 02:10:18.417   02 Jun 2027 02:13:33.013           194.596                Anadyr2          6081.125
       124   02 Jun 2027 02:13:49.885   02 Jun 2027 02:13:59.704             9.819                Anadyr2           306.844
       125   02 Jun 2027 02:15:29.451   02 Jun 2027 02:16:47.915            78.464               Magadan2          2452.000
       126   02 Jun 2027 02:18:30.887   02 Jun 2027 02:19:00.816            29.929                Norilsk           935.281
       127   02 Jun 2027 02:20:50.249   02 Jun 2027 02:21:41.844            51.595              Murmansk2          1612.344
       128   02 Jun 2027 02:22:03.825   02 Jun 2027 02:22:46.062            42.237              Murmansk2          1319.906
       129   02 Jun 2027 02:22:51.330   02 Jun 2027 02:23:38.509            47.179                Novosib          1474.344
       130   02 Jun 2027 02:27:03.850   02 Jun 2027 02:27:14.309            10.459                 Moscow           326.844
       131   02 Jun 2027 02:27:41.473   02 Jun 2027 02:28:04.652            23.179                Novosib           724.344
       132   02 Jun 2027 02:36:23.316   02 Jun 2027 02:36:33.459            10.143                 Moscow           316.969
       133   02 Jun 2027 02:49:20.463   02 Jun 2027 02:49:48.619            28.156               CapeTown           879.875
       134   02 Jun 2027 02:50:51.049   02 Jun 2027 02:51:26.147            35.098               CapeTown          1096.812
       135   02 Jun 2027 02:58:54.098   02 Jun 2027 03:00:19.336            85.238               CapeTown          2663.688
       136   02 Jun 2027 03:52:14.606   02 Jun 2027 03:52:32.434            17.828                Anadyr1           557.125
       137   02 Jun 2027 03:52:49.389   02 Jun 2027 03:54:38.837           109.448               Magadan1          3420.250
       138   02 Jun 2027 04:03:59.948   02 Jun 2027 04:04:08.779             8.831              Murmansk1           275.969
       139   02 Jun 2027 04:04:27.201   02 Jun 2027 04:05:03.304            36.103                Norilsk          1128.219
       140   02 Jun 2027 04:05:14.552   02 Jun 2027 04:05:36.843            22.291              Murmansk1           696.594
       141   02 Jun 2027 04:05:52.003   02 Jun 2027 04:06:24.404            32.401              Murmansk1          1012.531
       142   02 Jun 2027 04:07:45.497   02 Jun 2027 04:08:11.748            26.251              Murmansk1           820.344
       143   02 Jun 2027 04:08:31.751   02 Jun 2027 04:09:40.298            68.547              Murmansk1          2142.094
       144   02 Jun 2027 05:27:20.187   02 Jun 2027 05:28:12.363            52.176               Magadan1          1630.500
       145   02 Jun 2027 05:28:30.746   02 Jun 2027 05:33:31.648           300.902                Anadyr2          9403.188
       146   02 Jun 2027 07:05:30.477   02 Jun 2027 07:06:29.218            58.741                Irkutsk          1835.656
       147   02 Jun 2027 07:06:47.402   02 Jun 2027 07:07:43.807            56.405                Anadyr2          1762.656
       148   02 Jun 2027 07:07:43.807   02 Jun 2027 07:08:27.645            43.838                Anadyr1          1369.938
       149   02 Jun 2027 08:39:38.217   02 Jun 2027 08:40:37.733            59.516               Magadan2          1859.875
       150   02 Jun 2027 08:40:49.968   02 Jun 2027 08:41:41.714            51.746               Magadan2          1617.063
       151   02 Jun 2027 08:41:41.714   02 Jun 2027 08:43:27.026           105.312               Magadan1          3291.000
       152   02 Jun 2027 08:44:12.023   02 Jun 2027 08:44:13.858             1.835               Magadan2            57.344
       153   02 Jun 2027 10:16:47.940   02 Jun 2027 10:17:20.298            32.358                Novosib          1011.188
       154   02 Jun 2027 10:17:45.820   02 Jun 2027 10:17:52.402             6.582                Irkutsk           205.688
       155   02 Jun 2027 10:17:59.268   02 Jun 2027 10:18:22.909            23.641                Irkutsk           738.781
       156   02 Jun 2027 10:18:27.486   02 Jun 2027 10:18:41.155            13.669                Norilsk           427.156
       157   02 Jun 2027 10:18:47.992   02 Jun 2027 10:18:54.325             6.333                Novosib           197.906
       158   02 Jun 2027 10:19:02.896   02 Jun 2027 10:19:09.172             6.276                Irkutsk           196.125
       159   02 Jun 2027 10:19:16.521   02 Jun 2027 10:19:17.583             1.062                Novosib            33.188
       160   02 Jun 2027 10:19:26.514   02 Jun 2027 10:20:23.270            56.756                Novosib          1773.625
       161   02 Jun 2027 10:20:26.839   02 Jun 2027 10:20:51.528            24.689                Norilsk           771.531
       162   02 Jun 2027 10:58:05.165   02 Jun 2027 10:58:13.249             8.084            RioGallegos           252.625
       163   02 Jun 2027 10:59:09.299   02 Jun 2027 10:59:39.492            30.193            RioGallegos           943.531
       164   02 Jun 2027 11:04:53.588   02 Jun 2027 11:05:28.293            34.705            RioGallegos          1084.531
       165   02 Jun 2027 11:32:25.152   02 Jun 2027 11:32:36.182            11.030                Sumatra           344.688
       166   02 Jun 2027 11:33:02.308   02 Jun 2027 11:34:43.948           101.640                Sumatra          3176.250
       167   02 Jun 2027 11:52:36.372   02 Jun 2027 11:52:40.879             4.507                Irkutsk           140.844
       168   02 Jun 2027 11:52:52.550   02 Jun 2027 11:53:22.741            30.191                Novosib           943.469
       169   02 Jun 2027 11:54:38.195   02 Jun 2027 11:54:53.864            15.669                Norilsk           489.656
       170   02 Jun 2027 11:55:45.795   02 Jun 2027 11:55:46.610             0.815                Novosib            25.469
       171   02 Jun 2027 11:55:51.106   02 Jun 2027 11:56:00.137             9.031                Novosib           282.219
       172   02 Jun 2027 11:56:06.558   02 Jun 2027 11:56:20.127            13.569                Norilsk           424.031
       173   02 Jun 2027 12:00:53.772   02 Jun 2027 12:00:58.543             4.771                Norilsk           149.094
       174   02 Jun 2027 12:01:41.292   02 Jun 2027 12:02:15.732            34.440              Murmansk1          1076.250
       175   02 Jun 2027 13:18:12.783   02 Jun 2027 13:21:35.453           202.670                  Delhi          6333.437
       176   02 Jun 2027 13:24:30.968   02 Jun 2027 13:25:39.856            68.888                 Moscow          2152.750
       177   02 Jun 2027 13:26:30.337   02 Jun 2027 13:27:27.705            57.368              Murmansk2          1792.750
       178   02 Jun 2027 13:27:43.988   02 Jun 2027 13:28:01.500            17.512              Murmansk1           547.250
       179   02 Jun 2027 13:28:10.710   02 Jun 2027 13:28:13.459             2.749              Murmansk2            85.906
       180   02 Jun 2027 13:28:43.720   02 Jun 2027 13:29:41.465            57.745                Novosib          1804.531
       181   02 Jun 2027 13:31:47.442   02 Jun 2027 13:32:20.944            33.502                Norilsk          1046.938
       182   02 Jun 2027 13:36:06.285   02 Jun 2027 13:36:51.602            45.317                Norilsk          1416.156
       183   02 Jun 2027 14:38:53.691   02 Jun 2027 14:41:20.056           146.365               CapeTown          4573.906
       184   02 Jun 2027 14:43:32.685   02 Jun 2027 14:44:34.646            61.961               CapeTown          1936.281
       185   02 Jun 2027 15:03:06.426   02 Jun 2027 15:03:58.661            52.235              Murmansk1          1632.344
       186   02 Jun 2027 15:04:19.751   02 Jun 2027 15:05:49.484            89.733              Murmansk2          2804.156
       187   02 Jun 2027 15:17:53.079   02 Jun 2027 15:20:23.233           150.154                Anadyr2          4692.312
       188   02 Jun 2027 15:21:07.888   02 Jun 2027 15:21:17.942            10.054                Anadyr1           314.188
       189   02 Jun 2027 15:21:37.706   02 Jun 2027 15:22:20.029            42.323                Anadyr1          1322.594
       190   02 Jun 2027 16:22:22.113   02 Jun 2027 16:22:26.852             4.739               CapeTown           148.094
       191   02 Jun 2027 16:24:50.098   02 Jun 2027 16:25:13.668            23.570               CapeTown           736.562
       192   02 Jun 2027 16:41:47.146   02 Jun 2027 16:43:12.715            85.569              Murmansk2          2674.031
       193   02 Jun 2027 16:43:48.532   02 Jun 2027 16:44:02.361            13.829              Murmansk2           432.156
       194   02 Jun 2027 16:44:24.191   02 Jun 2027 16:44:27.622             3.431                 Moscow           107.219
       195   02 Jun 2027 16:45:23.216   02 Jun 2027 16:45:54.808            31.592              Murmansk2           987.250
       196   02 Jun 2027 16:47:54.658   02 Jun 2027 16:48:45.455            50.797              Murmansk1          1587.406
       197   02 Jun 2027 16:53:09.858   02 Jun 2027 16:53:55.510            45.652                Anadyr2          1426.625
       198   02 Jun 2027 16:53:55.510   02 Jun 2027 16:54:26.661            31.151                Anadyr1           973.469
       199   02 Jun 2027 16:54:47.324   02 Jun 2027 16:54:57.734            10.410                Anadyr1           325.312
       200   02 Jun 2027 16:57:33.887   02 Jun 2027 16:58:16.021            42.134               Magadan1          1316.687
       201   02 Jun 2027 16:58:16.021   02 Jun 2027 16:59:16.346            60.325               Magadan2          1885.156
       202   02 Jun 2027 16:59:50.352   02 Jun 2027 17:00:29.206            38.854               Magadan1          1214.187
       203   02 Jun 2027 18:29:02.402   02 Jun 2027 18:31:09.785           127.383                Anadyr2          3980.719
       204   02 Jun 2027 18:31:30.705   02 Jun 2027 18:34:50.443           199.738               Magadan2          6241.813
       205   02 Jun 2027 18:34:50.443   02 Jun 2027 18:35:01.185            10.742               Magadan1           335.688
       206   02 Jun 2027 18:35:46.222   02 Jun 2027 18:35:59.622            13.400               Magadan2           418.750
       207   02 Jun 2027 18:36:46.676   02 Jun 2027 18:37:27.050            40.374               Magadan2          1261.688
       208   02 Jun 2027 20:04:56.353   02 Jun 2027 20:07:01.115           124.762                Anadyr2          3898.812
       209   02 Jun 2027 20:07:14.178   02 Jun 2027 20:11:34.716           260.538               Magadan2          8141.812
       210   02 Jun 2027 20:12:36.157   02 Jun 2027 20:13:35.773            59.616               Magadan2          1863.000
       211   02 Jun 2027 20:14:30.047   02 Jun 2027 20:16:04.098            94.051                Irkutsk          2939.094
       212   02 Jun 2027 20:59:16.534   02 Jun 2027 20:59:57.522            40.988            RioGallegos          1280.875
       213   02 Jun 2027 21:00:26.493   02 Jun 2027 21:00:52.953            26.460            RioGallegos           826.875
       214   02 Jun 2027 21:01:01.257   02 Jun 2027 21:02:14.089            72.832            RioGallegos          2276.000
       215   02 Jun 2027 21:42:47.225   02 Jun 2027 21:44:57.568           130.343                Norilsk          4073.219
       216   02 Jun 2027 21:45:34.644   02 Jun 2027 21:46:02.779            28.135               Magadan1           879.219
       217   02 Jun 2027 21:46:03.653   02 Jun 2027 21:46:13.107             9.454                Norilsk           295.438
       218   02 Jun 2027 21:46:44.841   02 Jun 2027 21:46:58.335            13.494                Norilsk           421.687
       219   02 Jun 2027 21:47:22.049   02 Jun 2027 21:48:05.526            43.477                Irkutsk          1358.656
       220   02 Jun 2027 21:48:28.981   02 Jun 2027 21:50:22.355           113.374                Novosib          3542.938
       221   02 Jun 2027 21:51:55.997   02 Jun 2027 21:52:49.571            53.574                Novosib          1674.188
       222   02 Jun 2027 22:08:48.075   02 Jun 2027 22:10:06.204            78.129                Sumatra          2441.531
       223   02 Jun 2027 23:15:07.480   02 Jun 2027 23:15:33.149            25.669                Anadyr1           802.156
       224   02 Jun 2027 23:15:33.149   02 Jun 2027 23:16:31.357            58.208                Anadyr2          1819.000
       225   02 Jun 2027 23:17:27.172   02 Jun 2027 23:18:01.836            34.664                Anadyr1          1083.250
       226   02 Jun 2027 23:18:45.138   02 Jun 2027 23:19:12.065            26.927                Norilsk           841.469
       227   02 Jun 2027 23:19:23.255   02 Jun 2027 23:20:41.184            77.929               Magadan1          2435.281
       228   02 Jun 2027 23:21:13.079   02 Jun 2027 23:21:29.297            16.218               Magadan1           506.813
       229   02 Jun 2027 23:22:22.812   02 Jun 2027 23:22:30.472             7.660               Magadan1           239.375
       230   02 Jun 2027 23:22:42.111   02 Jun 2027 23:23:12.544            30.433                Novosib           951.031
       231   02 Jun 2027 23:24:02.107   02 Jun 2027 23:24:13.850            11.743                Novosib           366.969
       232   02 Jun 2027 23:25:19.837   02 Jun 2027 23:25:51.026            31.189                Novosib           974.656
       233   02 Jun 2027 23:28:23.867   02 Jun 2027 23:28:26.899             3.032                Novosib            94.750
       234   02 Jun 2027 23:29:36.514   02 Jun 2027 23:30:39.188            62.674                Novosib          1958.562
       235   02 Jun 2027 23:31:15.422   02 Jun 2027 23:32:18.148            62.726                  Delhi          1960.188
       236   02 Jun 2027 23:32:27.943   02 Jun 2027 23:33:16.744            48.801                  Delhi          1525.031
       237   03 Jun 2027 00:48:36.150   03 Jun 2027 00:48:55.945            19.795                Anadyr1           618.594
       238   03 Jun 2027 00:49:01.264   03 Jun 2027 00:49:30.318            29.054                Anadyr2           907.937
       239   03 Jun 2027 00:50:03.373   03 Jun 2027 00:50:56.462            53.089                Anadyr2          1659.031
       240   03 Jun 2027 00:54:22.999   03 Jun 2027 00:54:41.429            18.430                Anadyr2           575.938
       241   03 Jun 2027 00:54:43.260   03 Jun 2027 00:55:41.199            57.939               Magadan1          1810.594
       242   03 Jun 2027 00:55:45.288   03 Jun 2027 00:56:14.796            29.508               Magadan1           922.125
       243   03 Jun 2027 00:56:57.220   03 Jun 2027 00:57:16.720            19.500               Magadan2           609.375
       244   03 Jun 2027 00:57:46.590   03 Jun 2027 00:59:04.859            78.269              Murmansk2          2445.906
       245   03 Jun 2027 00:59:12.966   03 Jun 2027 00:59:46.436            33.470              Murmansk1          1045.937
       246   03 Jun 2027 00:59:53.946   03 Jun 2027 01:00:25.554            31.608                Novosib           987.750
       247   03 Jun 2027 01:01:15.704   03 Jun 2027 01:01:21.301             5.597              Murmansk1           174.906
       248   03 Jun 2027 01:01:37.207   03 Jun 2027 01:02:40.055            62.848                 Moscow          1964.000
       249   03 Jun 2027 01:10:40.397   03 Jun 2027 01:11:05.144            24.747                  Delhi           773.344
       250   03 Jun 2027 01:16:41.461   03 Jun 2027 01:16:52.627            11.166                  Delhi           348.938
       251   03 Jun 2027 02:22:04.167   03 Jun 2027 02:25:16.148           191.981                Anadyr1          5999.406
       252   03 Jun 2027 02:26:57.243   03 Jun 2027 02:27:51.285            54.042               Magadan2          1688.813
       253   03 Jun 2027 02:28:13.280   03 Jun 2027 02:28:53.736            40.456               Magadan2          1264.250
       254   03 Jun 2027 02:32:51.827   03 Jun 2027 02:33:30.369            38.542              Murmansk2          1204.438
       255   03 Jun 2027 02:33:30.540   03 Jun 2027 02:34:12.600            42.060              Murmansk1          1314.375
       256   03 Jun 2027 02:34:58.679   03 Jun 2027 02:36:42.334           103.655                Novosib          3239.219
       257   03 Jun 2027 02:43:29.520   03 Jun 2027 02:43:35.428             5.908                Novosib           184.625
       258   03 Jun 2027 02:44:41.605   03 Jun 2027 02:44:48.108             6.503                 Moscow           203.219
       259   03 Jun 2027 02:46:34.425   03 Jun 2027 02:46:49.661            15.236                 Moscow           476.125
       260   03 Jun 2027 03:00:21.532   03 Jun 2027 03:00:47.680            26.148               CapeTown           817.125
       261   03 Jun 2027 03:03:50.180   03 Jun 2027 03:04:00.871            10.691               CapeTown           334.094
       262   03 Jun 2027 03:04:55.378   03 Jun 2027 03:06:40.977           105.599               CapeTown          3299.969
       263   03 Jun 2027 04:03:35.751   03 Jun 2027 04:04:33.759            58.008               Magadan1          1812.750
       264   03 Jun 2027 04:04:39.899   03 Jun 2027 04:07:48.141           188.242                Anadyr1          5882.562
       265   03 Jun 2027 04:17:57.270   03 Jun 2027 04:18:25.966            28.696              Murmansk2           896.750
       266   03 Jun 2027 05:39:25.122   03 Jun 2027 05:41:25.704           120.582               Magadan1          3768.188
       267   03 Jun 2027 05:41:32.751   03 Jun 2027 05:45:15.551           222.800               Magadan2          6962.500
       268   03 Jun 2027 05:45:18.034   03 Jun 2027 05:45:31.932            13.898                Anadyr2           434.312
       269   03 Jun 2027 07:15:16.332   03 Jun 2027 07:15:32.068            15.736               Magadan1           491.750
       270   03 Jun 2027 07:15:44.129   03 Jun 2027 07:16:12.479            28.350               Magadan1           885.938
       271   03 Jun 2027 07:16:16.291   03 Jun 2027 07:17:40.506            84.215               Magadan2          2631.719
       272   03 Jun 2027 07:17:53.129   03 Jun 2027 07:18:58.427            65.298                Anadyr2          2040.563
       273   03 Jun 2027 07:19:22.163   03 Jun 2027 07:19:30.431             8.268               Magadan2           258.375
       274   03 Jun 2027 07:19:43.514   03 Jun 2027 07:19:54.452            10.938                Anadyr2           341.813
       275   03 Jun 2027 07:19:57.086   03 Jun 2027 07:21:06.911            69.825               Magadan1          2182.031
       276   03 Jun 2027 08:50:23.928   03 Jun 2027 08:51:38.139            74.211               Magadan2          2319.094
       277   03 Jun 2027 08:52:25.563   03 Jun 2027 08:52:30.806             5.243                Novosib           163.844
       278   03 Jun 2027 08:52:45.001   03 Jun 2027 08:52:50.860             5.859               Magadan2           183.094
       279   03 Jun 2027 08:52:59.888   03 Jun 2027 08:53:18.576            18.688                Irkutsk           584.000
       280   03 Jun 2027 08:53:39.800   03 Jun 2027 08:53:56.999            17.199                Irkutsk           537.469
       281   03 Jun 2027 08:54:22.534   03 Jun 2027 08:54:48.739            26.205               Magadan1           818.906
       282   03 Jun 2027 08:55:07.787   03 Jun 2027 08:55:53.079            45.292                Irkutsk          1415.375
       283   03 Jun 2027 08:56:06.416   03 Jun 2027 08:56:11.305             4.889                Norilsk           152.781
       284   03 Jun 2027 08:56:13.116   03 Jun 2027 08:56:55.422            42.306                Irkutsk          1322.062
       285   03 Jun 2027 09:31:40.256   03 Jun 2027 09:32:37.361            57.105            RioGallegos          1784.531
       286   03 Jun 2027 10:06:33.020   03 Jun 2027 10:07:16.324            43.304                Sumatra          1353.250
       287   03 Jun 2027 10:09:36.611   03 Jun 2027 10:09:52.701            16.090                Sumatra           502.813
       288   03 Jun 2027 10:19:42.391   03 Jun 2027 10:20:39.961            57.570                  Delhi          1799.062
       289   03 Jun 2027 10:29:27.887   03 Jun 2027 10:30:02.785            34.898                Novosib          1090.562
       290   03 Jun 2027 10:30:09.991   03 Jun 2027 10:30:11.490             1.499                Irkutsk            46.844
       291   03 Jun 2027 10:30:25.318   03 Jun 2027 10:30:46.012            20.694                Irkutsk           646.688
       292   03 Jun 2027 10:30:54.934   03 Jun 2027 10:31:12.845            17.911                Novosib           559.719
       293   03 Jun 2027 10:31:40.422   03 Jun 2027 10:31:54.702            14.280                Irkutsk           446.250
       294   03 Jun 2027 10:31:56.245   03 Jun 2027 10:32:08.773            12.528                Norilsk           391.500
       295   03 Jun 2027 10:32:25.368   03 Jun 2027 10:32:29.258             3.890                Novosib           121.563
       296   03 Jun 2027 10:32:34.603   03 Jun 2027 10:33:55.983            81.380                Novosib          2543.125
       297   03 Jun 2027 11:45:40.341   03 Jun 2027 11:46:37.025            56.684                Sumatra          1771.375
       298   03 Jun 2027 11:53:44.446   03 Jun 2027 11:54:57.863            73.417                  Delhi          2294.281
       299   03 Jun 2027 12:12:51.019   03 Jun 2027 12:13:25.947            34.928                Norilsk          1091.500
       300   03 Jun 2027 13:35:09.126   03 Jun 2027 13:36:21.818            72.692                 Moscow          2271.625
       301   03 Jun 2027 13:37:52.320   03 Jun 2027 13:38:56.364            64.044                 Moscow          2001.375
       302   03 Jun 2027 13:39:31.259   03 Jun 2027 13:41:20.363           109.104              Murmansk1          3409.500
       303   03 Jun 2027 13:41:34.348   03 Jun 2027 13:42:43.038            68.690                Novosib          2146.563
       304   03 Jun 2027 13:44:50.233   03 Jun 2027 13:45:58.331            68.098                Norilsk          2128.062
       305   03 Jun 2027 14:50:12.413   03 Jun 2027 14:51:39.296            86.883               CapeTown          2715.094
       306   03 Jun 2027 14:53:57.946   03 Jun 2027 14:54:02.362             4.416               CapeTown           138.000
       307   03 Jun 2027 14:54:40.877   03 Jun 2027 14:55:27.171            46.294               CapeTown          1446.687
       308   03 Jun 2027 14:56:27.788   03 Jun 2027 14:57:19.340            51.552               CapeTown          1611.000
       309   03 Jun 2027 15:15:20.941   03 Jun 2027 15:15:59.427            38.486              Murmansk2          1202.688
       310   03 Jun 2027 15:16:19.156   03 Jun 2027 15:16:42.955            23.799              Murmansk2           743.719
       311   03 Jun 2027 15:19:32.802   03 Jun 2027 15:19:52.620            19.818              Murmansk2           619.313
       312   03 Jun 2027 15:21:41.587   03 Jun 2027 15:21:57.768            16.181              Murmansk2           505.656
       313   03 Jun 2027 15:23:38.973   03 Jun 2027 15:23:59.791            20.818              Murmansk1           650.562
       314   03 Jun 2027 15:25:34.258   03 Jun 2027 15:25:43.109             8.851              Murmansk1           276.594
       315   03 Jun 2027 15:25:43.109   03 Jun 2027 15:25:44.467             1.358              Murmansk2            42.437
       316   03 Jun 2027 15:29:44.302   03 Jun 2027 15:31:24.453           100.151                Anadyr1          3129.719
       317   03 Jun 2027 15:32:19.809   03 Jun 2027 15:32:56.548            36.739                Anadyr2          1148.094
       318   03 Jun 2027 15:33:38.595   03 Jun 2027 15:33:41.672             3.077                Anadyr1            96.156
       319   03 Jun 2027 15:34:18.798   03 Jun 2027 15:34:30.814            12.016                Anadyr1           375.500
       320   03 Jun 2027 15:37:39.256   03 Jun 2027 15:37:51.108            11.852                Anadyr1           370.375
       321   03 Jun 2027 15:38:05.381   03 Jun 2027 15:38:24.396            19.015                Anadyr1           594.219
       322   03 Jun 2027 16:33:03.712   03 Jun 2027 16:33:05.911             2.199               CapeTown            68.719
       323   03 Jun 2027 16:33:58.950   03 Jun 2027 16:34:40.283            41.333               CapeTown          1291.656
       324   03 Jun 2027 16:36:18.429   03 Jun 2027 16:37:11.529            53.100               CapeTown          1659.375
       325   03 Jun 2027 16:54:20.669   03 Jun 2027 16:55:27.669            67.000              Murmansk2          2093.750
       326   03 Jun 2027 16:58:22.514   03 Jun 2027 16:59:32.167            69.653              Murmansk2          2176.656
       327   03 Jun 2027 17:05:10.065   03 Jun 2027 17:06:28.233            78.168                Anadyr1          2442.750
       328   03 Jun 2027 17:08:58.396   03 Jun 2027 17:10:26.259            87.863               Magadan2          2745.719
       329   03 Jun 2027 17:11:26.121   03 Jun 2027 17:11:40.712            14.591               Magadan1           455.969
       330   03 Jun 2027 17:11:52.902   03 Jun 2027 17:11:55.998             3.096               Magadan1            96.750
       331   03 Jun 2027 18:41:03.935   03 Jun 2027 18:44:54.397           230.462                Anadyr1          7201.937
       332   03 Jun 2027 18:45:13.542   03 Jun 2027 18:46:25.340            71.798               Magadan2          2243.687
       333   03 Jun 2027 18:46:25.340   03 Jun 2027 18:46:50.641            25.301               Magadan1           790.656
       334   03 Jun 2027 18:47:13.930   03 Jun 2027 18:47:44.016            30.086               Magadan1           940.188
       335   03 Jun 2027 18:47:44.016   03 Jun 2027 18:48:01.884            17.868               Magadan2           558.375
       336   03 Jun 2027 18:49:59.978   03 Jun 2027 18:50:12.147            12.169               Magadan2           380.281
       337   03 Jun 2027 20:16:56.675   03 Jun 2027 20:19:02.456           125.781                Anadyr1          3930.656
       338   03 Jun 2027 20:19:03.264   03 Jun 2027 20:21:09.060           125.796                Anadyr2          3931.125
       339   03 Jun 2027 20:21:20.557   03 Jun 2027 20:21:56.034            35.477               Magadan2          1108.656
       340   03 Jun 2027 20:21:56.034   03 Jun 2027 20:23:42.833           106.799               Magadan1          3337.469
       341   03 Jun 2027 20:24:32.141   03 Jun 2027 20:24:38.154             6.013               Magadan1           187.906
       342   03 Jun 2027 20:24:42.007   03 Jun 2027 20:25:23.833            41.826               Magadan1          1307.062
       343   03 Jun 2027 20:26:42.242   03 Jun 2027 20:27:42.385            60.143                Irkutsk          1879.469
       344   03 Jun 2027 20:28:32.392   03 Jun 2027 20:29:01.790            29.398                Irkutsk           918.687
       345   03 Jun 2027 21:11:08.342   03 Jun 2027 21:11:57.917            49.575            RioGallegos          1549.219
       346   03 Jun 2027 21:13:58.428   03 Jun 2027 21:14:08.830            10.402            RioGallegos           325.062
       347   03 Jun 2027 21:16:11.163   03 Jun 2027 21:16:26.516            15.353            RioGallegos           479.781
       348   03 Jun 2027 21:17:01.822   03 Jun 2027 21:17:13.051            11.229            RioGallegos           350.906
       349   03 Jun 2027 21:19:28.100   03 Jun 2027 21:19:55.692            27.592            RioGallegos           862.250
       350   03 Jun 2027 21:20:37.839   03 Jun 2027 21:20:49.019            11.180            RioGallegos           349.375
       351   03 Jun 2027 21:52:25.333   03 Jun 2027 21:53:18.499            53.166                Anadyr1          1661.437
       352   03 Jun 2027 21:53:21.463   03 Jun 2027 21:54:46.965            85.502                Anadyr2          2671.937
       353   03 Jun 2027 21:54:48.247   03 Jun 2027 21:55:18.278            30.031                Norilsk           938.469
       354   03 Jun 2027 21:55:20.931   03 Jun 2027 21:55:47.297            26.366               Magadan1           823.937
       355   03 Jun 2027 21:56:06.862   03 Jun 2027 21:56:35.113            28.251               Magadan2           882.844
       356   03 Jun 2027 21:56:43.474   03 Jun 2027 21:56:54.747            11.273                Norilsk           352.281
       357   03 Jun 2027 21:58:50.215   03 Jun 2027 21:59:58.659            68.444                Irkutsk          2138.875
       358   03 Jun 2027 22:00:27.051   03 Jun 2027 22:01:06.290            39.239                Novosib          1226.219
       359   03 Jun 2027 22:01:15.199   03 Jun 2027 22:02:47.370            92.171                Novosib          2880.344
       360   03 Jun 2027 22:15:24.640   03 Jun 2027 22:15:36.889            12.249                Sumatra           382.781
       361   03 Jun 2027 22:21:16.019   03 Jun 2027 22:22:05.640            49.621                Sumatra          1550.656
       362   03 Jun 2027 23:26:53.537   03 Jun 2027 23:28:32.501            98.964                Anadyr1          3092.625
       363   03 Jun 2027 23:29:18.108   03 Jun 2027 23:29:27.462             9.354                Anadyr2           292.312
       364   03 Jun 2027 23:30:47.224   03 Jun 2027 23:31:07.463            20.239                Norilsk           632.469
       365   03 Jun 2027 23:31:24.772   03 Jun 2027 23:32:50.216            85.444               Magadan1          2670.125
       366   03 Jun 2027 23:34:40.286   03 Jun 2027 23:36:03.181            82.895                Novosib          2590.469
       367   03 Jun 2027 23:39:47.754   03 Jun 2027 23:40:01.645            13.891                Novosib           434.094
       368   03 Jun 2027 23:41:47.593   03 Jun 2027 23:42:32.340            44.747                Novosib          1398.344
       369   03 Jun 2027 23:43:11.107   03 Jun 2027 23:44:29.580            78.473                  Delhi          2452.281
       370   03 Jun 2027 23:48:55.265   03 Jun 2027 23:49:45.171            49.906                  Delhi          1559.563
       371   04 Jun 2027 00:29:57.810   04 Jun 2027 00:30:39.148            41.338            RioGallegos          1291.812
       372   04 Jun 2027 01:00:17.190   04 Jun 2027 01:00:40.133            22.943                Anadyr2           716.969
       373   04 Jun 2027 01:01:02.324   04 Jun 2027 01:01:39.782            37.458                Anadyr2          1170.563
       374   04 Jun 2027 01:02:01.072   04 Jun 2027 01:02:25.269            24.197                Anadyr2           756.156
       375   04 Jun 2027 01:03:04.072   04 Jun 2027 01:03:09.084             5.012                Anadyr2           156.625
       376   04 Jun 2027 01:03:23.244   04 Jun 2027 01:03:40.506            17.262                Anadyr2           539.437
       377   04 Jun 2027 01:06:01.474   04 Jun 2027 01:06:26.604            25.130                Anadyr1           785.313
       378   04 Jun 2027 01:06:27.880   04 Jun 2027 01:07:16.739            48.859               Magadan1          1526.844
       379   04 Jun 2027 01:07:16.739   04 Jun 2027 01:07:23.482             6.743               Magadan2           210.719
       380   04 Jun 2027 01:07:30.958   04 Jun 2027 01:07:44.093            13.135               Magadan2           410.469
       381   04 Jun 2027 01:08:56.549   04 Jun 2027 01:09:19.390            22.841               Magadan2           713.781
       382   04 Jun 2027 01:09:38.534   04 Jun 2027 01:11:06.300            87.766              Murmansk2          2742.688
       383   04 Jun 2027 01:12:02.944   04 Jun 2027 01:12:41.845            38.901                Novosib          1215.656
       384   04 Jun 2027 01:13:16.831   04 Jun 2027 01:13:20.441             3.610                 Moscow           112.812
       385   04 Jun 2027 01:13:24.720   04 Jun 2027 01:13:32.630             7.910              Murmansk2           247.187
       386   04 Jun 2027 01:13:44.099   04 Jun 2027 01:13:48.471             4.372              Murmansk2           136.625
       387   04 Jun 2027 01:14:24.572   04 Jun 2027 01:16:04.241            99.669                 Moscow          3114.656
       388   04 Jun 2027 01:41:24.496   04 Jun 2027 01:42:18.167            53.671               CapeTown          1677.219
       389   04 Jun 2027 02:33:51.105   04 Jun 2027 02:35:57.981           126.876                Anadyr1          3964.875
       390   04 Jun 2027 02:36:11.018   04 Jun 2027 02:36:27.306            16.288                Anadyr1           509.000
       391   04 Jun 2027 02:36:57.646   04 Jun 2027 02:36:58.088             0.442                Anadyr1            13.812
       392   04 Jun 2027 02:37:05.354   04 Jun 2027 02:37:11.387             6.033                Anadyr2           188.531
       393   04 Jun 2027 02:38:25.248   04 Jun 2027 02:39:24.454            59.206               Magadan2          1850.187
       394   04 Jun 2027 02:41:56.571   04 Jun 2027 02:42:02.266             5.695               Magadan1           177.969
       395   04 Jun 2027 02:42:13.203   04 Jun 2027 02:42:24.396            11.193               Magadan2           349.781
       396   04 Jun 2027 02:42:28.462   04 Jun 2027 02:43:04.675            36.213                Norilsk          1131.656
       397   04 Jun 2027 02:44:53.529   04 Jun 2027 02:45:43.306            49.777              Murmansk1          1555.531
       398   04 Jun 2027 02:46:19.647   04 Jun 2027 02:47:04.488            44.841              Murmansk2          1401.281
       399   04 Jun 2027 02:48:37.149   04 Jun 2027 02:48:47.878            10.729                Novosib           335.281
       400   04 Jun 2027 02:49:33.439   04 Jun 2027 02:50:02.896            29.457                Novosib           920.531
       401   04 Jun 2027 02:52:00.082   04 Jun 2027 02:52:44.892            44.810                Novosib          1400.313
       402   04 Jun 2027 03:12:10.445   04 Jun 2027 03:13:14.798            64.353               CapeTown          2011.031
       403   04 Jun 2027 04:15:02.513   04 Jun 2027 04:15:55.443            52.930                Anadyr1          1654.062
       404   04 Jun 2027 04:16:15.427   04 Jun 2027 04:16:29.504            14.077                Anadyr1           439.906
       405   04 Jun 2027 04:16:37.435   04 Jun 2027 04:18:22.995           105.560                Anadyr2          3298.750
       406   04 Jun 2027 04:18:57.014   04 Jun 2027 04:19:20.000            22.986               Magadan1           718.312
       407   04 Jun 2027 05:51:32.976   04 Jun 2027 05:53:28.295           115.319               Magadan2          3603.719
       408   04 Jun 2027 05:53:28.295   04 Jun 2027 05:53:43.335            15.040               Magadan1           470.000
       409   04 Jun 2027 05:53:43.335   04 Jun 2027 05:54:27.552            44.217               Magadan2          1381.781
       410   04 Jun 2027 05:55:21.134   04 Jun 2027 05:56:40.146            79.012               Magadan2          2469.125
       411   04 Jun 2027 07:25:40.868   04 Jun 2027 07:25:48.446             7.578               Magadan1           236.813
       412   04 Jun 2027 07:26:16.498   04 Jun 2027 07:26:59.490            42.992                Anadyr1          1343.500
       413   04 Jun 2027 07:26:59.490   04 Jun 2027 07:28:02.942            63.452                Anadyr2          1982.875
       414   04 Jun 2027 07:28:12.436   04 Jun 2027 07:29:23.890            71.454               Magadan1          2232.937
       415   04 Jun 2027 07:29:43.659   04 Jun 2027 07:30:27.728            44.069               Magadan1          1377.156
       416   04 Jun 2027 07:30:37.003   04 Jun 2027 07:30:42.222             5.219               Magadan2           163.094
       417   04 Jun 2027 07:30:42.222   04 Jun 2027 07:30:44.629             2.407               Magadan1            75.219
       418   04 Jun 2027 07:30:49.683   04 Jun 2027 07:31:32.253            42.570               Magadan1          1330.313
       419   04 Jun 2027 07:31:42.640   04 Jun 2027 07:32:34.497            51.857                Anadyr1          1620.531
       420   04 Jun 2027 08:08:23.110   04 Jun 2027 08:09:07.337            44.227            RioGallegos          1382.094
       421   04 Jun 2027 08:47:16.672   04 Jun 2027 08:48:07.042            50.370                Sumatra          1574.063
       422   04 Jun 2027 09:01:53.619   04 Jun 2027 09:02:28.131            34.512               Magadan1          1078.500
       423   04 Jun 2027 09:03:45.111   04 Jun 2027 09:03:47.590             2.479                Norilsk            77.469
       424   04 Jun 2027 09:03:58.490   04 Jun 2027 09:05:05.273            66.783                Irkutsk          2086.969
       425   04 Jun 2027 09:05:11.817   04 Jun 2027 09:05:49.982            38.165                Irkutsk          1192.656
       426   04 Jun 2027 09:05:53.185   04 Jun 2027 09:06:50.352            57.167                Irkutsk          1786.469
       427   04 Jun 2027 09:07:07.597   04 Jun 2027 09:07:09.117             1.520                Irkutsk            47.500
       428   04 Jun 2027 09:07:13.221   04 Jun 2027 09:07:32.643            19.422               Magadan1           606.937
       429   04 Jun 2027 09:07:32.643   04 Jun 2027 09:07:36.614             3.971               Magadan2           124.094
       430   04 Jun 2027 09:08:13.208   04 Jun 2027 09:08:29.533            16.325                Irkutsk           510.156
       431   04 Jun 2027 09:08:42.318   04 Jun 2027 09:08:44.320             2.002                Irkutsk            62.562
       432   04 Jun 2027 09:08:57.346   04 Jun 2027 09:09:23.336            25.990                Novosib           812.187
       433   04 Jun 2027 09:43:49.805   04 Jun 2027 09:44:31.106            41.301            RioGallegos          1290.656
       434   04 Jun 2027 10:18:30.795   04 Jun 2027 10:19:08.614            37.819                Sumatra          1181.844
       435   04 Jun 2027 10:20:54.214   04 Jun 2027 10:21:23.467            29.253                Sumatra           914.156
       436   04 Jun 2027 10:28:43.889   04 Jun 2027 10:28:56.062            12.173                  Delhi           380.406
       437   04 Jun 2027 10:32:07.084   04 Jun 2027 10:33:26.543            79.459                  Delhi          2483.094
       438   04 Jun 2027 10:38:35.684   04 Jun 2027 10:38:41.642             5.958                  Delhi           186.187
       439   04 Jun 2027 10:39:26.385   04 Jun 2027 10:39:26.957             0.572                Irkutsk            17.875
       440   04 Jun 2027 10:39:56.889   04 Jun 2027 10:41:03.305            66.416                Irkutsk          2075.500
       441   04 Jun 2027 10:41:16.820   04 Jun 2027 10:42:20.417            63.597                Norilsk          1987.406
       442   04 Jun 2027 10:42:26.713   04 Jun 2027 10:42:32.265             5.552                Irkutsk           173.500
       443   04 Jun 2027 10:42:36.032   04 Jun 2027 10:42:39.250             3.218                Novosib           100.563
       444   04 Jun 2027 10:42:45.553   04 Jun 2027 10:43:10.895            25.342                Novosib           791.938
       445   04 Jun 2027 10:43:13.785   04 Jun 2027 10:43:14.638             0.853                Irkutsk            26.656
       446   04 Jun 2027 10:43:17.371   04 Jun 2027 10:43:46.251            28.880                Irkutsk           902.500
       447   04 Jun 2027 10:44:08.796   04 Jun 2027 10:44:38.213            29.417                Irkutsk           919.281
       448   04 Jun 2027 10:44:52.198   04 Jun 2027 10:45:20.119            27.921                Norilsk           872.531
       449   04 Jun 2027 11:23:57.282   04 Jun 2027 11:25:04.263            66.981            RioGallegos          2093.156
       450   04 Jun 2027 12:04:37.919   04 Jun 2027 12:05:49.985            72.066                  Delhi          2252.062
       451   04 Jun 2027 12:10:37.693   04 Jun 2027 12:11:42.694            65.001                Novosib          2031.281
       452   04 Jun 2027 12:14:50.032   04 Jun 2027 12:14:52.559             2.527                Novosib            78.969
       453   04 Jun 2027 12:16:58.176   04 Jun 2027 12:17:25.760            27.584                Novosib           862.000
       454   04 Jun 2027 13:47:07.158   04 Jun 2027 13:51:01.578           234.420                 Moscow          7325.625
       455   04 Jun 2027 13:51:18.533   04 Jun 2027 13:53:21.685           123.152              Murmansk1          3848.500
       456   04 Jun 2027 13:54:34.408   04 Jun 2027 13:55:33.125            58.717                Norilsk          1834.906
       457   04 Jun 2027 13:55:45.026   04 Jun 2027 13:56:24.969            39.943                Norilsk          1248.219
       458   04 Jun 2027 15:01:43.662   04 Jun 2027 15:04:49.224           185.562               CapeTown          5798.813
       459   04 Jun 2027 15:24:39.286   04 Jun 2027 15:25:21.617            42.331                 Moscow          1322.844
       460   04 Jun 2027 15:27:37.466   04 Jun 2027 15:27:59.822            22.356              Murmansk1           698.625
       461   04 Jun 2027 15:29:52.813   04 Jun 2027 15:29:56.750             3.937              Murmansk2           123.031
       462   04 Jun 2027 15:31:53.506   04 Jun 2027 15:32:11.145            17.639              Murmansk1           551.219
       463   04 Jun 2027 15:33:42.641   04 Jun 2027 15:33:59.628            16.987              Murmansk2           530.844
       464   04 Jun 2027 15:35:44.689   04 Jun 2027 15:36:01.089            16.400              Murmansk2           512.500
       465   04 Jun 2027 15:41:37.962   04 Jun 2027 15:44:14.682           156.720                Anadyr1          4897.500
       466   04 Jun 2027 15:45:21.043   04 Jun 2027 15:45:39.268            18.225                Anadyr1           569.531
       467   04 Jun 2027 15:51:04.573   04 Jun 2027 15:51:06.969             2.396                Anadyr1            74.875
       468   04 Jun 2027 16:41:08.923   04 Jun 2027 16:41:38.506            29.583               CapeTown           924.469
       469   04 Jun 2027 16:46:16.867   04 Jun 2027 16:46:38.340            21.473               CapeTown           671.031
       470   04 Jun 2027 17:06:57.423   04 Jun 2027 17:08:33.143            95.720              Murmansk1          2991.250
       471   04 Jun 2027 17:08:57.059   04 Jun 2027 17:09:58.559            61.500              Murmansk1          1921.875
       472   04 Jun 2027 17:17:10.629   04 Jun 2027 17:19:18.973           128.344                Anadyr2          4010.750
       473   04 Jun 2027 17:20:36.093   04 Jun 2027 17:21:42.916            66.823               Magadan1          2088.219
       474   04 Jun 2027 17:23:31.934   04 Jun 2027 17:23:51.925            19.991               Magadan1           624.719
       475   04 Jun 2027 17:23:55.303   04 Jun 2027 17:23:58.599             3.296               Magadan2           103.000
       476   04 Jun 2027 17:24:01.417   04 Jun 2027 17:24:32.201            30.784               Magadan2           962.000
       477   04 Jun 2027 18:53:05.452   04 Jun 2027 18:56:55.658           230.206                Anadyr1          7193.938
       478   04 Jun 2027 18:57:46.700   04 Jun 2027 18:58:45.118            58.418               Magadan1          1825.563
       479   04 Jun 2027 18:59:39.933   04 Jun 2027 19:00:36.609            56.676               Magadan2          1771.125
       480   04 Jun 2027 19:00:45.889   04 Jun 2027 19:01:28.242            42.353               Magadan1          1323.531
       481   04 Jun 2027 19:51:22.230   04 Jun 2027 19:52:15.563            53.333            RioGallegos          1666.656
       482   04 Jun 2027 20:28:56.634   04 Jun 2027 20:31:03.637           127.003                Anadyr2          3968.844
