uniorb/output/strategy_4/Drop/Drop_KinoSat_110208.txt

KinoSat_110208
-------------------------
    Access    *     Start Time (UTCG)     *     Stop Time (UTCG)  *   Duration (s)        *       Station  *  Data (Mbytes)
         1   01 Jun 2027 03:33:16.715   01 Jun 2027 03:33:48.593            31.878                Irkutsk          3984.750
         2   01 Jun 2027 03:34:21.621   01 Jun 2027 03:34:47.828            26.207                Irkutsk          3275.875
         3   01 Jun 2027 03:34:49.839   01 Jun 2027 03:35:04.107            14.268                Irkutsk          1783.500
         4   01 Jun 2027 03:35:21.319   01 Jun 2027 03:36:14.764            53.445                Irkutsk          6680.625
         5   01 Jun 2027 03:36:31.282   01 Jun 2027 03:38:29.226           117.944               Magadan1         14743.000
         6   01 Jun 2027 03:39:41.163   01 Jun 2027 03:39:46.803             5.640                Irkutsk           705.000
         7   01 Jun 2027 03:39:58.252   01 Jun 2027 03:40:01.272             3.020                Norilsk           377.500
         8   01 Jun 2027 03:40:31.843   01 Jun 2027 03:40:34.239             2.396              Murmansk2           299.500
         9   01 Jun 2027 03:40:58.388   01 Jun 2027 03:41:00.033             1.645              Murmansk2           205.625
        10   01 Jun 2027 04:14:35.938   01 Jun 2027 04:15:13.507            37.569            RioGallegos          4696.125
        11   01 Jun 2027 04:15:41.218   01 Jun 2027 04:16:24.692            43.474            RioGallegos          5434.250
        12   01 Jun 2027 04:23:17.898   01 Jun 2027 04:24:20.021            62.123            RioGallegos          7765.375
        13   01 Jun 2027 04:49:19.295   01 Jun 2027 04:52:20.267           180.972                Sumatra         22621.500
        14   01 Jun 2027 05:11:36.621   01 Jun 2027 05:13:20.536           103.915                Irkutsk         12989.375
        15   01 Jun 2027 05:13:39.798   01 Jun 2027 05:13:59.529            19.731                Novosib          2466.375
        16   01 Jun 2027 05:14:26.574   01 Jun 2027 05:15:35.585            69.011                Norilsk          8626.375
        17   01 Jun 2027 05:54:31.102   01 Jun 2027 05:55:15.002            43.900            RioGallegos          5487.500
        18   01 Jun 2027 06:33:35.721   01 Jun 2027 06:36:11.236           155.515                  Delhi         19439.375
        19   01 Jun 2027 06:49:37.709   01 Jun 2027 06:49:59.933            22.224                 Moscow          2778.000
        20   01 Jun 2027 06:50:06.559   01 Jun 2027 06:50:17.831            11.272                Novosib          1409.000
        21   01 Jun 2027 06:50:23.524   01 Jun 2027 06:51:19.902            56.378              Murmansk1          7047.250
        22   01 Jun 2027 06:51:35.751   01 Jun 2027 06:52:01.564            25.813              Murmansk1          3226.625
        23   01 Jun 2027 08:23:35.318   01 Jun 2027 08:24:56.867            81.549              Murmansk1         10193.625
        24   01 Jun 2027 08:25:14.547   01 Jun 2027 08:26:00.753            46.206                Norilsk          5775.750
        25   01 Jun 2027 08:26:01.508   01 Jun 2027 08:27:30.199            88.691                 Moscow         11086.375
        26   01 Jun 2027 08:27:42.410   01 Jun 2027 08:30:49.138           186.728                 Moscow         23341.000
        27   01 Jun 2027 09:32:38.274   01 Jun 2027 09:39:15.242           396.968               CapeTown         49621.000
        28   01 Jun 2027 10:14:19.654   01 Jun 2027 10:17:01.466           161.812                Anadyr1         20226.500
        29   01 Jun 2027 13:28:16.591   01 Jun 2027 13:31:01.049           164.458               Magadan1         20557.250
        30   01 Jun 2027 15:23:30.791   01 Jun 2027 15:26:42.519           191.728                Sumatra         23966.000
        31   01 Jun 2027 15:56:01.789   01 Jun 2027 15:56:13.832            12.043            RioGallegos          1505.375
        32   01 Jun 2027 16:41:36.806   01 Jun 2027 16:42:55.842            79.036                Irkutsk          9879.500
        33   01 Jun 2027 16:46:21.812   01 Jun 2027 16:46:44.587            22.775                Irkutsk          2846.875
        34   01 Jun 2027 16:48:25.269   01 Jun 2027 16:49:39.481            74.212                Irkutsk          9276.500
        35   01 Jun 2027 16:49:45.094   01 Jun 2027 16:51:24.320            99.226                Novosib         12403.250
        36   01 Jun 2027 16:56:16.905   01 Jun 2027 16:57:50.814            93.909                Sumatra         11738.625
        37   01 Jun 2027 17:06:36.869   01 Jun 2027 17:06:48.142            11.273                Sumatra          1409.125
        38   01 Jun 2027 18:21:11.066   01 Jun 2027 18:22:29.284            78.218                Novosib          9777.250
        39   01 Jun 2027 18:24:52.907   01 Jun 2027 18:27:48.047           175.140                  Delhi         16443.000
        40   02 Jun 2027 03:51:26.791   02 Jun 2027 03:51:49.483            22.692                Irkutsk          2836.500
        41   02 Jun 2027 03:51:51.244   02 Jun 2027 03:54:54.091           182.847                Norilsk         22855.875
        42   02 Jun 2027 05:01:21.270   02 Jun 2027 05:03:26.352           125.082                Sumatra         15635.250
        43   02 Jun 2027 05:11:55.585   02 Jun 2027 05:14:35.512           159.927                  Delhi         19990.875
        44   02 Jun 2027 05:27:26.817   02 Jun 2027 05:29:18.626           111.809                Novosib         13976.125
        45   02 Jun 2027 05:29:29.220   02 Jun 2027 05:32:44.742           195.522                Norilsk         24440.250
        46   02 Jun 2027 05:32:51.371   02 Jun 2027 05:34:49.885           118.514              Murmansk1         14814.250
        47   02 Jun 2027 06:53:03.889   02 Jun 2027 06:58:00.428           296.539                  Delhi         37067.375
        48   02 Jun 2027 06:58:00.639   02 Jun 2027 06:58:56.462            55.823                 Moscow          6977.875
        49   02 Jun 2027 07:03:21.376   02 Jun 2027 07:04:44.772            83.396                Novosib         10424.500
        50   02 Jun 2027 07:04:51.614   02 Jun 2027 07:08:43.520           231.906                Norilsk         28988.250
        51   02 Jun 2027 07:09:02.654   02 Jun 2027 07:10:25.534            82.880              Murmansk1         10360.000
        52   02 Jun 2027 08:34:51.470   02 Jun 2027 08:35:11.497            20.027                 Moscow          2503.375
        53   02 Jun 2027 08:39:13.546   02 Jun 2027 08:42:50.108           216.562                 Moscow         27070.250
        54   02 Jun 2027 08:42:58.219   02 Jun 2027 08:46:19.786           201.567              Murmansk1         25195.875
        55   02 Jun 2027 09:47:15.752   02 Jun 2027 09:55:19.597           483.845               CapeTown         60480.625
        56   02 Jun 2027 10:12:41.836   02 Jun 2027 10:16:28.268           226.432              Murmansk1         28304.000
        57   02 Jun 2027 10:17:31.906   02 Jun 2027 10:19:47.225           135.319              Murmansk1         16914.875
        58   02 Jun 2027 10:19:47.225   02 Jun 2027 10:22:17.262           150.037              Murmansk2         18754.625
        59   02 Jun 2027 10:24:23.425   02 Jun 2027 10:34:20.337           596.912                Anadyr1         74614.000
        60   02 Jun 2027 11:25:40.634   02 Jun 2027 11:27:26.391           105.757               CapeTown         13219.625
        61   02 Jun 2027 12:04:09.294   02 Jun 2027 12:07:10.491           181.197               Magadan1         22649.625
        62   02 Jun 2027 13:38:42.044   02 Jun 2027 13:39:02.368            20.324               Magadan2          2540.500
        63   02 Jun 2027 13:41:04.914   02 Jun 2027 13:43:02.009           117.095               Magadan2         14636.875
        64   02 Jun 2027 15:23:46.095   02 Jun 2027 15:24:28.666            42.571                Irkutsk          5321.375
        65   02 Jun 2027 15:34:09.339   02 Jun 2027 15:39:04.473           295.134                Sumatra         36891.750
        66   02 Jun 2027 16:54:20.670   02 Jun 2027 16:57:05.075           164.405                Novosib         20550.625
        67   02 Jun 2027 17:04:56.576   02 Jun 2027 17:07:39.225           162.649                  Delhi         20331.125
        68   02 Jun 2027 17:17:06.943   02 Jun 2027 17:17:10.831             3.888                Sumatra           486.000
        69   02 Jun 2027 18:34:12.945   02 Jun 2027 18:34:15.030             2.085                Novosib           260.625
        70   02 Jun 2027 18:35:39.599   02 Jun 2027 18:35:53.445            13.846                Novosib          1730.750
        71   02 Jun 2027 18:36:48.671   02 Jun 2027 18:39:57.086           188.415                  Delhi         23551.875
        72   02 Jun 2027 18:44:26.585   02 Jun 2027 18:46:22.281           115.696                  Delhi         14462.000
        73   02 Jun 2027 20:10:26.789   02 Jun 2027 20:12:04.107            97.318                 Moscow         12164.750
        74   02 Jun 2027 21:48:23.537   02 Jun 2027 21:50:42.745           139.208                 Moscow          7359.750
        75   03 Jun 2027 04:03:45.551   03 Jun 2027 04:03:51.378             5.827                Irkutsk           728.375
        76   03 Jun 2027 04:03:56.006   03 Jun 2027 04:04:18.677            22.671              Murmansk1          2833.875
        77   03 Jun 2027 04:04:18.677   03 Jun 2027 04:05:48.815            90.138              Murmansk2         11267.250
        78   03 Jun 2027 05:13:28.963   03 Jun 2027 05:14:25.696            56.733                Sumatra          7091.625
        79   03 Jun 2027 05:17:20.719   03 Jun 2027 05:18:17.040            56.321                Sumatra          7040.125
        80   03 Jun 2027 05:22:35.900   03 Jun 2027 05:24:16.622           100.722                  Delhi         12590.250
        81   03 Jun 2027 05:38:13.622   03 Jun 2027 05:38:45.524            31.902                 Moscow          3987.750
        82   03 Jun 2027 05:39:42.261   03 Jun 2027 05:41:19.463            97.202                Novosib         12150.250
        83   03 Jun 2027 05:42:02.240   03 Jun 2027 05:42:06.522             4.282                 Moscow           535.250
        84   03 Jun 2027 05:42:20.795   03 Jun 2027 05:46:47.050           266.255              Murmansk1         33281.875
        85   03 Jun 2027 07:05:35.958   03 Jun 2027 07:09:46.980           251.022                  Delhi         31377.750
        86   03 Jun 2027 07:09:55.509   03 Jun 2027 07:11:05.056            69.547                 Moscow          8693.375
        87   03 Jun 2027 07:15:52.225   03 Jun 2027 07:18:46.900           174.675                 Moscow         21834.375
        88   03 Jun 2027 07:18:51.895   03 Jun 2027 07:22:25.989           214.094              Murmansk1         26761.750
        89   03 Jun 2027 08:45:15.708   03 Jun 2027 08:47:04.715           109.007                 Moscow         13625.875
        90   03 Jun 2027 08:50:16.154   03 Jun 2027 08:54:50.418           274.264                 Moscow         34283.000
        91   03 Jun 2027 08:54:53.120   03 Jun 2027 08:58:21.459           208.339              Murmansk2         26042.375
        92   03 Jun 2027 10:00:38.962   03 Jun 2027 10:07:44.284           425.322               CapeTown         53165.250
        93   03 Jun 2027 10:24:53.825   03 Jun 2027 10:26:06.828            73.003              Murmansk2          9125.375
        94   03 Jun 2027 10:26:27.971   03 Jun 2027 10:28:29.603           121.632                 Moscow         15204.000
        95   03 Jun 2027 10:29:33.458   03 Jun 2027 10:34:18.167           284.709              Murmansk2         35588.625
        96   03 Jun 2027 10:36:52.074   03 Jun 2027 10:37:58.028            65.954                Anadyr1          8244.250
        97   03 Jun 2027 10:42:19.874   03 Jun 2027 10:43:13.250            53.376                Anadyr1          6672.000
        98   03 Jun 2027 12:15:55.304   03 Jun 2027 12:18:27.103           151.799               Magadan2         18974.875
        99   03 Jun 2027 13:50:14.369   03 Jun 2027 13:50:54.106            39.737               Magadan1          4967.125
       100   03 Jun 2027 13:55:03.309   03 Jun 2027 13:56:29.940            86.631               Magadan1         10828.875
       101   03 Jun 2027 14:47:56.922   03 Jun 2027 14:50:29.380           152.458            RioGallegos         19057.250
       102   03 Jun 2027 15:34:01.046   03 Jun 2027 15:34:45.557            44.511                Irkutsk          5563.875
       103   03 Jun 2027 15:36:53.088   03 Jun 2027 15:37:03.571            10.483                Irkutsk          1310.375
       104   03 Jun 2027 15:40:01.535   03 Jun 2027 15:40:07.286             5.751                Irkutsk           718.875
       105   03 Jun 2027 15:45:16.960   03 Jun 2027 15:48:28.561           191.601                Sumatra         23950.125
       106   03 Jun 2027 17:06:09.379   03 Jun 2027 17:10:32.743           263.364                Novosib         32920.500
       107   03 Jun 2027 17:15:31.178   03 Jun 2027 17:18:15.224           164.046                  Delhi         20505.750
       108   03 Jun 2027 18:48:47.868   03 Jun 2027 18:50:32.928           105.060                  Delhi         13132.500
       109   03 Jun 2027 18:56:08.806   03 Jun 2027 18:58:24.099           135.293                  Delhi         16911.625
       110   03 Jun 2027 20:19:33.196   03 Jun 2027 20:20:34.815            61.619                 Moscow          7702.375
       111   03 Jun 2027 20:23:27.771   03 Jun 2027 20:24:01.598            33.827                 Moscow          4102.250
       112   04 Jun 2027 04:15:43.890   04 Jun 2027 04:15:52.460             8.570                Irkutsk          1071.250
       113   04 Jun 2027 04:16:03.745   04 Jun 2027 04:17:17.014            73.269                Novosib          9158.625
       114   04 Jun 2027 04:17:19.913   04 Jun 2027 04:17:55.489            35.576              Murmansk1          4447.000
       115   04 Jun 2027 05:25:42.861   04 Jun 2027 05:26:20.488            37.627                Sumatra          4703.375
       116   04 Jun 2027 05:28:02.809   04 Jun 2027 05:30:13.646           130.837                Sumatra         16354.625
       117   04 Jun 2027 05:34:14.247   04 Jun 2027 05:36:32.279           138.032                  Delhi         17254.000
       118   04 Jun 2027 05:51:00.470   04 Jun 2027 05:53:19.628           139.158                Novosib         17394.750
       119   04 Jun 2027 05:53:29.953   04 Jun 2027 05:54:16.803            46.850                 Moscow          5856.250
       120   04 Jun 2027 05:54:25.772   04 Jun 2027 05:58:44.766           258.994              Murmansk2         32374.250
       121   04 Jun 2027 07:17:33.463   04 Jun 2027 07:21:28.045           234.582                  Delhi         29322.750
       122   04 Jun 2027 07:21:29.404   04 Jun 2027 07:22:59.762            90.358                 Moscow         11294.750
       123   04 Jun 2027 07:27:45.657   04 Jun 2027 07:30:50.969           185.312                 Moscow         23164.000
       124   04 Jun 2027 07:31:07.651   04 Jun 2027 07:34:26.706           199.055              Murmansk1         24881.875
       125   04 Jun 2027 08:57:15.877   04 Jun 2027 08:59:46.657           150.780                 Moscow         18847.500
       126   04 Jun 2027 09:01:39.483   04 Jun 2027 09:02:15.847            36.364              Murmansk1          4545.500
       127   04 Jun 2027 09:02:21.186   04 Jun 2027 09:06:49.983           268.797                 Moscow         33599.625
       128   04 Jun 2027 09:06:58.989   04 Jun 2027 09:10:23.163           204.174              Murmansk2         25521.750
       129   04 Jun 2027 09:14:09.528   04 Jun 2027 09:17:39.256           209.728                Anadyr1         26216.000
       130   04 Jun 2027 10:13:34.458   04 Jun 2027 10:15:33.485           119.027               CapeTown         14878.375
       131   04 Jun 2027 10:52:38.707   04 Jun 2027 10:52:59.794            21.087                Anadyr2          2635.875
       132   04 Jun 2027 10:55:30.605   04 Jun 2027 10:57:50.129           139.524                Anadyr1         17440.500
       133   04 Jun 2027 12:27:35.359   04 Jun 2027 12:31:18.827           223.468               Magadan1         27933.500
       134   04 Jun 2027 14:59:10.170   04 Jun 2027 15:00:36.422            86.252            RioGallegos         10781.500
       135   04 Jun 2027 15:42:24.392   04 Jun 2027 15:44:52.301           147.909                Irkutsk         18488.625
       136   04 Jun 2027 15:46:41.025   04 Jun 2027 15:48:20.172            99.147                Irkutsk         12393.375
       137   04 Jun 2027 15:56:39.726   04 Jun 2027 16:00:21.683           221.957                Sumatra         27744.625
       138   04 Jun 2027 17:18:00.859   04 Jun 2027 17:19:10.377            69.518                Novosib          8689.750
       139   04 Jun 2027 17:26:42.399   04 Jun 2027 17:30:02.627           200.228                  Delhi         25028.500
       140   04 Jun 2027 17:32:32.516   04 Jun 2027 17:35:40.793           188.277                  Delhi         23534.625
       141   04 Jun 2027 20:31:26.398   04 Jun 2027 20:33:55.608           149.210                 Moscow         12759.875
       142   05 Jun 2027 05:38:03.961   05 Jun 2027 05:39:50.319           106.358                Sumatra         13294.750
       143   05 Jun 2027 05:45:58.654   05 Jun 2027 05:48:43.622           164.968                  Delhi         20621.000
       144   05 Jun 2027 06:03:44.239   05 Jun 2027 06:05:19.028            94.789                Novosib         11848.625
       145   05 Jun 2027 06:05:22.431   05 Jun 2027 06:06:25.654            63.223                 Moscow          7902.875
       146   05 Jun 2027 06:06:33.154   05 Jun 2027 06:10:42.995           249.841              Murmansk1         31230.125
       147   05 Jun 2027 07:29:27.424   05 Jun 2027 07:33:01.889           214.465                  Delhi         26808.125
       148   05 Jun 2027 07:33:07.920   05 Jun 2027 07:35:01.587           113.667                Novosib         14208.375
       149   05 Jun 2027 07:39:17.431   05 Jun 2027 07:42:54.569           217.138                 Moscow         27142.250
       150   05 Jun 2027 07:43:09.561   05 Jun 2027 07:46:27.637           198.076              Murmansk1         24759.500
       151   05 Jun 2027 09:09:15.280   05 Jun 2027 09:11:02.406           107.126                 Moscow         13390.750
       152   05 Jun 2027 09:12:59.632   05 Jun 2027 09:14:32.480            92.848              Murmansk2         11606.000
       153   05 Jun 2027 09:14:44.564   05 Jun 2027 09:18:48.708           244.144                 Moscow         30518.000
       154   05 Jun 2027 09:18:54.596   05 Jun 2027 09:21:35.697           161.101              Murmansk2         20137.625
       155   05 Jun 2027 09:21:35.697   05 Jun 2027 09:22:24.861            49.164              Murmansk1          6145.500
       156   05 Jun 2027 09:25:34.066   05 Jun 2027 09:27:18.331           104.265                Anadyr2         13033.125
       157   05 Jun 2027 12:38:44.296   05 Jun 2027 12:43:16.954           272.658               Magadan2         34082.250
       158   05 Jun 2027 14:16:17.914   05 Jun 2027 14:16:34.703            16.789               Magadan2          2098.625
       159   05 Jun 2027 15:06:50.123   05 Jun 2027 15:10:53.708           243.585            RioGallegos         30448.125
       160   05 Jun 2027 15:54:13.389   05 Jun 2027 15:55:15.966            62.577                Irkutsk          7822.125
       161   05 Jun 2027 16:03:41.105   05 Jun 2027 16:05:14.168            93.063                Irkutsk         11632.875
       162   05 Jun 2027 16:08:12.789   05 Jun 2027 16:09:58.954           106.165                Sumatra         13270.625
       163   05 Jun 2027 17:29:54.457   05 Jun 2027 17:34:29.160           274.703                Novosib         34337.875
       164   05 Jun 2027 17:38:09.024   05 Jun 2027 17:41:54.372           225.348                  Delhi         28168.500
       165   05 Jun 2027 20:43:21.360   05 Jun 2027 20:45:10.431           109.071                 Moscow         13633.875
       166   05 Jun 2027 21:15:30.502   05 Jun 2027 21:17:23.961           113.459               CapeTown          3361.500
       167   06 Jun 2027 04:14:02.403   06 Jun 2027 04:18:21.943           259.540                Sumatra         32442.500
       168   06 Jun 2027 04:39:26.344   06 Jun 2027 04:47:22.187           475.843              Murmansk1         59480.375
       169   06 Jun 2027 05:22:03.184   06 Jun 2027 05:25:24.526           201.342            RioGallegos         25167.750
       170   06 Jun 2027 05:50:34.173   06 Jun 2027 05:52:38.940           124.767                Sumatra         15595.875
       171   06 Jun 2027 05:57:48.655   06 Jun 2027 05:58:36.196            47.541                  Delhi          5942.625
       172   06 Jun 2027 06:00:51.245   06 Jun 2027 06:02:47.294           116.049                  Delhi         14506.125
       173   06 Jun 2027 06:16:00.168   06 Jun 2027 06:18:33.427           153.259                 Moscow         19157.375
       174   06 Jun 2027 06:18:42.862   06 Jun 2027 06:22:41.687           238.825              Murmansk2         29853.125
       175   06 Jun 2027 07:41:17.412   06 Jun 2027 07:41:54.778            37.366                  Delhi          4670.750
       176   06 Jun 2027 07:44:24.583   06 Jun 2027 07:46:42.217           137.634                Novosib         17204.250
       177   06 Jun 2027 07:52:27.261   06 Jun 2027 07:53:35.301            68.040                Norilsk          8505.000
       178   06 Jun 2027 07:53:45.463   06 Jun 2027 07:58:28.765           283.302              Murmansk2         35412.750
       179   06 Jun 2027 09:02:17.762   06 Jun 2027 09:03:43.744            85.982               CapeTown         10747.750
       180   06 Jun 2027 09:21:13.822   06 Jun 2027 09:21:54.343            40.521                 Moscow          5065.125
       181   06 Jun 2027 09:25:00.833   06 Jun 2027 09:26:26.805            85.972              Murmansk1         10746.500
       182   06 Jun 2027 09:26:29.743   06 Jun 2027 09:27:00.921            31.178                 Moscow          3897.250
       183   06 Jun 2027 09:27:21.742   06 Jun 2027 09:30:46.463           204.721                 Moscow         25590.125
       184   06 Jun 2027 09:30:50.189   06 Jun 2027 09:34:26.525           216.336              Murmansk2         27042.000
       185   06 Jun 2027 09:37:13.635   06 Jun 2027 09:43:53.371           399.736                Anadyr1         49967.000
       186   06 Jun 2027 11:15:57.847   06 Jun 2027 11:17:00.744            62.897                Anadyr2          7862.125
       187   06 Jun 2027 12:50:39.080   06 Jun 2027 12:52:36.089           117.009               Magadan2         14626.125
       188   06 Jun 2027 12:55:14.874   06 Jun 2027 12:55:15.846             0.972               Magadan1           121.500
       189   06 Jun 2027 12:57:38.008   06 Jun 2027 13:00:10.440           152.432               Magadan2         19054.000
       190   06 Jun 2027 14:27:59.956   06 Jun 2027 14:28:14.197            14.241               Magadan2          1780.125
       191   06 Jun 2027 14:28:41.255   06 Jun 2027 14:29:35.540            54.285               Magadan1          6785.625
       192   06 Jun 2027 15:18:34.349   06 Jun 2027 15:22:48.837           254.488            RioGallegos         31811.000
       193   06 Jun 2027 16:06:05.105   06 Jun 2027 16:07:45.084            99.979                Irkutsk         12497.375
       194   06 Jun 2027 16:19:53.812   06 Jun 2027 16:24:24.843           271.031                Sumatra         33878.875
       195   06 Jun 2027 17:44:00.886   06 Jun 2027 17:46:28.712           147.826                Novosib         18478.250
       196   06 Jun 2027 17:49:45.034   06 Jun 2027 17:52:51.981           186.947                  Delhi         23368.375
       197   06 Jun 2027 20:51:53.933   06 Jun 2027 20:52:13.634            19.701              Murmansk1          2462.625
       198   06 Jun 2027 20:55:17.739   06 Jun 2027 20:56:42.749            85.010                 Moscow         10626.250
       199   06 Jun 2027 21:19:45.236   06 Jun 2027 21:20:19.731            34.495               CapeTown          4311.875
       200   07 Jun 2027 03:16:12.077   07 Jun 2027 03:17:04.158            52.081                Novosib          6510.125
       201   07 Jun 2027 03:17:08.777   07 Jun 2027 03:21:00.736           231.959                Norilsk         28994.875
       202   07 Jun 2027 03:21:05.756   07 Jun 2027 03:21:39.101            33.345              Murmansk2          4168.125
       203   07 Jun 2027 04:25:46.880   07 Jun 2027 04:28:27.871           160.991                Sumatra         20123.875
       204   07 Jun 2027 04:52:07.840   07 Jun 2027 04:52:52.803            44.963                 Moscow          5620.375
       205   07 Jun 2027 04:52:57.191   07 Jun 2027 04:53:27.508            30.317                Novosib          3789.625
       206   07 Jun 2027 04:53:35.549   07 Jun 2027 04:56:54.116           198.567                Norilsk         24820.875
       207   07 Jun 2027 04:57:17.466   07 Jun 2027 04:59:16.796           119.330              Murmansk1         14916.250
       208   07 Jun 2027 06:17:25.600   07 Jun 2027 06:22:31.008           305.408                  Delhi         38176.000
       209   07 Jun 2027 06:22:31.391   07 Jun 2027 06:23:05.969            34.578                 Moscow          4322.250
       210   07 Jun 2027 06:27:37.073   07 Jun 2027 06:30:40.354           183.281                 Moscow         22910.125
       211   07 Jun 2027 06:30:40.757   07 Jun 2027 06:34:40.806           240.049              Murmansk1         30006.125
       212   07 Jun 2027 07:55:20.083   07 Jun 2027 07:56:53.571            93.488                 Moscow         11686.000
       213   07 Jun 2027 07:58:17.906   07 Jun 2027 07:58:44.749            26.843                Novosib          3355.375
       214   07 Jun 2027 08:03:09.543   07 Jun 2027 08:03:35.667            26.124                 Moscow          3265.500
       215   07 Jun 2027 08:04:29.121   07 Jun 2027 08:06:56.464           147.343                Norilsk         18417.875
       216   07 Jun 2027 08:07:08.586   07 Jun 2027 08:10:30.056           201.470              Murmansk1         25183.750
       217   07 Jun 2027 09:14:49.612   07 Jun 2027 09:17:18.502           148.890               CapeTown         18611.250
       218   07 Jun 2027 09:33:11.360   07 Jun 2027 09:33:32.953            21.593                 Moscow          2699.125
       219   07 Jun 2027 09:37:02.176   07 Jun 2027 09:38:52.131           109.955              Murmansk2         13744.375
       220   07 Jun 2027 09:39:07.546   07 Jun 2027 09:42:43.063           215.517                 Moscow         26939.625
       221   07 Jun 2027 09:42:44.790   07 Jun 2027 09:45:15.975           151.185              Murmansk2         18898.125
       222   07 Jun 2027 09:45:15.975   07 Jun 2027 09:46:28.120            72.145              Murmansk1          9018.125
       223   07 Jun 2027 09:48:59.965   07 Jun 2027 09:56:42.383           462.418                Anadyr2         57802.250
       224   07 Jun 2027 10:51:08.971   07 Jun 2027 10:56:21.984           313.013               CapeTown         39126.625
       225   07 Jun 2027 11:17:38.074   07 Jun 2027 11:18:55.306            77.232              Murmansk1          9654.000
       226   07 Jun 2027 11:18:55.306   07 Jun 2027 11:22:17.615           202.309              Murmansk2         25288.625
       227   07 Jun 2027 11:24:13.751   07 Jun 2027 11:32:08.011           474.260                Anadyr2         59282.500
       228   07 Jun 2027 11:33:46.824   07 Jun 2027 11:33:48.204             1.380                Anadyr1           172.500
       229   07 Jun 2027 13:02:35.239   07 Jun 2027 13:07:45.375           310.136               Magadan2         38767.000
       230   07 Jun 2027 15:30:22.525   07 Jun 2027 15:36:05.078           342.553            RioGallegos         42819.125
       231   07 Jun 2027 16:20:09.011   07 Jun 2027 16:20:09.911             0.900                Irkutsk           112.500
       232   07 Jun 2027 16:27:29.839   07 Jun 2027 16:29:14.777           104.938                Irkutsk         13117.250
       233   07 Jun 2027 16:31:41.507   07 Jun 2027 16:34:34.006           172.499                Sumatra         21562.375
       234   07 Jun 2027 17:53:46.380   07 Jun 2027 17:55:07.442            81.062                Novosib         10132.750
       235   07 Jun 2027 18:01:27.700   07 Jun 2027 18:05:48.861           261.161                  Delhi         32645.125
       236   07 Jun 2027 21:07:15.306   07 Jun 2027 21:08:23.459            68.153                 Moscow          8519.125
       237   07 Jun 2027 21:31:27.756   07 Jun 2027 21:33:44.619           136.863               CapeTown         17107.875
       238   08 Jun 2027 03:28:00.218   08 Jun 2027 03:29:10.929            70.711                Novosib          8838.875
       239   08 Jun 2027 03:29:11.513   08 Jun 2027 03:32:56.811           225.298                Norilsk         28162.250
       240   08 Jun 2027 04:37:37.617   08 Jun 2027 04:40:38.602           180.985                Sumatra         22623.125
       241   08 Jun 2027 05:03:32.969   08 Jun 2027 05:05:32.189           119.220                 Moscow         14902.500
       242   08 Jun 2027 05:05:40.947   08 Jun 2027 05:08:55.870           194.923                Norilsk         24365.375
       243   08 Jun 2027 05:08:56.174   08 Jun 2027 05:11:12.095           135.921              Murmansk1         16990.125
       244   08 Jun 2027 06:29:11.566   08 Jun 2027 06:34:29.309           317.743                  Delhi         39717.875
       245   08 Jun 2027 06:39:54.368   08 Jun 2027 06:42:46.572           172.204                 Moscow         21525.500
       246   08 Jun 2027 06:43:01.193   08 Jun 2027 06:46:40.317           219.124              Murmansk1         27390.500
       247   08 Jun 2027 08:16:30.930   08 Jun 2027 08:20:40.669           249.739                Norilsk         31217.375
       248   08 Jun 2027 08:20:41.565   08 Jun 2027 08:22:31.488           109.923              Murmansk1         13740.375
       249   08 Jun 2027 09:27:13.414   08 Jun 2027 09:30:18.493           185.079               CapeTown         23134.875
       250   08 Jun 2027 09:49:03.642   08 Jun 2027 09:50:13.172            69.530              Murmansk2          8691.250
       251   08 Jun 2027 09:50:36.396   08 Jun 2027 09:51:44.216            67.820                 Moscow          8477.500
       252   08 Jun 2027 09:53:44.918   08 Jun 2027 09:58:29.612           284.694              Murmansk2         35586.750
       253   08 Jun 2027 10:01:19.659   08 Jun 2027 10:09:24.947           485.288                Anadyr2         60661.000
       254   08 Jun 2027 11:03:25.329   08 Jun 2027 11:08:18.423           293.094               CapeTown         36636.750
       255   08 Jun 2027 11:27:17.873   08 Jun 2027 11:34:15.781           417.908              Murmansk2         52238.500
       256   08 Jun 2027 11:38:45.937   08 Jun 2027 11:48:32.288           586.351                Anadyr2         73293.875
       257   08 Jun 2027 13:12:06.949   08 Jun 2027 13:14:14.290           127.341                Anadyr2         15917.625
       258   08 Jun 2027 13:14:32.512   08 Jun 2027 13:19:38.460           305.948               Magadan1         38243.500
       259   08 Jun 2027 13:20:27.581   08 Jun 2027 13:22:18.527           110.946               Magadan2         13868.250
       260   08 Jun 2027 13:25:46.158   08 Jun 2027 13:26:36.461            50.303               Magadan2          6287.875
       261   08 Jun 2027 15:42:13.638   08 Jun 2027 15:45:48.767           215.129            RioGallegos         26891.125
       262   08 Jun 2027 16:29:54.556   08 Jun 2027 16:31:34.255            99.699                Irkutsk         12462.375
       263   08 Jun 2027 16:38:30.501   08 Jun 2027 16:38:51.106            20.605                Novosib          2575.625
       264   08 Jun 2027 16:43:35.160   08 Jun 2027 16:46:41.720           186.560                Sumatra         23320.000
       265   08 Jun 2027 18:10:29.981   08 Jun 2027 18:10:48.616            18.635                Novosib          2329.375
       266   08 Jun 2027 18:13:15.527   08 Jun 2027 18:17:51.121           275.594                  Delhi         34449.250
       267   08 Jun 2027 19:44:24.776   08 Jun 2027 19:45:17.151            52.375                 Moscow          6546.875
       268   08 Jun 2027 21:27:19.728   08 Jun 2027 21:28:47.875            88.147                 Moscow         11018.375
       269   08 Jun 2027 21:43:15.577   08 Jun 2027 21:44:05.608            50.031               CapeTown          6253.875
       270   09 Jun 2027 03:18:54.025   09 Jun 2027 03:19:28.292            34.267                Sumatra          4032.250
       271   09 Jun 2027 03:40:04.826   09 Jun 2027 03:41:17.016            72.190                Novosib          9023.750
       272   09 Jun 2027 03:41:18.353   09 Jun 2027 03:44:31.895           193.542              Murmansk2         24192.750
       273   09 Jun 2027 04:49:34.110   09 Jun 2027 04:52:34.089           179.979                Sumatra         22497.375
       274   09 Jun 2027 05:00:54.123   09 Jun 2027 05:01:06.763            12.640                  Delhi          1580.000
       275   09 Jun 2027 05:16:09.853   09 Jun 2027 05:17:32.026            82.173                Novosib         10271.625
       276   09 Jun 2027 05:17:32.882   09 Jun 2027 05:20:57.709           204.827                Norilsk         25603.375
       277   09 Jun 2027 05:21:00.903   09 Jun 2027 05:23:08.056           127.153              Murmansk2         15894.125
       278   09 Jun 2027 06:41:45.784   09 Jun 2027 06:46:24.113           278.329                  Delhi         34791.125
       279   09 Jun 2027 06:46:27.437   09 Jun 2027 06:46:48.326            20.889                 Moscow          2611.125
       280   09 Jun 2027 06:51:40.433   09 Jun 2027 06:52:09.823            29.390                Novosib          3673.750
       281   09 Jun 2027 06:52:14.892   09 Jun 2027 06:54:52.181           157.289                 Moscow         19661.125
       282   09 Jun 2027 06:54:52.930   09 Jun 2027 06:56:57.162           124.232                Norilsk         15529.000
       283   09 Jun 2027 06:57:06.592   09 Jun 2027 06:58:40.180            93.588              Murmansk1         11698.500
       284   09 Jun 2027 08:28:32.643   09 Jun 2027 08:32:36.720           244.077                Norilsk         30509.625
       285   09 Jun 2027 08:33:15.508   09 Jun 2027 08:34:33.022            77.514              Murmansk1          9689.250
       286   09 Jun 2027 09:36:41.325   09 Jun 2027 09:43:02.112           380.787               CapeTown         47598.375
       287   09 Jun 2027 09:58:08.368   09 Jun 2027 09:58:38.422            30.054                 Moscow          3756.750
       288   09 Jun 2027 10:00:55.383   09 Jun 2027 10:02:47.267           111.884              Murmansk2         13985.500
       289   09 Jun 2027 10:02:59.118   09 Jun 2027 10:04:52.465           113.347                 Moscow         14168.375
       290   09 Jun 2027 10:05:45.012   09 Jun 2027 10:08:35.210           170.198              Murmansk2         21274.750
       291   09 Jun 2027 10:08:35.210   09 Jun 2027 10:10:30.962           115.752              Murmansk1         14469.000
       292   09 Jun 2027 10:12:43.275   09 Jun 2027 10:22:02.456           559.181                Anadyr2         69897.625
       293   09 Jun 2027 11:15:35.888   09 Jun 2027 11:20:09.910           274.022               CapeTown         34252.750
       294   09 Jun 2027 11:41:38.587   09 Jun 2027 11:46:12.838           274.251              Murmansk2         34281.375
       295   09 Jun 2027 11:51:44.531   09 Jun 2027 11:59:12.442           447.911               Magadan1         55988.875
       296   09 Jun 2027 11:59:55.050   09 Jun 2027 12:00:44.953            49.903                Anadyr2          6237.875
       297   09 Jun 2027 13:24:08.310   09 Jun 2027 13:25:09.261            60.951                Anadyr2          7618.875
       298   09 Jun 2027 13:26:30.688   09 Jun 2027 13:29:05.281           154.593               Magadan1         19324.125
       299   09 Jun 2027 13:29:05.281   09 Jun 2027 13:32:56.496           231.215               Magadan2         28901.875
       300   09 Jun 2027 15:23:43.769   09 Jun 2027 15:26:58.043           194.274                Sumatra         24284.250
       301   09 Jun 2027 16:41:51.587   09 Jun 2027 16:43:10.225            78.638                Irkutsk          9829.750
       302   09 Jun 2027 16:49:59.360   09 Jun 2027 16:51:39.910           100.550                Novosib         12568.750
       303   09 Jun 2027 16:55:34.443   09 Jun 2027 16:58:04.782           150.339                Sumatra         18792.375
       304   09 Jun 2027 17:06:52.103   09 Jun 2027 17:07:02.279            10.176                Sumatra          1272.000
       305   09 Jun 2027 18:13:52.282   09 Jun 2027 18:14:00.904             8.622                Norilsk          1077.750
       306   09 Jun 2027 18:22:31.546   09 Jun 2027 18:24:30.256           118.710                Novosib         14838.750
       307   09 Jun 2027 18:25:07.627   09 Jun 2027 18:28:03.075           175.448                  Delhi         21931.000
       308   09 Jun 2027 19:56:08.782   09 Jun 2027 19:58:40.463           151.681                 Moscow         18960.125
       309   09 Jun 2027 21:55:08.450   09 Jun 2027 21:56:52.093           103.643               CapeTown         12955.375
       310   09 Jun 2027 22:00:15.292   09 Jun 2027 22:00:38.745            23.453               CapeTown          2173.749
       311   10 Jun 2027 03:52:07.625   10 Jun 2027 03:56:36.661           269.036                Norilsk         33629.500
       312   10 Jun 2027 05:01:36.182   10 Jun 2027 05:03:40.430           124.248                Sumatra         15531.000
       313   10 Jun 2027 05:12:10.813   10 Jun 2027 05:14:50.333           159.520                  Delhi         19940.000
       314   10 Jun 2027 05:28:12.604   10 Jun 2027 05:32:59.604           287.000                Norilsk         35875.000
       315   10 Jun 2027 05:33:05.995   10 Jun 2027 05:35:04.649           118.654              Murmansk2         14831.750
       316   10 Jun 2027 06:53:49.862   10 Jun 2027 06:58:15.069           265.207                  Delhi         33150.875
       317   10 Jun 2027 06:58:15.864   10 Jun 2027 06:59:10.620            54.756                 Moscow          6844.500
       318   10 Jun 2027 07:03:35.656   10 Jun 2027 07:04:59.474            83.818                Novosib         10477.250
       319   10 Jun 2027 07:05:07.188   10 Jun 2027 07:08:58.375           231.187                Norilsk         28898.375
       320   10 Jun 2027 07:09:19.884   10 Jun 2027 07:10:40.361            80.477              Murmansk1         10059.625
       321   10 Jun 2027 08:35:11.440   10 Jun 2027 08:35:26.771            15.331                 Moscow          1916.375
       322   10 Jun 2027 08:39:27.305   10 Jun 2027 08:43:04.946           217.641                 Moscow         27205.125
       323   10 Jun 2027 08:43:16.185   10 Jun 2027 08:46:34.641           198.456              Murmansk2         24807.000
       324   10 Jun 2027 09:47:32.014   10 Jun 2027 09:55:34.908           482.894               CapeTown         60361.750
       325   10 Jun 2027 10:13:01.387   10 Jun 2027 10:14:36.137            94.750              Murmansk1         11843.750
       326   10 Jun 2027 10:14:41.067   10 Jun 2027 10:16:51.458           130.391                 Moscow         16298.875
       327   10 Jun 2027 10:17:46.641   10 Jun 2027 10:22:32.114           285.473              Murmansk2         35684.125
       328   10 Jun 2027 10:24:38.161   10 Jun 2027 10:34:35.705           597.544                Anadyr2         74693.000
       329   10 Jun 2027 11:27:41.135   10 Jun 2027 11:31:56.290           255.155               CapeTown         31894.375
       330   10 Jun 2027 12:04:26.039   10 Jun 2027 12:07:25.270           179.231               Magadan1         22403.875
       331   10 Jun 2027 13:46:36.460   10 Jun 2027 13:48:44.662           128.202               Magadan1         16025.250
       332   10 Jun 2027 15:34:23.090   10 Jun 2027 15:39:19.828           296.738                Sumatra         37092.250
       333   10 Jun 2027 16:54:35.262   10 Jun 2027 16:57:34.188           178.926                Novosib         22365.750
       334   10 Jun 2027 17:05:09.188   10 Jun 2027 17:07:54.949           165.761                  Delhi         20720.125
       335   10 Jun 2027 18:37:03.453   10 Jun 2027 18:39:28.125           144.672                  Delhi         18084.000
       336   10 Jun 2027 18:42:05.778   10 Jun 2027 18:42:21.471            15.693                  Delhi          1961.625
       337   10 Jun 2027 18:44:21.615   10 Jun 2027 18:46:37.109           135.494                  Delhi         16936.750
       338   10 Jun 2027 20:10:42.500   10 Jun 2027 20:12:19.017            96.517                 Moscow         12064.625
       339   10 Jun 2027 21:48:06.471   10 Jun 2027 21:48:38.705            32.234                 Moscow          4029.250
       340   10 Jun 2027 21:51:16.253   10 Jun 2027 21:52:48.653            92.400                 Moscow          4026.250
       341   11 Jun 2027 04:04:00.273   11 Jun 2027 04:04:06.229             5.956                Irkutsk           744.500
       342   11 Jun 2027 04:04:06.233   11 Jun 2027 04:05:27.458            81.225                Novosib         10153.125
       343   11 Jun 2027 04:05:40.187   11 Jun 2027 04:06:03.306            23.119              Murmansk2          2889.875
       344   11 Jun 2027 05:13:43.973   11 Jun 2027 05:14:37.774            53.801                Sumatra          6725.125
       345   11 Jun 2027 05:17:37.786   11 Jun 2027 05:18:31.660            53.874                Sumatra          6734.250
       346   11 Jun 2027 05:22:50.303   11 Jun 2027 05:24:31.749           101.446                  Delhi         12680.750
       347   11 Jun 2027 05:38:30.146   11 Jun 2027 05:39:06.689            36.543                Irkutsk          4567.875
       348   11 Jun 2027 05:40:00.730   11 Jun 2027 05:41:34.300            93.570                Novosib         11696.250
       349   11 Jun 2027 05:42:19.279   11 Jun 2027 05:42:21.514             2.235                 Moscow           279.375
       350   11 Jun 2027 05:42:35.429   11 Jun 2027 05:47:01.824           266.395              Murmansk2         33299.375
       351   11 Jun 2027 07:05:50.652   11 Jun 2027 07:10:01.538           250.886                  Delhi         31360.750
       352   11 Jun 2027 07:10:12.310   11 Jun 2027 07:11:20.212            67.902                 Moscow          8487.750
       353   11 Jun 2027 07:16:09.642   11 Jun 2027 07:19:01.792           172.150                 Moscow         21518.750
       354   11 Jun 2027 07:19:08.403   11 Jun 2027 07:22:40.822           212.419              Murmansk2         26552.375
       355   11 Jun 2027 08:45:30.544   11 Jun 2027 08:47:17.891           107.347                 Moscow         13418.375
       356   11 Jun 2027 08:50:30.839   11 Jun 2027 08:55:05.244           274.405                 Moscow         34300.625
       357   11 Jun 2027 08:55:08.396   11 Jun 2027 08:58:36.316           207.920              Murmansk2         25990.000
       358   11 Jun 2027 10:00:54.606   11 Jun 2027 10:07:59.468           424.862               CapeTown         53107.750
       359   11 Jun 2027 10:25:08.485   11 Jun 2027 10:26:23.415            74.930              Murmansk2          9366.250
       360   11 Jun 2027 10:26:42.602   11 Jun 2027 10:30:11.820           209.218                 Moscow         26152.250
       361   11 Jun 2027 10:30:47.571   11 Jun 2027 10:32:01.287            73.716              Murmansk1          9214.500
       362   11 Jun 2027 10:32:01.287   11 Jun 2027 10:34:33.015           151.728              Murmansk2         18966.000
       363   11 Jun 2027 10:40:12.725   11 Jun 2027 10:41:03.513            50.788                Anadyr2          6348.500
       364   11 Jun 2027 10:41:14.818   11 Jun 2027 10:42:35.476            80.658                Anadyr2         10082.250
       365   11 Jun 2027 12:16:37.462   11 Jun 2027 12:18:33.059           115.597               Magadan2         14449.625
       366   11 Jun 2027 13:50:29.188   11 Jun 2027 13:51:33.983            64.795               Magadan1          8099.375
       367   11 Jun 2027 13:57:42.403   11 Jun 2027 13:58:37.842            55.439               Magadan2          6929.875
       368   11 Jun 2027 14:48:11.389   11 Jun 2027 14:50:45.353           153.964            RioGallegos         19245.500
       369   11 Jun 2027 15:37:08.536   11 Jun 2027 15:37:17.451             8.915                Irkutsk          1114.375
       370   11 Jun 2027 15:40:16.119   11 Jun 2027 15:40:22.803             6.684                Irkutsk           835.500
       371   11 Jun 2027 15:45:31.040   11 Jun 2027 15:48:43.338           192.298                Sumatra         24037.250
       372   11 Jun 2027 15:51:34.292   11 Jun 2027 15:54:35.066           180.774                Sumatra         22596.750
       373   11 Jun 2027 17:06:53.052   11 Jun 2027 17:10:47.659           234.607                Novosib         29325.875
       374   11 Jun 2027 17:15:44.961   11 Jun 2027 17:18:29.885           164.924                  Delhi         20615.500
       375   11 Jun 2027 18:54:18.774   11 Jun 2027 18:56:23.351           124.577                  Delhi         15572.125
       376   11 Jun 2027 20:20:50.177   11 Jun 2027 20:23:43.252           173.075                 Moscow         10406.626
       377   12 Jun 2027 04:15:58.735   12 Jun 2027 04:16:07.297             8.562                Irkutsk          1070.250
       378   12 Jun 2027 04:16:14.106   12 Jun 2027 04:18:18.690           124.584                Norilsk         15573.000
       379   12 Jun 2027 05:25:57.979   12 Jun 2027 05:26:34.836            36.857                Sumatra          4607.125
       380   12 Jun 2027 05:28:17.772   12 Jun 2027 05:30:28.345           130.573                Sumatra         16321.625
       381   12 Jun 2027 05:36:47.327   12 Jun 2027 05:38:45.545           118.218                  Delhi         14777.250
       382   12 Jun 2027 05:50:35.187   12 Jun 2027 05:51:05.504            30.317                 Moscow          3789.625
       383   12 Jun 2027 05:51:19.172   12 Jun 2027 05:54:31.772           192.600                 Moscow         24075.000
       384   12 Jun 2027 05:54:40.242   12 Jun 2027 05:58:59.550           259.308              Murmansk2         32413.500
       385   12 Jun 2027 07:17:48.114   12 Jun 2027 07:21:42.499           234.385                  Delhi         29298.125
       386   12 Jun 2027 07:28:02.820   12 Jun 2027 07:31:05.854           183.034                 Moscow         22879.250
       387   12 Jun 2027 07:31:07.315   12 Jun 2027 07:34:41.544           214.229              Murmansk1         26778.625
       388   12 Jun 2027 08:57:30.696   12 Jun 2027 09:00:02.085           151.389                 Moscow         18923.625
       389   12 Jun 2027 09:01:54.667   12 Jun 2027 09:02:30.596            35.929              Murmansk2          4491.125
       390   12 Jun 2027 09:02:35.863   12 Jun 2027 09:07:04.797           268.934                 Moscow         33616.750
       391   12 Jun 2027 09:07:16.891   12 Jun 2027 09:10:38.020           201.129              Murmansk1         25141.125
       392   12 Jun 2027 09:14:23.441   12 Jun 2027 09:17:55.697           212.256                Anadyr2         26532.000
       393   12 Jun 2027 10:13:49.837   12 Jun 2027 10:15:48.434           118.597               CapeTown         14824.625
       394   12 Jun 2027 10:52:53.974   12 Jun 2027 10:53:37.435            43.461                Anadyr2          5432.625
       395   12 Jun 2027 10:55:41.916   12 Jun 2027 10:58:04.919           143.003                Anadyr1         17875.375
       396   12 Jun 2027 12:27:50.898   12 Jun 2027 12:31:38.620           227.722               Magadan1         28465.250
       397   12 Jun 2027 15:00:51.981   12 Jun 2027 15:03:43.302           171.321            RioGallegos         21415.125
       398   12 Jun 2027 15:42:56.227   12 Jun 2027 15:45:08.180           131.953                Irkutsk         16494.125
       399   12 Jun 2027 15:56:54.008   12 Jun 2027 16:00:36.582           222.574                Sumatra         27821.750
       400   12 Jun 2027 17:18:15.553   12 Jun 2027 17:19:25.718            70.165                Novosib          8770.625
       401   12 Jun 2027 17:26:56.541   12 Jun 2027 17:30:17.390           200.849                  Delhi         25106.125
       402   12 Jun 2027 19:04:13.469   12 Jun 2027 19:06:01.677           108.208                  Delhi         13526.000
       403   12 Jun 2027 19:08:57.761   12 Jun 2027 19:09:12.875            15.114                  Delhi          1889.250
       404   12 Jun 2027 19:12:59.202   12 Jun 2027 19:13:42.640            43.438                  Delhi          5429.750
       405   12 Jun 2027 20:31:41.115   12 Jun 2027 20:34:09.475           148.360                 Moscow         15094.875
       406   13 Jun 2027 05:38:19.220   13 Jun 2027 05:40:04.760           105.540                Sumatra         13192.500
       407   13 Jun 2027 05:41:41.784   13 Jun 2027 05:42:30.607            48.823                Sumatra          6102.875
       408   13 Jun 2027 05:46:13.264   13 Jun 2027 05:48:58.605           165.341                  Delhi         20667.625
       409   13 Jun 2027 06:03:57.563   13 Jun 2027 06:05:33.843            96.280                Novosib         12035.000
       410   13 Jun 2027 06:05:35.828   13 Jun 2027 06:06:40.606            64.778                 Moscow          8097.250
       411   13 Jun 2027 06:07:00.445   13 Jun 2027 06:10:57.789           237.344              Murmansk1         29668.000
       412   13 Jun 2027 07:29:42.021   13 Jun 2027 07:33:16.199           214.178                  Delhi         26772.250
       413   13 Jun 2027 07:33:20.279   13 Jun 2027 07:35:16.140           115.861                Novosib         14482.625
       414   13 Jun 2027 07:39:53.247   13 Jun 2027 07:43:09.449           196.202                 Moscow         24525.250
       415   13 Jun 2027 07:43:27.638   13 Jun 2027 07:46:42.479           194.841              Murmansk2         24355.125
       416   13 Jun 2027 09:09:30.096   13 Jun 2027 09:11:16.126           106.030                 Moscow         13253.750
       417   13 Jun 2027 09:13:14.286   13 Jun 2027 09:14:48.965            94.679              Murmansk2         11834.875
       418   13 Jun 2027 09:14:58.611   13 Jun 2027 09:19:03.508           244.897                 Moscow         30612.125
       419   13 Jun 2027 09:19:11.076   13 Jun 2027 09:22:39.718           208.642              Murmansk1         26080.250
       420   13 Jun 2027 09:25:48.426   13 Jun 2027 09:27:35.318           106.892                Anadyr1         13361.500
       421   13 Jun 2027 11:05:30.397   13 Jun 2027 11:05:32.353             1.956                Anadyr1           244.500
       422   13 Jun 2027 11:10:45.348   13 Jun 2027 11:10:52.700             7.352                Anadyr2           919.000
       423   13 Jun 2027 12:38:59.010   13 Jun 2027 12:44:07.903           308.893               Magadan2         38611.625
       424   13 Jun 2027 14:20:18.286   13 Jun 2027 14:20:21.155             2.869               Magadan2           358.625
       425   13 Jun 2027 14:23:37.182   13 Jun 2027 14:24:29.592            52.410               Magadan1          6551.250
       426   13 Jun 2027 15:07:04.626   13 Jun 2027 15:11:08.563           243.937            RioGallegos         30492.125
       427   13 Jun 2027 15:54:28.044   13 Jun 2027 15:55:31.337            63.293                Irkutsk          7911.625
       428   13 Jun 2027 16:08:27.227   13 Jun 2027 16:12:35.476           248.249                Sumatra         31031.125
       429   13 Jun 2027 17:31:53.170   13 Jun 2027 17:32:26.993            33.823                Novosib          4227.875
       430   13 Jun 2027 17:37:25.930   13 Jun 2027 17:39:39.838           133.908                Novosib         16738.500
       431   13 Jun 2027 17:45:03.348   13 Jun 2027 17:47:38.242           154.894                  Delhi         19361.750
       432   13 Jun 2027 19:13:11.105   13 Jun 2027 19:13:57.359            46.254                  Delhi          5781.750
       433   13 Jun 2027 19:18:33.090   13 Jun 2027 19:19:00.139            27.049                  Delhi          3381.125
       434   13 Jun 2027 20:41:57.766   13 Jun 2027 20:41:58.857             1.091              Murmansk2           136.375
       435   13 Jun 2027 20:43:36.107   13 Jun 2027 20:45:24.650           108.543                 Moscow         13567.875
       436   13 Jun 2027 21:15:43.049   13 Jun 2027 21:17:38.420           115.371               CapeTown          7735.875
