uniorb/output/strategy_4/Drop/Drop_KinoSat_111508.txt

KinoSat_111508
-------------------------
    Access    *     Start Time (UTCG)     *     Stop Time (UTCG)  *   Duration (s)        *       Station  *  Data (Mbytes)
         1   01 Jun 2027 04:29:57.399   01 Jun 2027 04:30:34.400            37.001                Norilsk          1156.281
         2   01 Jun 2027 04:30:59.863   01 Jun 2027 04:34:08.098           188.235              Murmansk2          5882.344
         3   01 Jun 2027 04:34:08.218   01 Jun 2027 04:36:06.208           117.990                 Moscow          3687.187
         4   01 Jun 2027 04:48:38.566   01 Jun 2027 04:49:00.294            21.728               CapeTown           679.000
         5   01 Jun 2027 05:52:04.999   01 Jun 2027 05:52:48.142            43.143               Magadan1          1348.219
         6   01 Jun 2027 05:53:51.061   01 Jun 2027 05:55:46.350           115.289               Magadan1          3602.781
         7   01 Jun 2027 05:55:46.350   01 Jun 2027 05:56:19.525            33.175               Magadan2          1036.719
         8   01 Jun 2027 05:56:28.503   01 Jun 2027 05:57:48.379            79.876                Anadyr1          2496.125
         9   01 Jun 2027 07:29:49.996   01 Jun 2027 07:32:52.832           182.836               Magadan1          5713.625
        10   01 Jun 2027 09:03:23.555   01 Jun 2027 09:06:39.508           195.953               Magadan2          6123.531
        11   01 Jun 2027 09:06:50.610   01 Jun 2027 09:08:52.420           121.810               Magadan2          3806.562
        12   01 Jun 2027 10:22:58.730   01 Jun 2027 10:24:57.556           118.826                Sumatra          3713.313
        13   01 Jun 2027 10:40:15.979   01 Jun 2027 10:40:37.754            21.775               Magadan1           680.469
        14   01 Jun 2027 10:40:37.754   01 Jun 2027 10:42:34.793           117.039               Magadan2          3657.469
        15   01 Jun 2027 10:43:20.527   01 Jun 2027 10:45:32.332           131.805                Irkutsk          4118.906
        16   01 Jun 2027 10:46:03.869   01 Jun 2027 10:46:29.017            25.148                Norilsk           785.875
        17   01 Jun 2027 11:20:46.801   01 Jun 2027 11:22:13.760            86.959            RioGallegos          2717.469
        18   01 Jun 2027 11:55:10.907   01 Jun 2027 11:57:20.820           129.913                Sumatra          4059.781
        19   01 Jun 2027 12:05:04.665   01 Jun 2027 12:05:07.645             2.980                  Delhi            93.125
        20   01 Jun 2027 12:09:58.721   01 Jun 2027 12:10:53.480            54.759                Irkutsk          1711.219
        21   01 Jun 2027 12:11:13.227   01 Jun 2027 12:12:59.861           106.634                Novosib          3332.313
        22   01 Jun 2027 12:13:50.335   01 Jun 2027 12:14:48.865            58.530                Norilsk          1829.063
        23   01 Jun 2027 13:39:48.093   01 Jun 2027 13:40:27.387            39.294                  Delhi          1227.938
        24   01 Jun 2027 13:41:51.090   01 Jun 2027 13:44:31.974           160.884                  Delhi          5027.625
        25   01 Jun 2027 13:47:58.622   01 Jun 2027 13:48:57.113            58.491                Novosib          1827.844
        26   01 Jun 2027 13:51:19.250   01 Jun 2027 13:53:07.402           108.152                Novosib          3379.750
        27   01 Jun 2027 13:54:55.785   01 Jun 2027 13:56:34.328            98.543                Norilsk          3079.469
        28   01 Jun 2027 15:23:40.213   01 Jun 2027 15:24:42.061            61.848                 Moscow          1932.750
        29   01 Jun 2027 15:25:23.387   01 Jun 2027 15:25:46.272            22.885                 Moscow           715.156
        30   01 Jun 2027 15:26:38.542   01 Jun 2027 15:26:51.406            12.864                 Moscow           402.000
        31   01 Jun 2027 15:27:11.147   01 Jun 2027 15:28:22.896            71.749              Murmansk2          2242.156
        32   01 Jun 2027 15:32:30.942   01 Jun 2027 15:37:09.010           278.068                Norilsk          8689.625
        33   01 Jun 2027 17:01:57.161   01 Jun 2027 17:03:36.884            99.723                 Moscow          3116.344
        34   01 Jun 2027 17:06:24.997   01 Jun 2027 17:07:07.729            42.732              Murmansk1          1335.375
        35   01 Jun 2027 17:13:49.030   01 Jun 2027 17:14:39.177            50.147              Murmansk1          1567.094
        36   01 Jun 2027 17:17:58.896   01 Jun 2027 17:18:13.811            14.915                Anadyr2           466.094
        37   01 Jun 2027 17:18:19.801   01 Jun 2027 17:18:36.679            16.878                Anadyr1           527.437
        38   01 Jun 2027 17:20:41.851   01 Jun 2027 17:21:36.271            54.420                Anadyr1          1700.625
        39   01 Jun 2027 17:23:38.993   01 Jun 2027 17:23:57.275            18.282                Anadyr2           571.313
        40   01 Jun 2027 17:25:33.791   01 Jun 2027 17:25:41.038             7.247                Anadyr2           226.469
        41   01 Jun 2027 17:26:24.448   01 Jun 2027 17:26:31.215             6.767                Anadyr1           211.469
        42   01 Jun 2027 17:26:34.175   01 Jun 2027 17:26:42.101             7.926                Anadyr1           247.688
        43   01 Jun 2027 18:19:01.248   01 Jun 2027 18:19:30.326            29.078               CapeTown           908.687
        44   01 Jun 2027 18:21:02.204   01 Jun 2027 18:21:57.066            54.862               CapeTown          1714.438
        45   01 Jun 2027 18:44:43.747   01 Jun 2027 18:49:30.926           287.179              Murmansk1          8974.344
        46   01 Jun 2027 18:49:37.361   01 Jun 2027 18:50:33.224            55.863              Murmansk2          1745.719
        47   01 Jun 2027 19:04:13.518   01 Jun 2027 19:04:41.349            27.831               Magadan1           869.719
        48   01 Jun 2027 20:29:37.436   01 Jun 2027 20:33:24.595           227.159                Anadyr2          7098.719
        49   01 Jun 2027 20:33:37.906   01 Jun 2027 20:34:22.687            44.781                Anadyr2          1399.406
        50   01 Jun 2027 20:34:39.294   01 Jun 2027 20:35:02.172            22.878               Magadan2           714.937
        51   01 Jun 2027 20:35:17.414   01 Jun 2027 20:36:27.848            70.434               Magadan1          2201.062
        52   01 Jun 2027 20:36:34.637   01 Jun 2027 20:36:44.327             9.690               Magadan2           302.812
        53   01 Jun 2027 20:37:13.645   01 Jun 2027 20:37:44.518            30.873               Magadan2           964.781
        54   01 Jun 2027 20:40:07.750   01 Jun 2027 20:40:10.816             3.066               Magadan1            95.813
        55   01 Jun 2027 20:40:32.897   01 Jun 2027 20:41:15.752            42.855               Magadan1          1339.219
        56   01 Jun 2027 21:25:17.289   01 Jun 2027 21:27:39.824           142.535            RioGallegos          4454.219
        57   01 Jun 2027 21:30:25.254   01 Jun 2027 21:30:43.797            18.543            RioGallegos           579.469
        58   01 Jun 2027 22:05:25.157   01 Jun 2027 22:07:36.715           131.558                Anadyr2          4111.188
        59   01 Jun 2027 22:07:49.545   01 Jun 2027 22:09:04.918            75.373                Norilsk          2355.406
        60   01 Jun 2027 22:10:02.329   01 Jun 2027 22:10:32.653            30.324                Norilsk           947.625
        61   01 Jun 2027 22:10:52.629   01 Jun 2027 22:11:11.884            19.255                Norilsk           601.719
        62   01 Jun 2027 22:12:16.819   01 Jun 2027 22:13:05.084            48.265                Irkutsk          1508.281
        63   01 Jun 2027 22:16:51.860   01 Jun 2027 22:17:06.890            15.030                Irkutsk           469.687
        64   01 Jun 2027 22:17:39.144   01 Jun 2027 22:18:03.779            24.635                Irkutsk           769.844
        65   01 Jun 2027 22:21:22.627   01 Jun 2027 22:21:39.859            17.232                Irkutsk           538.500
        66   01 Jun 2027 22:29:26.062   01 Jun 2027 22:29:57.540            31.478                Sumatra           983.688
        67   01 Jun 2027 22:30:23.417   01 Jun 2027 22:31:06.775            43.358                Sumatra          1354.938
        68   01 Jun 2027 22:35:44.988   01 Jun 2027 22:35:58.480            13.492                Sumatra           421.625
        69   01 Jun 2027 22:36:30.019   01 Jun 2027 22:36:39.471             9.452                Sumatra           295.375
        70   01 Jun 2027 23:10:42.496   01 Jun 2027 23:11:23.354            40.858            RioGallegos          1276.813
        71   01 Jun 2027 23:40:37.049   01 Jun 2027 23:40:53.244            16.195                Anadyr2           506.094
        72   01 Jun 2027 23:41:09.754   01 Jun 2027 23:42:51.727           101.973                Anadyr1          3186.656
        73   01 Jun 2027 23:43:21.297   01 Jun 2027 23:43:49.701            28.404                Norilsk           887.625
        74   01 Jun 2027 23:43:59.148   01 Jun 2027 23:45:08.999            69.851               Magadan1          2182.844
        75   01 Jun 2027 23:45:32.016   01 Jun 2027 23:45:49.422            17.406               Magadan1           543.938
        76   01 Jun 2027 23:46:48.761   01 Jun 2027 23:47:04.901            16.140               Magadan1           504.375
        77   01 Jun 2027 23:47:15.124   01 Jun 2027 23:48:12.926            57.802                Irkutsk          1806.312
        78   01 Jun 2027 23:50:18.676   01 Jun 2027 23:51:00.807            42.131                Novosib          1316.594
        79   01 Jun 2027 23:53:45.642   01 Jun 2027 23:53:58.651            13.009                Novosib           406.531
        80   01 Jun 2027 23:55:21.591   01 Jun 2027 23:56:00.131            38.540                Novosib          1204.375
        81   01 Jun 2027 23:59:19.542   01 Jun 2027 23:59:57.252            37.710                  Delhi          1178.438
        82   02 Jun 2027 00:00:14.223   02 Jun 2027 00:02:07.457           113.234                  Delhi          3538.563
        83   02 Jun 2027 00:46:24.247   02 Jun 2027 00:46:29.873             5.626            RioGallegos           175.812
        84   02 Jun 2027 01:14:37.677   02 Jun 2027 01:16:12.216            94.539                Anadyr1          2954.344
        85   02 Jun 2027 01:16:43.513   02 Jun 2027 01:16:52.407             8.894                Anadyr1           277.938
        86   02 Jun 2027 01:19:22.009   02 Jun 2027 01:21:24.353           122.344                Norilsk          3823.250
        87   02 Jun 2027 01:21:26.835   02 Jun 2027 01:22:38.975            72.140               Magadan2          2254.375
        88   02 Jun 2027 01:22:40.091   02 Jun 2027 01:23:19.588            39.497              Murmansk1          1234.281
        89   02 Jun 2027 01:23:33.340   02 Jun 2027 01:23:41.222             7.882              Murmansk2           246.312
        90   02 Jun 2027 01:25:19.947   02 Jun 2027 01:26:07.391            47.444                Irkutsk          1482.625
        91   02 Jun 2027 01:30:51.150   02 Jun 2027 01:33:00.756           129.606                  Delhi          4050.188
        92   02 Jun 2027 02:12:38.840   02 Jun 2027 02:13:33.466            54.626            RioGallegos          1707.062
        93   02 Jun 2027 02:13:50.925   02 Jun 2027 02:14:26.651            35.726            RioGallegos          1116.438
        94   02 Jun 2027 02:15:21.438   02 Jun 2027 02:16:53.172            91.734            RioGallegos          2866.688
        95   02 Jun 2027 02:53:52.528   02 Jun 2027 02:54:35.048            42.520               Magadan2          1328.750
        96   02 Jun 2027 02:56:26.776   02 Jun 2027 02:56:43.871            17.095                Norilsk           534.219
        97   02 Jun 2027 02:57:30.927   02 Jun 2027 02:58:41.299            70.372              Murmansk2          2199.125
        98   02 Jun 2027 02:58:55.622   02 Jun 2027 02:58:56.146             0.524              Murmansk2            16.375
        99   02 Jun 2027 02:59:18.210   02 Jun 2027 02:59:56.734            38.524                Novosib          1203.875
       100   02 Jun 2027 03:01:06.103   02 Jun 2027 03:01:19.333            13.230                Irkutsk           413.437
       101   02 Jun 2027 03:01:59.376   02 Jun 2027 03:02:54.910            55.534                Irkutsk          1735.437
       102   02 Jun 2027 03:02:55.644   02 Jun 2027 03:03:12.671            17.027                Novosib           532.094
       103   02 Jun 2027 03:03:23.089   02 Jun 2027 03:04:57.271            94.182              Murmansk2          2943.188
       104   02 Jun 2027 03:05:10.586   02 Jun 2027 03:05:46.391            35.805                Norilsk          1118.906
       105   02 Jun 2027 03:06:16.259   02 Jun 2027 03:07:06.069            49.810              Murmansk1          1556.563
       106   02 Jun 2027 03:07:06.069   02 Jun 2027 03:07:18.081            12.012              Murmansk2           375.375
       107   02 Jun 2027 03:07:36.341   02 Jun 2027 03:08:14.529            38.188              Murmansk2          1193.375
       108   02 Jun 2027 03:08:56.092   02 Jun 2027 03:08:58.727             2.635                  Delhi            82.344
       109   02 Jun 2027 03:09:26.938   02 Jun 2027 03:10:53.023            86.085                  Delhi          2690.156
       110   02 Jun 2027 03:13:21.625   02 Jun 2027 03:13:37.921            16.296                  Delhi           509.250
       111   02 Jun 2027 04:21:50.585   02 Jun 2027 04:22:54.306            63.721                Anadyr1          1991.281
       112   02 Jun 2027 04:41:05.694   02 Jun 2027 04:41:08.690             2.996                Novosib            93.625
       113   02 Jun 2027 04:41:17.051   02 Jun 2027 04:42:01.066            44.015                Novosib          1375.469
       114   02 Jun 2027 04:42:32.179   02 Jun 2027 04:44:43.976           131.797                 Moscow          4118.656
       115   02 Jun 2027 05:00:35.622   02 Jun 2027 05:03:01.820           146.198               CapeTown          4568.688
       116   02 Jun 2027 06:04:41.318   02 Jun 2027 06:05:26.619            45.301               Magadan1          1415.656
       117   02 Jun 2027 06:05:47.290   02 Jun 2027 06:06:32.467            45.177               Magadan1          1411.781
       118   02 Jun 2027 07:42:20.066   02 Jun 2027 07:42:54.733            34.667                Anadyr1          1083.344
       119   02 Jun 2027 07:45:17.712   02 Jun 2027 07:45:47.711            29.999                Anadyr2           937.469
       120   02 Jun 2027 07:50:08.297   02 Jun 2027 07:50:36.224            27.927                 Moscow           872.719
       121   02 Jun 2027 09:15:22.295   02 Jun 2027 09:16:50.380            88.085               Magadan1          2752.656
       122   02 Jun 2027 09:17:21.407   02 Jun 2027 09:18:36.118            74.711                Anadyr2          2334.719
       123   02 Jun 2027 09:19:43.212   02 Jun 2027 09:21:17.303            94.091                Irkutsk          2940.344
       124   02 Jun 2027 09:23:07.468   02 Jun 2027 09:23:29.335            21.867                Norilsk           683.344
       125   02 Jun 2027 09:56:22.217   02 Jun 2027 09:57:14.818            52.601            RioGallegos          1643.781
       126   02 Jun 2027 09:58:03.067   02 Jun 2027 09:58:19.939            16.872            RioGallegos           527.250
       127   02 Jun 2027 10:32:34.204   02 Jun 2027 10:32:34.359             0.155                Sumatra             4.844
       128   02 Jun 2027 10:32:53.162   02 Jun 2027 10:33:15.858            22.696                Sumatra           709.250
       129   02 Jun 2027 10:35:55.422   02 Jun 2027 10:37:15.901            80.479                Sumatra          2514.969
       130   02 Jun 2027 10:51:40.522   02 Jun 2027 10:52:36.178            55.656                Irkutsk          1739.250
       131   02 Jun 2027 10:52:42.573   02 Jun 2027 10:53:22.552            39.979                Irkutsk          1249.344
       132   02 Jun 2027 10:53:48.158   02 Jun 2027 10:54:16.332            28.174                Irkutsk           880.437
       133   02 Jun 2027 10:54:28.744   02 Jun 2027 10:54:39.081            10.337                Norilsk           323.031
       134   02 Jun 2027 10:55:02.204   02 Jun 2027 10:55:16.373            14.169                Norilsk           442.781
       135   02 Jun 2027 10:55:17.644   02 Jun 2027 10:55:38.153            20.509                Irkutsk           640.906
       136   02 Jun 2027 10:55:40.877   02 Jun 2027 10:56:37.259            56.382                Irkutsk          1761.938
       137   02 Jun 2027 10:56:41.644   02 Jun 2027 10:56:43.164             1.520                Novosib            47.500
       138   02 Jun 2027 10:56:43.351   02 Jun 2027 10:57:00.180            16.829                Novosib           525.906
       139   02 Jun 2027 10:57:05.406   02 Jun 2027 10:57:11.056             5.650                Norilsk           176.562
       140   02 Jun 2027 10:57:25.622   02 Jun 2027 10:57:33.699             8.077                Irkutsk           252.406
       141   02 Jun 2027 11:33:08.216   02 Jun 2027 11:34:19.762            71.546            RioGallegos          2235.812
       142   02 Jun 2027 11:35:22.483   02 Jun 2027 11:36:19.398            56.915            RioGallegos          1778.594
       143   02 Jun 2027 12:07:25.791   02 Jun 2027 12:07:53.864            28.073                Sumatra           877.281
       144   02 Jun 2027 12:16:26.809   02 Jun 2027 12:17:23.369            56.560                  Delhi          1767.500
       145   02 Jun 2027 12:22:10.715   02 Jun 2027 12:23:10.785            60.070                Novosib          1877.188
       146   02 Jun 2027 12:25:09.496   02 Jun 2027 12:26:13.304            63.808                Novosib          1994.000
       147   02 Jun 2027 13:52:14.480   02 Jun 2027 13:54:30.288           135.808                  Delhi          4244.000
       148   02 Jun 2027 13:57:14.524   02 Jun 2027 13:57:30.526            16.002                  Delhi           500.063
       149   02 Jun 2027 14:00:30.951   02 Jun 2027 14:01:26.243            55.292                 Moscow          1727.875
       150   02 Jun 2027 14:01:27.920   02 Jun 2027 14:05:23.418           235.498                Novosib          7359.312
       151   02 Jun 2027 14:08:51.605   02 Jun 2027 14:09:13.269            21.664                Norilsk           677.000
       152   02 Jun 2027 15:35:46.740   02 Jun 2027 15:37:49.178           122.438                 Moscow          3826.188
       153   02 Jun 2027 15:38:45.134   02 Jun 2027 15:39:55.413            70.279                 Moscow          2196.219
       154   02 Jun 2027 15:40:24.689   02 Jun 2027 15:42:07.532           102.843              Murmansk2          3213.844
       155   02 Jun 2027 15:45:29.114   02 Jun 2027 15:46:51.728            82.614                Norilsk          2581.688
       156   02 Jun 2027 15:47:21.879   02 Jun 2027 15:47:37.563            15.684                Norilsk           490.125
       157   02 Jun 2027 15:48:21.217   02 Jun 2027 15:49:12.415            51.198                Norilsk          1599.938
       158   02 Jun 2027 16:50:25.959   02 Jun 2027 16:50:51.838            25.879               CapeTown           808.719
       159   02 Jun 2027 16:55:39.114   02 Jun 2027 16:56:06.810            27.696               CapeTown           865.500
       160   02 Jun 2027 17:14:38.595   02 Jun 2027 17:15:43.463            64.868                 Moscow          2027.125
       161   02 Jun 2027 17:17:05.365   02 Jun 2027 17:18:26.173            80.808              Murmansk2          2525.250
       162   02 Jun 2027 17:22:08.102   02 Jun 2027 17:22:24.510            16.408              Murmansk1           512.750
       163   02 Jun 2027 17:24:46.533   02 Jun 2027 17:25:00.683            14.150              Murmansk2           442.188
       164   02 Jun 2027 17:26:18.568   02 Jun 2027 17:26:49.432            30.864              Murmansk2           964.500
       165   02 Jun 2027 17:29:56.754   02 Jun 2027 17:31:03.526            66.772                Anadyr2          2086.625
       166   02 Jun 2027 17:35:36.130   02 Jun 2027 17:35:40.903             4.773                Anadyr2           149.156
       167   02 Jun 2027 17:36:51.662   02 Jun 2027 17:37:18.409            26.747                Anadyr1           835.844
       168   02 Jun 2027 18:25:36.555   02 Jun 2027 18:26:30.883            54.328               CapeTown          1697.750
       169   02 Jun 2027 18:29:24.175   02 Jun 2027 18:29:50.118            25.943               CapeTown           810.719
       170   02 Jun 2027 18:30:23.186   02 Jun 2027 18:31:10.053            46.867               CapeTown          1464.594
       171   02 Jun 2027 18:57:33.211   02 Jun 2027 18:58:23.916            50.705              Murmansk1          1584.531
       172   02 Jun 2027 18:58:23.916   02 Jun 2027 19:01:25.111           181.195              Murmansk2          5662.344
       173   02 Jun 2027 19:01:36.006   02 Jun 2027 19:02:12.713            36.707              Murmansk1          1147.094
       174   02 Jun 2027 19:08:30.141   02 Jun 2027 19:09:24.555            54.414               Magadan1          1700.438
       175   02 Jun 2027 19:11:09.726   02 Jun 2027 19:11:36.173            26.447               Magadan1           826.469
       176   02 Jun 2027 19:16:47.963   02 Jun 2027 19:17:31.674            43.711               Magadan2          1365.969
       177   02 Jun 2027 20:41:38.855   02 Jun 2027 20:43:43.893           125.038                Anadyr1          3907.437
       178   02 Jun 2027 20:43:55.370   02 Jun 2027 20:47:43.415           228.045               Magadan2          7126.406
       179   02 Jun 2027 20:48:37.667   02 Jun 2027 20:48:52.821            15.154               Magadan1           473.563
       180   02 Jun 2027 20:50:32.686   02 Jun 2027 20:50:57.986            25.300               Magadan1           790.625
       181   02 Jun 2027 21:36:48.331   02 Jun 2027 21:39:50.380           182.049            RioGallegos          5689.031
       182   02 Jun 2027 21:42:09.026   02 Jun 2027 21:42:18.482             9.456            RioGallegos           295.500
       183   02 Jun 2027 21:43:11.432   02 Jun 2027 21:43:31.213            19.781            RioGallegos           618.156
       184   02 Jun 2027 22:17:23.923   02 Jun 2027 22:17:40.730            16.807                Anadyr1           525.219
       185   02 Jun 2027 22:18:57.855   02 Jun 2027 22:19:13.088            15.233                Anadyr1           476.031
       186   02 Jun 2027 22:19:26.904   02 Jun 2027 22:19:37.313            10.409                Anadyr1           325.281
       187   02 Jun 2027 22:19:42.797   02 Jun 2027 22:21:06.670            83.873                Norilsk          2621.031
       188   02 Jun 2027 22:21:26.612   02 Jun 2027 22:22:10.779            44.167               Magadan2          1380.219
       189   02 Jun 2027 22:22:10.779   02 Jun 2027 22:22:14.632             3.853               Magadan1           120.406
       190   02 Jun 2027 22:22:32.878   02 Jun 2027 22:23:14.314            41.436               Magadan1          1294.875
       191   02 Jun 2027 22:24:02.994   02 Jun 2027 22:25:03.964            60.970                Irkutsk          1905.313
       192   02 Jun 2027 22:26:37.640   02 Jun 2027 22:27:24.088            46.448                Irkutsk          1451.500
       193   02 Jun 2027 22:33:23.621   02 Jun 2027 22:33:28.910             5.289                Irkutsk           165.281
       194   02 Jun 2027 22:38:17.633   02 Jun 2027 22:41:10.212           172.579                Sumatra          5393.094
       195   02 Jun 2027 23:52:28.474   02 Jun 2027 23:53:06.202            37.728                Anadyr1          1179.000
       196   02 Jun 2027 23:54:50.926   02 Jun 2027 23:55:05.663            14.737                Anadyr1           460.531
       197   02 Jun 2027 23:55:23.351   02 Jun 2027 23:57:09.376           106.025                Norilsk          3313.281
       198   02 Jun 2027 23:57:15.181   02 Jun 2027 23:58:01.755            46.574               Magadan2          1455.437
       199   02 Jun 2027 23:59:15.863   02 Jun 2027 23:59:31.213            15.350                Irkutsk           479.687
       200   02 Jun 2027 23:59:40.205   03 Jun 2027 00:00:19.777            39.572                Novosib          1236.625
       201   03 Jun 2027 00:02:00.910   03 Jun 2027 00:02:33.864            32.954                Irkutsk          1029.813
       202   03 Jun 2027 00:02:35.278   03 Jun 2027 00:03:54.886            79.608                Novosib          2487.750
       203   03 Jun 2027 00:09:00.545   03 Jun 2027 00:10:22.366            81.821                  Delhi          2556.906
       204   03 Jun 2027 00:49:07.520   03 Jun 2027 00:49:22.837            15.317            RioGallegos           478.656
       205   03 Jun 2027 00:50:11.855   03 Jun 2027 00:51:19.995            68.140            RioGallegos          2129.375
       206   03 Jun 2027 01:26:19.939   03 Jun 2027 01:26:29.583             9.644                Anadyr1           301.375
       207   03 Jun 2027 01:26:48.572   03 Jun 2027 01:27:23.160            34.588                Anadyr1          1080.875
       208   03 Jun 2027 01:28:20.603   03 Jun 2027 01:28:58.807            38.204                Anadyr2          1193.875
       209   03 Jun 2027 01:31:40.920   03 Jun 2027 01:32:14.656            33.736                Anadyr1          1054.250
       210   03 Jun 2027 01:32:15.251   03 Jun 2027 01:32:37.055            21.804                Norilsk           681.375
       211   03 Jun 2027 01:32:43.413   03 Jun 2027 01:33:45.465            62.052               Magadan1          1939.125
       212   03 Jun 2027 01:33:45.465   03 Jun 2027 01:34:06.599            21.134               Magadan2           660.438
       213   03 Jun 2027 01:34:12.712   03 Jun 2027 01:35:19.759            67.047              Murmansk2          2095.219
       214   03 Jun 2027 01:35:23.032   03 Jun 2027 01:36:09.882            46.850              Murmansk1          1464.062
       215   03 Jun 2027 01:37:00.803   03 Jun 2027 01:38:24.489            83.686              Murmansk2          2615.188
       216   03 Jun 2027 01:47:27.906   03 Jun 2027 01:48:15.524            47.618                  Delhi          1488.063
       217   03 Jun 2027 02:25:06.893   03 Jun 2027 02:28:12.906           186.013            RioGallegos          5812.906
       218   03 Jun 2027 03:00:42.089   03 Jun 2027 03:00:56.612            14.523                Anadyr1           453.844
       219   03 Jun 2027 03:15:16.543   03 Jun 2027 03:15:42.189            25.646                Irkutsk           801.437
       220   03 Jun 2027 03:15:49.332   03 Jun 2027 03:16:03.880            14.548                Novosib           454.625
       221   03 Jun 2027 03:16:56.693   03 Jun 2027 03:18:17.299            80.606                Novosib          2518.938
       222   03 Jun 2027 03:18:19.459   03 Jun 2027 03:18:43.373            23.914                 Moscow           747.312
       223   03 Jun 2027 03:19:00.843   03 Jun 2027 03:19:14.181            13.338                Novosib           416.813
       224   03 Jun 2027 03:19:55.662   03 Jun 2027 03:21:02.040            66.378                 Moscow          2074.313
       225   03 Jun 2027 03:21:02.901   03 Jun 2027 03:21:24.452            21.551                Novosib           673.469
       226   03 Jun 2027 03:22:05.185   03 Jun 2027 03:22:07.125             1.940                Novosib            60.625
       227   03 Jun 2027 03:22:07.732   03 Jun 2027 03:22:17.914            10.182                 Moscow           318.188
       228   03 Jun 2027 03:22:55.838   03 Jun 2027 03:24:20.980            85.142                  Delhi          2660.688
       229   03 Jun 2027 03:38:16.691   03 Jun 2027 03:39:11.106            54.415               CapeTown          1700.469
       230   03 Jun 2027 04:33:43.065   03 Jun 2027 04:38:25.939           282.874                Anadyr2          8839.813
       231   03 Jun 2027 04:38:42.398   03 Jun 2027 04:39:19.073            36.675               Magadan1          1146.094
       232   03 Jun 2027 04:40:15.954   03 Jun 2027 04:40:17.794             1.840               Magadan2            57.500
       233   03 Jun 2027 04:40:53.777   03 Jun 2027 04:41:03.555             9.778               Magadan2           305.563
       234   03 Jun 2027 04:54:33.150   03 Jun 2027 04:55:22.383            49.233                 Moscow          1538.531
       235   03 Jun 2027 04:55:29.713   03 Jun 2027 04:56:20.580            50.867                 Moscow          1589.594
       236   03 Jun 2027 05:12:44.230   03 Jun 2027 05:14:50.684           126.454               CapeTown          3951.688
       237   03 Jun 2027 06:09:29.911   03 Jun 2027 06:10:11.740            41.829                Anadyr1          1307.156
       238   03 Jun 2027 06:10:14.798   03 Jun 2027 06:10:21.644             6.846               Magadan1           213.937
       239   03 Jun 2027 06:15:30.476   03 Jun 2027 06:16:23.240            52.764                Anadyr1          1648.875
       240   03 Jun 2027 06:16:23.240   03 Jun 2027 06:17:16.197            52.957                Anadyr2          1654.906
       241   03 Jun 2027 06:17:38.180   03 Jun 2027 06:18:30.986            52.806                Anadyr1          1650.188
       242   03 Jun 2027 06:18:30.986   03 Jun 2027 06:19:06.155            35.169                Anadyr2          1099.031
       243   03 Jun 2027 07:51:54.953   03 Jun 2027 07:52:37.137            42.184                Anadyr1          1318.250
       244   03 Jun 2027 07:52:49.290   03 Jun 2027 07:53:41.462            52.172                Anadyr2          1630.375
       245   03 Jun 2027 07:54:08.343   03 Jun 2027 07:55:03.032            54.689               Magadan2          1709.031
       246   03 Jun 2027 07:55:16.343   03 Jun 2027 07:56:27.386            71.043                Anadyr2          2220.094
       247   03 Jun 2027 08:37:09.211   03 Jun 2027 08:37:21.368            12.157            RioGallegos           379.906
       248   03 Jun 2027 09:27:12.975   03 Jun 2027 09:28:00.366            47.391               Magadan2          1480.969
       249   03 Jun 2027 09:28:05.128   03 Jun 2027 09:28:14.417             9.289               Magadan1           290.281
       250   03 Jun 2027 09:29:03.446   03 Jun 2027 09:29:50.222            46.776               Magadan2          1461.750
       251   03 Jun 2027 09:30:16.363   03 Jun 2027 09:30:35.252            18.889               Magadan1           590.281
       252   03 Jun 2027 09:30:43.219   03 Jun 2027 09:31:06.052            22.833                Irkutsk           713.531
       253   03 Jun 2027 09:31:14.247   03 Jun 2027 09:31:17.221             2.974                Irkutsk            92.938
       254   03 Jun 2027 09:31:23.508   03 Jun 2027 09:31:31.911             8.403                Irkutsk           262.594
       255   03 Jun 2027 09:32:03.179   03 Jun 2027 09:32:53.612            50.433                Irkutsk          1576.031
       256   03 Jun 2027 09:33:21.320   03 Jun 2027 09:33:24.331             3.011                Irkutsk            94.094
       257   03 Jun 2027 09:35:05.415   03 Jun 2027 09:35:12.106             6.691                Norilsk           209.094
       258   03 Jun 2027 10:08:17.907   03 Jun 2027 10:09:23.811            65.904            RioGallegos          2059.500
       259   03 Jun 2027 10:44:03.569   03 Jun 2027 10:45:03.501            59.932                Sumatra          1872.875
       260   03 Jun 2027 11:03:40.781   03 Jun 2027 11:04:27.166            46.385                Irkutsk          1449.531
       261   03 Jun 2027 11:04:56.704   03 Jun 2027 11:05:16.250            19.546                Norilsk           610.812
       262   03 Jun 2027 11:05:20.906   03 Jun 2027 11:05:50.680            29.774                Irkutsk           930.437
       263   03 Jun 2027 11:06:20.396   03 Jun 2027 11:06:41.157            20.761                Norilsk           648.781
       264   03 Jun 2027 11:07:01.225   03 Jun 2027 11:07:10.099             8.874                Novosib           277.313
       265   03 Jun 2027 11:07:13.281   03 Jun 2027 11:07:43.910            30.629                Irkutsk           957.156
       266   03 Jun 2027 11:08:00.933   03 Jun 2027 11:08:41.786            40.853                Norilsk          1276.656
       267   03 Jun 2027 11:08:51.782   03 Jun 2027 11:08:55.560             3.778                Novosib           118.063
       268   03 Jun 2027 11:09:02.416   03 Jun 2027 11:09:27.070            24.654                Novosib           770.438
       269   03 Jun 2027 11:45:34.618   03 Jun 2027 11:46:29.388            54.770            RioGallegos          1711.563
       270   03 Jun 2027 11:50:14.776   03 Jun 2027 11:50:41.273            26.497            RioGallegos           828.031
       271   03 Jun 2027 12:19:48.103   03 Jun 2027 12:21:10.782            82.679                Sumatra          2583.719
       272   03 Jun 2027 12:34:17.899   03 Jun 2027 12:35:07.108            49.209                Novosib          1537.781
       273   03 Jun 2027 12:35:08.690   03 Jun 2027 12:35:24.643            15.953                Irkutsk           498.531
       274   03 Jun 2027 12:37:48.468   03 Jun 2027 12:39:56.699           128.231                Irkutsk          4007.219
       275   03 Jun 2027 14:04:50.229   03 Jun 2027 14:05:51.545            61.316                  Delhi          1916.125
       276   03 Jun 2027 14:07:36.174   03 Jun 2027 14:09:52.828           136.654                  Delhi          4270.438
       277   03 Jun 2027 14:14:14.740   03 Jun 2027 14:15:13.146            58.406                Novosib          1825.188
       278   03 Jun 2027 14:15:18.311   03 Jun 2027 14:15:42.703            24.392              Murmansk1           762.250
       279   03 Jun 2027 14:16:49.323   03 Jun 2027 14:18:07.534            78.211                Norilsk          2444.094
       280   03 Jun 2027 14:20:04.477   03 Jun 2027 14:20:33.693            29.216                Norilsk           913.000
       281   03 Jun 2027 15:47:56.444   03 Jun 2027 15:49:47.259           110.815                 Moscow          3462.969
       282   03 Jun 2027 15:51:27.078   03 Jun 2027 15:54:30.913           183.835              Murmansk1          5744.844
       283   03 Jun 2027 15:58:44.521   03 Jun 2027 15:59:59.366            74.845                Norilsk          2338.906
       284   03 Jun 2027 16:00:38.723   03 Jun 2027 16:01:05.771            27.048                Norilsk           845.250
       285   03 Jun 2027 16:07:08.939   03 Jun 2027 16:08:13.807            64.868                Anadyr2          2027.125
       286   03 Jun 2027 17:01:20.172   03 Jun 2027 17:02:10.963            50.791               CapeTown          1587.219
       287   03 Jun 2027 17:04:39.556   03 Jun 2027 17:04:56.477            16.921               CapeTown           528.781
       288   03 Jun 2027 17:27:28.774   03 Jun 2027 17:27:53.229            24.455                 Moscow           764.219
       289   03 Jun 2027 17:28:13.269   03 Jun 2027 17:28:39.740            26.471                 Moscow           827.219
       290   03 Jun 2027 17:29:30.603   03 Jun 2027 17:30:34.117            63.514              Murmansk1          1984.812
       291   03 Jun 2027 17:31:46.350   03 Jun 2027 17:32:33.551            47.201              Murmansk2          1475.031
       292   03 Jun 2027 17:34:07.710   03 Jun 2027 17:34:28.277            20.567              Murmansk1           642.719
       293   03 Jun 2027 17:38:44.486   03 Jun 2027 17:39:28.262            43.776              Murmansk2          1368.000
       294   03 Jun 2027 17:41:55.448   03 Jun 2027 17:42:31.116            35.668                Anadyr2          1114.625
       295   03 Jun 2027 17:42:59.896   03 Jun 2027 17:43:10.962            11.066                Anadyr2           345.813
       296   03 Jun 2027 17:43:30.981   03 Jun 2027 17:43:44.188            13.207                Anadyr1           412.719
       297   03 Jun 2027 17:44:07.181   03 Jun 2027 17:44:16.812             9.631                Anadyr1           300.969
       298   03 Jun 2027 17:48:44.192   03 Jun 2027 17:48:47.253             3.061                Anadyr2            95.656
       299   03 Jun 2027 17:49:11.343   03 Jun 2027 17:49:19.198             7.855                Anadyr2           245.469
       300   03 Jun 2027 18:37:54.851   03 Jun 2027 18:38:55.779            60.928               CapeTown          1904.000
       301   03 Jun 2027 18:41:03.810   03 Jun 2027 18:41:27.509            23.699               CapeTown           740.594
       302   03 Jun 2027 18:42:45.159   03 Jun 2027 18:43:22.150            36.991               CapeTown          1155.969
       303   03 Jun 2027 19:10:30.416   03 Jun 2027 19:14:59.145           268.729              Murmansk2          8397.781
       304   03 Jun 2027 19:20:23.776   03 Jun 2027 19:21:11.878            48.102               Magadan2          1503.187
       305   03 Jun 2027 19:23:09.332   03 Jun 2027 19:23:50.358            41.026               Magadan1          1282.062
       306   03 Jun 2027 19:28:51.973   03 Jun 2027 19:29:05.471            13.498               Magadan1           421.812
       307   03 Jun 2027 20:53:40.119   03 Jun 2027 20:57:41.248           241.129                Anadyr2          7535.281
       308   03 Jun 2027 20:57:58.531   03 Jun 2027 21:00:20.155           141.624               Magadan1          4425.750
       309   03 Jun 2027 21:02:02.786   03 Jun 2027 21:02:57.425            54.639               Magadan2          1707.469
       310   03 Jun 2027 21:48:28.035   03 Jun 2027 21:50:31.875           123.840            RioGallegos          3870.000
       311   03 Jun 2027 21:51:22.884   03 Jun 2027 21:51:40.243            17.359            RioGallegos           542.469
       312   03 Jun 2027 21:52:15.347   03 Jun 2027 21:52:58.627            43.280            RioGallegos          1352.500
       313   03 Jun 2027 22:29:22.076   03 Jun 2027 22:29:42.580            20.504                Anadyr1           640.750
       314   03 Jun 2027 22:30:21.981   03 Jun 2027 22:30:51.042            29.061                Anadyr1           908.156
       315   03 Jun 2027 22:31:30.611   03 Jun 2027 22:33:10.960           100.349                Norilsk          3135.906
       316   03 Jun 2027 22:33:14.409   03 Jun 2027 22:34:28.424            74.015                Norilsk          2312.969
       317   03 Jun 2027 22:35:16.338   03 Jun 2027 22:35:25.790             9.452               Magadan1           295.375
       318   03 Jun 2027 22:35:52.692   03 Jun 2027 22:37:01.144            68.452                Irkutsk          2139.125
       319   03 Jun 2027 22:38:14.743   03 Jun 2027 22:38:40.015            25.272                Irkutsk           789.750
       320   03 Jun 2027 22:49:51.686   03 Jun 2027 22:51:11.077            79.391                Sumatra          2480.969
       321   03 Jun 2027 22:51:42.438   03 Jun 2027 22:52:13.174            30.736                Sumatra           960.500
       322   03 Jun 2027 23:01:01.301   03 Jun 2027 23:01:33.908            32.607                Sumatra          1018.969
       323   04 Jun 2027 00:04:18.618   04 Jun 2027 00:05:32.262            73.644                Anadyr1          2301.375
       324   04 Jun 2027 00:06:36.111   04 Jun 2027 00:07:01.611            25.500                Anadyr2           796.875
       325   04 Jun 2027 00:07:25.504   04 Jun 2027 00:07:37.283            11.779                Norilsk           368.094
       326   04 Jun 2027 00:08:04.856   04 Jun 2027 00:09:42.062            97.206               Magadan2          3037.687
       327   04 Jun 2027 00:10:51.041   04 Jun 2027 00:11:11.640            20.599                Norilsk           643.719
       328   04 Jun 2027 00:11:17.473   04 Jun 2027 00:12:31.431            73.958                Irkutsk          2311.188
       329   04 Jun 2027 00:14:05.822   04 Jun 2027 00:16:16.467           130.645                Novosib          4082.656
       330   04 Jun 2027 00:19:46.657   04 Jun 2027 00:20:38.020            51.363                  Delhi          1605.094
       331   04 Jun 2027 00:23:30.018   04 Jun 2027 00:24:18.003            47.985                  Delhi          1499.531
       332   04 Jun 2027 01:01:46.904   04 Jun 2027 01:02:16.514            29.610            RioGallegos           925.312
       333   04 Jun 2027 01:05:20.499   04 Jun 2027 01:05:26.365             5.866            RioGallegos           183.312
       334   04 Jun 2027 01:06:34.735   04 Jun 2027 01:07:11.182            36.447            RioGallegos          1138.969
       335   04 Jun 2027 01:38:01.593   04 Jun 2027 01:40:21.289           139.696                Anadyr2          4365.500
       336   04 Jun 2027 01:43:50.050   04 Jun 2027 01:45:33.904           103.854               Magadan2          3245.438
       337   04 Jun 2027 01:45:53.645   04 Jun 2027 01:48:02.844           129.199              Murmansk2          4037.469
       338   04 Jun 2027 01:50:31.234   04 Jun 2027 01:51:05.059            33.825                Irkutsk          1057.031
       339   04 Jun 2027 01:54:38.645   04 Jun 2027 01:55:12.515            33.870                  Delhi          1058.438
       340   04 Jun 2027 02:00:23.364   04 Jun 2027 02:00:33.434            10.070                  Delhi           314.688
       341   04 Jun 2027 02:03:47.039   04 Jun 2027 02:04:02.420            15.381                  Delhi           480.656
       342   04 Jun 2027 02:37:55.306   04 Jun 2027 02:38:16.129            20.823            RioGallegos           650.719
       343   04 Jun 2027 02:38:26.389   04 Jun 2027 02:39:15.709            49.320            RioGallegos          1541.250
       344   04 Jun 2027 02:40:25.446   04 Jun 2027 02:40:31.367             5.921            RioGallegos           185.031
       345   04 Jun 2027 03:11:20.799   04 Jun 2027 03:11:36.314            15.515                Anadyr1           484.844
       346   04 Jun 2027 03:12:10.748   04 Jun 2027 03:12:40.722            29.974                Anadyr1           936.687
       347   04 Jun 2027 03:19:59.067   04 Jun 2027 03:20:05.372             6.305               Magadan1           197.031
       348   04 Jun 2027 03:20:35.483   04 Jun 2027 03:20:53.726            18.243               Magadan1           570.094
       349   04 Jun 2027 03:28:50.841   04 Jun 2027 03:30:09.865            79.024                Norilsk          2469.500
       350   04 Jun 2027 03:30:25.772   04 Jun 2027 03:31:49.335            83.563                Novosib          2611.344
       351   04 Jun 2027 05:06:02.801   04 Jun 2027 05:06:34.768            31.967                 Moscow           998.969
       352   04 Jun 2027 05:06:45.522   04 Jun 2027 05:07:08.429            22.907                 Moscow           715.844
       353   04 Jun 2027 05:11:09.334   04 Jun 2027 05:11:33.762            24.428                 Moscow           763.375
       354   04 Jun 2027 05:24:58.466   04 Jun 2027 05:26:17.212            78.746               CapeTown          2460.813
       355   04 Jun 2027 06:27:59.217   04 Jun 2027 06:28:05.949             6.732               Magadan1           210.375
       356   04 Jun 2027 06:28:07.330   04 Jun 2027 06:28:30.612            23.282               Magadan1           727.563
       357   04 Jun 2027 06:28:34.528   04 Jun 2027 06:29:53.520            78.992               Magadan2          2468.500
       358   04 Jun 2027 06:30:07.573   04 Jun 2027 06:31:07.535            59.962               Magadan1          1873.812
       359   04 Jun 2027 06:32:05.290   04 Jun 2027 06:32:15.824            10.534                Anadyr2           329.188
       360   04 Jun 2027 08:03:59.377   04 Jun 2027 08:04:15.592            16.215               Magadan1           506.719
       361   04 Jun 2027 08:04:38.617   04 Jun 2027 08:05:19.617            41.000                Anadyr2          1281.250
       362   04 Jun 2027 08:05:32.797   04 Jun 2027 08:05:34.120             1.323               Magadan2            41.344
       363   04 Jun 2027 08:05:56.761   04 Jun 2027 08:06:17.926            21.165                Anadyr2           661.406
       364   04 Jun 2027 08:06:46.489   04 Jun 2027 08:07:37.665            51.176               Magadan2          1599.250
       365   04 Jun 2027 08:08:28.164   04 Jun 2027 08:09:51.418            83.254                Anadyr2          2601.687
       366   04 Jun 2027 09:39:00.343   04 Jun 2027 09:40:15.618            75.275               Magadan2          2352.344
       367   04 Jun 2027 09:40:31.514   04 Jun 2027 09:40:48.078            16.564               Magadan1           517.625
       368   04 Jun 2027 09:41:16.394   04 Jun 2027 09:41:45.671            29.277               Magadan2           914.906
       369   04 Jun 2027 09:42:36.781   04 Jun 2027 09:44:03.480            86.699               Magadan2          2709.344
       370   04 Jun 2027 09:44:58.614   04 Jun 2027 09:45:17.291            18.677                Irkutsk           583.656
       371   04 Jun 2027 09:47:02.049   04 Jun 2027 09:47:07.232             5.183                Norilsk           161.969
       372   04 Jun 2027 10:20:16.858   04 Jun 2027 10:21:21.804            64.946            RioGallegos          2029.563
       373   04 Jun 2027 10:55:41.765   04 Jun 2027 10:56:13.316            31.551                Sumatra           985.969
       374   04 Jun 2027 10:56:59.926   04 Jun 2027 10:57:20.427            20.501                Sumatra           640.656
       375   04 Jun 2027 11:02:04.204   04 Jun 2027 11:02:07.685             3.481                Sumatra           108.781
       376   04 Jun 2027 11:10:02.549   04 Jun 2027 11:12:00.887           118.338                  Delhi          3698.062
       377   04 Jun 2027 11:16:06.114   04 Jun 2027 11:16:56.779            50.665                Irkutsk          1583.281
       378   04 Jun 2027 11:17:03.092   04 Jun 2027 11:17:14.906            11.814                Norilsk           369.187
       379   04 Jun 2027 11:17:17.319   04 Jun 2027 11:17:45.148            27.829                Novosib           869.656
       380   04 Jun 2027 11:17:52.383   04 Jun 2027 11:18:16.807            24.424                Irkutsk           763.250
       381   04 Jun 2027 11:18:30.542   04 Jun 2027 11:19:07.147            36.605                Irkutsk          1143.906
       382   04 Jun 2027 11:19:15.146   04 Jun 2027 11:20:09.844            54.698                Novosib          1709.312
       383   04 Jun 2027 11:20:16.838   04 Jun 2027 11:20:43.761            26.923                Norilsk           841.344
       384   04 Jun 2027 11:20:53.393   04 Jun 2027 11:21:04.497            11.104                Norilsk           347.000
       385   04 Jun 2027 11:21:17.701   04 Jun 2027 11:21:33.621            15.920                Irkutsk           497.500
       386   04 Jun 2027 11:58:06.768   04 Jun 2027 11:59:32.886            86.118            RioGallegos          2691.188
       387   04 Jun 2027 12:32:19.904   04 Jun 2027 12:33:02.071            42.167                Sumatra          1317.719
       388   04 Jun 2027 12:35:39.088   04 Jun 2027 12:36:19.024            39.936                Sumatra          1248.000
       389   04 Jun 2027 12:46:18.813   04 Jun 2027 12:47:21.356            62.543                  Delhi          1954.469
       390   04 Jun 2027 12:47:44.617   04 Jun 2027 12:49:21.811            97.194                Novosib          3037.312
       391   04 Jun 2027 14:17:38.911   04 Jun 2027 14:22:23.391           284.480                  Delhi          8890.000
       392   04 Jun 2027 14:26:10.167   04 Jun 2027 14:26:25.211            15.044                Novosib           470.125
       393   04 Jun 2027 14:27:16.267   04 Jun 2027 14:27:30.560            14.293              Murmansk2           446.656
       394   04 Jun 2027 14:29:21.234   04 Jun 2027 14:29:43.241            22.007                Norilsk           687.719
       395   04 Jun 2027 14:29:55.399   04 Jun 2027 14:31:01.817            66.418                Norilsk          2075.562
       396   04 Jun 2027 14:32:32.081   04 Jun 2027 14:33:18.663            46.582                Norilsk          1455.688
       397   04 Jun 2027 15:40:53.546   04 Jun 2027 15:41:28.316            34.770               CapeTown          1086.562
       398   04 Jun 2027 15:42:27.634   04 Jun 2027 15:42:30.650             3.016               CapeTown            94.250
       399   04 Jun 2027 16:00:09.502   04 Jun 2027 16:01:17.625            68.123                 Moscow          2128.844
       400   04 Jun 2027 16:02:55.737   04 Jun 2027 16:03:44.413            48.676                 Moscow          1521.125
       401   04 Jun 2027 16:04:04.489   04 Jun 2027 16:05:17.504            73.015              Murmansk2          2281.719
       402   04 Jun 2027 16:06:32.926   04 Jun 2027 16:07:02.168            29.242              Murmansk1           913.813
       403   04 Jun 2027 16:18:50.436   04 Jun 2027 16:19:45.323            54.887                Anadyr1          1715.219
       404   04 Jun 2027 16:20:01.230   04 Jun 2027 16:20:59.918            58.688                Anadyr2          1834.000
       405   04 Jun 2027 16:25:15.463   04 Jun 2027 16:25:42.771            27.308                Anadyr2           853.375
       406   04 Jun 2027 17:13:16.259   04 Jun 2027 17:15:29.905           133.646               CapeTown          4176.438
       407   04 Jun 2027 17:40:32.044   04 Jun 2027 17:43:48.300           196.256                 Moscow          6133.000
       408   04 Jun 2027 17:46:33.161   04 Jun 2027 17:46:54.564            21.403              Murmansk2           668.844
       409   04 Jun 2027 17:54:43.467   04 Jun 2027 17:55:48.910            65.443                Anadyr1          2045.094
       410   04 Jun 2027 18:50:18.899   04 Jun 2027 18:51:24.672            65.773               CapeTown          2055.406
       411   04 Jun 2027 19:23:42.739   04 Jun 2027 19:26:37.914           175.175              Murmansk1          5474.219
       412   04 Jun 2027 19:29:45.869   04 Jun 2027 19:31:27.455           101.586                Anadyr1          3174.562
       413   04 Jun 2027 19:32:19.104   04 Jun 2027 19:33:37.105            78.001               Magadan1          2437.531
       414   04 Jun 2027 19:33:37.105   04 Jun 2027 19:35:06.562            89.457               Magadan2          2795.531
       415   04 Jun 2027 21:05:41.169   04 Jun 2027 21:09:23.245           222.076                Anadyr1          6939.875
       416   04 Jun 2027 21:09:26.619   04 Jun 2027 21:12:01.165           154.546               Magadan1          4829.562
       417   04 Jun 2027 21:12:05.930   04 Jun 2027 21:12:15.236             9.306               Magadan1           290.813
       418   04 Jun 2027 21:12:59.949   04 Jun 2027 21:13:34.994            35.045               Magadan1          1095.156
       419   04 Jun 2027 21:18:24.873   04 Jun 2027 21:18:29.162             4.289               Magadan1           134.031
       420   04 Jun 2027 21:18:32.440   04 Jun 2027 21:18:35.981             3.541               Magadan1           110.656
       421   04 Jun 2027 21:18:54.573   04 Jun 2027 21:20:01.795            67.222               Magadan1          2100.688
       422   04 Jun 2027 22:00:13.170   04 Jun 2027 22:02:27.847           134.677            RioGallegos          4208.656
       423   04 Jun 2027 22:09:24.325   04 Jun 2027 22:09:38.465            14.140            RioGallegos           441.875
       424   04 Jun 2027 22:41:19.525   04 Jun 2027 22:41:44.328            24.803                Anadyr1           775.094
       425   04 Jun 2027 22:43:30.897   04 Jun 2027 22:45:12.875           101.978                Norilsk          3186.812
       426   04 Jun 2027 22:45:24.273   04 Jun 2027 22:45:28.159             3.886               Magadan2           121.438
       427   04 Jun 2027 22:45:28.159   04 Jun 2027 22:45:42.603            14.444               Magadan1           451.375
       428   04 Jun 2027 22:46:05.930   04 Jun 2027 22:46:29.062            23.132               Magadan1           722.875
       429   04 Jun 2027 22:47:28.467   04 Jun 2027 22:47:45.298            16.831               Magadan1           525.969
       430   04 Jun 2027 22:48:01.152   04 Jun 2027 22:48:40.263            39.111               Magadan1          1222.219
       431   04 Jun 2027 22:49:10.945   04 Jun 2027 22:49:29.930            18.985                Irkutsk           593.281
       432   04 Jun 2027 22:50:02.147   04 Jun 2027 22:52:40.937           158.790                Novosib          4962.188
       433   04 Jun 2027 23:02:10.934   04 Jun 2027 23:03:31.731            80.797                Sumatra          2524.906
       434   05 Jun 2027 00:16:07.447   05 Jun 2027 00:18:22.512           135.065                Anadyr2          4220.781
       435   05 Jun 2027 00:19:27.723   05 Jun 2027 00:19:35.816             8.093                Norilsk           252.906
       436   05 Jun 2027 00:20:07.413   05 Jun 2027 00:21:18.827            71.414               Magadan2          2231.687
       437   05 Jun 2027 00:21:18.827   05 Jun 2027 00:21:39.081            20.254               Magadan1           632.938
       438   05 Jun 2027 00:23:19.909   05 Jun 2027 00:24:15.303            55.394                Irkutsk          1731.063
       439   05 Jun 2027 00:24:25.803   05 Jun 2027 00:25:35.905            70.102                Novosib          2190.688
       440   05 Jun 2027 00:26:27.831   05 Jun 2027 00:27:10.469            42.638                Novosib          1332.438
       441   05 Jun 2027 00:29:09.739   05 Jun 2027 00:29:57.023            47.284                Novosib          1477.625
       442   05 Jun 2027 00:31:42.677   05 Jun 2027 00:32:08.475            25.798                  Delhi           806.187
       443   05 Jun 2027 00:37:16.865   05 Jun 2027 00:37:29.380            12.515                  Delhi           391.094
       444   05 Jun 2027 00:41:13.426   05 Jun 2027 00:41:22.159             8.733                  Delhi           272.906
       445   05 Jun 2027 00:41:23.024   05 Jun 2027 00:42:02.201            39.177                  Delhi          1224.281
       446   05 Jun 2027 01:11:45.772   05 Jun 2027 01:12:51.115            65.343            RioGallegos          2041.969
       447   05 Jun 2027 01:49:42.844   05 Jun 2027 01:50:31.194            48.350                Anadyr2          1510.938
       448   05 Jun 2027 01:50:31.194   05 Jun 2027 01:50:45.281            14.087                Anadyr1           440.219
       449   05 Jun 2027 01:51:25.856   05 Jun 2027 01:52:03.067            37.211                Anadyr2          1162.844
       450   05 Jun 2027 01:52:14.714   05 Jun 2027 01:52:28.545            13.831                Anadyr2           432.219
       451   05 Jun 2027 01:55:27.634   05 Jun 2027 01:57:05.084            97.450                Norilsk          3045.313
       452   05 Jun 2027 01:57:27.585   05 Jun 2027 01:57:31.324             3.739                Norilsk           116.844
       453   05 Jun 2027 01:57:50.218   05 Jun 2027 02:00:12.681           142.463              Murmansk2          4451.969
       454   05 Jun 2027 02:02:54.001   05 Jun 2027 02:03:00.031             6.030                 Moscow           188.437
       455   05 Jun 2027 02:03:08.938   05 Jun 2027 02:03:45.235            36.297                 Moscow          1134.281
       456   05 Jun 2027 02:10:53.760   05 Jun 2027 02:10:54.394             0.634                Novosib            19.813
       457   05 Jun 2027 02:11:10.230   05 Jun 2027 02:11:20.772            10.542                  Delhi           329.437
       458   05 Jun 2027 02:12:05.617   05 Jun 2027 02:12:28.182            22.565                  Delhi           705.156
       459   05 Jun 2027 02:14:05.813   05 Jun 2027 02:14:36.770            30.957                  Delhi           967.406
       460   05 Jun 2027 03:23:05.382   05 Jun 2027 03:24:42.169            96.787                Anadyr1          3024.594
       461   05 Jun 2027 03:42:22.485   05 Jun 2027 03:43:35.734            73.249                Novosib          2289.031
       462   05 Jun 2027 03:43:42.764   05 Jun 2027 03:44:19.318            36.554                 Moscow          1142.312
       463   05 Jun 2027 03:44:24.537   05 Jun 2027 03:45:34.327            69.790              Murmansk2          2180.938
       464   05 Jun 2027 03:45:39.029   05 Jun 2027 03:46:26.023            46.994                 Moscow          1468.562
       465   05 Jun 2027 03:46:31.117   05 Jun 2027 03:49:17.948           166.831                 Moscow          5213.469
       466   05 Jun 2027 04:01:24.989   05 Jun 2027 04:01:50.681            25.692               CapeTown           802.875
       467   05 Jun 2027 04:02:30.695   05 Jun 2027 04:03:34.712            64.017               CapeTown          2000.531
       468   05 Jun 2027 04:04:34.894   05 Jun 2027 04:05:19.416            44.522               CapeTown          1391.313
       469   05 Jun 2027 04:07:37.521   05 Jun 2027 04:08:07.617            30.096               CapeTown           940.500
       470   05 Jun 2027 04:08:51.450   05 Jun 2027 04:10:45.524           114.074               CapeTown          3564.812
       471   05 Jun 2027 05:00:59.456   05 Jun 2027 05:01:24.739            25.283               Magadan1           790.094
       472   05 Jun 2027 05:04:49.633   05 Jun 2027 05:05:18.329            28.696               Magadan2           896.750
       473   05 Jun 2027 05:05:31.260   05 Jun 2027 05:06:17.293            46.033                Anadyr1          1438.531
       474   05 Jun 2027 05:17:46.178   05 Jun 2027 05:17:57.746            11.568                 Moscow           361.500
       475   05 Jun 2027 05:18:08.445   05 Jun 2027 05:18:26.671            18.226                 Moscow           569.563
       476   05 Jun 2027 05:18:36.962   05 Jun 2027 05:18:53.217            16.255                 Moscow           507.969
       477   05 Jun 2027 05:19:08.575   05 Jun 2027 05:19:28.156            19.581                 Moscow           611.906
       478   05 Jun 2027 05:37:18.977   05 Jun 2027 05:38:43.659            84.682               CapeTown          2646.313
       479   05 Jun 2027 05:42:18.786   05 Jun 2027 05:42:27.301             8.515               CapeTown           266.094
       480   05 Jun 2027 05:44:35.474   05 Jun 2027 05:44:37.856             2.382               CapeTown            74.438
       481   05 Jun 2027 06:39:27.442   05 Jun 2027 06:40:24.063            56.621                Anadyr1          1769.406
       482   05 Jun 2027 06:40:34.692   05 Jun 2027 06:41:53.413            78.721               Magadan2          2460.031
