uniorb/output/strategy_4/Drop/Drop_KinoSat_111608.txt

KinoSat_111608
-------------------------
    Access    *     Start Time (UTCG)     *     Stop Time (UTCG)  *   Duration (s)        *       Station  *  Data (Mbytes)
         1   01 Jun 2027 04:25:31.957   01 Jun 2027 04:27:10.351            98.394                Novosib          3074.813
         2   01 Jun 2027 04:27:14.744   01 Jun 2027 04:27:40.358            25.614              Murmansk2           800.437
         3   01 Jun 2027 04:27:56.639   01 Jun 2027 04:31:39.969           223.330                 Moscow          6979.062
         4   01 Jun 2027 04:48:03.849   01 Jun 2027 04:48:32.264            28.415               CapeTown           887.969
         5   01 Jun 2027 05:49:13.715   01 Jun 2027 05:49:56.971            43.256                Anadyr2          1351.750
         6   01 Jun 2027 05:50:23.507   01 Jun 2027 05:51:27.106            63.599               Magadan2          1987.469
         7   01 Jun 2027 05:51:57.962   01 Jun 2027 05:53:58.125           120.163               Magadan2          3755.094
         8   01 Jun 2027 05:54:00.169   01 Jun 2027 05:54:27.596            27.427                Anadyr1           857.094
         9   01 Jun 2027 06:00:38.983   01 Jun 2027 06:02:41.693           122.710              Murmansk1          3834.688
        10   01 Jun 2027 06:03:40.053   01 Jun 2027 06:04:35.547            55.494                 Moscow          1734.187
        11   01 Jun 2027 07:24:37.802   01 Jun 2027 07:25:14.175            36.373                Anadyr1          1136.656
        12   01 Jun 2027 07:25:31.864   01 Jun 2027 07:29:30.413           238.549               Magadan2          7454.656
        13   01 Jun 2027 07:29:30.413   01 Jun 2027 07:29:32.872             2.459               Magadan1            76.844
        14   01 Jun 2027 08:59:17.875   01 Jun 2027 09:05:34.825           376.950                Anadyr1         11779.687
        15   01 Jun 2027 10:36:07.849   01 Jun 2027 10:39:55.596           227.747               Magadan1          7117.094
        16   01 Jun 2027 10:39:55.596   01 Jun 2027 10:40:37.754            42.158               Magadan2          1317.438
        17   01 Jun 2027 12:57:14.691   01 Jun 2027 12:59:25.179           130.488            RioGallegos          4077.750
        18   01 Jun 2027 13:31:43.135   01 Jun 2027 13:34:12.232           149.097                Sumatra          4659.281
        19   01 Jun 2027 13:47:40.709   01 Jun 2027 13:49:49.071           128.362                Irkutsk          4011.313
        20   01 Jun 2027 15:27:00.450   01 Jun 2027 15:28:13.198            72.748                Norilsk          2273.375
        21   01 Jun 2027 15:29:00.991   01 Jun 2027 15:30:36.577            95.586                Norilsk          2987.063
        22   01 Jun 2027 15:31:28.649   01 Jun 2027 15:32:30.942            62.293                Norilsk          1946.656
        23   01 Jun 2027 16:41:53.930   01 Jun 2027 16:43:08.346            74.416               CapeTown          2325.500
        24   01 Jun 2027 16:58:41.166   01 Jun 2027 16:59:42.722            61.556                 Moscow          1923.625
        25   01 Jun 2027 17:01:07.335   01 Jun 2027 17:01:57.161            49.826                 Moscow          1557.062
        26   01 Jun 2027 17:04:40.420   01 Jun 2027 17:05:23.589            43.169              Murmansk1          1349.031
        27   01 Jun 2027 17:07:55.249   01 Jun 2027 17:08:29.646            34.397              Murmansk1          1074.906
        28   01 Jun 2027 17:14:47.992   01 Jun 2027 17:15:20.686            32.694                Anadyr1          1021.687
        29   01 Jun 2027 17:17:01.853   01 Jun 2027 17:17:10.462             8.609                Anadyr2           269.031
        30   01 Jun 2027 17:17:25.260   01 Jun 2027 17:17:36.829            11.569                Anadyr2           361.531
        31   01 Jun 2027 17:18:19.801   01 Jun 2027 17:18:36.679            16.878                Anadyr2           527.437
        32   01 Jun 2027 17:20:30.895   01 Jun 2027 17:20:41.851            10.956                Anadyr1           342.375
        33   01 Jun 2027 17:20:56.743   01 Jun 2027 17:21:36.298            39.555                Anadyr2          1236.094
        34   01 Jun 2027 17:23:33.807   01 Jun 2027 17:23:38.993             5.186                Anadyr2           162.063
        35   01 Jun 2027 18:15:43.091   01 Jun 2027 18:17:35.043           111.952               CapeTown          3498.500
        36   01 Jun 2027 18:39:26.227   01 Jun 2027 18:40:09.508            43.281              Murmansk2          1352.531
        37   01 Jun 2027 18:40:37.428   01 Jun 2027 18:44:43.747           246.319              Murmansk1          7697.469
        38   01 Jun 2027 18:45:19.910   01 Jun 2027 18:48:00.907           160.997              Murmansk2          5031.156
        39   01 Jun 2027 19:51:30.163   01 Jun 2027 19:52:16.538            46.375               CapeTown          1449.219
        40   01 Jun 2027 20:25:52.658   01 Jun 2027 20:27:04.247            71.589                Anadyr1          2237.156
        41   01 Jun 2027 20:27:09.935   01 Jun 2027 20:27:30.070            20.135                Anadyr1           629.219
        42   01 Jun 2027 20:28:14.771   01 Jun 2027 20:29:17.794            63.023               Magadan2          1969.469
        43   01 Jun 2027 20:29:17.794   01 Jun 2027 20:29:52.656            34.862               Magadan1          1089.437
        44   01 Jun 2027 20:30:44.442   01 Jun 2027 20:30:56.419            11.977               Magadan2           374.281
        45   01 Jun 2027 20:31:16.983   01 Jun 2027 20:32:05.544            48.561               Magadan2          1517.531
        46   01 Jun 2027 20:36:27.848   01 Jun 2027 20:36:34.637             6.789               Magadan2           212.156
        47   01 Jun 2027 20:36:44.327   01 Jun 2027 20:37:13.645            29.318               Magadan1           916.188
        48   01 Jun 2027 20:40:01.639   01 Jun 2027 20:40:07.750             6.111               Magadan1           190.969
        49   01 Jun 2027 20:40:10.816   01 Jun 2027 20:40:11.653             0.837               Magadan1            26.156
        50   01 Jun 2027 20:40:17.470   01 Jun 2027 20:40:32.897            15.427               Magadan1           482.094
        51   01 Jun 2027 22:01:45.134   01 Jun 2027 22:03:50.006           124.872                Anadyr1          3902.250
        52   01 Jun 2027 22:03:58.743   01 Jun 2027 22:07:49.545           230.802                Norilsk          7212.563
        53   01 Jun 2027 22:08:01.222   01 Jun 2027 22:09:22.057            80.835               Magadan2          2526.094
        54   01 Jun 2027 22:11:39.154   01 Jun 2027 22:12:02.572            23.418                Irkutsk           731.812
        55   01 Jun 2027 22:14:47.317   01 Jun 2027 22:15:05.802            18.485                Irkutsk           577.656
        56   01 Jun 2027 22:16:03.111   01 Jun 2027 22:16:12.231             9.120                Irkutsk           285.000
        57   01 Jun 2027 22:26:00.130   01 Jun 2027 22:26:51.236            51.106                Sumatra          1597.062
        58   01 Jun 2027 22:26:53.718   01 Jun 2027 22:28:16.527            82.809                Sumatra          2587.781
        59   01 Jun 2027 23:05:03.969   01 Jun 2027 23:05:13.190             9.221            RioGallegos           288.156
        60   01 Jun 2027 23:07:20.112   01 Jun 2027 23:07:47.365            27.253            RioGallegos           851.656
        61   01 Jun 2027 23:37:11.558   01 Jun 2027 23:37:44.360            32.802                Anadyr1          1025.062
        62   01 Jun 2027 23:37:51.812   01 Jun 2027 23:38:33.260            41.448                Anadyr2          1295.250
        63   01 Jun 2027 23:39:32.679   01 Jun 2027 23:39:48.595            15.916                Anadyr2           497.375
        64   01 Jun 2027 23:39:53.876   01 Jun 2027 23:41:18.296            84.420                Norilsk          2638.125
        65   01 Jun 2027 23:41:19.137   01 Jun 2027 23:42:14.334            55.197               Magadan1          1724.906
        66   01 Jun 2027 23:43:09.921   01 Jun 2027 23:43:51.086            41.165               Magadan1          1286.406
        67   01 Jun 2027 23:44:37.153   01 Jun 2027 23:45:01.184            24.031                Novosib           750.969
        68   01 Jun 2027 23:46:27.925   01 Jun 2027 23:46:59.904            31.979                Novosib           999.344
        69   01 Jun 2027 23:48:26.395   01 Jun 2027 23:49:54.907            88.512                Novosib          2766.000
        70   02 Jun 2027 00:03:56.258   02 Jun 2027 00:05:54.260           118.002                Sumatra          3687.563
        71   02 Jun 2027 00:40:56.640   02 Jun 2027 00:41:10.010            13.370            RioGallegos           417.813
        72   02 Jun 2027 00:42:15.620   02 Jun 2027 00:42:33.070            17.450            RioGallegos           545.313
        73   02 Jun 2027 01:11:34.822   02 Jun 2027 01:12:11.600            36.778                Anadyr1          1149.313
        74   02 Jun 2027 01:12:47.884   02 Jun 2027 01:13:21.917            34.033                Anadyr2          1063.531
        75   02 Jun 2027 01:13:45.792   02 Jun 2027 01:14:12.739            26.947                Anadyr1           842.094
        76   02 Jun 2027 01:15:35.861   02 Jun 2027 01:18:04.416           148.555                Norilsk          4642.344
        77   02 Jun 2027 01:19:10.214   02 Jun 2027 01:21:07.707           117.493              Murmansk2          3671.656
        78   02 Jun 2027 01:24:44.964   02 Jun 2027 01:25:19.947            34.983                Irkutsk          1093.219
        79   02 Jun 2027 01:29:44.318   02 Jun 2027 01:29:55.925            11.607                  Delhi           362.719
        80   02 Jun 2027 01:30:37.514   02 Jun 2027 01:31:02.913            25.399                Irkutsk           793.719
        81   02 Jun 2027 01:35:07.012   02 Jun 2027 01:36:23.754            76.742                  Delhi          2398.187
        82   02 Jun 2027 02:08:17.180   02 Jun 2027 02:08:28.951            11.771            RioGallegos           367.844
        83   02 Jun 2027 02:09:20.935   02 Jun 2027 02:09:56.305            35.370            RioGallegos          1105.312
        84   02 Jun 2027 02:10:33.335   02 Jun 2027 02:10:52.505            19.170            RioGallegos           599.063
        85   02 Jun 2027 02:11:22.020   02 Jun 2027 02:12:38.840            76.820            RioGallegos          2400.625
        86   02 Jun 2027 02:47:54.403   02 Jun 2027 02:47:55.049             0.646                Anadyr1            20.187
        87   02 Jun 2027 02:48:18.799   02 Jun 2027 02:48:37.881            19.082                Anadyr2           596.313
        88   02 Jun 2027 02:50:14.456   02 Jun 2027 02:50:28.369            13.913                Anadyr2           434.781
        89   02 Jun 2027 02:51:09.913   02 Jun 2027 02:51:34.346            24.433               Magadan2           763.531
        90   02 Jun 2027 02:51:34.346   02 Jun 2027 02:51:46.943            12.597               Magadan1           393.656
        91   02 Jun 2027 02:52:00.574   02 Jun 2027 02:52:05.818             5.244               Magadan2           163.875
        92   02 Jun 2027 02:52:19.444   02 Jun 2027 02:52:24.326             4.882                Norilsk           152.562
        93   02 Jun 2027 02:52:57.493   02 Jun 2027 02:53:35.273            37.780                Norilsk          1180.625
        94   02 Jun 2027 02:53:48.747   02 Jun 2027 02:55:10.108            81.361              Murmansk1          2542.531
        95   02 Jun 2027 02:55:26.368   02 Jun 2027 02:56:08.605            42.237                Novosib          1319.906
        96   02 Jun 2027 02:56:29.393   02 Jun 2027 02:57:00.518            31.125                Irkutsk           972.656
        97   02 Jun 2027 03:00:23.434   02 Jun 2027 03:01:08.822            45.388                Norilsk          1418.375
        98   02 Jun 2027 03:01:11.758   02 Jun 2027 03:01:14.879             3.121              Murmansk1            97.531
        99   02 Jun 2027 03:01:19.333   02 Jun 2027 03:01:59.376            40.043                Irkutsk          1251.344
       100   02 Jun 2027 03:02:01.732   02 Jun 2027 03:02:07.023             5.291              Murmansk2           165.344
       101   02 Jun 2027 03:02:19.281   02 Jun 2027 03:03:37.542            78.261                 Moscow          2445.656
       102   02 Jun 2027 03:03:39.676   02 Jun 2027 03:06:09.391           149.715                  Delhi          4678.594
       103   02 Jun 2027 04:37:29.703   02 Jun 2027 04:38:04.690            34.987                Novosib          1093.344
       104   02 Jun 2027 04:38:22.989   02 Jun 2027 04:39:15.601            52.612                Novosib          1644.125
       105   02 Jun 2027 04:39:51.148   02 Jun 2027 04:42:32.179           161.031                 Moscow          5032.219
       106   02 Jun 2027 04:56:54.503   02 Jun 2027 05:00:35.622           221.119               CapeTown          6909.969
       107   02 Jun 2027 06:00:08.241   02 Jun 2027 06:00:18.927            10.686                Anadyr1           333.937
       108   02 Jun 2027 06:00:38.448   02 Jun 2027 06:01:47.930            69.482                Anadyr1          2171.313
       109   02 Jun 2027 07:37:16.873   02 Jun 2027 07:38:37.671            80.798                Anadyr2          2524.938
       110   02 Jun 2027 07:39:37.986   02 Jun 2027 07:42:20.066           162.080                Anadyr2          5065.000
       111   02 Jun 2027 09:10:25.337   02 Jun 2027 09:11:20.815            55.478               Magadan1          1733.688
       112   02 Jun 2027 09:11:20.815   02 Jun 2027 09:12:52.975            92.160               Magadan2          2880.000
       113   02 Jun 2027 09:14:04.971   02 Jun 2027 09:17:21.407           196.436                Anadyr2          6138.625
       114   02 Jun 2027 09:20:23.087   02 Jun 2027 09:21:09.610            46.523              Murmansk1          1453.844
       115   02 Jun 2027 09:53:03.638   02 Jun 2027 09:53:09.532             5.894            RioGallegos           184.188
       116   02 Jun 2027 09:53:46.060   02 Jun 2027 09:54:02.513            16.453            RioGallegos           514.156
       117   02 Jun 2027 09:57:24.612   02 Jun 2027 09:58:03.067            38.455            RioGallegos          1201.719
       118   02 Jun 2027 10:31:04.491   02 Jun 2027 10:32:08.729            64.238                Sumatra          2007.438
       119   02 Jun 2027 10:46:46.389   02 Jun 2027 10:49:18.763           152.374               Magadan1          4761.688
       120   02 Jun 2027 10:50:21.237   02 Jun 2027 10:51:52.616            91.379               Magadan1          2855.594
       121   02 Jun 2027 10:52:13.183   02 Jun 2027 10:52:50.852            37.669                Norilsk          1177.156
       122   02 Jun 2027 10:53:03.193   02 Jun 2027 10:53:03.422             0.229                Novosib             7.156
       123   02 Jun 2027 10:53:22.552   02 Jun 2027 10:53:48.158            25.606                Irkutsk           800.187
       124   02 Jun 2027 11:28:44.143   02 Jun 2027 11:29:11.133            26.990            RioGallegos           843.437
       125   02 Jun 2027 11:29:48.685   02 Jun 2027 11:30:26.948            38.263            RioGallegos          1195.719
       126   02 Jun 2027 12:03:19.805   02 Jun 2027 12:05:25.471           125.666                Sumatra          3927.062
       127   02 Jun 2027 12:17:44.064   02 Jun 2027 12:18:19.296            35.232                Irkutsk          1101.000
       128   02 Jun 2027 12:19:32.988   02 Jun 2027 12:20:36.353            63.365                Novosib          1980.156
       129   02 Jun 2027 12:35:20.282   02 Jun 2027 12:35:35.389            15.107              Murmansk2           472.094
       130   02 Jun 2027 13:09:26.334   02 Jun 2027 13:11:24.225           117.891            RioGallegos          3684.094
       131   02 Jun 2027 13:12:15.775   02 Jun 2027 13:13:04.374            48.599            RioGallegos          1518.719
       132   02 Jun 2027 13:55:38.423   02 Jun 2027 13:57:18.067            99.644                Novosib          3113.875
       133   02 Jun 2027 13:58:11.750   02 Jun 2027 14:00:40.633           148.883                Novosib          4652.594
       134   02 Jun 2027 14:05:23.418   02 Jun 2027 14:05:35.090            11.672                Novosib           364.750
       135   02 Jun 2027 14:06:15.063   02 Jun 2027 14:06:57.947            42.884                Norilsk          1340.125
       136   02 Jun 2027 15:31:55.189   02 Jun 2027 15:34:32.345           157.156                 Moscow          4911.125
       137   02 Jun 2027 15:35:23.276   02 Jun 2027 15:36:36.283            73.007              Murmansk2          2281.469
       138   02 Jun 2027 15:36:54.169   02 Jun 2027 15:37:31.576            37.407              Murmansk2          1168.969
       139   02 Jun 2027 15:39:44.072   02 Jun 2027 15:42:35.141           171.069                Norilsk          5345.906
       140   02 Jun 2027 15:42:47.498   02 Jun 2027 15:43:52.544            65.046                Norilsk          2032.688
       141   02 Jun 2027 17:09:31.238   02 Jun 2027 17:10:14.649            43.411                 Moscow          1356.594
       142   02 Jun 2027 17:10:43.852   02 Jun 2027 17:11:41.668            57.816                 Moscow          1806.750
       143   02 Jun 2027 17:12:34.580   02 Jun 2027 17:12:50.066            15.486              Murmansk1           483.937
       144   02 Jun 2027 17:14:42.145   02 Jun 2027 17:15:08.835            26.690              Murmansk2           834.062
       145   02 Jun 2027 17:16:42.601   02 Jun 2027 17:16:57.840            15.239              Murmansk2           476.219
       146   02 Jun 2027 17:26:22.065   02 Jun 2027 17:27:43.602            81.537                Anadyr2          2548.031
       147   02 Jun 2027 17:27:56.784   02 Jun 2027 17:28:06.749             9.965                Anadyr1           311.406
       148   02 Jun 2027 17:28:46.821   02 Jun 2027 17:29:55.013            68.192                Anadyr2          2131.000
       149   02 Jun 2027 18:21:28.502   02 Jun 2027 18:22:01.543            33.041               CapeTown          1032.531
       150   02 Jun 2027 18:24:20.674   02 Jun 2027 18:25:19.633            58.959               CapeTown          1842.469
       151   02 Jun 2027 18:52:04.924   02 Jun 2027 18:55:54.880           229.956              Murmansk1          7186.125
       152   02 Jun 2027 19:03:11.617   02 Jun 2027 19:03:37.574            25.957                Anadyr1           811.156
       153   02 Jun 2027 19:05:13.494   02 Jun 2027 19:06:34.892            81.398               Magadan1          2543.688
       154   02 Jun 2027 19:07:36.015   02 Jun 2027 19:08:15.585            39.570               Magadan1          1236.563
       155   02 Jun 2027 20:37:54.365   02 Jun 2027 20:41:38.855           224.490                Anadyr1          7015.313
       156   02 Jun 2027 20:42:27.634   02 Jun 2027 20:44:11.075           103.441               Magadan1          3232.531
       157   02 Jun 2027 20:45:18.442   02 Jun 2027 20:45:39.877            21.435               Magadan1           669.844
       158   02 Jun 2027 20:46:30.533   02 Jun 2027 20:47:07.611            37.078               Magadan1          1158.687
       159   02 Jun 2027 20:47:55.814   02 Jun 2027 20:48:26.290            30.476               Magadan1           952.375
       160   02 Jun 2027 20:50:57.986   02 Jun 2027 20:51:46.059            48.073               Magadan1          1502.281
       161   02 Jun 2027 21:34:44.665   02 Jun 2027 21:36:48.331           123.666            RioGallegos          3864.562
       162   02 Jun 2027 22:13:45.101   02 Jun 2027 22:15:00.374            75.273                Anadyr1          2352.281
       163   02 Jun 2027 22:15:28.377   02 Jun 2027 22:15:44.115            15.738                Anadyr1           491.812
       164   02 Jun 2027 22:15:54.183   02 Jun 2027 22:17:38.897           104.714                Norilsk          3272.312
       165   02 Jun 2027 22:18:18.952   02 Jun 2027 22:18:37.305            18.353               Magadan1           573.531
       166   02 Jun 2027 22:18:40.574   02 Jun 2027 22:19:20.826            40.252                Norilsk          1257.875
       167   02 Jun 2027 22:21:01.714   02 Jun 2027 22:21:24.569            22.855                Irkutsk           714.219
       168   02 Jun 2027 22:22:27.957   02 Jun 2027 22:23:12.796            44.839                Irkutsk          1401.219
       169   02 Jun 2027 22:26:21.794   02 Jun 2027 22:26:37.640            15.846                Irkutsk           495.188
       170   02 Jun 2027 22:36:24.518   02 Jun 2027 22:38:17.633           113.115                Sumatra          3534.844
       171   02 Jun 2027 22:43:49.256   02 Jun 2027 22:43:52.987             3.731                Sumatra           116.594
       172   02 Jun 2027 23:14:30.109   02 Jun 2027 23:14:53.311            23.202            RioGallegos           725.062
       173   02 Jun 2027 23:49:05.765   02 Jun 2027 23:50:34.277            88.512                Anadyr2          2766.000
       174   02 Jun 2027 23:51:32.126   02 Jun 2027 23:52:11.104            38.978                Anadyr1          1218.062
       175   02 Jun 2027 23:52:14.308   02 Jun 2027 23:53:50.907            96.599               Magadan1          3018.719
       176   02 Jun 2027 23:54:08.815   02 Jun 2027 23:54:32.732            23.917               Magadan2           747.406
       177   02 Jun 2027 23:55:34.539   02 Jun 2027 23:56:40.803            66.264                Irkutsk          2070.750
       178   02 Jun 2027 23:57:09.638   02 Jun 2027 23:57:14.245             4.607                Novosib           143.969
       179   02 Jun 2027 23:58:16.488   02 Jun 2027 23:58:30.131            13.643                Novosib           426.344
       180   02 Jun 2027 23:59:35.975   02 Jun 2027 23:59:40.205             4.230                Novosib           132.187
       181   03 Jun 2027 00:00:35.161   03 Jun 2027 00:00:55.042            19.881                Novosib           621.281
       182   03 Jun 2027 00:02:10.294   03 Jun 2027 00:02:35.278            24.984                Novosib           780.750
       183   03 Jun 2027 00:05:11.213   03 Jun 2027 00:05:32.366            21.153                Novosib           661.031
       184   03 Jun 2027 00:07:29.668   03 Jun 2027 00:09:00.545            90.877                  Delhi          2839.906
       185   03 Jun 2027 00:43:36.617   03 Jun 2027 00:44:44.091            67.474            RioGallegos          2108.562
       186   03 Jun 2027 00:53:14.803   03 Jun 2027 00:54:24.226            69.423            RioGallegos          2169.469
       187   03 Jun 2027 01:24:07.680   03 Jun 2027 01:24:47.553            39.873                Anadyr2          1246.031
       188   03 Jun 2027 01:25:29.264   03 Jun 2027 01:25:46.443            17.179                Anadyr1           536.844
       189   03 Jun 2027 01:25:46.443   03 Jun 2027 01:25:54.459             8.016                Anadyr2           250.500
       190   03 Jun 2027 01:26:09.567   03 Jun 2027 01:26:19.939            10.372                Anadyr1           324.125
       191   03 Jun 2027 01:27:38.114   03 Jun 2027 01:29:18.642           100.528                Norilsk          3141.500
       192   03 Jun 2027 01:29:40.659   03 Jun 2027 01:29:56.085            15.426               Magadan2           482.062
       193   03 Jun 2027 01:30:43.327   03 Jun 2027 01:31:36.055            52.728              Murmansk2          1647.750
       194   03 Jun 2027 01:31:37.731   03 Jun 2027 01:32:53.286            75.555                Irkutsk          2361.094
       195   03 Jun 2027 01:35:48.255   03 Jun 2027 01:35:59.839            11.584                Novosib           362.000
       196   03 Jun 2027 01:38:31.497   03 Jun 2027 01:38:50.259            18.762                Irkutsk           586.313
       197   03 Jun 2027 01:39:16.522   03 Jun 2027 01:39:32.353            15.831                  Delhi           494.719
       198   03 Jun 2027 01:42:04.439   03 Jun 2027 01:42:10.686             6.247                Novosib           195.219
       199   03 Jun 2027 01:42:30.852   03 Jun 2027 01:43:05.893            35.041                Irkutsk          1095.031
       200   03 Jun 2027 01:47:03.877   03 Jun 2027 01:47:27.906            24.029                  Delhi           750.906
       201   03 Jun 2027 02:20:32.287   03 Jun 2027 02:23:17.946           165.659            RioGallegos          5176.844
       202   03 Jun 2027 02:58:44.540   03 Jun 2027 02:59:37.186            52.646                Anadyr1          1645.187
       203   03 Jun 2027 03:02:30.415   03 Jun 2027 03:02:58.756            28.341                Anadyr1           885.656
       204   03 Jun 2027 03:10:32.151   03 Jun 2027 03:11:05.185            33.034              Murmansk1          1032.313
       205   03 Jun 2027 03:11:08.757   03 Jun 2027 03:13:51.909           163.152                Irkutsk          5098.500
       206   03 Jun 2027 03:14:41.391   03 Jun 2027 03:15:05.536            24.145                Norilsk           754.531
       207   03 Jun 2027 03:15:07.338   03 Jun 2027 03:15:37.636            30.298                Novosib           946.813
       208   03 Jun 2027 03:16:10.935   03 Jun 2027 03:16:55.301            44.366                  Delhi          1386.437
       209   03 Jun 2027 04:50:49.836   03 Jun 2027 04:51:14.510            24.674                 Moscow           771.062
       210   03 Jun 2027 04:52:44.889   03 Jun 2027 04:53:02.554            17.665                 Moscow           552.031
       211   03 Jun 2027 04:53:28.370   03 Jun 2027 04:53:54.021            25.651                 Moscow           801.594
       212   03 Jun 2027 04:55:22.383   03 Jun 2027 04:55:29.713             7.330                 Moscow           229.063
       213   03 Jun 2027 05:08:51.232   03 Jun 2027 05:11:42.231           170.999               CapeTown          5343.719
       214   03 Jun 2027 06:05:35.281   03 Jun 2027 06:06:48.176            72.895                Anadyr2          2277.969
       215   03 Jun 2027 06:07:05.800   03 Jun 2027 06:07:46.283            40.483               Magadan2          1265.094
       216   03 Jun 2027 06:12:02.778   03 Jun 2027 06:12:39.878            37.100                Anadyr2          1159.375
       217   03 Jun 2027 06:12:39.878   03 Jun 2027 06:12:41.559             1.681                Anadyr1            52.531
       218   03 Jun 2027 06:12:45.671   03 Jun 2027 06:13:36.229            50.558                Anadyr1          1579.938
       219   03 Jun 2027 06:13:40.446   03 Jun 2027 06:14:44.864            64.418                Anadyr1          2013.063
       220   03 Jun 2027 06:14:44.864   03 Jun 2027 06:15:13.002            28.138                Anadyr2           879.312
       221   03 Jun 2027 06:49:41.732   03 Jun 2027 06:51:50.314           128.582               CapeTown          4018.187
       222   03 Jun 2027 07:47:57.328   03 Jun 2027 07:48:12.872            15.544               Magadan1           485.750
       223   03 Jun 2027 07:48:17.124   03 Jun 2027 07:48:23.225             6.101                Anadyr2           190.656
       224   03 Jun 2027 07:48:23.225   03 Jun 2027 07:48:41.676            18.451                Anadyr1           576.594
       225   03 Jun 2027 07:48:57.092   03 Jun 2027 07:50:38.179           101.087                Anadyr1          3158.969
       226   03 Jun 2027 07:50:48.633   03 Jun 2027 07:51:59.629            70.996               Magadan2          2218.625
       227   03 Jun 2027 08:36:02.663   03 Jun 2027 08:36:37.589            34.926            RioGallegos          1091.437
       228   03 Jun 2027 09:22:28.999   03 Jun 2027 09:22:53.879            24.880               Magadan1           777.500
       229   03 Jun 2027 09:23:24.636   03 Jun 2027 09:23:35.558            10.922               Magadan2           341.312
       230   03 Jun 2027 09:23:42.922   03 Jun 2027 09:24:41.522            58.600                Anadyr2          1831.250
       231   03 Jun 2027 09:24:56.434   03 Jun 2027 09:26:12.839            76.405               Magadan2          2387.656
       232   03 Jun 2027 09:27:12.975   03 Jun 2027 09:28:00.366            47.391               Magadan1          1480.969
       233   03 Jun 2027 09:28:05.128   03 Jun 2027 09:28:14.417             9.289               Magadan2           290.281
       234   03 Jun 2027 09:28:21.246   03 Jun 2027 09:29:01.068            39.822                Anadyr1          1244.437
       235   03 Jun 2027 09:29:03.446   03 Jun 2027 09:29:50.222            46.776               Magadan1          1461.750
       236   03 Jun 2027 10:04:51.878   03 Jun 2027 10:05:10.266            18.388            RioGallegos           574.625
       237   03 Jun 2027 10:09:23.811   03 Jun 2027 10:09:24.432             0.621            RioGallegos            19.406
       238   03 Jun 2027 10:10:20.103   03 Jun 2027 10:10:25.128             5.025            RioGallegos           157.031
       239   03 Jun 2027 10:41:52.971   03 Jun 2027 10:43:46.779           113.808                Sumatra          3556.500
       240   03 Jun 2027 10:59:52.012   03 Jun 2027 11:01:03.020            71.008               Magadan1          2219.000
       241   03 Jun 2027 11:01:11.713   03 Jun 2027 11:01:28.932            17.219                Irkutsk           538.094
       242   03 Jun 2027 11:02:02.408   03 Jun 2027 11:02:33.297            30.889                Irkutsk           965.281
       243   03 Jun 2027 11:02:46.883   03 Jun 2027 11:02:52.338             5.455                Norilsk           170.469
       244   03 Jun 2027 11:02:58.903   03 Jun 2027 11:03:17.475            18.572                Norilsk           580.375
       245   03 Jun 2027 11:03:39.355   03 Jun 2027 11:03:40.781             1.426                Irkutsk            44.562
       246   03 Jun 2027 11:04:27.166   03 Jun 2027 11:05:05.668            38.502                Irkutsk          1203.188
       247   03 Jun 2027 11:05:08.106   03 Jun 2027 11:05:20.906            12.800                Irkutsk           400.000
       248   03 Jun 2027 11:05:22.027   03 Jun 2027 11:05:43.106            21.079                Norilsk           658.719
       249   03 Jun 2027 11:05:44.843   03 Jun 2027 11:06:16.734            31.891                Novosib           996.594
       250   03 Jun 2027 11:40:59.796   03 Jun 2027 11:41:52.711            52.915            RioGallegos          1653.594
       251   03 Jun 2027 12:15:26.500   03 Jun 2027 12:17:41.425           134.925                Sumatra          4216.406
       252   03 Jun 2027 12:30:08.619   03 Jun 2027 12:31:04.948            56.329                Irkutsk          1760.281
       253   03 Jun 2027 12:32:27.637   03 Jun 2027 12:32:48.364            20.727                Novosib           647.719
       254   03 Jun 2027 12:34:57.896   03 Jun 2027 12:35:06.341             8.445                Norilsk           263.906
       255   03 Jun 2027 12:38:34.528   03 Jun 2027 12:39:07.064            32.536              Murmansk1          1016.750
       256   03 Jun 2027 13:24:08.522   03 Jun 2027 13:24:30.449            21.927            RioGallegos           685.219
       257   03 Jun 2027 14:00:00.226   03 Jun 2027 14:00:18.869            18.643                  Delhi           582.594
       258   03 Jun 2027 14:01:36.505   03 Jun 2027 14:02:26.715            50.210                  Delhi          1569.062
       259   03 Jun 2027 14:04:46.512   03 Jun 2027 14:04:50.229             3.717                  Delhi           116.156
       260   03 Jun 2027 14:05:51.545   03 Jun 2027 14:07:36.174           104.629                  Delhi          3269.656
       261   03 Jun 2027 14:08:07.131   03 Jun 2027 14:08:50.027            42.896                Novosib          1340.500
       262   03 Jun 2027 14:09:11.758   03 Jun 2027 14:11:35.810           144.052                Novosib          4501.625
       263   03 Jun 2027 14:12:03.710   03 Jun 2027 14:12:22.635            18.925                Norilsk           591.406
       264   03 Jun 2027 14:13:50.198   03 Jun 2027 14:14:37.716            47.518                Norilsk          1484.938
       265   03 Jun 2027 15:43:57.741   03 Jun 2027 15:47:30.553           212.812                 Moscow          6650.375
       266   03 Jun 2027 15:48:33.678   03 Jun 2027 15:50:07.399            93.721              Murmansk2          2928.781
       267   03 Jun 2027 15:52:32.440   03 Jun 2027 15:56:45.004           252.564                Norilsk          7892.625
       268   03 Jun 2027 15:56:51.691   03 Jun 2027 15:57:11.211            19.520                Norilsk           610.000
       269   03 Jun 2027 17:22:04.143   03 Jun 2027 17:23:21.390            77.247                 Moscow          2413.969
       270   03 Jun 2027 17:26:43.718   03 Jun 2027 17:27:13.421            29.703              Murmansk1           928.219
       271   03 Jun 2027 17:28:12.660   03 Jun 2027 17:28:44.755            32.095              Murmansk1          1002.969
       272   03 Jun 2027 17:38:18.531   03 Jun 2027 17:39:45.175            86.644                Anadyr2          2707.625
       273   03 Jun 2027 18:33:37.956   03 Jun 2027 18:35:25.470           107.514               CapeTown          3359.812
       274   03 Jun 2027 19:04:47.591   03 Jun 2027 19:10:25.003           337.412              Murmansk1         10544.125
       275   03 Jun 2027 19:17:23.284   03 Jun 2027 19:18:13.489            50.205               Magadan1          1568.906
       276   03 Jun 2027 20:49:55.998   03 Jun 2027 20:51:30.603            94.605                Anadyr1          2956.406
       277   03 Jun 2027 20:51:31.750   03 Jun 2027 20:53:40.119           128.369                Anadyr2          4011.531
       278   03 Jun 2027 20:54:06.199   03 Jun 2027 20:54:26.482            20.283               Magadan1           633.844
       279   03 Jun 2027 20:54:30.100   03 Jun 2027 20:55:14.295            44.195               Magadan2          1381.094
       280   03 Jun 2027 20:55:45.933   03 Jun 2027 20:56:13.692            27.759               Magadan2           867.469
       281   03 Jun 2027 20:56:48.654   03 Jun 2027 20:57:31.162            42.508               Magadan2          1328.375
       282   03 Jun 2027 20:57:31.162   03 Jun 2027 20:57:35.324             4.162               Magadan1           130.063
       283   03 Jun 2027 20:57:58.531   03 Jun 2027 20:58:42.901            44.370               Magadan2          1386.562
       284   03 Jun 2027 21:45:47.993   03 Jun 2027 21:48:28.035           160.042            RioGallegos          5001.312
       285   03 Jun 2027 21:51:04.211   03 Jun 2027 21:51:22.884            18.673            RioGallegos           583.531
       286   03 Jun 2027 21:52:11.387   03 Jun 2027 21:52:15.347             3.960            RioGallegos           123.750
       287   03 Jun 2027 22:25:44.618   03 Jun 2027 22:27:53.236           128.618                Anadyr1          4019.313
       288   03 Jun 2027 22:27:56.278   03 Jun 2027 22:29:22.839            86.561                Norilsk          2705.031
       289   03 Jun 2027 22:29:54.381   03 Jun 2027 22:30:17.575            23.194               Magadan1           724.813
       290   03 Jun 2027 22:31:01.798   03 Jun 2027 22:31:04.966             3.168               Magadan1            99.000
       291   03 Jun 2027 22:32:40.913   03 Jun 2027 22:33:21.819            40.906                Irkutsk          1278.312
       292   03 Jun 2027 22:34:35.761   03 Jun 2027 22:35:16.148            40.387                Irkutsk          1262.094
       293   03 Jun 2027 22:37:01.144   03 Jun 2027 22:38:05.846            64.702                Irkutsk          2021.938
       294   03 Jun 2027 22:49:16.279   03 Jun 2027 22:49:51.686            35.407                Sumatra          1106.469
       295   03 Jun 2027 22:51:11.077   03 Jun 2027 22:51:42.438            31.361                Sumatra           980.031
       296   03 Jun 2027 22:52:13.174   03 Jun 2027 22:53:00.734            47.560                Sumatra          1486.250
       297   04 Jun 2027 00:00:58.846   04 Jun 2027 00:02:35.421            96.575                Anadyr2          3017.969
       298   04 Jun 2027 00:03:30.932   04 Jun 2027 00:04:08.956            38.024                Anadyr2          1188.250
       299   04 Jun 2027 00:04:17.436   04 Jun 2027 00:06:35.029           137.593               Magadan1          4299.781
       300   04 Jun 2027 00:07:34.041   04 Jun 2027 00:08:37.013            62.972                Irkutsk          1967.875
       301   04 Jun 2027 00:09:19.391   04 Jun 2027 00:09:53.368            33.977                Novosib          1061.781
       302   04 Jun 2027 00:10:29.451   04 Jun 2027 00:11:15.690            46.239                Novosib          1444.969
       303   04 Jun 2027 00:17:43.920   04 Jun 2027 00:19:03.518            79.598                  Delhi          2487.437
       304   04 Jun 2027 00:24:18.003   04 Jun 2027 00:24:21.143             3.140                  Delhi            98.125
       305   04 Jun 2027 00:33:03.552   04 Jun 2027 00:33:42.977            39.425                Sumatra          1232.031
       306   04 Jun 2027 00:59:37.518   04 Jun 2027 01:00:37.504            59.986            RioGallegos          1874.563
       307   04 Jun 2027 01:35:02.532   04 Jun 2027 01:36:45.708           103.176                Anadyr1          3224.250
       308   04 Jun 2027 01:37:54.995   04 Jun 2027 01:37:59.370             4.375                Anadyr1           136.719
       309   04 Jun 2027 01:39:40.305   04 Jun 2027 01:41:39.175           118.870                Norilsk          3714.687
       310   04 Jun 2027 01:42:28.756   04 Jun 2027 01:43:59.600            90.844              Murmansk2          2838.875
       311   04 Jun 2027 01:44:16.901   04 Jun 2027 01:44:56.184            39.283                Irkutsk          1227.594
       312   04 Jun 2027 01:46:44.521   04 Jun 2027 01:46:57.643            13.122                Novosib           410.062
       313   04 Jun 2027 01:48:02.844   04 Jun 2027 01:48:19.808            16.964              Murmansk2           530.125
       314   04 Jun 2027 01:50:18.967   04 Jun 2027 01:50:31.234            12.267                Irkutsk           383.344
       315   04 Jun 2027 01:50:47.597   04 Jun 2027 01:51:16.247            28.650                  Delhi           895.312
       316   04 Jun 2027 01:54:00.149   04 Jun 2027 01:54:38.645            38.496                  Delhi          1203.000
       317   04 Jun 2027 02:32:51.155   04 Jun 2027 02:35:27.346           156.191            RioGallegos          4880.969
       318   04 Jun 2027 02:37:23.625   04 Jun 2027 02:37:55.306            31.681            RioGallegos           990.031
       319   04 Jun 2027 03:24:13.828   04 Jun 2027 03:24:54.750            40.922                Irkutsk          1278.813
       320   04 Jun 2027 03:25:18.166   04 Jun 2027 03:25:26.439             8.273              Murmansk1           258.531
       321   04 Jun 2027 03:25:31.764   04 Jun 2027 03:26:44.668            72.904                Norilsk          2278.250
       322   04 Jun 2027 03:27:05.538   04 Jun 2027 03:28:07.540            62.002                Norilsk          1937.562
       323   04 Jun 2027 03:29:03.469   04 Jun 2027 03:29:14.274            10.805                Novosib           337.656
       324   04 Jun 2027 03:29:32.414   04 Jun 2027 03:30:25.772            53.358                Novosib          1667.437
       325   04 Jun 2027 05:01:58.379   04 Jun 2027 05:02:34.168            35.789                Novosib          1118.406
       326   04 Jun 2027 05:02:42.956   04 Jun 2027 05:03:25.856            42.900                 Moscow          1340.625
       327   04 Jun 2027 05:05:24.576   04 Jun 2027 05:05:41.250            16.674                 Moscow           521.062
       328   04 Jun 2027 05:20:52.988   04 Jun 2027 05:23:23.541           150.553               CapeTown          4704.781
       329   04 Jun 2027 06:23:55.260   04 Jun 2027 06:24:41.141            45.881                Anadyr2          1433.781
       330   04 Jun 2027 06:24:47.017   04 Jun 2027 06:25:07.225            20.208                Anadyr1           631.500
       331   04 Jun 2027 06:25:34.592   04 Jun 2027 06:25:41.750             7.158                Anadyr1           223.687
       332   04 Jun 2027 06:25:51.046   04 Jun 2027 06:26:12.467            21.421                Anadyr1           669.406
       333   04 Jun 2027 06:26:46.659   04 Jun 2027 06:27:10.604            23.945                Anadyr2           748.281
       334   04 Jun 2027 06:28:23.834   04 Jun 2027 06:28:42.215            18.381                Anadyr2           574.406
       335   04 Jun 2027 07:01:30.911   04 Jun 2027 07:03:52.286           141.375               CapeTown          4417.969
       336   04 Jun 2027 08:00:09.043   04 Jun 2027 08:00:20.299            11.256                Anadyr2           351.750
       337   04 Jun 2027 08:00:22.973   04 Jun 2027 08:01:10.869            47.896               Magadan1          1496.750
       338   04 Jun 2027 08:01:36.199   04 Jun 2027 08:02:38.255            62.056                Anadyr1          1939.250
       339   04 Jun 2027 08:02:50.731   04 Jun 2027 08:03:59.377            68.646               Magadan1          2145.187
       340   04 Jun 2027 08:47:08.791   04 Jun 2027 08:47:26.837            18.046            RioGallegos           563.938
       341   04 Jun 2027 09:35:44.081   04 Jun 2027 09:35:53.472             9.391               Magadan1           293.469
       342   04 Jun 2027 09:36:20.780   04 Jun 2027 09:36:32.730            11.950               Magadan2           373.437
       343   04 Jun 2027 09:38:11.548   04 Jun 2027 09:39:00.343            48.795               Magadan2          1524.844
       344   04 Jun 2027 09:40:15.618   04 Jun 2027 09:40:31.514            15.896               Magadan2           496.750
       345   04 Jun 2027 09:40:48.078   04 Jun 2027 09:41:16.394            28.316               Magadan2           884.875
       346   04 Jun 2027 09:41:45.671   04 Jun 2027 09:41:46.454             0.783               Magadan2            24.469
       347   04 Jun 2027 10:16:43.331   04 Jun 2027 10:17:42.756            59.425            RioGallegos          1857.031
       348   04 Jun 2027 10:53:05.315   04 Jun 2027 10:54:38.069            92.754                Sumatra          2898.562
       349   04 Jun 2027 11:12:02.446   04 Jun 2027 11:12:28.506            26.060                Novosib           814.375
       350   04 Jun 2027 11:12:57.711   04 Jun 2027 11:13:01.713             4.002                Irkutsk           125.063
       351   04 Jun 2027 11:13:13.695   04 Jun 2027 11:13:36.789            23.094                Norilsk           721.688
       352   04 Jun 2027 11:13:43.308   04 Jun 2027 11:14:04.997            21.689                Irkutsk           677.781
       353   04 Jun 2027 11:14:34.325   04 Jun 2027 11:15:24.969            50.644                Irkutsk          1582.625
       354   04 Jun 2027 11:15:28.784   04 Jun 2027 11:15:49.313            20.529                Norilsk           641.531
       355   04 Jun 2027 11:15:53.892   04 Jun 2027 11:16:54.401            60.509                Norilsk          1890.906
       356   04 Jun 2027 11:16:58.433   04 Jun 2027 11:17:03.092             4.659                Norilsk           145.594
       357   04 Jun 2027 11:17:14.906   04 Jun 2027 11:17:27.023            12.117                Norilsk           378.656
       358   04 Jun 2027 11:17:30.342   04 Jun 2027 11:17:39.065             8.723                Irkutsk           272.594
       359   04 Jun 2027 11:53:19.773   04 Jun 2027 11:54:32.818            73.045            RioGallegos          2282.656
       360   04 Jun 2027 12:03:31.949   04 Jun 2027 12:03:33.019             1.070            RioGallegos            33.438
       361   04 Jun 2027 12:27:39.322   04 Jun 2027 12:29:31.157           111.835                Sumatra          3494.844
       362   04 Jun 2027 12:42:28.068   04 Jun 2027 12:43:29.968            61.900                Novosib          1934.375
       363   04 Jun 2027 12:43:47.641   04 Jun 2027 12:44:10.068            22.427                Novosib           700.844
       364   04 Jun 2027 12:46:16.546   04 Jun 2027 12:46:52.438            35.892                Norilsk          1121.625
       365   04 Jun 2027 12:47:52.934   04 Jun 2027 12:48:53.279            60.345                Norilsk          1885.781
       366   04 Jun 2027 14:12:24.098   04 Jun 2027 14:13:51.310            87.212                  Delhi          2725.375
       367   04 Jun 2027 14:16:11.296   04 Jun 2027 14:16:48.787            37.491                  Delhi          1171.594
       368   04 Jun 2027 14:17:00.331   04 Jun 2027 14:17:38.911            38.580                  Delhi          1205.625
       369   04 Jun 2027 14:20:41.256   04 Jun 2027 14:24:10.740           209.484                Novosib          6546.375
       370   04 Jun 2027 14:24:29.912   04 Jun 2027 14:24:53.799            23.887                Norilsk           746.469
       371   04 Jun 2027 14:25:31.834   04 Jun 2027 14:26:10.167            38.333                Novosib          1197.906
       372   04 Jun 2027 15:56:03.310   04 Jun 2027 15:59:25.259           201.949                 Moscow          6310.906
       373   04 Jun 2027 15:59:34.763   04 Jun 2027 16:00:29.661            54.898              Murmansk1          1715.562
       374   04 Jun 2027 16:01:26.312   04 Jun 2027 16:02:25.597            59.285              Murmansk1          1852.656
       375   04 Jun 2027 16:05:27.493   04 Jun 2027 16:08:52.276           204.783                Norilsk          6399.469
       376   04 Jun 2027 16:09:56.774   04 Jun 2027 16:09:56.784             0.010                Norilsk             0.312
       377   04 Jun 2027 17:34:43.289   04 Jun 2027 17:35:48.397            65.108                 Moscow          2034.625
       378   04 Jun 2027 17:37:02.114   04 Jun 2027 17:37:22.889            20.775                 Moscow           649.219
       379   04 Jun 2027 17:37:24.505   04 Jun 2027 17:38:45.047            80.542              Murmansk1          2516.937
       380   04 Jun 2027 17:41:04.740   04 Jun 2027 17:42:02.282            57.542              Murmansk1          1798.187
       381   04 Jun 2027 17:50:16.149   04 Jun 2027 17:50:28.822            12.673                Anadyr1           396.031
       382   04 Jun 2027 17:50:54.617   04 Jun 2027 17:51:15.783            21.166                Anadyr1           661.437
       383   04 Jun 2027 17:53:07.144   04 Jun 2027 17:53:18.734            11.590                Anadyr2           362.188
       384   04 Jun 2027 18:45:50.795   04 Jun 2027 18:47:26.594            95.799               CapeTown          2993.719
       385   04 Jun 2027 18:49:38.695   04 Jun 2027 18:50:18.899            40.204               CapeTown          1256.375
       386   04 Jun 2027 19:17:35.139   04 Jun 2027 19:22:12.229           277.090              Murmansk2          8659.063
       387   04 Jun 2027 19:28:51.376   04 Jun 2027 19:30:26.432            95.056               Magadan1          2970.500
       388   04 Jun 2027 21:01:57.524   04 Jun 2027 21:04:58.987           181.463                Anadyr2          5670.719
       389   04 Jun 2027 21:05:10.725   04 Jun 2027 21:05:47.574            36.849                Anadyr2          1151.531
       390   04 Jun 2027 21:06:07.085   04 Jun 2027 21:08:17.893           130.808               Magadan1          4087.750
       391   04 Jun 2027 21:08:28.764   04 Jun 2027 21:08:39.481            10.717               Magadan1           334.906
       392   04 Jun 2027 21:08:56.638   04 Jun 2027 21:09:26.619            29.981               Magadan2           936.906
       393   04 Jun 2027 21:10:44.039   04 Jun 2027 21:10:52.442             8.403               Magadan2           262.594
       394   04 Jun 2027 21:11:17.396   04 Jun 2027 21:11:22.381             4.985               Magadan2           155.781
       395   04 Jun 2027 21:13:34.994   04 Jun 2027 21:13:43.659             8.665               Magadan1           270.781
       396   04 Jun 2027 21:14:50.553   04 Jun 2027 21:15:28.521            37.968               Magadan1          1186.500
       397   04 Jun 2027 21:57:15.086   04 Jun 2027 21:59:45.642           150.556            RioGallegos          4704.875
       398   04 Jun 2027 22:02:34.034   04 Jun 2027 22:02:42.946             8.912            RioGallegos           278.500
       399   04 Jun 2027 22:03:27.976   04 Jun 2027 22:04:06.001            38.025            RioGallegos          1188.281
       400   04 Jun 2027 22:37:43.624   04 Jun 2027 22:39:22.626            99.002                Anadyr1          3093.813
       401   04 Jun 2027 22:40:12.841   04 Jun 2027 22:42:09.608           116.767               Magadan2          3648.969
       402   04 Jun 2027 22:43:24.681   04 Jun 2027 22:43:24.810             0.129                Norilsk             4.031
       403   04 Jun 2027 22:43:38.339   04 Jun 2027 22:43:53.514            15.175               Magadan2           474.219
       404   04 Jun 2027 22:44:25.773   04 Jun 2027 22:45:20.313            54.540                Irkutsk          1704.375
       405   04 Jun 2027 22:46:57.670   04 Jun 2027 22:48:24.611            86.941                Irkutsk          2716.906
       406   04 Jun 2027 22:58:46.922   04 Jun 2027 22:59:10.040            23.118                Sumatra           722.437
       407   04 Jun 2027 22:59:46.264   04 Jun 2027 23:01:33.628           107.364                Sumatra          3355.125
       408   05 Jun 2027 00:12:50.718   05 Jun 2027 00:12:59.903             9.185                Anadyr2           287.031
       409   05 Jun 2027 00:14:02.041   05 Jun 2027 00:15:14.703            72.662                Anadyr2          2270.687
       410   05 Jun 2027 00:15:32.167   05 Jun 2027 00:15:47.921            15.754                Anadyr2           492.313
       411   05 Jun 2027 00:16:20.481   05 Jun 2027 00:18:00.199            99.718               Magadan2          3116.187
       412   05 Jun 2027 00:18:37.145   05 Jun 2027 00:18:54.050            16.905               Magadan1           528.281
       413   05 Jun 2027 00:19:34.539   05 Jun 2027 00:20:55.296            80.757                Irkutsk          2523.656
       414   05 Jun 2027 00:21:04.391   05 Jun 2027 00:21:30.954            26.563                Novosib           830.094
       415   05 Jun 2027 00:22:25.971   05 Jun 2027 00:22:52.752            26.781                Novosib           836.906
       416   05 Jun 2027 00:27:52.170   05 Jun 2027 00:28:17.758            25.588                Novosib           799.625
       417   05 Jun 2027 00:28:50.325   05 Jun 2027 00:31:23.756           153.431                  Delhi          4794.719
       418   05 Jun 2027 01:12:51.115   05 Jun 2027 01:13:00.260             9.145            RioGallegos           285.781
       419   05 Jun 2027 01:13:31.081   05 Jun 2027 01:14:11.866            40.785            RioGallegos          1274.531
       420   05 Jun 2027 01:19:21.048   05 Jun 2027 01:19:25.897             4.849            RioGallegos           151.531
       421   05 Jun 2027 01:46:45.038   05 Jun 2027 01:47:39.441            54.403                Anadyr1          1700.094
       422   05 Jun 2027 01:48:05.176   05 Jun 2027 01:48:23.143            17.967                Anadyr2           561.469
       423   05 Jun 2027 01:48:47.976   05 Jun 2027 01:48:59.443            11.467                Anadyr1           358.344
       424   05 Jun 2027 01:48:59.443   05 Jun 2027 01:49:13.919            14.476                Anadyr2           452.375
       425   05 Jun 2027 01:51:42.398   05 Jun 2027 01:53:29.797           107.399                Norilsk          3356.219
       426   05 Jun 2027 01:54:19.652   05 Jun 2027 01:54:54.172            34.520              Murmansk2          1078.750
       427   05 Jun 2027 01:54:54.172   05 Jun 2027 01:56:17.370            83.198              Murmansk1          2599.937
       428   05 Jun 2027 01:56:52.239   05 Jun 2027 01:56:57.721             5.482                Irkutsk           171.312
       429   05 Jun 2027 01:57:20.151   05 Jun 2027 01:57:33.025            12.874                Irkutsk           402.313
       430   05 Jun 2027 01:58:38.342   05 Jun 2027 01:58:56.437            18.095                Irkutsk           565.469
       431   05 Jun 2027 02:00:54.749   05 Jun 2027 02:01:47.445            52.696                Novosib          1646.750
       432   05 Jun 2027 02:11:20.772   05 Jun 2027 02:11:50.306            29.534                  Delhi           922.938
       433   05 Jun 2027 02:45:16.348   05 Jun 2027 02:46:44.565            88.217            RioGallegos          2756.781
       434   05 Jun 2027 02:47:33.230   05 Jun 2027 02:48:44.995            71.765            RioGallegos          2242.656
       435   05 Jun 2027 02:49:56.068   05 Jun 2027 02:50:31.470            35.402            RioGallegos          1106.313
       436   05 Jun 2027 03:37:20.817   05 Jun 2027 03:37:50.446            29.629                Norilsk           925.906
       437   05 Jun 2027 03:38:01.055   05 Jun 2027 03:38:31.516            30.461                 Moscow           951.906
       438   05 Jun 2027 03:38:33.910   05 Jun 2027 03:38:39.215             5.305              Murmansk1           165.781
       439   05 Jun 2027 03:38:39.909   05 Jun 2027 03:39:15.898            35.989                 Moscow          1124.656
       440   05 Jun 2027 03:39:15.918   05 Jun 2027 03:40:06.475            50.557                Norilsk          1579.906
       441   05 Jun 2027 03:41:06.428   05 Jun 2027 03:41:09.192             2.764              Murmansk2            86.375
       442   05 Jun 2027 03:41:09.560   05 Jun 2027 03:42:22.485            72.925                Novosib          2278.906
       443   05 Jun 2027 04:54:04.399   05 Jun 2027 04:56:28.556           144.157                Anadyr2          4504.906
       444   05 Jun 2027 05:14:38.236   05 Jun 2027 05:15:46.920            68.684                 Moscow          2146.375
       445   05 Jun 2027 05:15:51.167   05 Jun 2027 05:16:37.306            46.139                 Moscow          1441.844
       446   05 Jun 2027 05:32:59.916   05 Jun 2027 05:33:45.105            45.189               CapeTown          1412.156
       447   05 Jun 2027 05:35:42.956   05 Jun 2027 05:36:03.530            20.574               CapeTown           642.938
       448   05 Jun 2027 05:42:27.301   05 Jun 2027 05:42:43.609            16.308               CapeTown           509.625
       449   05 Jun 2027 06:35:44.832   05 Jun 2027 06:37:30.447           105.615                Anadyr2          3300.469
       450   05 Jun 2027 06:37:36.356   05 Jun 2027 06:38:05.896            29.540               Magadan1           923.125
       451   05 Jun 2027 06:38:05.896   05 Jun 2027 06:38:21.184            15.288               Magadan2           477.750
       452   05 Jun 2027 06:38:36.592   05 Jun 2027 06:38:48.404            11.812                Anadyr1           369.125
       453   05 Jun 2027 08:12:16.081   05 Jun 2027 08:12:44.493            28.412                Anadyr2           887.875
       454   05 Jun 2027 08:12:52.820   05 Jun 2027 08:13:26.296            33.476               Magadan2          1046.125
       455   05 Jun 2027 08:13:28.891   05 Jun 2027 08:13:36.184             7.293               Magadan1           227.906
       456   05 Jun 2027 08:13:47.996   05 Jun 2027 08:15:38.996           111.000                Anadyr2          3468.750
       457   05 Jun 2027 09:47:35.687   05 Jun 2027 09:48:05.548            29.861               Magadan1           933.156
       458   05 Jun 2027 09:48:14.805   05 Jun 2027 09:48:22.615             7.810               Magadan2           244.063
       459   05 Jun 2027 09:49:11.263   05 Jun 2027 09:50:09.360            58.097               Magadan2          1815.531
       460   05 Jun 2027 09:50:42.780   05 Jun 2027 09:52:16.371            93.591               Magadan1          2924.719
       461   05 Jun 2027 09:52:44.254   05 Jun 2027 09:53:02.186            17.932               Magadan2           560.375
       462   05 Jun 2027 09:53:27.146   05 Jun 2027 09:53:32.213             5.067                Irkutsk           158.344
       463   05 Jun 2027 09:53:32.409   05 Jun 2027 09:53:41.223             8.814               Magadan1           275.437
       464   05 Jun 2027 09:54:40.934   05 Jun 2027 09:54:45.606             4.672                Norilsk           146.000
       465   05 Jun 2027 10:28:38.001   05 Jun 2027 10:29:32.840            54.839            RioGallegos          1713.719
       466   05 Jun 2027 10:29:42.402   05 Jun 2027 10:30:38.846            56.444            RioGallegos          1763.875
       467   05 Jun 2027 11:12:48.120   05 Jun 2027 11:13:17.344            29.224                Sumatra           913.250
       468   05 Jun 2027 11:25:11.549   05 Jun 2027 11:25:27.399            15.850                Irkutsk           495.313
       469   05 Jun 2027 11:26:38.650   05 Jun 2027 11:27:33.232            54.582                Irkutsk          1705.688
       470   05 Jun 2027 11:27:54.125   05 Jun 2027 11:28:48.563            54.438                Irkutsk          1701.187
       471   05 Jun 2027 11:28:55.942   05 Jun 2027 11:29:00.303             4.361                Norilsk           136.281
       472   05 Jun 2027 11:29:14.029   05 Jun 2027 11:29:33.589            19.560                Norilsk           611.250
       473   05 Jun 2027 11:29:48.372   05 Jun 2027 11:30:57.336            68.964                Novosib          2155.125
       474   05 Jun 2027 12:05:44.537   05 Jun 2027 12:06:10.923            26.386            RioGallegos           824.563
       475   05 Jun 2027 12:10:39.168   05 Jun 2027 12:10:45.885             6.717            RioGallegos           209.906
       476   05 Jun 2027 12:39:59.163   05 Jun 2027 12:41:26.827            87.664                Sumatra          2739.500
       477   05 Jun 2027 12:54:34.284   05 Jun 2027 12:55:26.805            52.521                Novosib          1641.281
       478   05 Jun 2027 12:55:28.998   05 Jun 2027 12:56:46.880            77.882                Irkutsk          2433.812
       479   05 Jun 2027 12:59:10.318   05 Jun 2027 12:59:21.864            11.546                Norilsk           360.812
       480   05 Jun 2027 13:00:03.993   05 Jun 2027 13:00:13.479             9.486                Irkutsk           296.438
       481   05 Jun 2027 13:05:37.122   05 Jun 2027 13:06:41.135            64.013                Norilsk          2000.406
       482   05 Jun 2027 14:24:56.628   05 Jun 2027 14:27:52.912           176.284                  Delhi          5508.875
