uniorb/output/strategy_4/Drop/Drop_KinoSat_110203.txt

KinoSat_110203
-------------------------
    Access    *     Start Time (UTCG)     *     Stop Time (UTCG)  *   Duration (s)        *       Station  *  Data (Mbytes)
         1   01 Jun 2027 04:23:13.469   01 Jun 2027 04:24:32.409            78.940                Irkutsk          9867.500
         2   01 Jun 2027 04:25:12.974   01 Jun 2027 04:25:26.086            13.112              Murmansk2          1639.000
         3   01 Jun 2027 04:25:41.597   01 Jun 2027 04:27:14.744            93.147              Murmansk2         11643.375
         4   01 Jun 2027 04:27:40.358   01 Jun 2027 04:28:26.553            46.195              Murmansk2          5774.375
         5   01 Jun 2027 04:28:57.715   01 Jun 2027 04:29:11.031            13.316              Murmansk2          1664.500
         6   01 Jun 2027 04:30:34.400   01 Jun 2027 04:30:44.718            10.318                Norilsk          1289.750
         7   01 Jun 2027 05:03:43.500   01 Jun 2027 05:05:52.068           128.568            RioGallegos         16071.000
         8   01 Jun 2027 05:39:43.094   01 Jun 2027 05:40:17.097            34.003                Sumatra          4250.375
         9   01 Jun 2027 05:41:22.481   01 Jun 2027 05:42:08.435            45.954                Sumatra          5744.250
        10   01 Jun 2027 05:44:04.871   01 Jun 2027 05:44:11.722             6.851                Sumatra           856.375
        11   01 Jun 2027 05:45:51.349   01 Jun 2027 05:48:36.131           164.782                  Delhi         20597.750
        12   01 Jun 2027 06:02:10.569   01 Jun 2027 06:04:47.911           157.342                Novosib         19667.750
        13   01 Jun 2027 07:37:39.747   01 Jun 2027 07:38:35.326            55.579                Novosib          6947.375
        14   01 Jun 2027 07:39:06.421   01 Jun 2027 07:39:27.876            21.455                 Moscow          2681.875
        15   01 Jun 2027 09:30:35.692   01 Jun 2027 09:30:47.107            11.415                Anadyr1          1426.875
        16   01 Jun 2027 10:22:22.967   01 Jun 2027 10:22:46.090            23.123               CapeTown          2890.375
        17   01 Jun 2027 11:00:07.921   01 Jun 2027 11:01:06.190            58.269                Anadyr2          7283.625
        18   01 Jun 2027 11:01:38.932   01 Jun 2027 11:07:29.776           350.844                Anadyr1         43855.500
        19   01 Jun 2027 12:38:36.942   01 Jun 2027 12:41:38.277           181.335               Magadan1         22666.875
        20   01 Jun 2027 12:42:21.117   01 Jun 2027 12:43:09.483            48.366               Magadan2          6045.750
        21   01 Jun 2027 15:06:42.875   01 Jun 2027 15:10:46.283           243.408            RioGallegos         30426.000
        22   01 Jun 2027 15:54:06.058   01 Jun 2027 15:55:08.277            62.219                Irkutsk          7777.375
        23   01 Jun 2027 15:57:53.578   01 Jun 2027 15:58:30.494            36.916                Irkutsk          4614.500
        24   01 Jun 2027 16:08:05.576   01 Jun 2027 16:12:12.954           247.378                Sumatra         30922.250
        25   01 Jun 2027 17:29:47.096   01 Jun 2027 17:31:30.281           103.185                Novosib         12898.125
        26   01 Jun 2027 17:38:01.853   01 Jun 2027 17:41:46.950           225.097                  Delhi         18381.500
        27   02 Jun 2027 04:13:55.158   02 Jun 2027 04:18:14.401           259.243                Sumatra         32405.375
        28   02 Jun 2027 04:39:00.543   02 Jun 2027 04:45:45.269           404.726              Murmansk1         50590.750
        29   02 Jun 2027 05:16:14.763   02 Jun 2027 05:17:52.708            97.945            RioGallegos         12243.125
        30   02 Jun 2027 05:50:26.457   02 Jun 2027 05:51:16.276            49.819                Sumatra          6227.375
        31   02 Jun 2027 05:52:31.551   02 Jun 2027 05:54:16.295           104.744                Sumatra         13093.000
        32   02 Jun 2027 05:57:41.305   02 Jun 2027 05:58:28.468            47.163                  Delhi          5895.375
        33   02 Jun 2027 06:15:45.272   02 Jun 2027 06:20:20.558           275.286                Norilsk         34410.750
        34   02 Jun 2027 07:35:44.156   02 Jun 2027 07:38:53.126           188.970                  Delhi         23621.250
        35   02 Jun 2027 07:44:16.694   02 Jun 2027 07:46:34.501           137.807                Novosib         17225.875
        36   02 Jun 2027 07:51:06.425   02 Jun 2027 07:51:37.821            31.396                Novosib          3924.500
        37   02 Jun 2027 07:51:59.709   02 Jun 2027 07:58:21.342           381.633              Murmansk2         47704.125
        38   02 Jun 2027 08:59:19.731   02 Jun 2027 09:01:10.946           111.215               CapeTown         13901.875
        39   02 Jun 2027 09:18:19.238   02 Jun 2027 09:22:46.143           266.905                 Moscow         33363.125
        40   02 Jun 2027 09:23:04.015   02 Jun 2027 09:23:51.046            47.031              Murmansk1          5878.875
        41   02 Jun 2027 09:24:43.253   02 Jun 2027 09:26:55.376           132.123              Murmansk1         16515.375
        42   02 Jun 2027 09:37:06.379   02 Jun 2027 09:41:17.206           250.827                Anadyr2         31353.375
        43   02 Jun 2027 09:42:22.240   02 Jun 2027 09:43:45.493            83.253                Anadyr1         10406.625
        44   02 Jun 2027 11:15:50.345   02 Jun 2027 11:16:53.248            62.903                Anadyr1          7862.875
        45   02 Jun 2027 12:50:31.711   02 Jun 2027 12:55:08.367           276.656               Magadan1         34582.000
        46   02 Jun 2027 14:26:32.559   02 Jun 2027 14:27:51.189            78.630               Magadan1          9828.750
        47   02 Jun 2027 14:29:28.107   02 Jun 2027 14:31:01.342            93.235               Magadan2         11654.375
        48   02 Jun 2027 15:18:27.059   02 Jun 2027 15:20:43.158           136.099            RioGallegos         17012.375
        49   02 Jun 2027 16:05:57.758   02 Jun 2027 16:09:09.272           191.514                Irkutsk         23939.250
        50   02 Jun 2027 16:19:46.536   02 Jun 2027 16:22:12.525           145.989                Sumatra         18248.625
        51   02 Jun 2027 17:41:42.364   02 Jun 2027 17:46:21.224           278.860                Novosib         34857.500
        52   02 Jun 2027 17:50:48.787   02 Jun 2027 17:53:42.429           173.642                  Delhi         21705.250
        53   02 Jun 2027 20:55:10.356   02 Jun 2027 20:56:35.574            85.218                 Moscow         10652.250
        54   02 Jun 2027 21:19:37.995   02 Jun 2027 21:20:08.206            30.211               CapeTown          3776.375
        55   03 Jun 2027 03:16:03.880   03 Jun 2027 03:16:56.693            52.813                Novosib          6601.625
        56   03 Jun 2027 03:17:00.121   03 Jun 2027 03:20:30.634           210.513                Norilsk         26314.125
        57   03 Jun 2027 03:20:31.966   03 Jun 2027 03:21:01.949            29.983              Murmansk1          3747.875
        58   03 Jun 2027 04:25:39.578   03 Jun 2027 04:28:20.341           160.763                Sumatra         20095.375
        59   03 Jun 2027 04:51:29.276   03 Jun 2027 04:56:29.780           300.504              Murmansk1         37563.000
        60   03 Jun 2027 05:30:28.414   03 Jun 2027 05:31:04.483            36.069            RioGallegos          4508.625
        61   03 Jun 2027 05:31:28.798   03 Jun 2027 05:31:41.336            12.538            RioGallegos          1567.250
        62   03 Jun 2027 05:32:13.229   03 Jun 2027 05:33:35.769            82.540            RioGallegos         10317.500
        63   03 Jun 2027 05:34:58.727   03 Jun 2027 05:35:24.978            26.251            RioGallegos          3281.375
        64   03 Jun 2027 05:36:12.270   03 Jun 2027 05:36:26.237            13.967            RioGallegos          1745.875
        65   03 Jun 2027 06:03:09.582   03 Jun 2027 06:04:39.744            90.162                Sumatra         11270.250
        66   03 Jun 2027 06:04:55.691   03 Jun 2027 06:06:30.374            94.683                Sumatra         11835.375
        67   03 Jun 2027 06:09:36.607   03 Jun 2027 06:11:19.653           103.046                  Delhi         12880.750
        68   03 Jun 2027 06:16:51.482   03 Jun 2027 06:21:16.392           264.910                Novosib         33113.750
        69   03 Jun 2027 06:22:04.479   03 Jun 2027 06:24:17.441           132.962                 Moscow         16620.250
        70   03 Jun 2027 06:27:28.969   03 Jun 2027 06:27:59.237            30.268                 Moscow          3783.500
        71   03 Jun 2027 06:28:05.278   03 Jun 2027 06:29:07.707            62.429                Novosib          7803.625
        72   03 Jun 2027 06:29:13.361   03 Jun 2027 06:31:48.906           155.545                Norilsk         19443.125
        73   03 Jun 2027 06:31:52.742   03 Jun 2027 06:32:28.640            35.898              Murmansk1          4487.250
        74   03 Jun 2027 07:55:12.978   03 Jun 2027 07:56:45.634            92.656                 Moscow         11582.000
        75   03 Jun 2027 07:58:10.656   03 Jun 2027 07:58:37.431            26.775                Novosib          3346.875
        76   03 Jun 2027 08:03:00.710   03 Jun 2027 08:03:42.677            41.967              Murmansk2          5245.875
        77   03 Jun 2027 08:04:22.080   03 Jun 2027 08:08:35.707           253.627                Norilsk         31703.375
        78   03 Jun 2027 08:08:46.183   03 Jun 2027 08:10:22.632            96.449              Murmansk1         12056.125
        79   03 Jun 2027 09:10:01.782   03 Jun 2027 09:17:10.472           428.690               CapeTown         53586.250
        80   03 Jun 2027 09:30:35.227   03 Jun 2027 09:32:01.621            86.394                 Moscow         10799.250
        81   03 Jun 2027 09:32:22.799   03 Jun 2027 09:34:52.296           149.497                 Moscow         18687.125
        82   03 Jun 2027 09:36:54.847   03 Jun 2027 09:39:04.601           129.754              Murmansk1         16219.250
        83   03 Jun 2027 09:39:23.874   03 Jun 2027 09:39:44.679            20.805              Murmansk1          2600.625
        84   03 Jun 2027 09:41:59.075   03 Jun 2027 09:42:36.838            37.763              Murmansk2          4720.375
        85   03 Jun 2027 09:48:52.663   03 Jun 2027 09:56:34.572           461.909                Anadyr2         57738.625
        86   03 Jun 2027 11:12:52.898   03 Jun 2027 11:14:37.328           104.430              Murmansk2         13053.750
        87   03 Jun 2027 11:27:05.695   03 Jun 2027 11:28:54.120           108.425                Anadyr1         13553.125
        88   03 Jun 2027 11:31:08.842   03 Jun 2027 11:32:48.322            99.480               Magadan1         12435.000
        89   03 Jun 2027 12:59:58.147   03 Jun 2027 13:01:07.350            69.203                Anadyr2          8650.375
        90   03 Jun 2027 13:02:27.860   03 Jun 2027 13:03:56.570            88.710               Magadan1         11088.750
        91   03 Jun 2027 13:04:18.569   03 Jun 2027 13:07:46.377           207.808               Magadan2         25976.000
        92   03 Jun 2027 15:30:15.206   03 Jun 2027 15:33:56.758           221.552            RioGallegos         27694.000
        93   03 Jun 2027 16:17:51.603   03 Jun 2027 16:20:01.413           129.810                Irkutsk         16226.250
        94   03 Jun 2027 16:31:34.174   03 Jun 2027 16:34:26.503           172.329                Sumatra         21541.125
        95   03 Jun 2027 17:53:38.994   03 Jun 2027 17:55:00.257            81.263                Novosib         10157.875
        96   03 Jun 2027 18:01:20.415   03 Jun 2027 18:05:41.364           260.949                  Delhi         32618.625
        97   03 Jun 2027 21:09:55.328   03 Jun 2027 21:11:52.977           117.649                 Moscow         14706.125
        98   03 Jun 2027 21:31:20.469   03 Jun 2027 21:33:29.169           128.700               CapeTown         16087.500
        99   04 Jun 2027 03:27:52.119   04 Jun 2027 03:29:03.469            71.350                Novosib          8918.750
       100   04 Jun 2027 03:29:04.518   04 Jun 2027 03:33:35.435           270.917              Murmansk1         33864.625
       101   04 Jun 2027 04:37:30.259   04 Jun 2027 04:40:31.124           180.865                Sumatra         22608.125
       102   04 Jun 2027 05:03:21.980   04 Jun 2027 05:07:55.449           273.469              Murmansk1         34183.625
       103   04 Jun 2027 05:07:55.449   04 Jun 2027 05:08:48.315            52.866              Murmansk2          6608.250
       104   04 Jun 2027 06:16:16.100   04 Jun 2027 06:18:51.705           155.605                Sumatra         19450.625
       105   04 Jun 2027 06:21:37.198   04 Jun 2027 06:23:37.445           120.247                  Delhi         15030.875
       106   04 Jun 2027 06:26:40.925   04 Jun 2027 06:27:21.783            40.858                  Delhi          5107.250
       107   04 Jun 2027 06:29:08.236   04 Jun 2027 06:33:23.181           254.945                Novosib         31868.125
       108   04 Jun 2027 06:33:28.860   04 Jun 2027 06:34:51.996            83.136                 Moscow         10392.000
       109   04 Jun 2027 06:39:46.173   04 Jun 2027 06:42:39.115           172.942                 Moscow         21617.750
       110   04 Jun 2027 06:42:53.918   04 Jun 2027 06:44:38.592           104.674              Murmansk2         13084.250
       111   04 Jun 2027 06:44:38.592   04 Jun 2027 06:44:42.414             3.822              Murmansk1           477.750
       112   04 Jun 2027 08:15:24.480   04 Jun 2027 08:15:54.459            29.979                Norilsk          3747.375
       113   04 Jun 2027 08:16:23.611   04 Jun 2027 08:20:33.271           249.660                Norilsk         31207.500
       114   04 Jun 2027 08:20:33.936   04 Jun 2027 08:22:24.063           110.127              Murmansk2         13765.875
       115   04 Jun 2027 09:21:16.540   04 Jun 2027 09:30:10.648           534.108               CapeTown         66763.500
       116   04 Jun 2027 09:42:55.024   04 Jun 2027 09:47:01.581           246.557                 Moscow         30819.625
       117   04 Jun 2027 09:47:31.068   04 Jun 2027 09:51:35.711           244.643              Murmansk1         30580.375
       118   04 Jun 2027 09:51:35.711   04 Jun 2027 09:52:04.194            28.483              Murmansk2          3560.375
       119   04 Jun 2027 09:52:42.349   04 Jun 2027 09:53:35.973            53.624              Murmansk2          6703.000
       120   04 Jun 2027 09:54:00.162   04 Jun 2027 09:55:59.784           119.622              Murmansk1         14952.750
       121   04 Jun 2027 09:56:29.782   04 Jun 2027 09:56:56.585            26.803              Murmansk2          3350.375
       122   04 Jun 2027 09:57:02.266   04 Jun 2027 09:57:22.891            20.625              Murmansk2          2578.125
       123   04 Jun 2027 09:57:42.232   04 Jun 2027 09:57:50.105             7.873              Murmansk2           984.125
       124   04 Jun 2027 10:00:42.964   04 Jun 2027 10:09:17.187           514.223                Anadyr1         64277.875
       125   04 Jun 2027 11:36:06.294   04 Jun 2027 11:38:38.388           152.094                Anadyr2         19011.750
       126   04 Jun 2027 11:39:33.475   04 Jun 2027 11:40:55.187            81.712                Anadyr2         10214.000
       127   04 Jun 2027 11:41:48.708   04 Jun 2027 11:45:48.365           239.657               Magadan2         29957.125
       128   04 Jun 2027 13:14:25.122   04 Jun 2027 13:20:20.003           354.881               Magadan1         44360.125
       129   04 Jun 2027 15:42:06.295   04 Jun 2027 15:45:42.417           216.122            RioGallegos         27015.250
       130   04 Jun 2027 16:29:47.178   04 Jun 2027 16:31:27.117            99.939                Irkutsk         12492.375
       131   04 Jun 2027 16:38:22.728   04 Jun 2027 16:38:43.225            20.497                Novosib          2562.125
       132   04 Jun 2027 16:43:27.778   04 Jun 2027 16:46:34.267           186.489                Sumatra         23311.125
       133   04 Jun 2027 18:10:22.477   04 Jun 2027 18:12:25.621           123.144                Novosib         15393.000
       134   04 Jun 2027 18:13:08.202   04 Jun 2027 18:15:40.555           152.353                  Delhi         19044.125
       135   04 Jun 2027 19:44:17.532   04 Jun 2027 19:45:04.975            47.443                 Moscow          5930.375
       136   04 Jun 2027 21:15:49.405   04 Jun 2027 21:16:04.369            14.964              Murmansk1          1870.500
       137   04 Jun 2027 21:22:34.444   04 Jun 2027 21:23:54.415            79.971                 Moscow          9996.375
       138   04 Jun 2027 21:43:08.247   04 Jun 2027 21:46:04.573           176.326               CapeTown         22040.750
       139   05 Jun 2027 03:18:48.306   05 Jun 2027 03:19:21.091            32.785                Sumatra          4098.125
       140   05 Jun 2027 03:20:36.016   05 Jun 2027 03:21:54.806            78.790                Sumatra          9781.876
       141   05 Jun 2027 03:39:57.603   05 Jun 2027 03:41:09.560            71.957                Novosib          8994.625
       142   05 Jun 2027 03:41:12.042   05 Jun 2027 03:43:29.788           137.746                Norilsk         17218.250
       143   05 Jun 2027 04:49:26.704   05 Jun 2027 04:52:27.175           180.471                Sumatra         22558.875
       144   05 Jun 2027 05:15:14.702   05 Jun 2027 05:15:43.102            28.400                Norilsk          3550.000
       145   05 Jun 2027 05:16:03.704   05 Jun 2027 05:20:50.280           286.576                Norilsk         35822.000
       146   05 Jun 2027 05:54:39.087   05 Jun 2027 05:55:22.496            43.409            RioGallegos          5426.125
       147   05 Jun 2027 06:33:43.208   05 Jun 2027 06:39:55.350           372.142                  Delhi         46517.750
       148   05 Jun 2027 06:42:10.213   05 Jun 2027 06:44:47.567           157.354                Novosib         19669.250
       149   05 Jun 2027 06:45:05.776   05 Jun 2027 06:46:41.498            95.722                 Moscow         11965.250
       150   05 Jun 2027 06:51:33.197   05 Jun 2027 06:52:58.974            85.777                Novosib         10722.125
       151   05 Jun 2027 06:53:03.422   05 Jun 2027 06:56:07.716           184.294                Norilsk         23036.750
       152   05 Jun 2027 06:56:43.181   05 Jun 2027 06:56:59.348            16.167              Murmansk2          2020.875
       153   05 Jun 2027 08:19:31.109   05 Jun 2027 08:20:51.345            80.236                 Moscow         10029.500
       154   05 Jun 2027 08:27:55.595   05 Jun 2027 08:34:25.596           390.001              Murmansk1         48750.125
       155   05 Jun 2027 09:32:45.460   05 Jun 2027 09:42:54.377           608.917               CapeTown         76114.625
       156   05 Jun 2027 09:55:18.991   05 Jun 2027 09:58:46.547           207.556                 Moscow         25944.500
       157   05 Jun 2027 09:58:54.826   05 Jun 2027 10:00:05.887            71.061              Murmansk1          8882.625
       158   05 Jun 2027 10:00:57.870   05 Jun 2027 10:02:39.953           102.083              Murmansk2         12760.375
       159   05 Jun 2027 10:06:01.412   05 Jun 2027 10:06:44.718            43.306              Murmansk1          5413.250
       160   05 Jun 2027 10:09:10.379   05 Jun 2027 10:09:32.891            22.512              Murmansk1          2814.000
       161   05 Jun 2027 10:12:35.922   05 Jun 2027 10:21:54.738           558.816                Anadyr1         69852.000
       162   05 Jun 2027 11:40:54.880   05 Jun 2027 11:40:56.960             2.080              Murmansk2           260.000
       163   05 Jun 2027 11:48:06.616   05 Jun 2027 11:53:01.237           294.621                Anadyr1         36827.625
       164   05 Jun 2027 11:55:38.304   05 Jun 2027 11:59:04.575           206.271               Magadan2         25783.875
       165   05 Jun 2027 13:24:00.886   05 Jun 2027 13:25:01.948            61.062                Anadyr2          7632.750
       166   05 Jun 2027 13:26:23.291   05 Jun 2027 13:31:08.547           285.256               Magadan1         35657.000
       167   05 Jun 2027 15:23:37.277   05 Jun 2027 15:26:50.282           193.005                Sumatra         24125.625
       168   05 Jun 2027 15:56:09.394   05 Jun 2027 15:56:20.824            11.430            RioGallegos          1428.750
       169   05 Jun 2027 15:58:35.320   05 Jun 2027 15:59:20.962            45.642            RioGallegos          5705.250
       170   05 Jun 2027 16:03:30.274   05 Jun 2027 16:05:22.267           111.993            RioGallegos         13999.125
       171   05 Jun 2027 16:41:44.196   05 Jun 2027 16:43:03.033            78.837                Irkutsk          9854.625
       172   05 Jun 2027 16:49:52.248   05 Jun 2027 16:51:32.116            99.868                Novosib         12483.500
       173   05 Jun 2027 16:55:27.014   05 Jun 2027 16:56:24.650            57.636                Sumatra          7204.500
       174   05 Jun 2027 17:03:07.579   05 Jun 2027 17:06:44.486           216.907                Sumatra         27113.375
       175   05 Jun 2027 18:25:00.267   05 Jun 2027 18:27:55.562           175.295                  Delhi         21911.875
       176   05 Jun 2027 19:57:09.476   05 Jun 2027 19:58:26.640            77.164                 Moscow          9645.500
       177   05 Jun 2027 21:35:39.848   05 Jun 2027 21:35:56.424            16.576                 Moscow          2072.000
       178   05 Jun 2027 21:38:34.415   05 Jun 2027 21:39:09.811            35.396                 Moscow          4424.500
       179   05 Jun 2027 21:55:01.077   05 Jun 2027 21:56:44.541           103.464               CapeTown         12933.000
       180   05 Jun 2027 22:02:39.730   05 Jun 2027 22:02:50.320            10.590               CapeTown          1323.750
       181   05 Jun 2027 22:04:33.417   05 Jun 2027 22:06:27.534           114.117               CapeTown          8121.999
       182   06 Jun 2027 03:51:59.436   06 Jun 2027 03:55:20.828           201.392                Norilsk         25174.000
       183   06 Jun 2027 05:01:28.729   06 Jun 2027 05:03:33.389           124.660                Sumatra         15582.500
       184   06 Jun 2027 05:12:03.199   06 Jun 2027 05:13:44.829           101.630                  Delhi         12703.750
       185   06 Jun 2027 05:28:01.042   06 Jun 2027 05:28:38.710            37.668              Murmansk1          4708.500
       186   06 Jun 2027 05:28:41.827   06 Jun 2027 05:30:01.705            79.878                 Moscow          9984.750
       187   06 Jun 2027 05:30:05.190   06 Jun 2027 05:32:52.173           166.983                Norilsk         20872.875
       188   06 Jun 2027 06:45:54.947   06 Jun 2027 06:52:17.499           382.552                  Delhi         47819.000
       189   06 Jun 2027 06:55:32.684   06 Jun 2027 06:56:06.663            33.979                 Moscow          4247.375
       190   06 Jun 2027 06:56:31.044   06 Jun 2027 06:57:46.439            75.395                Novosib          9424.375
       191   06 Jun 2027 06:57:59.023   06 Jun 2027 06:58:48.260            49.237              Murmansk1          6154.625
       192   06 Jun 2027 07:03:28.517   06 Jun 2027 07:04:52.124            83.607                Novosib         10450.875
       193   06 Jun 2027 07:04:59.402   06 Jun 2027 07:08:50.948           231.546                Norilsk         28943.250
       194   06 Jun 2027 07:10:31.315   06 Jun 2027 07:10:32.947             1.632              Murmansk2           204.000
       195   06 Jun 2027 08:34:45.326   06 Jun 2027 08:35:31.559            46.233              Murmansk1          5779.125
       196   06 Jun 2027 08:38:36.140   06 Jun 2027 08:44:23.247           347.107                Norilsk         43388.375
       197   06 Jun 2027 08:44:50.345   06 Jun 2027 08:46:27.214            96.869              Murmansk2         12108.625
       198   06 Jun 2027 09:44:23.018   06 Jun 2027 09:50:54.055           391.037               CapeTown         48879.625
       199   06 Jun 2027 10:07:47.651   06 Jun 2027 10:11:30.303           222.652                 Moscow         27831.500
       200   06 Jun 2027 10:11:33.536   06 Jun 2027 10:11:56.693            23.157              Murmansk1          2894.625
       201   06 Jun 2027 10:12:49.264   06 Jun 2027 10:15:20.029           150.765              Murmansk1         18845.625
       202   06 Jun 2027 10:15:51.381   06 Jun 2027 10:16:35.842            44.461              Murmansk1          5557.625
       203   06 Jun 2027 10:18:02.801   06 Jun 2027 10:19:54.044           111.243              Murmansk2         13905.375
       204   06 Jun 2027 10:24:30.792   06 Jun 2027 10:34:28.021           597.229                Anadyr1         74653.625
       205   06 Jun 2027 12:00:07.237   06 Jun 2027 12:00:31.809            24.572                Anadyr1          3071.500
       206   06 Jun 2027 12:02:09.035   06 Jun 2027 12:03:05.200            56.165                Anadyr1          7020.625
       207   06 Jun 2027 12:03:20.250   06 Jun 2027 12:07:17.895           237.645               Magadan2         29705.625
       208   06 Jun 2027 13:38:22.213   06 Jun 2027 13:39:09.627            47.414               Magadan2          5926.750
       209   06 Jun 2027 13:41:12.441   06 Jun 2027 13:43:09.512           117.071               Magadan1         14633.875
       210   06 Jun 2027 15:23:52.408   06 Jun 2027 15:27:21.260           208.852                Irkutsk         26106.500
       211   06 Jun 2027 15:34:16.213   06 Jun 2027 15:36:48.776           152.563                Sumatra         19070.375
       212   06 Jun 2027 15:39:12.151   06 Jun 2027 15:42:16.758           184.607                Sumatra         23075.875
       213   06 Jun 2027 16:55:59.831   06 Jun 2027 16:57:19.522            79.691                Novosib          9961.375
       214   06 Jun 2027 17:05:02.874   06 Jun 2027 17:09:10.167           247.293                  Delhi         30911.625
       215   06 Jun 2027 18:36:56.062   06 Jun 2027 18:39:21.118           145.056                  Delhi         18132.000
       216   06 Jun 2027 20:07:49.546   06 Jun 2027 20:08:08.587            19.041                 Moscow          2380.125
       217   06 Jun 2027 20:10:34.647   06 Jun 2027 20:12:11.561            96.914                 Moscow         12114.250
       218   06 Jun 2027 20:17:16.674   06 Jun 2027 20:18:10.641            53.967                 Moscow          6745.875
       219   06 Jun 2027 21:51:08.356   06 Jun 2027 21:52:41.232            92.876                 Moscow         11609.500
       220   06 Jun 2027 22:06:58.851   06 Jun 2027 22:08:24.503            85.652               CapeTown          7119.124
       221   07 Jun 2027 04:02:59.028   07 Jun 2027 04:03:34.851            35.823                Irkutsk          4477.875
       222   07 Jun 2027 04:03:52.912   07 Jun 2027 04:03:58.804             5.892                Irkutsk           736.500
       223   07 Jun 2027 05:22:43.101   07 Jun 2027 05:24:24.185           101.084                  Delhi         12635.500
       224   07 Jun 2027 05:38:22.457   07 Jun 2027 05:38:59.673            37.216                Irkutsk          4652.000
       225   07 Jun 2027 05:39:51.494   07 Jun 2027 05:41:26.882            95.388                Novosib         11923.500
       226   07 Jun 2027 05:41:28.096   07 Jun 2027 05:45:17.257           229.161              Murmansk1         28645.125
       227   07 Jun 2027 06:58:13.022   07 Jun 2027 07:00:30.897           137.875                  Delhi         17234.375
       228   07 Jun 2027 07:06:23.466   07 Jun 2027 07:10:03.326           219.860                Novosib         27482.500
       229   07 Jun 2027 07:10:03.913   07 Jun 2027 07:11:12.792            68.879                 Moscow          8609.875
       230   07 Jun 2027 07:15:40.528   07 Jun 2027 07:16:43.025            62.497                Novosib          7812.125
       231   07 Jun 2027 07:16:49.975   07 Jun 2027 07:17:25.708            35.733              Murmansk1          4466.625
       232   07 Jun 2027 07:17:39.590   07 Jun 2027 07:18:54.345            74.755                 Moscow          9344.375
       233   07 Jun 2027 07:19:00.149   07 Jun 2027 07:21:12.074           131.925              Murmansk1         16490.625
       234   07 Jun 2027 07:21:12.074   07 Jun 2027 07:21:24.657            12.583              Murmansk2          1572.875
       235   07 Jun 2027 08:45:23.127   07 Jun 2027 08:46:59.977            96.850                 Moscow         12106.250
       236   07 Jun 2027 08:50:23.497   07 Jun 2027 08:54:57.831           274.334                 Moscow         34291.750
       237   07 Jun 2027 08:55:18.364   07 Jun 2027 08:57:03.782           105.418              Murmansk1         13177.250
       238   07 Jun 2027 08:57:03.782   07 Jun 2027 08:58:19.990            76.208              Murmansk2          9526.000
       239   07 Jun 2027 10:00:46.790   07 Jun 2027 10:02:09.529            82.739               CapeTown         10342.375
       240   07 Jun 2027 10:26:15.124   07 Jun 2027 10:26:44.651            29.527              Murmansk2          3690.875
       241   07 Jun 2027 10:26:50.521   07 Jun 2027 10:27:13.326            22.805              Murmansk2          2850.625
       242   07 Jun 2027 10:27:46.704   07 Jun 2027 10:28:33.451            46.747              Murmansk1          5843.375
       243   07 Jun 2027 10:29:31.049   07 Jun 2027 10:31:35.009           123.960              Murmansk1         15495.000
       244   07 Jun 2027 10:36:27.076   07 Jun 2027 10:38:05.115            98.039                Anadyr2         12254.875
       245   07 Jun 2027 10:40:05.055   07 Jun 2027 10:41:37.112            92.057                Anadyr1         11507.125
       246   07 Jun 2027 10:42:27.679   07 Jun 2027 10:45:59.431           211.752                Anadyr2         26469.000
       247   07 Jun 2027 12:03:09.337   07 Jun 2027 12:04:48.876            99.539              Murmansk1         12442.375
       248   07 Jun 2027 12:05:29.541   07 Jun 2027 12:06:00.832            31.291              Murmansk1          3911.375
       249   07 Jun 2027 12:06:02.147   07 Jun 2027 12:06:05.857             3.710              Murmansk2           463.750
       250   07 Jun 2027 12:06:26.143   07 Jun 2027 12:06:53.652            27.509              Murmansk1          3438.625
       251   07 Jun 2027 12:07:18.094   07 Jun 2027 12:08:13.009            54.915              Murmansk1          6864.375
       252   07 Jun 2027 12:09:29.642   07 Jun 2027 12:09:41.496            11.854              Murmansk1          1481.750
       253   07 Jun 2027 12:12:50.114   07 Jun 2027 12:13:45.373            55.259                Anadyr2          6907.375
       254   07 Jun 2027 12:16:03.456   07 Jun 2027 12:18:33.087           149.631               Magadan1         18703.875
       255   07 Jun 2027 13:50:21.778   07 Jun 2027 13:51:26.451            64.673               Magadan1          8084.125
       256   07 Jun 2027 13:57:34.910   07 Jun 2027 13:58:30.349            55.439               Magadan2          6929.875
       257   07 Jun 2027 14:48:04.174   07 Jun 2027 14:50:37.369           153.195            RioGallegos         19149.375
       258   07 Jun 2027 15:33:43.298   07 Jun 2027 15:34:52.987            69.689                Irkutsk          8711.125
       259   07 Jun 2027 15:37:00.812   07 Jun 2027 15:37:10.507             9.695                Irkutsk          1211.875
       260   07 Jun 2027 15:45:23.997   07 Jun 2027 15:48:35.949           191.952                Sumatra         23994.000
       261   07 Jun 2027 15:51:26.683   07 Jun 2027 15:54:27.941           181.258                Sumatra         22657.250
       262   07 Jun 2027 17:09:17.811   07 Jun 2027 17:10:40.200            82.389                Novosib         10298.625
       263   07 Jun 2027 17:15:38.067   07 Jun 2027 17:18:22.553           164.486                  Delhi         20560.750
       264   07 Jun 2027 18:48:55.287   07 Jun 2027 18:50:40.031           104.744                  Delhi         13093.000
       265   07 Jun 2027 18:56:16.079   07 Jun 2027 18:56:35.582            19.503                  Delhi          2437.875
       266   07 Jun 2027 20:19:40.536   07 Jun 2027 20:23:35.513           234.977                 Moscow         29372.125
       267   07 Jun 2027 22:19:01.605   07 Jun 2027 22:20:37.757            96.152               CapeTown          6547.125
       268   08 Jun 2027 04:15:51.311   08 Jun 2027 04:15:59.878             8.567                Irkutsk          1070.875
       269   08 Jun 2027 04:16:12.279   08 Jun 2027 04:17:05.172            52.893                Novosib          6611.625
       270   08 Jun 2027 05:25:50.417   08 Jun 2027 05:26:27.662            37.245                Sumatra          4655.625
       271   08 Jun 2027 05:28:10.291   08 Jun 2027 05:30:20.997           130.706                Sumatra         16338.250
       272   08 Jun 2027 05:34:21.502   08 Jun 2027 05:36:39.802           138.300                  Delhi         17287.500
       273   08 Jun 2027 05:50:26.377   08 Jun 2027 05:50:56.816            30.439                 Moscow          3804.875
       274   08 Jun 2027 05:51:10.327   08 Jun 2027 05:52:01.538            51.211                Novosib          6401.375
       275   08 Jun 2027 05:52:08.657   08 Jun 2027 05:53:43.268            94.611                Norilsk         11826.375
       276   08 Jun 2027 05:54:07.621   08 Jun 2027 05:54:24.285            16.664                 Moscow          2083.000
       277   08 Jun 2027 05:54:33.008   08 Jun 2027 05:57:19.280           166.272              Murmansk2         20784.000
       278   08 Jun 2027 05:57:19.280   08 Jun 2027 05:58:17.195            57.915              Murmansk1          7239.375
       279   08 Jun 2027 07:18:58.039   08 Jun 2027 07:20:08.473            70.434                 Moscow          8804.250
       280   08 Jun 2027 07:20:37.781   08 Jun 2027 07:23:17.379           159.598                Novosib         19949.750
       281   08 Jun 2027 07:27:54.241   08 Jun 2027 07:30:58.411           184.170                 Moscow         23021.250
       282   08 Jun 2027 07:30:59.073   08 Jun 2027 07:32:04.770            65.697              Murmansk1          8212.125
       283   08 Jun 2027 07:32:04.770   08 Jun 2027 07:34:14.867           130.097              Murmansk2         16262.125
       284   08 Jun 2027 08:57:23.284   08 Jun 2027 08:58:57.445            94.161                 Moscow         11770.125
       285   08 Jun 2027 09:01:47.076   08 Jun 2027 09:03:53.699           126.623              Murmansk1         15827.875
       286   08 Jun 2027 09:03:55.523   08 Jun 2027 09:07:58.026           242.503                Norilsk         30312.875
       287   08 Jun 2027 09:14:16.477   08 Jun 2027 09:17:44.453           207.976                Anadyr2         25997.000
       288   08 Jun 2027 10:42:05.875   08 Jun 2027 10:42:08.356             2.481              Murmansk2           310.125
       289   08 Jun 2027 10:42:39.904   08 Jun 2027 10:43:36.781            56.877              Murmansk2          7109.625
       290   08 Jun 2027 10:48:24.461   08 Jun 2027 10:49:37.782            73.321                Anadyr1          9165.125
       291   08 Jun 2027 10:52:46.342   08 Jun 2027 10:53:07.282            20.940                Anadyr2          2617.500
       292   08 Jun 2027 10:55:34.230   08 Jun 2027 10:57:57.522           143.292                Anadyr2         17911.500
       293   08 Jun 2027 12:26:58.600   08 Jun 2027 12:31:26.289           267.689               Magadan2         33461.125
       294   08 Jun 2027 14:02:21.883   08 Jun 2027 14:02:55.171            33.288               Magadan2          4161.000
       295   08 Jun 2027 14:10:23.163   08 Jun 2027 14:10:29.343             6.180               Magadan2           772.500
       296   08 Jun 2027 14:13:54.773   08 Jun 2027 14:15:12.795            78.022               Magadan1          9752.750
       297   08 Jun 2027 15:00:44.201   08 Jun 2027 15:03:35.449           171.248            RioGallegos         21406.000
       298   08 Jun 2027 15:45:00.243   08 Jun 2027 15:46:48.472           108.229                Irkutsk         13528.625
       299   08 Jun 2027 15:56:46.864   08 Jun 2027 16:00:29.132           222.268                Sumatra         27783.500
       300   08 Jun 2027 17:18:08.206   08 Jun 2027 17:19:18.048            69.842                Novosib          8730.250
       301   08 Jun 2027 17:26:49.468   08 Jun 2027 17:30:10.007           200.539                  Delhi         25067.375
       302   08 Jun 2027 17:32:40.201   08 Jun 2027 17:35:48.634           188.433                  Delhi         23554.125
       303   08 Jun 2027 20:31:33.755   08 Jun 2027 20:34:02.537           148.782                 Moscow         18597.750
       304   08 Jun 2027 22:07:32.887   08 Jun 2027 22:09:49.237           136.350                 Moscow          6084.374
       305   09 Jun 2027 05:38:11.590   09 Jun 2027 05:39:57.540           105.950                Sumatra         13243.750
       306   09 Jun 2027 05:46:05.958   09 Jun 2027 05:48:51.113           165.155                  Delhi         20644.375
       307   09 Jun 2027 06:03:31.464   09 Jun 2027 06:04:41.282            69.818              Murmansk2          8727.250
       308   09 Jun 2027 06:04:42.063   09 Jun 2027 06:05:41.396            59.333                Norilsk          7416.625
       309   09 Jun 2027 06:05:54.173   09 Jun 2027 06:06:33.128            38.955                 Moscow          4869.375
       310   09 Jun 2027 06:06:40.702   09 Jun 2027 06:07:29.167            48.465              Murmansk2          6058.125
       311   09 Jun 2027 06:07:29.167   09 Jun 2027 06:08:47.460            78.293              Murmansk1          9786.625
       312   09 Jun 2027 06:08:47.460   09 Jun 2027 06:09:21.208            33.748              Murmansk2          4218.500
       313   09 Jun 2027 07:24:24.338   09 Jun 2027 07:26:49.824           145.486                  Delhi         18185.750
       314   09 Jun 2027 07:31:41.052   09 Jun 2027 07:33:48.837           127.785                Novosib         15973.125
       315   09 Jun 2027 07:34:28.854   09 Jun 2027 07:35:38.365            69.511              Murmansk1          8688.875
       316   09 Jun 2027 07:39:26.296   09 Jun 2027 07:39:57.348            31.052                 Moscow          3881.500
       317   09 Jun 2027 07:39:59.690   09 Jun 2027 07:44:52.466           292.776                Norilsk         36597.000
       318   09 Jun 2027 07:45:11.810   09 Jun 2027 07:45:26.728            14.918              Murmansk2          1864.750
       319   09 Jun 2027 07:46:04.667   09 Jun 2027 07:46:35.057            30.390              Murmansk2          3798.750
       320   09 Jun 2027 09:09:52.611   09 Jun 2027 09:11:03.103            70.492              Murmansk2          8811.500
       321   09 Jun 2027 09:18:12.135   09 Jun 2027 09:19:40.524            88.389              Murmansk2         11048.625
       322   09 Jun 2027 09:25:41.242   09 Jun 2027 09:31:03.069           321.827                Anadyr1         40228.375
       323   09 Jun 2027 11:04:29.371   09 Jun 2027 11:05:22.797            53.426                Anadyr2          6678.250
       324   09 Jun 2027 12:28:55.521   09 Jun 2027 12:29:51.405            55.884              Murmansk1          6985.500
       325   09 Jun 2027 12:36:23.196   09 Jun 2027 12:37:32.454            69.258                Anadyr2          8657.250
       326   09 Jun 2027 12:38:51.651   09 Jun 2027 12:41:51.227           179.576               Magadan2         22447.000
       327   09 Jun 2027 12:42:36.551   09 Jun 2027 12:43:24.426            47.875               Magadan1          5984.375
       328   09 Jun 2027 14:14:22.452   09 Jun 2027 14:14:50.545            28.093               Magadan2          3511.625
       329   09 Jun 2027 14:16:25.391   09 Jun 2027 14:17:39.324            73.933               Magadan1          9241.625
       330   09 Jun 2027 15:06:57.372   09 Jun 2027 15:11:01.134           243.762            RioGallegos         30470.250
       331   09 Jun 2027 15:58:09.140   09 Jun 2027 15:58:45.420            36.280                Irkutsk          4535.000
       332   09 Jun 2027 16:08:20.007   09 Jun 2027 16:12:27.966           247.959                Sumatra         30994.875
       333   09 Jun 2027 17:31:45.541   09 Jun 2027 17:32:19.997            34.456                Novosib          4307.000
       334   09 Jun 2027 17:34:36.640   09 Jun 2027 17:35:21.874            45.234                Novosib          5654.250
       335   09 Jun 2027 17:37:39.474   09 Jun 2027 17:39:32.463           112.989                Novosib         14123.625
       336   09 Jun 2027 17:44:55.726   09 Jun 2027 17:45:52.556            56.830                  Delhi          7103.750
       337   09 Jun 2027 19:13:03.626   09 Jun 2027 19:13:50.149            46.523                  Delhi          5815.375
       338   09 Jun 2027 19:15:23.457   09 Jun 2027 19:17:50.274           146.817                  Delhi         18352.125
       339   09 Jun 2027 20:43:28.733   09 Jun 2027 20:45:17.537           108.804                 Moscow         13600.500
       340   09 Jun 2027 22:16:46.803   09 Jun 2027 22:17:23.717            36.914              Murmansk2          4614.250
       341   09 Jun 2027 22:46:03.365   09 Jun 2027 22:46:10.830             7.465               CapeTown           933.125
       342   09 Jun 2027 22:47:53.154   09 Jun 2027 22:48:44.559            51.405               CapeTown          6425.625
       343   10 Jun 2027 04:14:09.653   10 Jun 2027 04:18:29.481           259.828                Sumatra         32478.500
       344   10 Jun 2027 04:39:33.757   10 Jun 2027 04:40:09.328            35.571                Novosib          4446.375
       345   10 Jun 2027 04:40:14.795   10 Jun 2027 04:44:59.884           285.089                Norilsk         35636.125
       346   10 Jun 2027 05:18:07.348   10 Jun 2027 05:18:38.233            30.885            RioGallegos          3860.625
       347   10 Jun 2027 05:19:08.138   10 Jun 2027 05:19:23.708            15.570            RioGallegos          1946.250
       348   10 Jun 2027 05:50:41.893   10 Jun 2027 05:52:46.329           124.436                Sumatra         15554.500
       349   10 Jun 2027 05:54:30.769   10 Jun 2027 05:54:31.160             0.391                Sumatra            48.875
       350   10 Jun 2027 05:57:56.006   10 Jun 2027 06:01:29.011           213.005                  Delhi         26625.625
       351   10 Jun 2027 06:16:15.496   10 Jun 2027 06:19:16.341           180.845              Murmansk1         22605.625
       352   10 Jun 2027 06:19:21.523   10 Jun 2027 06:20:46.094            84.571              Murmansk1         10571.375
       353   10 Jun 2027 07:35:59.914   10 Jun 2027 07:39:08.140           188.226                  Delhi         23528.250
       354   10 Jun 2027 07:44:32.476   10 Jun 2027 07:45:54.850            82.374                Novosib         10296.750
       355   10 Jun 2027 07:45:57.652   10 Jun 2027 07:47:04.355            66.703                 Moscow          8337.875
       356   10 Jun 2027 07:51:18.816   10 Jun 2027 07:52:04.704            45.888              Murmansk2          5736.000
       357   10 Jun 2027 07:52:29.219   10 Jun 2027 07:58:36.188           366.969              Murmansk1         45871.125
       358   10 Jun 2027 09:18:34.302   10 Jun 2027 09:21:56.036           201.734                 Moscow         25216.750
       359   10 Jun 2027 09:22:02.877   10 Jun 2027 09:24:08.111           125.234              Murmansk1         15654.250
       360   10 Jun 2027 09:24:18.616   10 Jun 2027 09:24:40.433            21.817              Murmansk1          2727.125
       361   10 Jun 2027 09:24:53.224   10 Jun 2027 09:24:58.111             4.887              Murmansk1           610.875
       362   10 Jun 2027 09:25:08.161   10 Jun 2027 09:27:11.184           123.023              Murmansk1         15377.875
       363   10 Jun 2027 09:30:12.813   10 Jun 2027 09:31:22.218            69.405              Murmansk1          8675.625
       364   10 Jun 2027 09:37:20.895   10 Jun 2027 09:44:01.244           400.349                Anadyr2         50043.625
       365   10 Jun 2027 11:16:05.309   10 Jun 2027 11:17:08.241            62.932                Anadyr1          7866.500
       366   10 Jun 2027 12:42:08.140   10 Jun 2027 12:42:41.892            33.752              Murmansk1          4219.000
       367   10 Jun 2027 12:50:46.449   10 Jun 2027 12:55:22.531           276.082               Magadan1         34510.250
       368   10 Jun 2027 14:26:23.423   10 Jun 2027 14:26:47.167            23.744               Magadan2          2968.000
       369   10 Jun 2027 14:28:08.682   10 Jun 2027 14:28:48.709            40.027               Magadan2          5003.375
       370   10 Jun 2027 15:18:41.640   10 Jun 2027 15:22:56.283           254.643            RioGallegos         31830.375
       371   10 Jun 2027 16:06:12.452   10 Jun 2027 16:07:52.722           100.270                Irkutsk         12533.750
       372   10 Jun 2027 16:10:43.647   10 Jun 2027 16:11:04.310            20.663                Novosib          2582.875
       373   10 Jun 2027 16:20:01.092   10 Jun 2027 16:22:27.642           146.550                Sumatra         18318.750
       374   10 Jun 2027 17:41:57.114   10 Jun 2027 17:46:36.202           279.088                Novosib         34886.000
       375   10 Jun 2027 17:49:52.270   10 Jun 2027 17:51:04.203            71.933                  Delhi          8991.625
       376   10 Jun 2027 17:53:00.144   10 Jun 2027 17:53:57.353            57.209                  Delhi          7151.125
       377   10 Jun 2027 20:52:01.353   10 Jun 2027 20:52:18.087            16.734              Murmansk2          2091.750
       378   10 Jun 2027 20:55:25.123   10 Jun 2027 20:56:49.927            84.804                 Moscow         10600.500
       379   10 Jun 2027 21:19:52.476   10 Jun 2027 21:20:31.323            38.847               CapeTown          4855.875
       380   10 Jun 2027 22:57:53.771   10 Jun 2027 22:59:31.494            97.723               CapeTown         12215.375
       381   11 Jun 2027 03:16:20.268   11 Jun 2027 03:17:11.625            51.357                Novosib          6419.625
       382   11 Jun 2027 03:17:16.547   11 Jun 2027 03:21:08.147           231.600                Norilsk         28950.000
       383   11 Jun 2027 03:21:48.800   11 Jun 2027 03:21:50.780             1.980              Murmansk2           247.500
       384   11 Jun 2027 04:25:54.187   11 Jun 2027 04:28:35.401           161.214                Sumatra         20151.750
       385   11 Jun 2027 04:51:43.829   11 Jun 2027 04:56:44.258           300.429              Murmansk2         37553.625
       386   11 Jun 2027 05:30:43.116   11 Jun 2027 05:31:19.522            36.406            RioGallegos          4550.750
       387   11 Jun 2027 05:31:32.373   11 Jun 2027 05:31:42.115             9.742            RioGallegos          1217.750
       388   11 Jun 2027 05:31:55.945   11 Jun 2027 05:32:28.268            32.323            RioGallegos          4040.375
       389   11 Jun 2027 05:33:50.214   11 Jun 2027 05:35:13.364            83.150            RioGallegos         10393.750
       390   11 Jun 2027 06:03:25.307   11 Jun 2027 06:06:45.338           200.031                Sumatra         25003.875
       391   11 Jun 2027 06:09:51.397   11 Jun 2027 06:11:34.799           103.402                  Delhi         12925.250
       392   11 Jun 2027 06:17:06.559   11 Jun 2027 06:21:31.174           264.615                Novosib         33076.875
       393   11 Jun 2027 06:22:18.946   11 Jun 2027 06:23:33.413            74.467                 Moscow          9308.375
       394   11 Jun 2027 06:27:45.175   11 Jun 2027 06:30:47.817           182.642                 Moscow         22830.250
       395   11 Jun 2027 06:30:49.101   11 Jun 2027 06:32:44.242           115.141              Murmansk1         14392.625
       396   11 Jun 2027 07:55:27.180   11 Jun 2027 07:57:01.498            94.318                 Moscow         11789.750
       397   11 Jun 2027 07:58:25.153   11 Jun 2027 07:58:52.064            26.911                Novosib          3363.875
       398   11 Jun 2027 08:03:17.467   11 Jun 2027 08:03:57.408            39.941              Murmansk1          4992.625
       399   11 Jun 2027 08:04:38.400   11 Jun 2027 08:08:50.520           252.120                Norilsk         31515.000
       400   11 Jun 2027 08:09:01.426   11 Jun 2027 08:10:37.480            96.054              Murmansk2         12006.750
       401   11 Jun 2027 09:10:15.635   11 Jun 2027 09:17:26.528           430.893               CapeTown         53861.625
       402   11 Jun 2027 09:30:50.354   11 Jun 2027 09:35:07.114           256.760                 Moscow         32095.000
       403   11 Jun 2027 09:35:15.302   11 Jun 2027 09:35:43.160            27.858              Murmansk1          3482.250
       404   11 Jun 2027 09:36:42.085   11 Jun 2027 09:41:01.650           259.565              Murmansk2         32445.625
       405   11 Jun 2027 09:42:13.704   11 Jun 2027 09:42:38.225            24.521              Murmansk1          3065.125
       406   11 Jun 2027 09:42:38.225   11 Jun 2027 09:43:06.077            27.852              Murmansk2          3481.500
       407   11 Jun 2027 09:43:23.925   11 Jun 2027 09:44:18.902            54.977              Murmansk2          6872.125
       408   11 Jun 2027 09:49:07.272   11 Jun 2027 09:56:50.189           462.917                Anadyr2         57864.625
       409   11 Jun 2027 11:24:21.158   11 Jun 2027 11:26:36.424           135.266                Anadyr1         16908.250
       410   11 Jun 2027 11:27:16.061   11 Jun 2027 11:29:09.118           113.057                Anadyr1         14132.125
       411   11 Jun 2027 11:31:24.744   11 Jun 2027 11:33:04.804           100.060               Magadan2         12507.500
       412   11 Jun 2027 13:00:12.995   11 Jun 2027 13:01:36.659            83.664                Anadyr1         10458.000
       413   11 Jun 2027 13:02:42.621   11 Jun 2027 13:08:01.605           318.984               Magadan1         39873.000
       414   11 Jun 2027 15:30:29.846   11 Jun 2027 15:34:12.357           222.511            RioGallegos         27813.875
       415   11 Jun 2027 15:34:52.997   11 Jun 2027 15:36:12.253            79.256            RioGallegos          9907.000
       416   11 Jun 2027 16:20:16.609   11 Jun 2027 16:20:16.951             0.342                Irkutsk            42.750
       417   11 Jun 2027 16:31:48.840   11 Jun 2027 16:34:41.509           172.669                Sumatra         21583.625
       418   11 Jun 2027 17:53:53.767   11 Jun 2027 17:55:14.630            80.863                Novosib         10107.875
       419   11 Jun 2027 18:01:34.986   11 Jun 2027 18:05:56.359           261.373                  Delhi         32671.625
       420   11 Jun 2027 21:07:22.700   11 Jun 2027 21:08:30.677            67.977                 Moscow          8497.125
       421   11 Jun 2027 21:14:06.208   11 Jun 2027 21:15:26.880            80.672                 Moscow         10084.000
       422   11 Jun 2027 21:31:35.043   11 Jun 2027 21:34:00.761           145.718               CapeTown         18214.750
       423   12 Jun 2027 03:28:06.304   12 Jun 2027 03:33:08.761           302.457              Murmansk1         37807.125
       424   12 Jun 2027 04:37:44.975   12 Jun 2027 04:40:46.080           181.105                Sumatra         22638.125
       425   12 Jun 2027 05:03:39.003   12 Jun 2027 05:08:47.538           308.535              Murmansk1         38566.875
       426   12 Jun 2027 05:08:47.538   12 Jun 2027 05:09:28.246            40.708              Murmansk2          5088.500
       427   12 Jun 2027 06:16:32.419   12 Jun 2027 06:19:06.779           154.360                Sumatra         19295.000
       428   12 Jun 2027 06:21:52.079   12 Jun 2027 06:23:51.618           119.539                  Delhi         14942.375
       429   12 Jun 2027 06:32:09.909   12 Jun 2027 06:33:38.008            88.099                Novosib         11012.375
       430   12 Jun 2027 06:33:43.185   12 Jun 2027 06:34:39.589            56.404                 Moscow          7050.500
       431   12 Jun 2027 06:35:34.369   12 Jun 2027 06:35:56.973            22.604                Novosib          2825.500
       432   12 Jun 2027 06:39:35.416   12 Jun 2027 06:44:59.972           324.556              Murmansk2         40569.500
       433   12 Jun 2027 08:16:38.246   12 Jun 2027 08:20:48.063           249.817                Norilsk         31227.125
       434   12 Jun 2027 08:20:49.193   12 Jun 2027 08:22:38.914           109.721              Murmansk2         13715.125
       435   12 Jun 2027 09:21:30.728   12 Jun 2027 09:30:26.337           535.609               CapeTown         66951.125
       436   12 Jun 2027 09:43:10.217   12 Jun 2027 09:53:03.568           593.351                 Moscow         74168.875
       437   12 Jun 2027 09:53:42.103   12 Jun 2027 09:55:28.325           106.222              Murmansk1         13277.750
       438   12 Jun 2027 09:56:14.375   12 Jun 2027 09:56:58.907            44.532              Murmansk2          5566.500
       439   12 Jun 2027 10:00:57.632   12 Jun 2027 10:06:34.833           337.201                Anadyr1         42150.125
       440   12 Jun 2027 10:09:06.147   12 Jun 2027 10:09:32.705            26.558                Anadyr1          3319.750
       441   12 Jun 2027 11:25:25.478   12 Jun 2027 11:28:50.679           205.201              Murmansk2         25650.125
       442   12 Jun 2027 11:29:45.900   12 Jun 2027 11:30:11.769            25.869              Murmansk2          3233.625
       443   12 Jun 2027 11:36:21.117   12 Jun 2027 11:36:54.171            33.054                Anadyr1          4131.750
       444   12 Jun 2027 11:38:53.486   12 Jun 2027 11:41:41.800           168.314                Anadyr2         21039.250
       445   12 Jun 2027 11:42:12.912   12 Jun 2027 11:46:22.071           249.159               Magadan1         31144.875
       446   12 Jun 2027 12:33:56.291   12 Jun 2027 12:34:52.233            55.942               CapeTown          6992.750
       447   12 Jun 2027 13:12:14.374   12 Jun 2027 13:14:07.284           112.910                Anadyr2         14113.750
       448   12 Jun 2027 13:14:39.898   12 Jun 2027 13:19:45.770           305.872               Magadan1         38234.000
       449   12 Jun 2027 15:42:20.987   12 Jun 2027 15:45:55.146           214.159            RioGallegos         26769.875
       450   12 Jun 2027 16:30:01.936   12 Jun 2027 16:31:41.398            99.462                Irkutsk         12432.750
       451   12 Jun 2027 16:38:00.775   12 Jun 2027 16:39:20.906            80.131                Irkutsk         10016.375
       452   12 Jun 2027 16:43:42.543   12 Jun 2027 16:46:49.173           186.630                Sumatra         23328.750
       453   12 Jun 2027 18:08:07.177   12 Jun 2027 18:08:42.473            35.296                Novosib          4412.000
       454   12 Jun 2027 18:10:37.486   12 Jun 2027 18:12:40.688           123.202                Novosib         15400.250
       455   12 Jun 2027 18:13:22.854   12 Jun 2027 18:15:55.691           152.837                  Delhi         19104.625
       456   12 Jun 2027 19:44:32.024   12 Jun 2027 19:45:29.367            57.343                 Moscow          7167.875
       457   12 Jun 2027 21:26:29.861   12 Jun 2027 21:27:27.208            57.347                 Moscow          7168.375
       458   12 Jun 2027 21:43:22.909   12 Jun 2027 21:46:19.511           176.602               CapeTown         22075.250
       459   13 Jun 2027 03:18:59.770   13 Jun 2027 03:20:51.644           111.874                Sumatra         11724.375
       460   13 Jun 2027 03:40:09.063   13 Jun 2027 03:40:09.116             0.053                Irkutsk             6.625
       461   13 Jun 2027 03:40:12.049   13 Jun 2027 03:41:24.475            72.426                Novosib          9053.250
       462   13 Jun 2027 03:41:26.967   13 Jun 2027 03:43:19.444           112.477                Norilsk         14059.625
       463   13 Jun 2027 04:49:41.517   13 Jun 2027 04:52:41.004           179.487                Sumatra         22435.875
       464   13 Jun 2027 05:15:34.095   13 Jun 2027 05:16:00.622            26.527              Murmansk2          3315.875
       465   13 Jun 2027 05:16:39.536   13 Jun 2027 05:16:55.582            16.046              Murmansk2          2005.750
       466   13 Jun 2027 05:16:55.582   13 Jun 2027 05:21:25.653           270.071              Murmansk1         33758.875
       467   13 Jun 2027 05:54:55.063   13 Jun 2027 05:55:37.480            42.417            RioGallegos          5302.125
       468   13 Jun 2027 06:01:10.885   13 Jun 2027 06:01:11.692             0.807            RioGallegos           100.875
       469   13 Jun 2027 06:33:58.185   13 Jun 2027 06:38:49.980           291.795                  Delhi         36474.375
       470   13 Jun 2027 06:41:53.179   13 Jun 2027 06:42:14.974            21.795                  Delhi          2724.375
       471   13 Jun 2027 06:42:24.656   13 Jun 2027 06:45:24.966           180.310                Novosib         22538.750
       472   13 Jun 2027 06:45:33.674   13 Jun 2027 06:46:55.153            81.479                 Moscow         10184.875
       473   13 Jun 2027 06:51:47.667   13 Jun 2027 06:53:13.706            86.039                Novosib         10754.875
       474   13 Jun 2027 06:53:31.198   13 Jun 2027 06:54:59.637            88.439                 Moscow         11054.875
       475   13 Jun 2027 06:55:03.039   13 Jun 2027 06:56:38.915            95.876              Murmansk1         11984.500
       476   13 Jun 2027 06:57:00.621   13 Jun 2027 06:57:13.836            13.215              Murmansk2          1651.875
       477   13 Jun 2027 08:18:17.987   13 Jun 2027 08:19:49.417            91.430                 Moscow         11428.750
       478   13 Jun 2027 08:20:13.945   13 Jun 2027 08:21:34.044            80.099                 Moscow         10012.375
       479   13 Jun 2027 08:28:09.741   13 Jun 2027 08:31:11.410           181.669                 Moscow         22708.625
       480   13 Jun 2027 08:31:20.865   13 Jun 2027 08:34:40.450           199.585              Murmansk1         24948.125
       481   13 Jun 2027 09:32:59.831   13 Jun 2027 09:42:15.985           556.154               CapeTown         69519.250
       482   13 Jun 2027 09:55:34.259   13 Jun 2027 09:59:01.526           207.267                 Moscow         25908.375
