uniorb/output/strategy_4/Drop/Drop_KinoSat_111403.txt

KinoSat_111403
-------------------------
    Access    *     Start Time (UTCG)     *     Stop Time (UTCG)  *   Duration (s)        *       Station  *  Data (Mbytes)
         1   01 Jun 2027 03:45:07.387   01 Jun 2027 03:45:52.972            45.585              Murmansk1          1424.531
         2   01 Jun 2027 03:45:59.288   01 Jun 2027 03:46:41.047            41.759                Norilsk          1304.969
         3   01 Jun 2027 03:46:47.696   01 Jun 2027 03:49:39.835           172.139              Murmansk1          5379.344
         4   01 Jun 2027 03:49:41.255   01 Jun 2027 03:50:02.441            21.186                 Moscow           662.063
         5   01 Jun 2027 03:51:11.319   01 Jun 2027 03:51:34.301            22.982                 Moscow           718.188
         6   01 Jun 2027 04:04:26.948   01 Jun 2027 04:05:38.464            71.516               CapeTown          2234.875
         7   01 Jun 2027 04:07:07.007   01 Jun 2027 04:07:29.223            22.216               CapeTown           694.250
         8   01 Jun 2027 05:08:06.033   01 Jun 2027 05:10:00.197           114.164                Anadyr1          3567.625
         9   01 Jun 2027 05:13:51.262   01 Jun 2027 05:13:59.083             7.821                Anadyr1           244.406
        10   01 Jun 2027 05:22:22.496   01 Jun 2027 05:22:45.824            23.328              Murmansk2           729.000
        11   01 Jun 2027 05:22:58.435   01 Jun 2027 05:23:42.592            44.157              Murmansk2          1379.906
        12   01 Jun 2027 06:42:33.212   01 Jun 2027 06:42:43.140             9.928                Anadyr1           310.250
        13   01 Jun 2027 06:42:47.786   01 Jun 2027 06:43:28.787            41.001               Magadan1          1281.281
        14   01 Jun 2027 06:43:46.511   01 Jun 2027 06:48:26.148           279.637               Magadan2          8738.656
        15   01 Jun 2027 08:17:57.827   01 Jun 2027 08:21:37.826           219.999                Anadyr1          6874.969
        16   01 Jun 2027 08:21:37.826   01 Jun 2027 08:23:23.748           105.922                Anadyr2          3310.063
        17   01 Jun 2027 08:23:50.152   01 Jun 2027 08:24:12.397            22.245                Irkutsk           695.156
        18   01 Jun 2027 08:24:12.412   01 Jun 2027 08:25:06.438            54.026                Novosib          1688.313
        19   01 Jun 2027 08:25:29.275   01 Jun 2027 08:25:58.841            29.566                Norilsk           923.938
        20   01 Jun 2027 09:00:38.330   01 Jun 2027 09:01:10.371            32.041            RioGallegos          1001.281
        21   01 Jun 2027 09:55:54.044   01 Jun 2027 09:59:50.202           236.158               Magadan1          7379.937
        22   01 Jun 2027 10:00:44.059   01 Jun 2027 10:02:33.320           109.261                Novosib          3414.406
        23   01 Jun 2027 10:36:10.329   01 Jun 2027 10:37:02.835            52.506            RioGallegos          1640.812
        24   01 Jun 2027 10:37:28.474   01 Jun 2027 10:38:02.001            33.527            RioGallegos          1047.719
        25   01 Jun 2027 11:10:49.190   01 Jun 2027 11:13:10.592           141.402                Sumatra          4418.812
        26   01 Jun 2027 11:31:22.737   01 Jun 2027 11:31:44.147            21.410                Irkutsk           669.063
        27   01 Jun 2027 11:32:17.024   01 Jun 2027 11:33:16.345            59.321                Irkutsk          1853.781
        28   01 Jun 2027 11:34:27.941   01 Jun 2027 11:36:40.669           132.728                Novosib          4147.750
        29   01 Jun 2027 11:36:44.663   01 Jun 2027 11:37:45.200            60.537                Norilsk          1891.781
        30   01 Jun 2027 11:37:46.231   01 Jun 2027 11:39:12.502            86.271                 Moscow          2695.969
        31   01 Jun 2027 11:41:23.872   01 Jun 2027 11:41:52.061            28.189              Murmansk1           880.906
        32   01 Jun 2027 12:16:30.308   01 Jun 2027 12:17:48.994            78.686            RioGallegos          2458.938
        33   01 Jun 2027 12:19:11.023   01 Jun 2027 12:20:42.352            91.329            RioGallegos          2854.031
        34   01 Jun 2027 12:58:07.208   01 Jun 2027 12:59:13.708            66.500                  Delhi          2078.125
        35   01 Jun 2027 13:03:00.661   01 Jun 2027 13:03:13.604            12.943                Novosib           404.469
        36   01 Jun 2027 13:04:06.986   01 Jun 2027 13:04:43.704            36.718                Novosib          1147.438
        37   01 Jun 2027 13:05:20.323   01 Jun 2027 13:05:58.638            38.315                Novosib          1197.344
        38   01 Jun 2027 13:07:03.090   01 Jun 2027 13:09:29.433           146.343                Norilsk          4573.219
        39   01 Jun 2027 13:11:06.808   01 Jun 2027 13:12:22.965            76.157                Norilsk          2379.906
        40   01 Jun 2027 14:39:25.283   01 Jun 2027 14:40:36.936            71.653                 Moscow          2239.156
        41   01 Jun 2027 14:40:52.044   01 Jun 2027 14:43:15.570           143.526                 Moscow          4485.187
        42   01 Jun 2027 14:44:11.787   01 Jun 2027 14:46:12.935           121.148              Murmansk1          3785.875
        43   01 Jun 2027 14:47:00.726   01 Jun 2027 14:50:17.119           196.393                Norilsk          6137.281
        44   01 Jun 2027 15:53:56.591   01 Jun 2027 15:55:11.267            74.676               CapeTown          2333.625
        45   01 Jun 2027 15:57:56.474   01 Jun 2027 15:58:48.046            51.572               CapeTown          1611.625
        46   01 Jun 2027 16:16:52.267   01 Jun 2027 16:17:27.545            35.278                 Moscow          1102.437
        47   01 Jun 2027 16:20:29.856   01 Jun 2027 16:21:16.443            46.587              Murmansk1          1455.844
        48   01 Jun 2027 16:21:36.034   01 Jun 2027 16:21:56.808            20.774                 Moscow           649.188
        49   01 Jun 2027 16:22:11.595   01 Jun 2027 16:22:42.229            30.634              Murmansk2           957.313
        50   01 Jun 2027 16:24:16.849   01 Jun 2027 16:24:22.275             5.426              Murmansk1           169.562
        51   01 Jun 2027 16:33:54.439   01 Jun 2027 16:35:32.865            98.426                Anadyr1          3075.813
        52   01 Jun 2027 16:36:35.934   01 Jun 2027 16:36:53.916            17.982                Anadyr1           561.937
        53   01 Jun 2027 16:37:25.213   01 Jun 2027 16:37:28.829             3.616                Anadyr1           113.000
        54   01 Jun 2027 16:38:40.606   01 Jun 2027 16:39:15.125            34.519                Anadyr1          1078.719
        55   01 Jun 2027 16:42:17.724   01 Jun 2027 16:42:57.780            40.056                Anadyr2          1251.750
        56   01 Jun 2027 17:28:56.285   01 Jun 2027 17:30:25.776            89.491               CapeTown          2796.594
        57   01 Jun 2027 17:34:03.473   01 Jun 2027 17:34:36.468            32.995               CapeTown          1031.094
        58   01 Jun 2027 17:40:31.460   01 Jun 2027 17:41:19.779            48.319               CapeTown          1509.969
        59   01 Jun 2027 17:59:22.963   01 Jun 2027 18:00:33.039            70.076              Murmansk2          2189.875
        60   01 Jun 2027 18:00:59.970   01 Jun 2027 18:04:37.154           217.184              Murmansk1          6787.000
        61   01 Jun 2027 18:12:49.750   01 Jun 2027 18:13:40.160            50.410               Magadan2          1575.312
        62   01 Jun 2027 18:14:41.574   01 Jun 2027 18:14:51.460             9.886               Magadan1           308.937
        63   01 Jun 2027 18:15:04.437   01 Jun 2027 18:15:54.356            49.919               Magadan1          1559.969
        64   01 Jun 2027 19:45:24.026   01 Jun 2027 19:49:09.354           225.328                Anadyr1          7041.500
        65   01 Jun 2027 19:49:28.836   01 Jun 2027 19:52:44.866           196.030               Magadan2          6125.938
        66   01 Jun 2027 19:54:36.137   01 Jun 2027 19:55:12.647            36.510               Magadan2          1140.937
        67   01 Jun 2027 19:57:01.148   01 Jun 2027 19:58:14.929            73.781               Magadan1          2305.656
        68   01 Jun 2027 20:42:51.143   01 Jun 2027 20:44:27.778            96.635            RioGallegos          3019.844
        69   01 Jun 2027 21:21:15.098   01 Jun 2027 21:22:39.139            84.041                Anadyr2          2626.281
        70   01 Jun 2027 21:22:50.122   01 Jun 2027 21:22:55.903             5.781                Anadyr2           180.656
        71   01 Jun 2027 21:23:03.850   01 Jun 2027 21:23:47.605            43.755                Anadyr2          1367.344
        72   01 Jun 2027 21:23:56.158   01 Jun 2027 21:25:58.772           122.614               Magadan2          3831.687
        73   01 Jun 2027 21:26:44.603   01 Jun 2027 21:27:03.000            18.397               Magadan2           574.906
        74   01 Jun 2027 21:27:16.258   01 Jun 2027 21:27:47.538            31.280               Magadan2           977.500
        75   01 Jun 2027 21:28:41.333   01 Jun 2027 21:30:29.465           108.132                Irkutsk          3379.125
        76   01 Jun 2027 21:31:06.014   01 Jun 2027 21:31:18.585            12.571                Irkutsk           392.844
        77   01 Jun 2027 21:34:33.097   01 Jun 2027 21:34:59.721            26.624                Irkutsk           832.000
        78   01 Jun 2027 21:44:19.658   01 Jun 2027 21:45:50.058            90.400                Sumatra          2825.000
        79   01 Jun 2027 21:49:36.846   01 Jun 2027 21:51:00.701            83.855                Sumatra          2620.469
        80   01 Jun 2027 22:56:37.442   01 Jun 2027 22:56:42.235             4.793                Anadyr1           149.781
        81   01 Jun 2027 22:56:42.235   01 Jun 2027 22:57:16.628            34.393                Anadyr2          1074.781
        82   01 Jun 2027 22:57:31.027   01 Jun 2027 22:59:06.270            95.243                Anadyr2          2976.344
        83   01 Jun 2027 22:59:07.675   01 Jun 2027 22:59:19.624            11.949                Norilsk           373.406
        84   01 Jun 2027 22:59:43.094   01 Jun 2027 23:01:05.583            82.489               Magadan1          2577.781
        85   01 Jun 2027 23:02:23.811   01 Jun 2027 23:03:07.039            43.228               Magadan2          1350.875
        86   01 Jun 2027 23:03:56.981   01 Jun 2027 23:05:34.704            97.723                Novosib          3053.844
        87   01 Jun 2027 23:09:01.780   01 Jun 2027 23:09:02.411             0.631                Irkutsk            19.719
        88   01 Jun 2027 23:10:14.198   01 Jun 2027 23:10:19.474             5.276                Novosib           164.875
        89   01 Jun 2027 23:16:52.545   01 Jun 2027 23:18:37.220           104.675                Sumatra          3271.094
        90   01 Jun 2027 23:51:05.329   01 Jun 2027 23:51:50.423            45.094            RioGallegos          1409.187
        91   01 Jun 2027 23:52:56.516   01 Jun 2027 23:53:07.463            10.947            RioGallegos           342.094
        92   01 Jun 2027 23:53:40.241   01 Jun 2027 23:54:03.975            23.734            RioGallegos           741.687
        93   02 Jun 2027 00:00:13.176   02 Jun 2027 00:00:43.252            30.076            RioGallegos           939.875
        94   02 Jun 2027 00:30:53.989   02 Jun 2027 00:31:41.763            47.774                Anadyr1          1492.937
        95   02 Jun 2027 00:32:46.369   02 Jun 2027 00:33:38.606            52.237                Anadyr1          1632.406
        96   02 Jun 2027 00:35:07.788   02 Jun 2027 00:37:11.324           123.536                Norilsk          3860.500
        97   02 Jun 2027 00:37:38.080   02 Jun 2027 00:38:05.648            27.568               Magadan1           861.500
        98   02 Jun 2027 00:38:22.357   02 Jun 2027 00:40:27.858           125.501              Murmansk2          3921.906
        99   02 Jun 2027 00:40:27.858   02 Jun 2027 00:41:32.969            65.111              Murmansk1          2034.719
       100   02 Jun 2027 00:46:20.256   02 Jun 2027 00:47:02.223            41.967                  Delhi          1311.469
       101   02 Jun 2027 00:48:43.743   02 Jun 2027 00:49:20.444            36.701                  Delhi          1146.906
       102   02 Jun 2027 00:54:04.469   02 Jun 2027 00:54:37.389            32.920                  Delhi          1028.750
       103   02 Jun 2027 01:27:56.573   02 Jun 2027 01:27:59.027             2.454            RioGallegos            76.687
       104   02 Jun 2027 01:28:53.965   02 Jun 2027 01:30:30.845            96.880            RioGallegos          3027.500
       105   02 Jun 2027 01:30:57.910   02 Jun 2027 01:31:09.598            11.688            RioGallegos           365.250
       106   02 Jun 2027 01:31:54.300   02 Jun 2027 01:32:26.986            32.686            RioGallegos          1021.438
       107   02 Jun 2027 02:04:13.194   02 Jun 2027 02:04:30.583            17.389                Anadyr1           543.406
       108   02 Jun 2027 02:05:18.662   02 Jun 2027 02:05:52.082            33.420                Anadyr1          1044.375
       109   02 Jun 2027 02:06:47.629   02 Jun 2027 02:07:13.010            25.381                Anadyr1           793.156
       110   02 Jun 2027 02:09:32.601   02 Jun 2027 02:09:36.487             3.886                Anadyr2           121.437
       111   02 Jun 2027 02:10:02.932   02 Jun 2027 02:10:16.176            13.244                Anadyr1           413.875
       112   02 Jun 2027 02:10:23.547   02 Jun 2027 02:11:18.557            55.010               Magadan1          1719.062
       113   02 Jun 2027 02:12:20.555   02 Jun 2027 02:13:11.656            51.101                Norilsk          1596.906
       114   02 Jun 2027 02:13:19.556   02 Jun 2027 02:14:46.620            87.064              Murmansk1          2720.750
       115   02 Jun 2027 02:16:23.419   02 Jun 2027 02:16:42.277            18.858                Novosib           589.313
       116   02 Jun 2027 02:18:08.840   02 Jun 2027 02:19:37.954            89.114                Irkutsk          2784.813
       117   02 Jun 2027 02:29:12.977   02 Jun 2027 02:29:27.176            14.199                  Delhi           443.719
       118   02 Jun 2027 02:30:07.163   02 Jun 2027 02:32:21.137           133.974                  Delhi          4186.688
       119   02 Jun 2027 03:56:17.036   02 Jun 2027 03:56:47.380            30.344                Norilsk           948.250
       120   02 Jun 2027 03:57:41.224   02 Jun 2027 03:58:46.826            65.602              Murmansk2          2050.063
       121   02 Jun 2027 03:58:48.238   02 Jun 2027 03:58:49.652             1.414              Murmansk2            44.187
       122   02 Jun 2027 03:59:08.962   02 Jun 2027 03:59:48.439            39.477              Murmansk1          1233.656
       123   02 Jun 2027 03:59:48.439   02 Jun 2027 04:01:50.984           122.545              Murmansk2          3829.531
       124   02 Jun 2027 05:20:02.980   02 Jun 2027 05:20:28.781            25.801                Anadyr2           806.281
       125   02 Jun 2027 05:20:28.781   02 Jun 2027 05:22:26.431           117.650                Anadyr1          3676.562
       126   02 Jun 2027 05:23:30.558   02 Jun 2027 05:24:04.568            34.010                Anadyr2          1062.813
       127   02 Jun 2027 05:24:15.374   02 Jun 2027 05:24:43.317            27.943               Magadan1           873.219
       128   02 Jun 2027 05:25:47.898   02 Jun 2027 05:26:00.654            12.756                Anadyr2           398.625
       129   02 Jun 2027 06:58:05.641   02 Jun 2027 06:58:18.724            13.083               Magadan2           408.844
       130   02 Jun 2027 06:58:52.879   02 Jun 2027 07:01:49.531           176.652                Anadyr1          5520.375
       131   02 Jun 2027 08:31:22.439   02 Jun 2027 08:32:36.042            73.603               Magadan1          2300.094
       132   02 Jun 2027 08:33:30.207   02 Jun 2027 08:36:37.621           187.414                Anadyr2          5856.687
       133   02 Jun 2027 09:49:43.139   02 Jun 2027 09:51:19.387            96.248                Sumatra          3007.750
       134   02 Jun 2027 10:07:44.845   02 Jun 2027 10:07:58.610            13.765                Irkutsk           430.156
       135   02 Jun 2027 10:08:14.385   02 Jun 2027 10:08:56.385            42.000                Irkutsk          1312.500
       136   02 Jun 2027 10:09:31.797   02 Jun 2027 10:09:44.260            12.463                Irkutsk           389.469
       137   02 Jun 2027 10:09:50.172   02 Jun 2027 10:10:27.173            37.001               Magadan2          1156.281
       138   02 Jun 2027 10:10:30.770   02 Jun 2027 10:10:41.438            10.668                Norilsk           333.375
       139   02 Jun 2027 10:10:43.729   02 Jun 2027 10:10:59.813            16.084                Novosib           502.625
       140   02 Jun 2027 10:11:13.442   02 Jun 2027 10:11:20.381             6.939                Irkutsk           216.844
       141   02 Jun 2027 10:11:25.347   02 Jun 2027 10:11:28.723             3.376                Norilsk           105.500
       142   02 Jun 2027 10:11:40.924   02 Jun 2027 10:12:15.757            34.833                Irkutsk          1088.531
       143   02 Jun 2027 10:12:27.253   02 Jun 2027 10:12:54.985            27.732                Norilsk           866.625
       144   02 Jun 2027 10:12:57.593   02 Jun 2027 10:13:03.320             5.727                Norilsk           178.969
       145   02 Jun 2027 10:13:06.471   02 Jun 2027 10:13:23.692            17.221                Novosib           538.156
       146   02 Jun 2027 10:48:24.584   02 Jun 2027 10:49:32.464            67.880            RioGallegos          2121.250
       147   02 Jun 2027 11:22:53.881   02 Jun 2027 11:23:54.325            60.444                Sumatra          1888.875
       148   02 Jun 2027 11:32:21.233   02 Jun 2027 11:32:56.752            35.519                  Delhi          1109.969
       149   02 Jun 2027 11:43:11.899   02 Jun 2027 11:43:24.512            12.613                  Delhi           394.156
       150   02 Jun 2027 11:44:19.427   02 Jun 2027 11:45:20.865            61.438                Irkutsk          1919.937
       151   02 Jun 2027 11:45:38.219   02 Jun 2027 11:46:32.512            54.293                Irkutsk          1696.656
       152   02 Jun 2027 11:46:44.250   02 Jun 2027 11:47:14.941            30.691                Norilsk           959.094
       153   02 Jun 2027 11:47:22.615   02 Jun 2027 11:47:30.566             7.951                Novosib           248.469
       154   02 Jun 2027 11:47:36.585   02 Jun 2027 11:48:16.466            39.881                Irkutsk          1246.281
       155   02 Jun 2027 11:48:20.540   02 Jun 2027 11:48:48.543            28.003                Irkutsk           875.094
       156   02 Jun 2027 11:49:00.677   02 Jun 2027 11:49:15.966            15.289                Novosib           477.781
       157   02 Jun 2027 12:30:15.085   02 Jun 2027 12:31:08.578            53.493            RioGallegos          1671.656
       158   02 Jun 2027 12:31:30.359   02 Jun 2027 12:33:06.647            96.288            RioGallegos          3009.000
       159   02 Jun 2027 13:07:24.290   02 Jun 2027 13:07:37.544            13.254                  Delhi           414.187
       160   02 Jun 2027 13:15:17.371   02 Jun 2027 13:16:02.917            45.546                  Delhi          1423.312
       161   02 Jun 2027 13:16:09.676   02 Jun 2027 13:17:23.823            74.147                Novosib          2317.094
       162   02 Jun 2027 13:19:10.735   02 Jun 2027 13:20:35.286            84.551                Novosib          2642.219
       163   02 Jun 2027 13:20:39.541   02 Jun 2027 13:20:50.995            11.454                Norilsk           357.938
       164   02 Jun 2027 13:21:37.931   02 Jun 2027 13:22:15.936            38.005                Norilsk          1187.656
       165   02 Jun 2027 13:22:44.895   02 Jun 2027 13:23:08.786            23.891                Norilsk           746.594
       166   02 Jun 2027 14:51:26.823   02 Jun 2027 14:55:24.236           237.413                 Moscow          7419.156
       167   02 Jun 2027 14:55:32.840   02 Jun 2027 14:57:33.526           120.686              Murmansk2          3771.437
       168   02 Jun 2027 14:59:47.462   02 Jun 2027 15:01:09.423            81.961                Norilsk          2561.281
       169   02 Jun 2027 15:02:16.700   02 Jun 2027 15:02:31.377            14.677                Norilsk           458.656
       170   02 Jun 2027 15:02:58.565   02 Jun 2027 15:04:22.470            83.905                Norilsk          2622.031
       171   02 Jun 2027 16:05:37.239   02 Jun 2027 16:05:54.375            17.136               CapeTown           535.500
       172   02 Jun 2027 16:06:06.128   02 Jun 2027 16:06:42.756            36.628               CapeTown          1144.625
       173   02 Jun 2027 16:16:10.241   02 Jun 2027 16:16:26.738            16.497               CapeTown           515.531
       174   02 Jun 2027 16:29:23.303   02 Jun 2027 16:30:01.318            38.015                 Moscow          1187.969
       175   02 Jun 2027 16:32:18.233   02 Jun 2027 16:32:26.836             8.603              Murmansk1           268.844
       176   02 Jun 2027 16:32:31.968   02 Jun 2027 16:33:31.364            59.396              Murmansk2          1856.125
       177   02 Jun 2027 16:35:50.954   02 Jun 2027 16:36:18.905            27.951              Murmansk2           873.469
       178   02 Jun 2027 16:40:04.236   02 Jun 2027 16:40:40.983            36.747              Murmansk1          1148.344
       179   02 Jun 2027 16:45:50.315   02 Jun 2027 16:47:22.976            92.661                Anadyr2          2895.656
       180   02 Jun 2027 16:47:28.442   02 Jun 2027 16:47:48.392            19.950                Anadyr1           623.437
       181   02 Jun 2027 16:50:54.305   02 Jun 2027 16:51:03.535             9.230                Anadyr1           288.437
       182   02 Jun 2027 16:51:03.535   02 Jun 2027 16:51:12.582             9.047                Anadyr2           282.719
       183   02 Jun 2027 16:54:26.661   02 Jun 2027 16:54:47.324            20.663                Anadyr2           645.719
       184   02 Jun 2027 17:41:04.580   02 Jun 2027 17:42:01.461            56.881               CapeTown          1777.531
       185   02 Jun 2027 17:42:49.590   02 Jun 2027 17:43:00.463            10.873               CapeTown           339.781
       186   02 Jun 2027 17:46:35.698   02 Jun 2027 17:46:46.503            10.805               CapeTown           337.656
       187   02 Jun 2027 17:47:12.124   02 Jun 2027 17:48:49.581            97.457               CapeTown          3045.531
       188   02 Jun 2027 18:12:04.247   02 Jun 2027 18:13:57.515           113.268              Murmansk2          3539.625
       189   02 Jun 2027 18:14:17.523   02 Jun 2027 18:15:51.387            93.864              Murmansk1          2933.250
       190   02 Jun 2027 18:22:57.150   02 Jun 2027 18:23:17.413            20.263                Anadyr1           633.219
       191   02 Jun 2027 18:24:35.396   02 Jun 2027 18:25:38.129            62.733               Magadan1          1960.406
       192   02 Jun 2027 18:26:12.464   02 Jun 2027 18:26:23.139            10.675               Magadan1           333.594
       193   02 Jun 2027 18:26:54.652   02 Jun 2027 18:27:09.765            15.113               Magadan1           472.281
       194   02 Jun 2027 19:57:25.573   02 Jun 2027 20:01:10.553           224.980                Anadyr2          7030.625
       195   02 Jun 2027 20:01:32.416   02 Jun 2027 20:03:27.204           114.788               Magadan1          3587.125
       196   02 Jun 2027 20:04:32.957   02 Jun 2027 20:05:25.672            52.715               Magadan1          1647.344
       197   02 Jun 2027 20:06:43.158   02 Jun 2027 20:07:14.178            31.020               Magadan2           969.375
       198   02 Jun 2027 20:53:33.982   02 Jun 2027 20:56:05.133           151.151            RioGallegos          4723.469
       199   02 Jun 2027 20:58:34.674   02 Jun 2027 20:59:16.534            41.860            RioGallegos          1308.125
       200   02 Jun 2027 21:33:14.660   02 Jun 2027 21:35:33.629           138.969                Anadyr2          4342.781
       201   02 Jun 2027 21:35:39.250   02 Jun 2027 21:37:11.131            91.881               Magadan2          2871.281
       202   02 Jun 2027 21:37:43.143   02 Jun 2027 21:38:20.185            37.042               Magadan2          1157.563
       203   02 Jun 2027 21:40:17.852   02 Jun 2027 21:41:00.914            43.062                Irkutsk          1345.687
       204   02 Jun 2027 21:42:29.552   02 Jun 2027 21:43:12.188            42.636                Irkutsk          1332.375
       205   02 Jun 2027 21:43:23.411   02 Jun 2027 21:43:26.915             3.504                Irkutsk           109.500
       206   02 Jun 2027 21:46:14.153   02 Jun 2027 21:46:50.720            36.567                Irkutsk          1142.719
       207   02 Jun 2027 21:55:13.783   02 Jun 2027 21:56:40.916            87.133                Sumatra          2722.906
       208   02 Jun 2027 21:59:05.598   02 Jun 2027 22:00:36.261            90.663                Sumatra          2833.219
       209   02 Jun 2027 23:08:30.809   02 Jun 2027 23:08:55.619            24.810                Anadyr1           775.313
       210   02 Jun 2027 23:09:19.146   02 Jun 2027 23:09:31.752            12.606                Anadyr1           393.937
       211   02 Jun 2027 23:11:09.411   02 Jun 2027 23:11:21.189            11.778                Norilsk           368.063
       212   02 Jun 2027 23:11:46.104   02 Jun 2027 23:13:21.243            95.139               Magadan2          2973.094
       213   02 Jun 2027 23:13:21.243   02 Jun 2027 23:13:47.012            25.769               Magadan1           805.281
       214   02 Jun 2027 23:15:04.396   02 Jun 2027 23:16:12.028            67.632                Irkutsk          2113.500
       215   02 Jun 2027 23:18:27.706   02 Jun 2027 23:18:35.779             8.073                Novosib           252.281
       216   02 Jun 2027 23:20:45.331   02 Jun 2027 23:21:58.592            73.261                Novosib          2289.406
       217   02 Jun 2027 23:25:39.543   02 Jun 2027 23:27:10.866            91.323                  Delhi          2853.844
       218   02 Jun 2027 23:28:03.714   02 Jun 2027 23:28:27.994            24.280                  Delhi           758.750
       219   03 Jun 2027 00:11:10.274   03 Jun 2027 00:11:23.904            13.630            RioGallegos           425.937
       220   03 Jun 2027 00:13:11.762   03 Jun 2027 00:14:13.465            61.703            RioGallegos          1928.219
       221   03 Jun 2027 00:42:37.626   03 Jun 2027 00:43:03.411            25.785                Anadyr2           805.781
       222   03 Jun 2027 00:43:42.972   03 Jun 2027 00:44:46.772            63.800                Anadyr2          1993.750
       223   03 Jun 2027 00:47:09.886   03 Jun 2027 00:47:43.009            33.123                Norilsk          1035.094
       224   03 Jun 2027 00:47:45.157   03 Jun 2027 00:49:11.250            86.093               Magadan2          2690.406
       225   03 Jun 2027 00:50:04.421   03 Jun 2027 00:51:23.314            78.893              Murmansk2          2465.406
       226   03 Jun 2027 00:51:49.414   03 Jun 2027 00:53:34.507           105.093              Murmansk2          3284.156
       227   03 Jun 2027 01:01:29.298   03 Jun 2027 01:02:07.173            37.875                  Delhi          1183.594
       228   03 Jun 2027 01:07:09.981   03 Jun 2027 01:07:26.545            16.564                  Delhi           517.625
       229   03 Jun 2027 01:40:13.749   03 Jun 2027 01:41:35.067            81.318            RioGallegos          2541.187
       230   03 Jun 2027 01:43:14.538   03 Jun 2027 01:44:02.034            47.496            RioGallegos          1484.250
       231   03 Jun 2027 02:15:54.932   03 Jun 2027 02:16:13.426            18.494                Anadyr2           577.937
       232   03 Jun 2027 02:17:35.041   03 Jun 2027 02:18:23.974            48.933                Anadyr2          1529.156
       233   03 Jun 2027 02:21:58.674   03 Jun 2027 02:22:40.488            41.814               Magadan1          1306.688
       234   03 Jun 2027 02:22:40.488   03 Jun 2027 02:22:49.344             8.856               Magadan2           276.750
       235   03 Jun 2027 02:23:05.330   03 Jun 2027 02:23:20.550            15.220                Norilsk           475.625
       236   03 Jun 2027 02:24:04.529   03 Jun 2027 02:24:30.708            26.179               Magadan2           818.094
       237   03 Jun 2027 02:24:39.582   03 Jun 2027 02:24:47.558             7.976                Norilsk           249.250
       238   03 Jun 2027 02:25:19.870   03 Jun 2027 02:26:40.380            80.510              Murmansk2          2515.938
       239   03 Jun 2027 02:27:03.935   03 Jun 2027 02:27:14.031            10.096                Novosib           315.500
       240   03 Jun 2027 02:27:23.748   03 Jun 2027 02:27:33.772            10.024              Murmansk2           313.250
       241   03 Jun 2027 02:28:33.989   03 Jun 2027 02:29:39.855            65.866                Irkutsk          2058.313
       242   03 Jun 2027 02:36:08.626   03 Jun 2027 02:36:39.653            31.027                  Delhi           969.594
       243   03 Jun 2027 02:41:33.393   03 Jun 2027 02:41:35.919             2.526                  Delhi            78.938
       244   03 Jun 2027 02:42:19.317   03 Jun 2027 02:43:23.519            64.202                  Delhi          2006.312
       245   03 Jun 2027 03:54:01.521   03 Jun 2027 03:54:16.981            15.460               Magadan2           483.125
       246   03 Jun 2027 03:56:22.332   03 Jun 2027 03:56:25.947             3.615               Magadan1           112.969
       247   03 Jun 2027 03:56:37.806   03 Jun 2027 03:56:44.995             7.189                Anadyr1           224.656
       248   03 Jun 2027 04:09:54.923   03 Jun 2027 04:10:51.616            56.693              Murmansk1          1771.656
       249   03 Jun 2027 04:10:58.307   03 Jun 2027 04:11:28.927            30.620                 Moscow           956.875
       250   03 Jun 2027 04:11:37.414   03 Jun 2027 04:11:42.778             5.364              Murmansk1           167.625
       251   03 Jun 2027 04:11:53.810   03 Jun 2027 04:16:03.098           249.288                 Moscow          7790.250
       252   03 Jun 2027 04:28:22.038   03 Jun 2027 04:31:01.932           159.894               CapeTown          4996.687
       253   03 Jun 2027 05:31:49.151   03 Jun 2027 05:35:30.113           220.962               Magadan2          6905.062
       254   03 Jun 2027 05:35:52.431   03 Jun 2027 05:36:49.572            57.141                Anadyr2          1785.656
       255   03 Jun 2027 05:37:43.203   03 Jun 2027 05:37:54.421            11.218                Anadyr2           350.563
       256   03 Jun 2027 07:09:26.307   03 Jun 2027 07:09:34.813             8.506               Magadan2           265.812
       257   03 Jun 2027 07:09:45.296   03 Jun 2027 07:09:54.450             9.154               Magadan2           286.063
       258   03 Jun 2027 07:10:09.446   03 Jun 2027 07:10:53.757            44.311                Anadyr2          1384.719
       259   03 Jun 2027 07:12:18.321   03 Jun 2027 07:12:43.941            25.620                Anadyr2           800.625
       260   03 Jun 2027 08:42:47.716   03 Jun 2027 08:43:01.606            13.890               Magadan2           434.062
       261   03 Jun 2027 08:43:16.620   03 Jun 2027 08:43:19.368             2.748               Magadan1            85.875
       262   03 Jun 2027 08:44:04.235   03 Jun 2027 08:44:07.859             3.624               Magadan1           113.250
       263   03 Jun 2027 08:44:19.203   03 Jun 2027 08:45:19.499            60.296                Anadyr1          1884.250
       264   03 Jun 2027 08:45:19.499   03 Jun 2027 08:46:14.520            55.021                Anadyr2          1719.406
       265   03 Jun 2027 08:46:36.691   03 Jun 2027 08:47:52.857            76.166               Magadan1          2380.188
       266   03 Jun 2027 08:47:58.404   03 Jun 2027 08:48:08.014             9.610                Anadyr1           300.312
       267   03 Jun 2027 08:48:10.705   03 Jun 2027 08:48:48.116            37.411               Magadan1          1169.094
       268   03 Jun 2027 08:49:45.939   03 Jun 2027 08:49:48.436             2.497              Murmansk1            78.031
       269   03 Jun 2027 09:24:15.870   03 Jun 2027 09:25:16.424            60.554            RioGallegos          1892.312
       270   03 Jun 2027 09:29:48.684   03 Jun 2027 09:30:25.336            36.652            RioGallegos          1145.375
       271   03 Jun 2027 10:01:48.610   03 Jun 2027 10:03:18.624            90.014                Sumatra          2812.937
       272   03 Jun 2027 10:20:18.738   03 Jun 2027 10:20:22.619             3.881                Irkutsk           121.281
       273   03 Jun 2027 10:20:46.100   03 Jun 2027 10:21:24.848            38.748                Irkutsk          1210.875
       274   03 Jun 2027 10:21:35.539   03 Jun 2027 10:22:03.796            28.257                Irkutsk           883.031
       275   03 Jun 2027 10:23:11.254   03 Jun 2027 10:23:27.470            16.216                Irkutsk           506.750
       276   03 Jun 2027 10:23:52.563   03 Jun 2027 10:24:33.704            41.141                Irkutsk          1285.656
       277   03 Jun 2027 10:24:50.554   03 Jun 2027 10:24:56.380             5.826                Novosib           182.063
       278   03 Jun 2027 10:24:56.830   03 Jun 2027 10:25:23.636            26.806                Novosib           837.687
       279   03 Jun 2027 11:00:43.025   03 Jun 2027 11:00:59.900            16.875            RioGallegos           527.344
       280   03 Jun 2027 11:02:57.077   03 Jun 2027 11:03:20.003            22.926            RioGallegos           716.437
       281   03 Jun 2027 11:05:21.329   03 Jun 2027 11:05:27.498             6.169            RioGallegos           192.781
       282   03 Jun 2027 11:35:04.498   03 Jun 2027 11:35:34.239            29.741                Sumatra           929.406
       283   03 Jun 2027 11:37:07.721   03 Jun 2027 11:37:47.192            39.471                Sumatra          1233.469
       284   03 Jun 2027 11:44:44.642   03 Jun 2027 11:45:10.043            25.401                  Delhi           793.781
       285   03 Jun 2027 11:56:25.171   03 Jun 2027 11:57:03.859            38.688                Irkutsk          1209.000
       286   03 Jun 2027 11:57:16.467   03 Jun 2027 11:57:29.462            12.995                Irkutsk           406.094
       287   03 Jun 2027 11:58:36.245   03 Jun 2027 11:59:05.992            29.747                Novosib           929.594
       288   03 Jun 2027 11:59:35.088   03 Jun 2027 12:00:36.245            61.157                Novosib          1911.156
       289   03 Jun 2027 13:19:45.605   03 Jun 2027 13:20:58.568            72.963                  Delhi          2280.094
       290   03 Jun 2027 13:23:56.667   03 Jun 2027 13:25:09.216            72.549                  Delhi          2267.156
       291   03 Jun 2027 13:25:29.500   03 Jun 2027 13:25:58.986            29.486                  Delhi           921.437
       292   03 Jun 2027 13:27:07.467   03 Jun 2027 13:27:57.762            50.295                  Delhi          1571.719
       293   03 Jun 2027 13:27:59.888   03 Jun 2027 13:29:26.802            86.914                Novosib          2716.063
       294   03 Jun 2027 13:30:01.030   03 Jun 2027 13:31:08.948            67.918                Novosib          2122.438
       295   03 Jun 2027 13:35:12.232   03 Jun 2027 13:36:24.094            71.862                Norilsk          2245.688
       296   03 Jun 2027 13:40:05.537   03 Jun 2027 13:40:35.986            30.449                Norilsk           951.531
       297   03 Jun 2027 15:03:31.331   03 Jun 2027 15:07:00.750           209.419                 Moscow          6544.344
       298   03 Jun 2027 15:07:02.635   03 Jun 2027 15:07:44.618            41.983              Murmansk2          1311.969
       299   03 Jun 2027 15:12:06.116   03 Jun 2027 15:12:22.072            15.956              Murmansk1           498.625
       300   03 Jun 2027 15:12:40.172   03 Jun 2027 15:16:16.538           216.366                Norilsk          6761.437
       301   03 Jun 2027 16:20:48.143   03 Jun 2027 16:21:06.442            18.299               CapeTown           571.844
       302   03 Jun 2027 16:23:39.930   03 Jun 2027 16:23:51.988            12.058               CapeTown           376.813
       303   03 Jun 2027 16:24:39.601   03 Jun 2027 16:24:47.252             7.651               CapeTown           239.094
       304   03 Jun 2027 16:25:26.879   03 Jun 2027 16:26:49.697            82.818               CapeTown          2588.063
       305   03 Jun 2027 16:42:59.288   03 Jun 2027 16:43:35.799            36.511                 Moscow          1140.969
       306   03 Jun 2027 16:46:40.052   03 Jun 2027 16:46:50.082            10.030                 Moscow           313.437
       307   03 Jun 2027 16:47:48.054   03 Jun 2027 16:48:20.905            32.851              Murmansk2          1026.594
       308   03 Jun 2027 16:52:05.907   03 Jun 2027 16:52:44.573            38.666              Murmansk2          1208.312
       309   03 Jun 2027 16:55:27.669   03 Jun 2027 16:55:30.781             3.112              Murmansk1            97.250
       310   03 Jun 2027 16:57:47.447   03 Jun 2027 16:59:22.352            94.905                Anadyr2          2965.781
       311   03 Jun 2027 17:02:20.783   03 Jun 2027 17:02:55.736            34.953                Anadyr2          1092.281
       312   03 Jun 2027 17:04:18.366   03 Jun 2027 17:04:57.554            39.188                Anadyr1          1224.625
       313   03 Jun 2027 17:53:16.088   03 Jun 2027 17:54:17.292            61.204               CapeTown          1912.625
       314   03 Jun 2027 18:03:59.993   03 Jun 2027 18:04:36.259            36.266               CapeTown          1133.312
       315   03 Jun 2027 18:24:50.089   03 Jun 2027 18:29:57.528           307.439              Murmansk1          9607.469
       316   03 Jun 2027 18:36:24.888   03 Jun 2027 18:37:10.588            45.700               Magadan1          1428.125
       317   03 Jun 2027 18:45:13.542   03 Jun 2027 18:45:48.199            34.657               Magadan1          1083.031
       318   03 Jun 2027 20:09:27.025   03 Jun 2027 20:11:33.352           126.327                Anadyr2          3947.719
       319   03 Jun 2027 20:11:44.216   03 Jun 2027 20:16:03.765           259.549               Magadan2          8110.906
       320   03 Jun 2027 20:18:53.372   03 Jun 2027 20:19:25.509            32.137               Magadan2          1004.281
       321   03 Jun 2027 21:04:55.428   03 Jun 2027 21:07:43.805           168.377            RioGallegos          5261.781
       322   03 Jun 2027 21:07:48.474   03 Jun 2027 21:07:48.675             0.201            RioGallegos             6.281
       323   03 Jun 2027 21:10:25.856   03 Jun 2027 21:11:08.342            42.486            RioGallegos          1327.688
       324   03 Jun 2027 21:45:13.734   03 Jun 2027 21:47:18.483           124.749                Anadyr2          3898.406
       325   03 Jun 2027 21:47:21.242   03 Jun 2027 21:49:03.217           101.975                Norilsk          3186.719
       326   03 Jun 2027 21:50:24.789   03 Jun 2027 21:50:38.245            13.456                Norilsk           420.500
       327   03 Jun 2027 21:52:00.941   03 Jun 2027 21:52:59.175            58.234                Irkutsk          1819.813
       328   03 Jun 2027 21:58:02.460   03 Jun 2027 21:58:22.269            19.809                Irkutsk           619.031
       329   03 Jun 2027 22:00:13.931   03 Jun 2027 22:00:51.966            38.035                Irkutsk          1188.594
       330   03 Jun 2027 22:06:28.930   03 Jun 2027 22:06:46.866            17.936                Sumatra           560.500
       331   03 Jun 2027 22:06:47.802   03 Jun 2027 22:09:09.384           141.582                Sumatra          4424.438
       332   03 Jun 2027 23:20:22.997   03 Jun 2027 23:20:39.754            16.757                Anadyr2           523.656
       333   03 Jun 2027 23:21:06.654   03 Jun 2027 23:21:34.843            28.189                Anadyr1           880.906
       334   03 Jun 2027 23:22:51.100   03 Jun 2027 23:22:59.774             8.674                Anadyr1           271.062
       335   03 Jun 2027 23:23:11.318   03 Jun 2027 23:25:03.131           111.813                Norilsk          3494.156
       336   03 Jun 2027 23:25:37.161   03 Jun 2027 23:25:37.754             0.593               Magadan1            18.531
       337   03 Jun 2027 23:25:51.208   03 Jun 2027 23:26:28.440            37.232               Magadan2          1163.500
       338   03 Jun 2027 23:27:04.455   03 Jun 2027 23:27:55.040            50.585                Irkutsk          1580.781
       339   03 Jun 2027 23:28:05.813   03 Jun 2027 23:29:05.487            59.674                Irkutsk          1864.813
       340   03 Jun 2027 23:30:18.608   03 Jun 2027 23:30:34.227            15.619                Novosib           488.094
       341   03 Jun 2027 23:36:36.021   03 Jun 2027 23:39:01.185           145.164                  Delhi          4536.375
       342   04 Jun 2027 00:26:18.557   04 Jun 2027 00:26:48.238            29.681            RioGallegos           927.531
       343   04 Jun 2027 00:54:20.371   04 Jun 2027 00:54:21.175             0.804                Anadyr2            25.125
       344   04 Jun 2027 00:54:43.071   04 Jun 2027 00:55:04.430            21.359                Anadyr2           667.469
       345   04 Jun 2027 00:55:04.430   04 Jun 2027 00:55:44.261            39.831                Anadyr1          1244.719
       346   04 Jun 2027 00:56:37.898   04 Jun 2027 00:56:57.053            19.155                Anadyr2           598.594
       347   04 Jun 2027 00:59:11.908   04 Jun 2027 00:59:39.321            27.413                Norilsk           856.656
       348   04 Jun 2027 00:59:44.023   04 Jun 2027 01:00:03.836            19.813               Magadan2           619.156
       349   04 Jun 2027 01:00:28.986   04 Jun 2027 01:01:38.766            69.780               Magadan1          2180.625
       350   04 Jun 2027 01:01:38.766   04 Jun 2027 01:01:49.127            10.361               Magadan2           323.781
       351   04 Jun 2027 01:01:53.537   04 Jun 2027 01:03:49.954           116.417              Murmansk1          3638.031
       352   04 Jun 2027 01:03:49.954   04 Jun 2027 01:04:31.003            41.049              Murmansk2          1282.781
       353   04 Jun 2027 01:08:13.950   04 Jun 2027 01:08:32.399            18.449                Novosib           576.531
       354   04 Jun 2027 01:10:18.797   04 Jun 2027 01:12:46.728           147.931                  Delhi          4622.844
       355   04 Jun 2027 01:52:36.037   04 Jun 2027 01:53:45.419            69.382            RioGallegos          2168.187
       356   04 Jun 2027 02:27:37.247   04 Jun 2027 02:28:01.883            24.636                Anadyr2           769.875
       357   04 Jun 2027 02:28:46.802   04 Jun 2027 02:29:07.849            21.047                Anadyr1           657.719
       358   04 Jun 2027 02:30:13.064   04 Jun 2027 02:30:20.992             7.928                Anadyr1           247.750
       359   04 Jun 2027 02:33:30.625   04 Jun 2027 02:35:14.963           104.338               Magadan1          3260.562
       360   04 Jun 2027 02:37:20.617   04 Jun 2027 02:38:42.233            81.616              Murmansk1          2550.500
       361   04 Jun 2027 02:38:59.403   04 Jun 2027 02:39:09.067             9.664              Murmansk2           302.000
       362   04 Jun 2027 02:39:33.705   04 Jun 2027 02:40:31.263            57.558                Novosib          1798.687
       363   04 Jun 2027 02:41:08.781   04 Jun 2027 02:41:49.164            40.383                Irkutsk          1261.969
       364   04 Jun 2027 02:49:11.070   04 Jun 2027 02:50:22.982            71.912                  Delhi          2247.250
       365   04 Jun 2027 03:14:56.674   04 Jun 2027 03:15:09.916            13.242               CapeTown           413.812
       366   04 Jun 2027 04:22:05.568   04 Jun 2027 04:23:09.068            63.500              Murmansk1          1984.375
       367   04 Jun 2027 04:23:21.514   04 Jun 2027 04:26:07.885           166.371              Murmansk1          5199.094
       368   04 Jun 2027 05:43:41.387   04 Jun 2027 05:47:57.512           256.125                Anadyr1          8003.906
       369   04 Jun 2027 05:47:57.512   04 Jun 2027 05:48:49.414            51.902                Anadyr2          1621.937
       370   04 Jun 2027 05:49:36.747   04 Jun 2027 05:50:03.488            26.741                Anadyr2           835.656
       371   04 Jun 2027 07:21:20.849   04 Jun 2027 07:21:48.668            27.819               Magadan2           869.344
       372   04 Jun 2027 07:21:56.487   04 Jun 2027 07:22:57.032            60.545               Magadan2          1892.031
       373   04 Jun 2027 07:23:32.252   04 Jun 2027 07:23:58.366            26.114               Magadan2           816.062
       374   04 Jun 2027 07:25:05.533   04 Jun 2027 07:25:30.118            24.585                Anadyr1           768.281
       375   04 Jun 2027 08:55:08.804   04 Jun 2027 08:55:24.433            15.629               Magadan2           488.406
       376   04 Jun 2027 08:55:39.570   04 Jun 2027 08:56:09.576            30.006               Magadan2           937.688
       377   04 Jun 2027 08:56:50.226   04 Jun 2027 08:57:38.395            48.169               Magadan1          1505.281
       378   04 Jun 2027 08:57:56.308   04 Jun 2027 08:58:20.266            23.958               Magadan2           748.687
       379   04 Jun 2027 08:58:35.196   04 Jun 2027 08:59:56.102            80.906               Magadan2          2528.313
       380   04 Jun 2027 09:00:21.991   04 Jun 2027 09:00:31.146             9.155               Magadan1           286.094
       381   04 Jun 2027 09:01:01.297   04 Jun 2027 09:01:12.370            11.073                Norilsk           346.031
       382   04 Jun 2027 09:01:40.321   04 Jun 2027 09:02:31.092            50.771                Norilsk          1586.594
       383   04 Jun 2027 09:36:09.450   04 Jun 2027 09:37:12.153            62.703            RioGallegos          1959.469
       384   04 Jun 2027 10:12:11.524   04 Jun 2027 10:12:52.151            40.627                Sumatra          1269.594
       385   04 Jun 2027 10:32:32.404   04 Jun 2027 10:32:40.737             8.333                Irkutsk           260.406
       386   04 Jun 2027 10:33:06.787   04 Jun 2027 10:33:16.473             9.686                Novosib           302.688
       387   04 Jun 2027 10:33:38.507   04 Jun 2027 10:34:06.971            28.464                Irkutsk           889.500
       388   04 Jun 2027 10:34:43.058   04 Jun 2027 10:34:49.233             6.175                Novosib           192.969
       389   04 Jun 2027 10:34:53.073   04 Jun 2027 10:35:19.010            25.937                Norilsk           810.531
       390   04 Jun 2027 10:35:33.649   04 Jun 2027 10:36:24.754            51.105                Irkutsk          1597.031
       391   04 Jun 2027 10:36:30.549   04 Jun 2027 10:37:00.509            29.960                Norilsk           936.250
       392   04 Jun 2027 10:37:04.690   04 Jun 2027 10:37:23.068            18.378                Irkutsk           574.313
       393   04 Jun 2027 11:13:06.074   04 Jun 2027 11:13:31.288            25.214            RioGallegos           787.938
       394   04 Jun 2027 11:14:01.408   04 Jun 2027 11:14:13.588            12.180            RioGallegos           380.625
       395   04 Jun 2027 11:15:25.967   04 Jun 2027 11:16:12.694            46.727            RioGallegos          1460.219
       396   04 Jun 2027 11:47:21.754   04 Jun 2027 11:47:58.546            36.792                Sumatra          1149.750
       397   04 Jun 2027 11:55:59.180   04 Jun 2027 11:56:18.147            18.967                  Delhi           592.719
       398   04 Jun 2027 12:05:15.620   04 Jun 2027 12:05:36.549            20.929                Novosib           654.031
       399   04 Jun 2027 12:07:48.821   04 Jun 2027 12:08:55.948            67.127                Novosib          2097.719
       400   04 Jun 2027 13:32:14.945   04 Jun 2027 13:37:26.897           311.952                  Delhi          9748.500
       401   04 Jun 2027 13:40:53.440   04 Jun 2027 13:41:29.236            35.796                Novosib          1118.625
       402   04 Jun 2027 13:45:19.656   04 Jun 2027 13:45:35.540            15.884                Novosib           496.375
       403   04 Jun 2027 13:47:17.187   04 Jun 2027 13:48:23.815            66.628                Norilsk          2082.125
       404   04 Jun 2027 15:15:38.923   04 Jun 2027 15:17:38.655           119.732                 Moscow          3741.625
       405   04 Jun 2027 15:18:46.305   04 Jun 2027 15:19:34.295            47.990                 Moscow          1499.687
       406   04 Jun 2027 15:19:51.619   04 Jun 2027 15:20:17.361            25.742                 Moscow           804.437
       407   04 Jun 2027 15:20:31.933   04 Jun 2027 15:22:18.650           106.717              Murmansk2          3334.906
       408   04 Jun 2027 15:25:42.764   04 Jun 2027 15:28:18.891           156.127                Norilsk          4878.969
       409   04 Jun 2027 16:31:52.403   04 Jun 2027 16:32:30.667            38.264               CapeTown          1195.750
       410   04 Jun 2027 16:36:36.694   04 Jun 2027 16:37:11.862            35.168               CapeTown          1099.000
       411   04 Jun 2027 16:54:44.378   04 Jun 2027 16:55:01.272            16.894                 Moscow           527.937
       412   04 Jun 2027 16:57:03.209   04 Jun 2027 16:59:43.618           160.409              Murmansk2          5012.781
       413   04 Jun 2027 17:09:45.549   04 Jun 2027 17:10:10.287            24.738                Anadyr1           773.063
       414   04 Jun 2027 17:10:14.607   04 Jun 2027 17:10:46.298            31.691                Anadyr1           990.344
       415   04 Jun 2027 17:11:14.662   04 Jun 2027 17:11:24.642             9.980                Anadyr2           311.875
       416   04 Jun 2027 17:11:44.223   04 Jun 2027 17:12:33.413            49.190                Anadyr1          1537.188
       417   04 Jun 2027 17:19:18.973   04 Jun 2027 17:19:30.935            11.962                Anadyr2           373.813
       418   04 Jun 2027 17:20:07.031   04 Jun 2027 17:20:12.988             5.957                Anadyr2           186.156
       419   04 Jun 2027 17:20:41.956   04 Jun 2027 17:20:57.725            15.769                Anadyr2           492.781
       420   04 Jun 2027 18:07:03.099   04 Jun 2027 18:07:03.983             0.884               CapeTown            27.625
       421   04 Jun 2027 18:10:10.575   04 Jun 2027 18:10:34.176            23.601               CapeTown           737.531
       422   04 Jun 2027 18:11:58.653   04 Jun 2027 18:12:24.895            26.242               CapeTown           820.062
       423   04 Jun 2027 18:37:41.944   04 Jun 2027 18:42:18.297           276.353              Murmansk1          8636.031
       424   04 Jun 2027 18:45:32.396   04 Jun 2027 18:45:35.854             3.458                Anadyr2           108.062
       425   04 Jun 2027 18:48:17.076   04 Jun 2027 18:49:13.734            56.658               Magadan1          1770.563
       426   04 Jun 2027 18:50:08.847   04 Jun 2027 18:50:27.776            18.929               Magadan2           591.531
       427   04 Jun 2027 18:51:01.473   04 Jun 2027 18:51:12.850            11.377               Magadan1           355.531
       428   04 Jun 2027 18:55:28.936   04 Jun 2027 18:55:50.458            21.522               Magadan2           672.563
       429   04 Jun 2027 20:21:28.339   04 Jun 2027 20:23:35.104           126.765                Anadyr2          3961.406
       430   04 Jun 2027 20:23:43.949   04 Jun 2027 20:25:12.344            88.395                Anadyr1          2762.344
       431   04 Jun 2027 20:25:39.935   04 Jun 2027 20:26:59.171            79.236               Magadan2          2476.125
       432   04 Jun 2027 20:26:59.171   04 Jun 2027 20:28:54.394           115.223               Magadan1          3600.719
       433   04 Jun 2027 20:34:19.372   04 Jun 2027 20:34:27.596             8.224               Magadan1           257.000
       434   04 Jun 2027 20:34:59.431   04 Jun 2027 20:35:32.519            33.088               Magadan1          1034.000
       435   04 Jun 2027 21:16:29.944   04 Jun 2027 21:18:36.324           126.380            RioGallegos          3949.375
       436   04 Jun 2027 21:18:54.034   04 Jun 2027 21:19:30.574            36.540            RioGallegos          1141.875
       437   04 Jun 2027 21:21:44.866   04 Jun 2027 21:22:19.023            34.157            RioGallegos          1067.406
       438   04 Jun 2027 21:23:02.338   04 Jun 2027 21:23:06.404             4.066            RioGallegos           127.063
       439   04 Jun 2027 21:57:12.234   04 Jun 2027 21:57:41.682            29.448                Anadyr1           920.250
       440   04 Jun 2027 21:59:20.251   04 Jun 2027 22:01:28.809           128.558                Norilsk          4017.438
       441   04 Jun 2027 22:01:40.523   04 Jun 2027 22:02:19.493            38.970                Norilsk          1217.813
       442   04 Jun 2027 22:02:59.034   04 Jun 2027 22:03:07.342             8.308                Norilsk           259.625
       443   04 Jun 2027 22:03:48.396   04 Jun 2027 22:04:58.523            70.127                Irkutsk          2191.469
       444   04 Jun 2027 22:08:24.370   04 Jun 2027 22:09:17.506            53.136                Irkutsk          1660.500
       445   04 Jun 2027 22:17:56.736   04 Jun 2027 22:19:49.312           112.576                Sumatra          3518.000
       446   04 Jun 2027 22:24:03.468   04 Jun 2027 22:24:09.900             6.432                Sumatra           201.000
       447   04 Jun 2027 23:32:13.943   04 Jun 2027 23:33:32.103            78.160                Anadyr2          2442.500
       448   04 Jun 2027 23:34:35.567   04 Jun 2027 23:35:09.343            33.776                Anadyr1          1055.500
       449   04 Jun 2027 23:35:13.351   04 Jun 2027 23:35:38.423            25.072                Norilsk           783.500
       450   04 Jun 2027 23:35:51.844   04 Jun 2027 23:36:07.177            15.333               Magadan1           479.156
       451   04 Jun 2027 23:36:07.177   04 Jun 2027 23:37:37.930            90.753               Magadan2          2836.031
       452   04 Jun 2027 23:39:05.447   04 Jun 2027 23:39:35.521            30.074                Irkutsk           939.813
       453   04 Jun 2027 23:39:56.533   04 Jun 2027 23:40:39.491            42.958                Irkutsk          1342.437
       454   04 Jun 2027 23:40:54.126   04 Jun 2027 23:42:11.625            77.499                Novosib          2421.844
       455   04 Jun 2027 23:47:34.166   04 Jun 2027 23:47:46.753            12.587                Novosib           393.344
       456   04 Jun 2027 23:47:55.508   04 Jun 2027 23:50:42.870           167.362                  Delhi          5230.062
       457   05 Jun 2027 01:06:02.389   05 Jun 2027 01:06:40.844            38.455                Anadyr1          1201.719
       458   05 Jun 2027 01:07:05.253   05 Jun 2027 01:07:45.591            40.338                Anadyr2          1260.562
       459   05 Jun 2027 01:08:24.500   05 Jun 2027 01:08:47.919            23.419                Anadyr1           731.844
       460   05 Jun 2027 01:11:13.819   05 Jun 2027 01:11:24.325            10.506                Norilsk           328.313
       461   05 Jun 2027 01:11:41.224   05 Jun 2027 01:13:28.454           107.230               Magadan2          3350.938
       462   05 Jun 2027 01:13:46.459   05 Jun 2027 01:15:28.565           102.106              Murmansk2          3190.812
       463   05 Jun 2027 01:15:32.722   05 Jun 2027 01:15:50.214            17.492              Murmansk2           546.625
       464   05 Jun 2027 01:16:01.304   05 Jun 2027 01:16:17.356            16.052              Murmansk1           501.625
       465   05 Jun 2027 01:18:18.436   05 Jun 2027 01:18:58.682            40.246                Novosib          1257.687
       466   05 Jun 2027 01:22:23.062   05 Jun 2027 01:22:47.999            24.937                  Delhi           779.281
       467   05 Jun 2027 01:28:11.340   05 Jun 2027 01:28:37.312            25.972                  Delhi           811.625
       468   05 Jun 2027 01:32:03.256   05 Jun 2027 01:32:44.005            40.749                  Delhi          1273.406
       469   05 Jun 2027 02:05:08.247   05 Jun 2027 02:05:57.586            49.339            RioGallegos          1541.844
       470   05 Jun 2027 02:07:17.484   05 Jun 2027 02:07:47.009            29.525            RioGallegos           922.656
       471   05 Jun 2027 02:08:14.343   05 Jun 2027 02:08:41.866            27.523            RioGallegos           860.094
       472   05 Jun 2027 02:39:20.303   05 Jun 2027 02:39:49.014            28.711                Anadyr1           897.219
       473   05 Jun 2027 02:40:43.429   05 Jun 2027 02:42:09.644            86.215                Anadyr1          2694.219
       474   05 Jun 2027 02:45:00.375   05 Jun 2027 02:45:47.479            47.104               Magadan1          1472.000
       475   05 Jun 2027 02:48:52.230   05 Jun 2027 02:49:03.025            10.795                Norilsk           337.344
       476   05 Jun 2027 02:49:21.710   05 Jun 2027 02:50:21.996            60.286              Murmansk2          1883.937
       477   05 Jun 2027 02:50:25.651   05 Jun 2027 02:51:01.943            36.292              Murmansk1          1134.125
       478   05 Jun 2027 02:51:48.900   05 Jun 2027 02:52:27.630            38.730                Novosib          1210.312
       479   05 Jun 2027 02:55:34.934   05 Jun 2027 02:55:40.294             5.360                 Moscow           167.500
       480   05 Jun 2027 02:56:53.247   05 Jun 2027 02:56:59.915             6.668                Novosib           208.375
       481   05 Jun 2027 02:59:56.395   05 Jun 2027 03:00:42.581            46.186                 Moscow          1443.313
       482   05 Jun 2027 03:18:07.290   05 Jun 2027 03:18:17.873            10.583               CapeTown           330.719
