uniorb/output/strategy_4/Drop/Drop_KinoSat_110801.txt

KinoSat_110801
-------------------------
    Access    *     Start Time (UTCG)     *     Stop Time (UTCG)  *   Duration (s)        *       Station  *  Data (Mbytes)
         1   01 Jun 2027 04:15:45.680   01 Jun 2027 04:17:48.430           122.750               Magadan2          3835.938
         2   01 Jun 2027 04:17:50.347   01 Jun 2027 04:18:14.133            23.786                Norilsk           743.312
         3   01 Jun 2027 04:18:32.801   01 Jun 2027 04:20:29.085           116.284                Anadyr1          3633.875
         4   01 Jun 2027 04:58:41.239   01 Jun 2027 05:00:56.571           135.332            RioGallegos          4229.125
         5   01 Jun 2027 05:49:30.861   01 Jun 2027 05:49:39.095             8.234               Magadan2           257.312
         6   01 Jun 2027 05:49:46.870   01 Jun 2027 05:51:00.498            73.628                Irkutsk          2300.875
         7   01 Jun 2027 05:51:26.831   01 Jun 2027 05:55:33.385           246.554                Novosib          7704.812
         8   01 Jun 2027 05:55:44.534   01 Jun 2027 05:56:49.776            65.242                Norilsk          2038.812
         9   01 Jun 2027 05:57:00.319   01 Jun 2027 05:57:46.758            46.439              Murmansk1          1451.219
        10   01 Jun 2027 05:57:49.865   01 Jun 2027 05:58:17.314            27.449                Norilsk           857.781
        11   01 Jun 2027 05:58:39.832   01 Jun 2027 05:58:51.345            11.513                Norilsk           359.781
        12   01 Jun 2027 05:59:57.933   01 Jun 2027 06:00:38.983            41.050              Murmansk2          1282.812
        13   01 Jun 2027 06:31:06.106   01 Jun 2027 06:32:50.670           104.564            RioGallegos          3267.625
        14   01 Jun 2027 07:08:26.539   01 Jun 2027 07:09:00.157            33.618                Sumatra          1050.562
        15   01 Jun 2027 07:11:53.274   01 Jun 2027 07:12:12.686            19.412                Sumatra           606.625
        16   01 Jun 2027 07:25:16.666   01 Jun 2027 07:25:31.438            14.772                Irkutsk           461.625
        17   01 Jun 2027 07:27:05.843   01 Jun 2027 07:29:30.413           144.570               Magadan1          4517.813
        18   01 Jun 2027 07:29:32.872   01 Jun 2027 07:29:49.996            17.124               Magadan1           535.125
        19   01 Jun 2027 07:30:08.311   01 Jun 2027 07:31:25.452            77.141                Novosib          2410.656
        20   01 Jun 2027 07:31:42.162   01 Jun 2027 07:33:19.887            97.725                Novosib          3053.906
        21   01 Jun 2027 07:35:30.114   01 Jun 2027 07:35:47.305            17.191              Murmansk1           537.219
        22   01 Jun 2027 07:36:44.941   01 Jun 2027 07:37:06.188            21.247              Murmansk1           663.969
        23   01 Jun 2027 07:38:10.105   01 Jun 2027 07:38:14.637             4.532              Murmansk1           141.625
        24   01 Jun 2027 07:38:38.429   01 Jun 2027 07:39:02.878            24.449              Murmansk1           764.031
        25   01 Jun 2027 08:07:04.536   01 Jun 2027 08:08:08.528            63.992            RioGallegos          1999.750
        26   01 Jun 2027 08:09:45.091   01 Jun 2027 08:10:31.566            46.475            RioGallegos          1452.344
        27   01 Jun 2027 08:11:25.620   01 Jun 2027 08:12:13.705            48.085            RioGallegos          1502.656
        28   01 Jun 2027 08:41:33.868   01 Jun 2027 08:42:55.099            81.231                Sumatra          2538.469
        29   01 Jun 2027 08:45:35.987   01 Jun 2027 08:46:30.935            54.948                Sumatra          1717.125
        30   01 Jun 2027 08:51:02.603   01 Jun 2027 08:53:36.355           153.752                  Delhi          4804.750
        31   01 Jun 2027 09:04:23.310   01 Jun 2027 09:05:32.097            68.787                Irkutsk          2149.594
        32   01 Jun 2027 09:05:48.689   01 Jun 2027 09:06:06.305            17.616                Irkutsk           550.500
        33   01 Jun 2027 09:06:39.029   01 Jun 2027 09:07:04.745            25.716              Murmansk1           803.625
        34   01 Jun 2027 09:07:10.505   01 Jun 2027 09:10:30.427           199.922                Norilsk          6247.563
        35   01 Jun 2027 09:10:48.560   01 Jun 2027 09:11:59.776            71.216              Murmansk2          2225.500
        36   01 Jun 2027 09:48:53.936   01 Jun 2027 09:50:39.282           105.346            RioGallegos          3292.062
        37   01 Jun 2027 10:26:03.965   01 Jun 2027 10:28:40.327           156.362                  Delhi          4886.313
        38   01 Jun 2027 10:40:53.803   01 Jun 2027 10:42:55.643           121.840                Norilsk          3807.500
        39   01 Jun 2027 10:43:01.563   01 Jun 2027 10:43:59.035            57.472                Novosib          1796.000
        40   01 Jun 2027 10:44:17.025   01 Jun 2027 10:45:10.108            53.083              Murmansk2          1658.844
        41   01 Jun 2027 12:10:50.917   01 Jun 2027 12:12:03.052            72.135                 Moscow          2254.219
        42   01 Jun 2027 12:13:36.911   01 Jun 2027 12:15:08.506            91.595              Murmansk1          2862.344
        43   01 Jun 2027 12:15:49.779   01 Jun 2027 12:16:36.736            46.957              Murmansk2          1467.406
        44   01 Jun 2027 12:17:50.414   01 Jun 2027 12:18:19.015            28.601              Murmansk1           893.781
        45   01 Jun 2027 13:24:18.980   01 Jun 2027 13:29:35.842           316.862               CapeTown          9901.938
        46   01 Jun 2027 13:50:58.313   01 Jun 2027 13:51:39.493            41.180              Murmansk1          1286.875
        47   01 Jun 2027 13:52:03.460   01 Jun 2027 13:52:24.618            21.158              Murmansk1           661.188
        48   01 Jun 2027 14:04:32.094   01 Jun 2027 14:09:01.172           269.078                Anadyr2          8408.688
        49   01 Jun 2027 15:30:44.719   01 Jun 2027 15:31:11.314            26.595              Murmansk1           831.094
        50   01 Jun 2027 15:32:10.818   01 Jun 2027 15:32:30.815            19.997              Murmansk2           624.906
        51   01 Jun 2027 15:32:30.815   01 Jun 2027 15:32:56.776            25.961              Murmansk1           811.281
        52   01 Jun 2027 15:36:17.209   01 Jun 2027 15:36:50.980            33.771              Murmansk2          1055.344
        53   01 Jun 2027 15:40:10.415   01 Jun 2027 15:41:02.124            51.709                Anadyr1          1615.906
        54   01 Jun 2027 15:42:20.674   01 Jun 2027 15:43:12.140            51.466                Anadyr2          1608.312
        55   01 Jun 2027 15:43:17.917   01 Jun 2027 15:46:54.088           216.171               Magadan2          6755.344
        56   01 Jun 2027 15:46:54.088   01 Jun 2027 15:48:00.347            66.259               Magadan1          2070.594
        57   01 Jun 2027 17:16:05.554   01 Jun 2027 17:17:01.853            56.299                Anadyr2          1759.344
        58   01 Jun 2027 17:17:10.462   01 Jun 2027 17:17:25.260            14.798                Anadyr2           462.438
        59   01 Jun 2027 17:18:13.811   01 Jun 2027 17:18:19.801             5.990                Anadyr1           187.188
        60   01 Jun 2027 17:18:36.679   01 Jun 2027 17:19:13.749            37.070                Anadyr1          1158.438
        61   01 Jun 2027 17:21:20.155   01 Jun 2027 17:22:24.731            64.576               Magadan1          2018.000
        62   01 Jun 2027 17:25:32.284   01 Jun 2027 17:25:50.876            18.592               Magadan2           581.000
        63   01 Jun 2027 17:26:11.128   01 Jun 2027 17:26:22.988            11.860               Magadan1           370.625
        64   01 Jun 2027 17:28:18.520   01 Jun 2027 17:29:18.527            60.007               Magadan1          1875.219
        65   01 Jun 2027 18:12:19.357   01 Jun 2027 18:15:01.489           162.132            RioGallegos          5066.625
        66   01 Jun 2027 18:17:40.940   01 Jun 2027 18:17:54.743            13.803            RioGallegos           431.344
        67   01 Jun 2027 18:54:05.848   01 Jun 2027 18:56:50.378           164.530                Norilsk          5141.562
        68   01 Jun 2027 18:57:12.713   01 Jun 2027 18:57:44.142            31.429                Norilsk           982.156
        69   01 Jun 2027 18:59:00.617   01 Jun 2027 19:00:26.355            85.738                Irkutsk          2679.312
        70   01 Jun 2027 19:00:36.821   01 Jun 2027 19:02:27.650           110.829                Irkutsk          3463.406
        71   01 Jun 2027 19:03:22.284   01 Jun 2027 19:03:44.360            22.076                Irkutsk           689.875
        72   01 Jun 2027 19:04:19.209   01 Jun 2027 19:05:35.269            76.060                Irkutsk          2376.875
        73   01 Jun 2027 19:13:56.731   01 Jun 2027 19:16:22.619           145.888                Sumatra          4559.000
        74   01 Jun 2027 19:20:05.085   01 Jun 2027 19:20:48.388            43.303                Sumatra          1353.219
        75   01 Jun 2027 20:34:26.136   01 Jun 2027 20:35:09.771            43.635                Novosib          1363.594
        76   01 Jun 2027 20:36:30.867   01 Jun 2027 20:36:59.510            28.643                Novosib           895.094
        77   01 Jun 2027 20:38:20.293   01 Jun 2027 20:38:36.331            16.038                Novosib           501.188
        78   01 Jun 2027 20:41:39.112   01 Jun 2027 20:42:14.473            35.361                Novosib          1105.031
        79   01 Jun 2027 20:42:44.580   01 Jun 2027 20:43:52.364            67.784                Novosib          2118.250
        80   01 Jun 2027 20:44:25.443   01 Jun 2027 20:45:04.774            39.331                  Delhi          1229.094
        81   01 Jun 2027 20:45:13.307   01 Jun 2027 20:46:17.048            63.741                  Delhi          1991.906
        82   01 Jun 2027 22:06:38.278   01 Jun 2027 22:06:44.677             6.399               Magadan1           199.969
        83   01 Jun 2027 22:06:53.599   01 Jun 2027 22:07:17.447            23.848               Magadan2           745.250
        84   01 Jun 2027 22:08:48.864   01 Jun 2027 22:14:05.898           317.034              Murmansk2          9907.312
        85   01 Jun 2027 23:36:50.452   01 Jun 2027 23:37:08.036            17.584                Anadyr1           549.500
        86   01 Jun 2027 23:39:32.679   01 Jun 2027 23:39:33.477             0.798                Anadyr1            24.938
        87   01 Jun 2027 23:39:48.595   01 Jun 2027 23:40:29.232            40.637                Anadyr2          1269.906
        88   01 Jun 2027 23:40:35.707   01 Jun 2027 23:41:56.983            81.276               Magadan2          2539.875
        89   01 Jun 2027 23:42:14.334   01 Jun 2027 23:43:09.921            55.587               Magadan1          1737.094
        90   01 Jun 2027 23:44:01.228   01 Jun 2027 23:44:51.724            50.496              Murmansk2          1578.000
        91   01 Jun 2027 23:44:51.724   01 Jun 2027 23:46:47.865           116.141              Murmansk1          3629.406
        92   01 Jun 2027 23:46:54.006   01 Jun 2027 23:47:18.448            24.442              Murmansk1           763.812
        93   01 Jun 2027 23:47:48.661   01 Jun 2027 23:48:25.172            36.511                 Moscow          1140.969
        94   01 Jun 2027 23:50:14.615   01 Jun 2027 23:50:30.975            16.360                 Moscow           511.250
        95   01 Jun 2027 23:50:50.564   01 Jun 2027 23:51:07.757            17.193                 Moscow           537.281
        96   01 Jun 2027 23:55:05.174   01 Jun 2027 23:55:14.769             9.595                 Moscow           299.844
        97   01 Jun 2027 23:55:44.497   01 Jun 2027 23:58:05.895           141.398                 Moscow          4418.688
        98   02 Jun 2027 00:13:53.172   02 Jun 2027 00:14:01.551             8.379               CapeTown           261.844
        99   02 Jun 2027 00:15:36.858   02 Jun 2027 00:16:16.870            40.012               CapeTown          1250.375
       100   02 Jun 2027 00:18:00.481   02 Jun 2027 00:19:42.516           102.035               CapeTown          3188.594
       101   02 Jun 2027 01:19:56.210   02 Jun 2027 01:21:07.707            71.497              Murmansk1          2234.281
       102   02 Jun 2027 01:21:07.707   02 Jun 2027 01:22:10.654            62.947              Murmansk2          1967.094
       103   02 Jun 2027 01:26:27.243   02 Jun 2027 01:26:41.834            14.591                 Moscow           455.969
       104   02 Jun 2027 01:26:55.182   02 Jun 2027 01:27:07.682            12.500                 Moscow           390.625
       105   02 Jun 2027 01:28:08.171   02 Jun 2027 01:28:16.762             8.591              Murmansk1           268.469
       106   02 Jun 2027 01:30:31.660   02 Jun 2027 01:30:43.270            11.610                 Moscow           362.813
       107   02 Jun 2027 01:31:44.801   02 Jun 2027 01:32:17.208            32.407                 Moscow          1012.719
       108   02 Jun 2027 01:48:16.846   02 Jun 2027 01:49:25.477            68.631               CapeTown          2144.719
       109   02 Jun 2027 02:43:48.415   02 Jun 2027 02:44:40.973            52.558                Anadyr2          1642.437
       110   02 Jun 2027 02:44:43.716   02 Jun 2027 02:45:56.798            73.082                Anadyr1          2283.812
       111   02 Jun 2027 02:46:06.670   02 Jun 2027 02:47:15.385            68.715               Magadan2          2147.344
       112   02 Jun 2027 02:50:56.059   02 Jun 2027 02:51:07.743            11.684               Magadan2           365.125
       113   02 Jun 2027 02:52:05.818   02 Jun 2027 02:52:08.950             3.132               Magadan2            97.875
       114   02 Jun 2027 02:52:24.326   02 Jun 2027 02:52:57.493            33.167                Norilsk          1036.469
       115   02 Jun 2027 02:55:42.814   02 Jun 2027 02:56:21.155            38.341                Norilsk          1198.156
       116   02 Jun 2027 02:56:50.670   02 Jun 2027 02:57:24.466            33.796              Murmansk2          1056.125
       117   02 Jun 2027 02:58:41.299   02 Jun 2027 02:59:03.441            22.142              Murmansk1           691.938
       118   02 Jun 2027 02:59:09.138   02 Jun 2027 02:59:13.372             4.234              Murmansk2           132.312
       119   02 Jun 2027 02:59:17.812   02 Jun 2027 02:59:56.614            38.802                 Moscow          1212.562
       120   02 Jun 2027 04:27:52.389   02 Jun 2027 04:28:26.743            34.354                Anadyr1          1073.562
       121   02 Jun 2027 04:28:26.743   02 Jun 2027 04:28:52.608            25.865                Anadyr2           808.281
       122   02 Jun 2027 04:29:00.083   02 Jun 2027 04:30:36.848            96.765               Magadan1          3023.906
       123   02 Jun 2027 04:30:44.039   02 Jun 2027 04:30:58.492            14.453                Anadyr1           451.656
       124   02 Jun 2027 04:31:00.134   02 Jun 2027 04:31:20.031            19.897                Norilsk           621.781
       125   02 Jun 2027 05:10:02.506   02 Jun 2027 05:10:13.200            10.694            RioGallegos           334.188
       126   02 Jun 2027 05:11:18.275   02 Jun 2027 05:12:40.025            81.750            RioGallegos          2554.687
       127   02 Jun 2027 06:02:16.344   02 Jun 2027 06:02:34.000            17.656               Magadan2           551.750
       128   02 Jun 2027 06:02:54.803   02 Jun 2027 06:04:00.768            65.965               Magadan1          2061.406
       129   02 Jun 2027 06:04:03.895   02 Jun 2027 06:04:41.318            37.423               Magadan1          1169.469
       130   02 Jun 2027 06:05:00.651   02 Jun 2027 06:06:02.255            61.604                Irkutsk          1925.125
       131   02 Jun 2027 06:06:14.751   02 Jun 2027 06:06:27.446            12.695                Irkutsk           396.719
       132   02 Jun 2027 06:06:32.467   02 Jun 2027 06:06:43.960            11.493               Magadan1           359.156
       133   02 Jun 2027 06:06:57.116   02 Jun 2027 06:07:42.395            45.279                Irkutsk          1414.969
       134   02 Jun 2027 06:07:48.734   02 Jun 2027 06:07:56.192             7.458               Magadan2           233.062
       135   02 Jun 2027 06:08:11.690   02 Jun 2027 06:08:41.405            29.715                Novosib           928.594
       136   02 Jun 2027 06:10:03.703   02 Jun 2027 06:10:31.277            27.574              Murmansk1           861.687
       137   02 Jun 2027 07:39:16.479   02 Jun 2027 07:41:04.023           107.544                Novosib          3360.750
       138   02 Jun 2027 07:42:40.232   02 Jun 2027 07:44:02.183            81.951                Irkutsk          2560.969
       139   02 Jun 2027 07:44:03.377   02 Jun 2027 07:45:26.694            83.317              Murmansk2          2603.656
       140   02 Jun 2027 07:46:07.770   02 Jun 2027 07:46:39.963            32.193              Murmansk2          1006.031
       141   02 Jun 2027 08:19:22.596   02 Jun 2027 08:20:09.218            46.622            RioGallegos          1456.937
       142   02 Jun 2027 08:21:00.314   02 Jun 2027 08:21:13.158            12.844            RioGallegos           401.375
       143   02 Jun 2027 08:21:40.866   02 Jun 2027 08:22:25.166            44.300            RioGallegos          1384.375
       144   02 Jun 2027 08:53:43.915   02 Jun 2027 08:55:24.401           100.486                Sumatra          3140.188
       145   02 Jun 2027 09:16:01.172   02 Jun 2027 09:16:35.309            34.137                Novosib          1066.781
       146   02 Jun 2027 09:16:39.837   02 Jun 2027 09:17:25.517            45.680                Novosib          1427.500
       147   02 Jun 2027 09:17:34.625   02 Jun 2027 09:18:19.977            45.352                Irkutsk          1417.250
       148   02 Jun 2027 09:18:38.379   02 Jun 2027 09:19:18.761            40.382                Irkutsk          1261.938
       149   02 Jun 2027 09:19:57.816   02 Jun 2027 09:20:00.037             2.221                Novosib            69.406
       150   02 Jun 2027 09:20:04.471   02 Jun 2027 09:20:40.238            35.767                Novosib          1117.719
       151   02 Jun 2027 10:38:24.716   02 Jun 2027 10:40:28.786           124.070                  Delhi          3877.188
       152   02 Jun 2027 10:41:49.856   02 Jun 2027 10:42:21.340            31.484                  Delhi           983.875
       153   02 Jun 2027 10:53:03.422   02 Jun 2027 10:53:10.808             7.386                Novosib           230.813
       154   02 Jun 2027 10:55:01.782   02 Jun 2027 10:55:04.528             2.746                Novosib            85.812
       155   02 Jun 2027 10:55:27.559   02 Jun 2027 10:55:30.458             2.899                Norilsk            90.594
       156   02 Jun 2027 12:25:42.642   02 Jun 2027 12:28:28.702           166.060              Murmansk2          5189.375
       157   02 Jun 2027 12:28:28.702   02 Jun 2027 12:28:56.536            27.834              Murmansk1           869.813
       158   02 Jun 2027 12:29:18.620   02 Jun 2027 12:29:43.846            25.226              Murmansk1           788.312
       159   02 Jun 2027 12:31:21.325   02 Jun 2027 12:32:40.281            78.956                Norilsk          2467.375
       160   02 Jun 2027 12:32:52.014   02 Jun 2027 12:33:22.397            30.383                Norilsk           949.469
       161   02 Jun 2027 12:43:09.630   02 Jun 2027 12:44:33.942            84.312                Anadyr2          2634.750
       162   02 Jun 2027 13:36:04.557   02 Jun 2027 13:37:41.033            96.476               CapeTown          3014.875
       163   02 Jun 2027 13:38:10.916   02 Jun 2027 13:39:24.167            73.251               CapeTown          2289.094
       164   02 Jun 2027 14:03:19.361   02 Jun 2027 14:03:36.258            16.897              Murmansk1           528.031
       165   02 Jun 2027 14:03:37.722   02 Jun 2027 14:04:56.074            78.352              Murmansk2          2448.500
       166   02 Jun 2027 14:06:32.466   02 Jun 2027 14:07:04.305            31.839              Murmansk1           994.969
       167   02 Jun 2027 14:08:14.148   02 Jun 2027 14:08:40.943            26.795              Murmansk2           837.344
       168   02 Jun 2027 14:10:48.528   02 Jun 2027 14:11:21.072            32.544              Murmansk2          1017.000
       169   02 Jun 2027 14:16:28.841   02 Jun 2027 14:18:36.570           127.729                Anadyr1          3991.531
       170   02 Jun 2027 14:19:03.727   02 Jun 2027 14:19:31.467            27.740                Anadyr2           866.875
       171   02 Jun 2027 14:23:51.432   02 Jun 2027 14:24:45.293            53.861                Anadyr2          1683.156
       172   02 Jun 2027 15:43:30.398   02 Jun 2027 15:44:32.573            62.175              Murmansk2          1942.969
       173   02 Jun 2027 15:46:08.803   02 Jun 2027 15:47:36.044            87.241              Murmansk1          2726.281
       174   02 Jun 2027 15:52:11.356   02 Jun 2027 15:52:51.111            39.755                Anadyr2          1242.344
       175   02 Jun 2027 15:54:21.282   02 Jun 2027 15:55:21.210            59.928                Anadyr1          1872.750
       176   02 Jun 2027 15:55:56.229   02 Jun 2027 16:00:22.175           265.946               Magadan1          8310.813
       177   02 Jun 2027 16:01:55.460   02 Jun 2027 16:02:16.388            20.928               Magadan2           654.000
       178   02 Jun 2027 17:28:06.749   02 Jun 2027 17:28:46.821            40.072                Anadyr1          1252.250
       179   02 Jun 2027 17:28:56.794   02 Jun 2027 17:29:04.240             7.446                Anadyr1           232.687
       180   02 Jun 2027 17:30:24.631   02 Jun 2027 17:32:29.767           125.136               Magadan2          3910.500
       181   02 Jun 2027 17:33:43.936   02 Jun 2027 17:33:51.532             7.596               Magadan2           237.375
       182   02 Jun 2027 17:34:02.371   02 Jun 2027 17:36:24.990           142.619               Magadan1          4456.844
       183   02 Jun 2027 18:23:39.086   02 Jun 2027 18:26:47.244           188.158            RioGallegos          5879.937
       184   02 Jun 2027 19:06:03.313   02 Jun 2027 19:10:08.505           245.192                Norilsk          7662.250
       185   02 Jun 2027 19:10:43.068   02 Jun 2027 19:11:12.930            29.862                Irkutsk           933.187
       186   02 Jun 2027 19:11:35.473   02 Jun 2027 19:12:52.281            76.808                Irkutsk          2400.250
       187   02 Jun 2027 19:14:07.394   02 Jun 2027 19:14:20.161            12.767                Irkutsk           398.969
       188   02 Jun 2027 19:25:11.166   02 Jun 2027 19:27:23.252           132.086                Sumatra          4127.688
       189   02 Jun 2027 19:29:32.649   02 Jun 2027 19:30:43.218            70.569                Sumatra          2205.281
       190   02 Jun 2027 19:31:57.716   02 Jun 2027 19:32:38.791            41.075                Sumatra          1283.594
       191   02 Jun 2027 20:46:16.034   02 Jun 2027 20:47:01.435            45.401                Novosib          1418.781
       192   02 Jun 2027 20:47:39.609   02 Jun 2027 20:47:57.545            17.936                Novosib           560.500
       193   02 Jun 2027 20:48:44.742   02 Jun 2027 20:49:00.436            15.694                Novosib           490.437
       194   02 Jun 2027 20:49:21.805   02 Jun 2027 20:50:05.848            44.043                Novosib          1376.344
       195   02 Jun 2027 20:55:19.798   02 Jun 2027 20:57:55.642           155.844                  Delhi          4870.125
       196   02 Jun 2027 21:01:23.923   02 Jun 2027 21:03:09.705           105.782                  Delhi          3305.687
       197   02 Jun 2027 22:20:36.905   02 Jun 2027 22:24:27.614           230.709              Murmansk2          7209.656
       198   02 Jun 2027 22:24:51.731   02 Jun 2027 22:26:57.984           126.253              Murmansk1          3945.406
       199   02 Jun 2027 23:53:50.907   02 Jun 2027 23:54:08.815            17.908               Magadan2           559.625
       200   02 Jun 2027 23:54:36.281   02 Jun 2027 23:54:43.443             7.162               Magadan2           223.813
       201   02 Jun 2027 23:55:10.791   02 Jun 2027 23:55:24.708            13.917               Magadan2           434.906
       202   02 Jun 2027 23:56:01.650   02 Jun 2027 23:57:41.946           100.296              Murmansk1          3134.250
       203   02 Jun 2027 23:58:46.898   03 Jun 2027 00:00:05.658            78.760              Murmansk2          2461.250
       204   03 Jun 2027 00:00:29.707   03 Jun 2027 00:03:00.792           151.085                 Moscow          4721.406
       205   03 Jun 2027 00:25:10.139   03 Jun 2027 00:27:55.761           165.622               CapeTown          5175.688
       206   03 Jun 2027 00:31:37.723   03 Jun 2027 00:32:23.274            45.551               CapeTown          1423.469
       207   03 Jun 2027 01:29:18.642   03 Jun 2027 01:29:36.765            18.123                Norilsk           566.344
       208   03 Jun 2027 01:31:14.319   03 Jun 2027 01:31:39.337            25.018               Magadan1           781.813
       209   03 Jun 2027 01:31:57.910   03 Jun 2027 01:33:00.566            62.656              Murmansk2          1958.000
       210   03 Jun 2027 01:33:00.566   03 Jun 2027 01:33:27.823            27.257              Murmansk1           851.781
       211   03 Jun 2027 01:35:07.118   03 Jun 2027 01:35:23.032            15.914              Murmansk1           497.312
       212   03 Jun 2027 01:35:30.400   03 Jun 2027 01:35:54.057            23.657                 Moscow           739.281
       213   03 Jun 2027 01:36:39.095   03 Jun 2027 01:37:17.698            38.603                 Moscow          1206.344
       214   03 Jun 2027 01:43:55.688   03 Jun 2027 01:44:32.022            36.334                 Moscow          1135.438
       215   03 Jun 2027 01:59:06.894   03 Jun 2027 01:59:53.292            46.398               CapeTown          1449.938
       216   03 Jun 2027 02:05:59.416   03 Jun 2027 02:07:28.117            88.701               CapeTown          2771.906
       217   03 Jun 2027 02:55:53.990   03 Jun 2027 02:56:15.020            21.030                Anadyr2           657.187
       218   03 Jun 2027 02:56:15.020   03 Jun 2027 02:56:37.357            22.337                Anadyr1           698.031
       219   03 Jun 2027 02:57:00.450   03 Jun 2027 02:58:06.799            66.349               Magadan2          2073.406
       220   03 Jun 2027 02:58:06.799   03 Jun 2027 02:58:11.054             4.255               Magadan1           132.969
       221   03 Jun 2027 02:58:29.416   03 Jun 2027 02:58:40.581            11.165               Magadan1           348.906
       222   03 Jun 2027 02:59:36.489   03 Jun 2027 03:00:05.728            29.239               Magadan2           913.719
       223   03 Jun 2027 03:01:28.282   03 Jun 2027 03:01:54.386            26.104               Magadan2           815.750
       224   03 Jun 2027 03:02:07.167   03 Jun 2027 03:02:58.425            51.258               Magadan1          1601.812
       225   03 Jun 2027 03:02:58.756   03 Jun 2027 03:04:36.506            97.750                Anadyr2          3054.687
       226   03 Jun 2027 03:05:34.278   03 Jun 2027 03:05:34.466             0.188                Anadyr2             5.875
       227   03 Jun 2027 04:38:41.212   03 Jun 2027 04:39:08.249            27.037                Irkutsk           844.906
       228   03 Jun 2027 04:41:34.160   03 Jun 2027 04:42:36.920            62.760               Magadan2          1961.250
       229   03 Jun 2027 04:43:03.636   03 Jun 2027 04:43:22.130            18.494               Magadan2           577.937
       230   03 Jun 2027 06:14:39.321   03 Jun 2027 06:14:53.227            13.906               Magadan1           434.562
       231   03 Jun 2027 06:16:02.018   03 Jun 2027 06:16:36.758            34.740               Magadan2          1085.625
       232   03 Jun 2027 06:16:57.906   03 Jun 2027 06:18:04.470            66.564               Magadan1          2080.125
       233   03 Jun 2027 06:18:56.333   03 Jun 2027 06:19:01.221             4.888               Magadan1           152.750
       234   03 Jun 2027 06:19:18.444   03 Jun 2027 06:19:40.374            21.930               Magadan2           685.313
       235   03 Jun 2027 06:19:43.639   03 Jun 2027 06:20:22.796            39.157                Norilsk          1223.656
       236   03 Jun 2027 06:20:42.745   03 Jun 2027 06:20:52.416             9.671                Novosib           302.219
       237   03 Jun 2027 07:52:09.130   03 Jun 2027 07:53:10.571            61.441                Novosib          1920.031
       238   03 Jun 2027 07:53:25.759   03 Jun 2027 07:54:34.412            68.653                Irkutsk          2145.406
       239   03 Jun 2027 07:54:53.949   03 Jun 2027 07:55:09.120            15.171                Irkutsk           474.094
       240   03 Jun 2027 07:55:53.332   03 Jun 2027 07:56:02.925             9.593                Irkutsk           299.781
       241   03 Jun 2027 08:31:45.226   03 Jun 2027 08:32:13.276            28.050            RioGallegos           876.562
       242   03 Jun 2027 08:32:17.690   03 Jun 2027 08:33:19.758            62.068            RioGallegos          1939.625
       243   03 Jun 2027 09:06:00.485   03 Jun 2027 09:07:13.176            72.691                Sumatra          2271.594
       244   03 Jun 2027 09:30:42.887   03 Jun 2027 09:31:11.547            28.660                Norilsk           895.625
       245   03 Jun 2027 09:31:36.043   03 Jun 2027 09:31:51.591            15.548                Novosib           485.875
       246   03 Jun 2027 10:50:53.368   03 Jun 2027 10:53:55.775           182.407                  Delhi          5700.219
       247   03 Jun 2027 11:07:02.927   03 Jun 2027 11:07:26.540            23.613                Norilsk           737.906
       248   03 Jun 2027 12:34:18.582   03 Jun 2027 12:34:41.947            23.365                 Moscow           730.156
       249   03 Jun 2027 12:35:33.263   03 Jun 2027 12:35:47.870            14.607                 Moscow           456.469
       250   03 Jun 2027 12:35:54.466   03 Jun 2027 12:36:42.869            48.403                 Moscow          1512.594
       251   03 Jun 2027 12:37:26.014   03 Jun 2027 12:38:24.207            58.193                 Moscow          1818.531
       252   03 Jun 2027 12:38:29.609   03 Jun 2027 12:38:58.597            28.988                 Moscow           905.875
       253   03 Jun 2027 12:39:07.064   03 Jun 2027 12:39:14.185             7.121              Murmansk1           222.531
       254   03 Jun 2027 12:40:15.986   03 Jun 2027 12:40:58.233            42.247              Murmansk1          1320.219
       255   03 Jun 2027 12:42:28.524   03 Jun 2027 12:42:29.651             1.127              Murmansk1            35.219
       256   03 Jun 2027 12:44:24.496   03 Jun 2027 12:45:26.210            61.714                Norilsk          1928.562
       257   03 Jun 2027 12:46:27.780   03 Jun 2027 12:46:46.557            18.777                Norilsk           586.781
       258   03 Jun 2027 12:54:02.957   03 Jun 2027 12:57:13.733           190.776                Anadyr2          5961.750
       259   03 Jun 2027 12:57:17.209   03 Jun 2027 12:58:22.560            65.351                Anadyr1          2042.219
       260   03 Jun 2027 13:50:31.422   03 Jun 2027 13:51:09.481            38.059               CapeTown          1189.344
       261   03 Jun 2027 14:15:42.703   03 Jun 2027 14:15:49.673             6.970              Murmansk1           217.812
       262   03 Jun 2027 14:16:27.788   03 Jun 2027 14:17:16.712            48.924              Murmansk2          1528.875
       263   03 Jun 2027 14:19:01.155   03 Jun 2027 14:19:31.349            30.194              Murmansk1           943.563
       264   03 Jun 2027 14:20:29.844   03 Jun 2027 14:20:41.812            11.968              Murmansk1           374.000
       265   03 Jun 2027 14:28:26.583   03 Jun 2027 14:30:25.890           119.307                Anadyr2          3728.344
       266   03 Jun 2027 14:31:03.200   03 Jun 2027 14:32:43.102            99.902                Anadyr1          3121.937
       267   03 Jun 2027 15:56:22.185   03 Jun 2027 15:58:05.112           102.927              Murmansk2          3216.469
       268   03 Jun 2027 15:58:16.275   03 Jun 2027 15:58:30.502            14.227              Murmansk2           444.594
       269   03 Jun 2027 16:04:12.473   03 Jun 2027 16:06:03.597           111.124                Anadyr2          3472.625
       270   03 Jun 2027 16:06:18.010   03 Jun 2027 16:06:55.274            37.264                Anadyr2          1164.500
       271   03 Jun 2027 16:06:58.584   03 Jun 2027 16:10:51.607           233.023               Magadan1          7281.969
       272   03 Jun 2027 16:14:13.010   03 Jun 2027 16:14:18.066             5.056               Magadan1           158.000
       273   03 Jun 2027 17:40:07.809   03 Jun 2027 17:41:55.448           107.639                Anadyr2          3363.719
       274   03 Jun 2027 17:42:24.924   03 Jun 2027 17:44:10.392           105.468               Magadan1          3295.875
       275   03 Jun 2027 17:44:24.646   03 Jun 2027 17:45:29.308            64.662               Magadan1          2020.687
       276   03 Jun 2027 18:35:12.625   03 Jun 2027 18:39:26.212           253.587            RioGallegos          7924.594
       277   03 Jun 2027 18:39:51.767   03 Jun 2027 18:40:26.831            35.064            RioGallegos          1095.750
       278   03 Jun 2027 18:41:45.038   03 Jun 2027 18:41:53.520             8.482            RioGallegos           265.062
       279   03 Jun 2027 19:18:23.871   03 Jun 2027 19:19:14.530            50.659               Magadan1          1583.094
       280   03 Jun 2027 19:19:25.707   03 Jun 2027 19:22:08.974           163.267                Norilsk          5102.094
       281   03 Jun 2027 19:22:29.988   03 Jun 2027 19:24:58.336           148.348                Irkutsk          4635.875
       282   03 Jun 2027 19:26:12.351   03 Jun 2027 19:26:14.654             2.303                Irkutsk            71.969
       283   03 Jun 2027 19:36:38.368   03 Jun 2027 19:39:55.980           197.612                Sumatra          6175.375
       284   03 Jun 2027 19:41:51.105   03 Jun 2027 19:42:40.260            49.155                Sumatra          1536.094
       285   03 Jun 2027 20:57:45.326   03 Jun 2027 20:59:10.296            84.970                Irkutsk          2655.312
       286   03 Jun 2027 20:59:21.064   03 Jun 2027 20:59:32.051            10.987                Novosib           343.344
       287   03 Jun 2027 20:59:49.066   03 Jun 2027 21:00:49.397            60.331                Novosib          1885.344
       288   03 Jun 2027 21:06:38.202   03 Jun 2027 21:06:47.346             9.144                  Delhi           285.750
       289   03 Jun 2027 21:07:06.128   03 Jun 2027 21:09:40.254           154.126                  Delhi          4816.437
       290   03 Jun 2027 21:13:33.609   03 Jun 2027 21:14:00.449            26.840                  Delhi           838.750
       291   03 Jun 2027 22:32:29.064   03 Jun 2027 22:39:43.867           434.803              Murmansk2         13587.594
       292   04 Jun 2027 00:04:46.476   04 Jun 2027 00:04:53.230             6.754               Magadan2           211.063
       293   04 Jun 2027 00:05:29.210   04 Jun 2027 00:05:59.828            30.618               Magadan2           956.812
       294   04 Jun 2027 00:06:35.029   04 Jun 2027 00:07:12.207            37.178               Magadan1          1161.813
       295   04 Jun 2027 00:08:02.427   04 Jun 2027 00:08:50.947            48.520              Murmansk1          1516.250
       296   04 Jun 2027 00:08:57.786   04 Jun 2027 00:09:51.860            54.074              Murmansk2          1689.813
       297   04 Jun 2027 00:11:21.735   04 Jun 2027 00:12:13.273            51.538              Murmansk2          1610.562
       298   04 Jun 2027 00:12:19.904   04 Jun 2027 00:14:04.068           104.164                 Moscow          3255.125
       299   04 Jun 2027 00:18:59.907   04 Jun 2027 00:19:12.044            12.137                 Moscow           379.281
       300   04 Jun 2027 00:19:29.172   04 Jun 2027 00:19:44.745            15.573                 Moscow           486.656
       301   04 Jun 2027 00:36:35.949   04 Jun 2027 00:37:54.953            79.004               CapeTown          2468.875
       302   04 Jun 2027 00:38:46.411   04 Jun 2027 00:39:40.201            53.790               CapeTown          1680.937
       303   04 Jun 2027 00:42:12.555   04 Jun 2027 00:43:14.365            61.810               CapeTown          1931.562
       304   04 Jun 2027 01:37:35.396   04 Jun 2027 01:37:47.415            12.019               Magadan1           375.594
       305   04 Jun 2027 01:40:09.517   04 Jun 2027 01:40:37.742            28.225               Magadan2           882.031
       306   04 Jun 2027 01:42:43.854   04 Jun 2027 01:43:07.571            23.717               Magadan2           741.156
       307   04 Jun 2027 01:43:59.600   04 Jun 2027 01:45:29.370            89.770              Murmansk2          2805.313
       308   04 Jun 2027 01:46:57.643   04 Jun 2027 01:47:38.434            40.791                Novosib          1274.719
       309   04 Jun 2027 01:48:47.353   04 Jun 2027 01:50:28.128           100.775                 Moscow          3149.219
       310   04 Jun 2027 02:15:42.759   04 Jun 2027 02:16:28.880            46.121               CapeTown          1441.281
       311   04 Jun 2027 02:21:23.029   04 Jun 2027 02:22:19.357            56.328               CapeTown          1760.250
       312   04 Jun 2027 03:10:54.693   04 Jun 2027 03:11:20.242            25.549               Magadan1           798.406
       313   04 Jun 2027 03:13:56.085   04 Jun 2027 03:16:40.037           163.952                Anadyr2          5123.500
       314   04 Jun 2027 03:16:40.037   04 Jun 2027 03:17:34.939            54.902                Anadyr1          1715.687
       315   04 Jun 2027 03:17:39.689   04 Jun 2027 03:17:41.430             1.741                Anadyr1            54.406
       316   04 Jun 2027 03:17:43.559   04 Jun 2027 03:17:49.869             6.310               Magadan2           197.188
       317   04 Jun 2027 03:18:08.475   04 Jun 2027 03:18:19.770            11.295               Magadan1           352.969
       318   04 Jun 2027 03:18:21.776   04 Jun 2027 03:18:50.400            28.624                Anadyr1           894.500
       319   04 Jun 2027 03:19:23.487   04 Jun 2027 03:19:29.498             6.011                Anadyr2           187.844
       320   04 Jun 2027 03:19:43.382   04 Jun 2027 03:19:59.067            15.685               Magadan1           490.156
       321   04 Jun 2027 04:54:08.762   04 Jun 2027 04:54:16.714             7.952                Anadyr2           248.500
       322   04 Jun 2027 04:54:16.714   04 Jun 2027 04:54:29.813            13.099                Anadyr1           409.344
       323   04 Jun 2027 04:54:36.250   04 Jun 2027 04:55:08.024            31.774                Anadyr1           992.938
       324   04 Jun 2027 06:26:47.303   04 Jun 2027 06:27:40.278            52.975               Magadan1          1655.469
       325   04 Jun 2027 06:27:55.208   04 Jun 2027 06:27:59.217             4.009               Magadan1           125.281
       326   04 Jun 2027 06:28:05.949   04 Jun 2027 06:28:07.330             1.381               Magadan1            43.156
       327   04 Jun 2027 06:28:30.612   04 Jun 2027 06:28:34.528             3.916               Magadan2           122.375
       328   04 Jun 2027 06:29:53.520   04 Jun 2027 06:30:07.573            14.053               Magadan1           439.156
       329   04 Jun 2027 06:30:59.390   04 Jun 2027 06:31:37.800            38.410                Norilsk          1200.312
       330   04 Jun 2027 06:31:43.701   04 Jun 2027 06:32:16.244            32.543                Norilsk          1016.969
       331   04 Jun 2027 08:02:31.212   04 Jun 2027 08:02:35.480             4.268                Irkutsk           133.375
       332   04 Jun 2027 08:03:59.852   04 Jun 2027 08:04:14.302            14.450                Irkutsk           451.562
       333   04 Jun 2027 08:04:53.003   04 Jun 2027 08:05:16.280            23.277                Irkutsk           727.406
       334   04 Jun 2027 08:05:31.604   04 Jun 2027 08:06:26.546            54.942                Irkutsk          1716.937
       335   04 Jun 2027 08:06:38.978   04 Jun 2027 08:07:04.637            25.659                Irkutsk           801.844
       336   04 Jun 2027 08:07:32.295   04 Jun 2027 08:07:54.501            22.206                Novosib           693.937
       337   04 Jun 2027 08:44:13.015   04 Jun 2027 08:44:20.826             7.811            RioGallegos           244.094
       338   04 Jun 2027 08:45:25.394   04 Jun 2027 08:46:08.890            43.496            RioGallegos          1359.250
       339   04 Jun 2027 08:48:26.175   04 Jun 2027 08:48:49.991            23.816            RioGallegos           744.250
       340   04 Jun 2027 09:18:24.868   04 Jun 2027 09:19:07.845            42.977                Sumatra          1343.031
       341   04 Jun 2027 09:21:47.076   04 Jun 2027 09:22:11.881            24.805                Sumatra           775.156
       342   04 Jun 2027 09:42:32.296   04 Jun 2027 09:42:32.872             0.576                Novosib            18.000
       343   04 Jun 2027 09:42:49.707   04 Jun 2027 09:43:06.880            17.173                Novosib           536.656
       344   04 Jun 2027 09:43:14.752   04 Jun 2027 09:43:18.151             3.399                Novosib           106.219
       345   04 Jun 2027 09:43:48.104   04 Jun 2027 09:43:49.810             1.706                Novosib            53.312
       346   04 Jun 2027 11:03:32.136   04 Jun 2027 11:06:28.453           176.317                  Delhi          5509.906
       347   04 Jun 2027 11:16:51.303   04 Jun 2027 11:16:58.476             7.173                Novosib           224.156
       348   04 Jun 2027 11:17:45.148   04 Jun 2027 11:17:54.168             9.020                Novosib           281.875
       349   04 Jun 2027 11:21:20.978   04 Jun 2027 11:21:26.872             5.894                Norilsk           184.188
       350   04 Jun 2027 12:46:29.056   04 Jun 2027 12:47:14.207            45.151                 Moscow          1410.969
       351   04 Jun 2027 12:48:48.651   04 Jun 2027 12:49:25.095            36.444                 Moscow          1138.875
       352   04 Jun 2027 12:49:59.220   04 Jun 2027 12:51:53.720           114.500              Murmansk1          3578.125
       353   04 Jun 2027 12:52:59.935   04 Jun 2027 12:53:08.814             8.879              Murmansk1           277.469
       354   04 Jun 2027 12:54:30.005   04 Jun 2027 12:54:48.867            18.862              Murmansk1           589.437
       355   04 Jun 2027 12:54:52.714   04 Jun 2027 12:55:17.088            24.374              Murmansk1           761.688
       356   04 Jun 2027 12:58:07.682   04 Jun 2027 12:58:53.596            45.914                Norilsk          1434.813
       357   04 Jun 2027 13:05:35.262   04 Jun 2027 13:07:49.513           134.251                Anadyr2          4195.344
       358   04 Jun 2027 13:59:47.914   04 Jun 2027 14:00:53.938            66.024               CapeTown          2063.250
       359   04 Jun 2027 14:28:08.454   04 Jun 2027 14:29:09.480            61.026              Murmansk1          1907.062
       360   04 Jun 2027 14:30:58.623   04 Jun 2027 14:31:14.020            15.397              Murmansk1           481.156
       361   04 Jun 2027 14:32:42.191   04 Jun 2027 14:32:52.281            10.090              Murmansk2           315.313
       362   04 Jun 2027 14:32:59.413   04 Jun 2027 14:33:47.707            48.294              Murmansk1          1509.187
       363   04 Jun 2027 14:40:25.120   04 Jun 2027 14:42:18.203           113.083                Anadyr2          3533.844
       364   04 Jun 2027 14:43:02.210   04 Jun 2027 14:44:26.880            84.670                Anadyr1          2645.938
       365   04 Jun 2027 15:36:28.946   04 Jun 2027 15:37:10.322            41.376               CapeTown          1293.000
       366   04 Jun 2027 15:39:04.471   04 Jun 2027 15:39:13.376             8.905               CapeTown           278.281
       367   04 Jun 2027 16:09:23.667   04 Jun 2027 16:11:57.982           154.315              Murmansk1          4822.344
       368   04 Jun 2027 16:16:13.706   04 Jun 2027 16:17:46.988            93.282                Anadyr2          2915.063
       369   04 Jun 2027 16:18:13.031   04 Jun 2027 16:18:50.436            37.405                Anadyr1          1168.906
       370   04 Jun 2027 16:18:52.361   04 Jun 2027 16:22:49.200           236.839               Magadan2          7401.219
       371   04 Jun 2027 17:52:08.699   04 Jun 2027 17:54:43.467           154.768                Anadyr1          4836.500
       372   04 Jun 2027 17:54:56.880   04 Jun 2027 17:57:30.590           153.710               Magadan2          4803.438
       373   04 Jun 2027 17:59:58.430   04 Jun 2027 18:00:04.245             5.815               Magadan1           181.719
       374   04 Jun 2027 18:46:53.675   04 Jun 2027 18:53:12.936           379.261            RioGallegos         11851.906
       375   04 Jun 2027 19:31:19.774   04 Jun 2027 19:34:09.839           170.065                Norilsk          5314.531
       376   04 Jun 2027 19:34:20.142   04 Jun 2027 19:34:56.028            35.886                Irkutsk          1121.437
       377   04 Jun 2027 19:35:38.350   04 Jun 2027 19:35:57.027            18.677                Irkutsk           583.656
       378   04 Jun 2027 19:37:05.318   04 Jun 2027 19:37:25.936            20.618                Irkutsk           644.313
       379   04 Jun 2027 19:48:14.760   04 Jun 2027 19:51:51.641           216.881                Sumatra          6777.531
       380   04 Jun 2027 19:52:38.774   04 Jun 2027 19:53:58.496            79.722                Sumatra          2491.313
       381   04 Jun 2027 21:10:02.717   04 Jun 2027 21:10:06.699             3.982                Novosib           124.437
       382   04 Jun 2027 21:11:55.374   04 Jun 2027 21:12:54.573            59.199                Novosib          1849.969
       383   04 Jun 2027 21:18:00.107   04 Jun 2027 21:18:14.146            14.039                Novosib           438.719
       384   04 Jun 2027 21:18:43.716   04 Jun 2027 21:21:29.665           165.949                  Delhi          5185.906
       385   04 Jun 2027 21:24:11.533   04 Jun 2027 21:24:54.100            42.567                  Delhi          1330.219
       386   04 Jun 2027 22:42:09.850   04 Jun 2027 22:43:02.264            52.414                Norilsk          1637.938
       387   04 Jun 2027 22:43:53.514   04 Jun 2027 22:44:00.707             7.193               Magadan2           224.781
       388   04 Jun 2027 22:44:23.786   04 Jun 2027 22:48:23.913           240.127              Murmansk2          7503.969
       389   04 Jun 2027 22:49:46.643   04 Jun 2027 22:50:15.377            28.734              Murmansk1           897.938
       390   04 Jun 2027 22:50:30.384   04 Jun 2027 22:54:24.128           233.744                 Moscow          7304.500
       391   05 Jun 2027 00:20:03.485   05 Jun 2027 00:21:40.218            96.733              Murmansk2          3022.906
       392   05 Jun 2027 00:22:43.593   05 Jun 2027 00:23:23.307            39.714              Murmansk2          1241.063
       393   05 Jun 2027 00:23:30.075   05 Jun 2027 00:24:07.445            37.370                 Moscow          1167.813
       394   05 Jun 2027 00:24:54.314   05 Jun 2027 00:25:29.014            34.700                 Moscow          1084.375
       395   05 Jun 2027 00:25:45.737   05 Jun 2027 00:25:46.438             0.701                 Moscow            21.906
       396   05 Jun 2027 00:26:29.851   05 Jun 2027 00:26:36.821             6.970                 Moscow           217.813
       397   05 Jun 2027 00:27:28.386   05 Jun 2027 00:28:55.817            87.431                 Moscow          2732.219
       398   05 Jun 2027 00:31:37.814   05 Jun 2027 00:31:45.869             8.055                 Moscow           251.719
       399   05 Jun 2027 00:48:08.896   05 Jun 2027 00:49:16.529            67.633               CapeTown          2113.531
       400   05 Jun 2027 00:49:53.879   05 Jun 2027 00:51:05.732            71.853               CapeTown          2245.406
       401   05 Jun 2027 01:46:51.853   05 Jun 2027 01:47:53.215            61.362               Magadan2          1917.562
       402   05 Jun 2027 01:48:11.444   05 Jun 2027 01:48:17.997             6.553               Magadan2           204.781
       403   05 Jun 2027 01:51:28.396   05 Jun 2027 01:51:48.998            20.602               Magadan1           643.812
       404   05 Jun 2027 01:52:07.178   05 Jun 2027 01:52:11.404             4.226               Magadan2           132.062
       405   05 Jun 2027 01:53:29.797   05 Jun 2027 01:53:41.586            11.789                Norilsk           368.406
       406   05 Jun 2027 01:54:28.083   05 Jun 2027 01:54:35.248             7.165               Magadan1           223.906
       407   05 Jun 2027 01:54:45.629   05 Jun 2027 01:54:59.109            13.480               Magadan2           421.250
       408   05 Jun 2027 01:56:01.250   05 Jun 2027 01:57:31.021            89.771              Murmansk2          2805.344
       409   05 Jun 2027 01:59:02.863   05 Jun 2027 01:59:21.336            18.473              Murmansk1           577.281
       410   05 Jun 2027 01:59:23.905   05 Jun 2027 01:59:34.586            10.681                Novosib           333.781
       411   05 Jun 2027 01:59:47.414   05 Jun 2027 02:00:05.954            18.540                 Moscow           579.375
       412   05 Jun 2027 02:02:24.346   05 Jun 2027 02:02:54.001            29.655                 Moscow           926.719
       413   05 Jun 2027 02:09:49.352   05 Jun 2027 02:10:21.023            31.671                 Moscow           989.719
       414   05 Jun 2027 02:23:32.628   05 Jun 2027 02:24:43.508            70.880               CapeTown          2215.000
       415   05 Jun 2027 03:21:54.654   05 Jun 2027 03:22:46.026            51.372                Anadyr1          1605.375
       416   05 Jun 2027 03:25:52.430   05 Jun 2027 03:27:46.349           113.919               Magadan1          3559.969
       417   05 Jun 2027 03:27:46.349   05 Jun 2027 03:28:01.772            15.423               Magadan2           481.969
       418   05 Jun 2027 03:28:17.191   05 Jun 2027 03:30:14.266           117.075               Magadan2          3658.594
       419   05 Jun 2027 03:30:14.266   05 Jun 2027 03:31:20.953            66.687               Magadan1          2083.969
       420   05 Jun 2027 03:31:20.953   05 Jun 2027 03:32:25.423            64.470               Magadan2          2014.688
       421   05 Jun 2027 03:32:28.257   05 Jun 2027 03:32:41.623            13.366                Anadyr2           417.688
       422   05 Jun 2027 05:05:21.384   05 Jun 2027 05:06:04.143            42.759                Irkutsk          1336.219
       423   05 Jun 2027 05:06:17.293   05 Jun 2027 05:07:05.207            47.914                Anadyr1          1497.312
       424   05 Jun 2027 06:38:21.184   05 Jun 2027 06:38:36.255            15.071               Magadan2           470.969
       425   05 Jun 2027 06:38:58.059   05 Jun 2027 06:39:41.516            43.457               Magadan2          1358.031
       426   05 Jun 2027 06:40:04.873   05 Jun 2027 06:40:08.267             3.394               Magadan1           106.063
       427   05 Jun 2027 06:40:10.541   05 Jun 2027 06:40:34.692            24.151               Magadan2           754.719
       428   05 Jun 2027 06:40:34.692   05 Jun 2027 06:40:37.382             2.690               Magadan1            84.062
       429   05 Jun 2027 06:41:53.413   05 Jun 2027 06:42:10.590            17.177               Magadan1           536.781
       430   05 Jun 2027 06:42:55.657   05 Jun 2027 06:42:58.800             3.143               Magadan2            98.219
       431   05 Jun 2027 06:43:30.329   05 Jun 2027 06:43:36.106             5.777               Magadan1           180.531
       432   05 Jun 2027 06:43:56.873   05 Jun 2027 06:44:47.567            50.694                Novosib          1584.187
       433   05 Jun 2027 08:16:01.319   05 Jun 2027 08:17:02.687            61.368                Irkutsk          1917.750
       434   05 Jun 2027 08:17:36.626   05 Jun 2027 08:17:50.213            13.587                Irkutsk           424.594
       435   05 Jun 2027 08:18:35.323   05 Jun 2027 08:18:37.121             1.798                Novosib            56.187
       436   05 Jun 2027 08:18:46.634   05 Jun 2027 08:19:26.122            39.488                Novosib          1234.000
       437   05 Jun 2027 08:20:09.927   05 Jun 2027 08:20:30.809            20.882                Novosib           652.562
       438   05 Jun 2027 08:56:46.846   05 Jun 2027 08:57:15.984            29.138            RioGallegos           910.562
       439   05 Jun 2027 08:57:47.500   05 Jun 2027 08:58:05.554            18.054            RioGallegos           564.187
       440   05 Jun 2027 08:59:55.994   05 Jun 2027 09:00:23.095            27.101            RioGallegos           846.906
       441   05 Jun 2027 09:30:59.555   05 Jun 2027 09:31:08.137             8.582                Sumatra           268.187
       442   05 Jun 2027 09:31:20.503   05 Jun 2027 09:31:25.390             4.887                Sumatra           152.719
       443   05 Jun 2027 09:34:16.771   05 Jun 2027 09:35:26.387            69.616                Sumatra          2175.500
       444   05 Jun 2027 09:52:17.844   05 Jun 2027 09:52:59.530            41.686                Novosib          1302.688
       445   05 Jun 2027 09:53:02.395   05 Jun 2027 09:53:28.875            26.480                Novosib           827.500
       446   05 Jun 2027 09:54:43.452   05 Jun 2027 09:54:46.752             3.300                Novosib           103.125
       447   05 Jun 2027 09:54:56.135   05 Jun 2027 09:55:09.977            13.842                Novosib           432.562
       448   05 Jun 2027 09:55:20.984   05 Jun 2027 09:55:36.329            15.345                Norilsk           479.531
       449   05 Jun 2027 11:16:25.510   05 Jun 2027 11:19:20.380           174.870                  Delhi          5464.687
       450   05 Jun 2027 11:32:34.682   05 Jun 2027 11:32:45.831            11.149                Norilsk           348.406
       451   05 Jun 2027 12:58:42.917   05 Jun 2027 12:59:43.673            60.756                 Moscow          1898.625
       452   05 Jun 2027 13:02:02.442   05 Jun 2027 13:02:31.617            29.175                 Moscow           911.719
       453   05 Jun 2027 13:02:36.916   05 Jun 2027 13:03:02.589            25.673              Murmansk1           802.281
       454   05 Jun 2027 13:03:02.589   05 Jun 2027 13:03:54.618            52.029              Murmansk2          1625.906
       455   05 Jun 2027 13:04:11.929   05 Jun 2027 13:04:36.449            24.520              Murmansk2           766.250
       456   05 Jun 2027 13:05:05.787   05 Jun 2027 13:05:28.648            22.861              Murmansk2           714.406
       457   05 Jun 2027 13:11:01.836   05 Jun 2027 13:11:54.801            52.965              Murmansk2          1655.156
       458   05 Jun 2027 13:19:15.651   05 Jun 2027 13:20:58.775           103.124                Anadyr1          3222.625
       459   05 Jun 2027 13:21:59.622   05 Jun 2027 13:24:00.886           121.264                Anadyr2          3789.500
       460   05 Jun 2027 14:40:36.760   05 Jun 2027 14:42:29.712           112.952              Murmansk2          3529.750
       461   05 Jun 2027 14:44:42.890   05 Jun 2027 14:44:56.958            14.068              Murmansk2           439.625
       462   05 Jun 2027 14:45:10.599   05 Jun 2027 14:46:21.117            70.518              Murmansk2          2203.688
       463   05 Jun 2027 14:52:24.294   05 Jun 2027 14:53:45.749            81.455                Anadyr2          2545.469
       464   05 Jun 2027 14:55:36.919   05 Jun 2027 14:56:09.800            32.881                Anadyr1          1027.531
       465   05 Jun 2027 14:57:51.900   05 Jun 2027 14:59:51.749           119.849               Magadan1          3745.281
       466   05 Jun 2027 16:22:50.818   05 Jun 2027 16:24:25.353            94.535              Murmansk1          2954.219
       467   05 Jun 2027 16:28:15.031   05 Jun 2027 16:30:51.367           156.336                Anadyr1          4885.500
       468   05 Jun 2027 16:31:04.745   05 Jun 2027 16:33:48.644           163.899               Magadan2          5121.844
       469   05 Jun 2027 16:38:18.459   05 Jun 2027 16:39:00.418            41.959               Magadan2          1311.219
       470   05 Jun 2027 18:04:09.364   05 Jun 2027 18:05:42.524            93.160                Anadyr2          2911.250
       471   05 Jun 2027 18:05:46.164   05 Jun 2027 18:06:53.523            67.359                Anadyr1          2104.969
       472   05 Jun 2027 18:06:56.989   05 Jun 2027 18:10:32.142           215.153                Norilsk          6723.531
       473   05 Jun 2027 18:58:39.606   05 Jun 2027 19:02:22.581           222.975            RioGallegos          6967.969
       474   05 Jun 2027 19:42:01.302   05 Jun 2027 19:42:09.386             8.084                Norilsk           252.625
       475   05 Jun 2027 19:42:29.083   05 Jun 2027 19:44:14.388           105.305               Magadan2          3290.781
       476   05 Jun 2027 19:45:15.004   05 Jun 2027 19:45:56.200            41.196               Magadan2          1287.375
       477   05 Jun 2027 19:46:12.767   05 Jun 2027 19:47:37.321            84.554                Irkutsk          2642.313
       478   05 Jun 2027 19:48:18.516   05 Jun 2027 19:51:01.934           163.418                Novosib          5106.813
       479   05 Jun 2027 19:59:58.520   05 Jun 2027 20:02:36.635           158.115                Sumatra          4941.094
       480   05 Jun 2027 20:03:52.888   05 Jun 2027 20:04:18.477            25.589                Sumatra           799.656
       481   05 Jun 2027 21:20:57.416   05 Jun 2027 21:20:59.368             1.952                Norilsk            61.000
       482   05 Jun 2027 21:21:18.447   05 Jun 2027 21:21:19.893             1.446                Norilsk            45.188
