uniorb/output/strategy_4/Drop/Drop_KinoSat_111807.txt

KinoSat_111807
-------------------------
    Access    *     Start Time (UTCG)     *     Stop Time (UTCG)  *   Duration (s)        *       Station  *  Data (Mbytes)
         1   01 Jun 2027 04:25:19.003   01 Jun 2027 04:25:20.262             1.259                Irkutsk            39.344
         2   01 Jun 2027 04:25:58.548   01 Jun 2027 04:27:01.433            62.885                Norilsk          1965.156
         3   01 Jun 2027 04:27:10.351   01 Jun 2027 04:28:14.098            63.747                Novosib          1992.094
         4   01 Jun 2027 04:28:26.191   01 Jun 2027 04:29:57.399            91.208                Norilsk          2850.250
         5   01 Jun 2027 04:30:00.963   01 Jun 2027 04:30:59.863            58.900              Murmansk2          1840.625
         6   01 Jun 2027 04:31:11.317   01 Jun 2027 04:32:15.393            64.076                Novosib          2002.375
         7   01 Jun 2027 04:33:20.533   01 Jun 2027 04:34:51.586            91.053                  Delhi          2845.406
         8   01 Jun 2027 06:04:57.432   01 Jun 2027 06:06:04.995            67.563              Murmansk2          2111.344
         9   01 Jun 2027 06:06:18.181   01 Jun 2027 06:07:22.898            64.717                 Moscow          2022.406
        10   01 Jun 2027 06:07:39.704   01 Jun 2027 06:08:30.796            51.092              Murmansk1          1596.625
        11   01 Jun 2027 06:22:50.591   01 Jun 2027 06:24:52.501           121.910               CapeTown          3809.687
        12   01 Jun 2027 07:27:28.458   01 Jun 2027 07:28:29.929            61.471                Anadyr2          1920.969
        13   01 Jun 2027 07:28:29.929   01 Jun 2027 07:32:24.966           235.037                Anadyr1          7344.906
        14   01 Jun 2027 09:02:10.837   01 Jun 2027 09:02:40.535            29.698                Anadyr1           928.062
        15   01 Jun 2027 09:04:23.789   01 Jun 2027 09:08:07.106           223.317                Anadyr2          6978.656
        16   01 Jun 2027 10:39:55.596   01 Jun 2027 10:43:32.758           217.162               Magadan1          6786.312
        17   01 Jun 2027 11:18:29.047   01 Jun 2027 11:20:28.919           119.872            RioGallegos          3746.000
        18   01 Jun 2027 11:54:22.751   01 Jun 2027 11:54:47.082            24.331                Sumatra           760.344
        19   01 Jun 2027 12:06:51.475   01 Jun 2027 12:09:58.721           187.246                Irkutsk          5851.438
        20   01 Jun 2027 12:14:54.416   01 Jun 2027 12:15:06.106            11.690                Norilsk           365.312
        21   01 Jun 2027 12:15:34.436   01 Jun 2027 12:16:43.977            69.541                Norilsk          2173.156
        22   01 Jun 2027 12:55:34.672   01 Jun 2027 12:56:16.344            41.672            RioGallegos          1302.250
        23   01 Jun 2027 12:57:14.691   01 Jun 2027 12:59:25.179           130.488            RioGallegos          4077.750
        24   01 Jun 2027 13:03:10.987   01 Jun 2027 13:05:32.336           141.349            RioGallegos          4417.156
        25   01 Jun 2027 13:34:15.528   01 Jun 2027 13:35:03.522            47.994                Sumatra          1499.813
        26   01 Jun 2027 13:39:45.644   01 Jun 2027 13:41:02.887            77.243                Sumatra          2413.844
        27   01 Jun 2027 13:48:20.857   01 Jun 2027 13:50:52.087           151.230                Irkutsk          4725.938
        28   01 Jun 2027 15:14:46.664   01 Jun 2027 15:20:48.729           362.065                  Delhi         11314.531
        29   01 Jun 2027 15:23:11.426   01 Jun 2027 15:25:10.607           119.181                Novosib          3724.406
        30   01 Jun 2027 15:25:40.002   01 Jun 2027 15:29:15.340           215.338                Novosib          6729.312
        31   01 Jun 2027 17:08:21.441   01 Jun 2027 17:09:24.515            63.074                Norilsk          1971.062
        32   01 Jun 2027 18:37:19.636   01 Jun 2027 18:44:02.680           403.044                 Moscow         12595.125
        33   01 Jun 2027 19:47:58.547   01 Jun 2027 19:48:30.825            32.278               CapeTown          1008.687
        34   01 Jun 2027 19:49:15.536   01 Jun 2027 19:51:30.163           134.627               CapeTown          4207.094
        35   01 Jun 2027 19:52:17.929   01 Jun 2027 19:52:48.921            30.992               CapeTown           968.500
        36   01 Jun 2027 20:20:17.635   01 Jun 2027 20:25:24.453           306.818              Murmansk2          9588.062
        37   01 Jun 2027 22:03:50.006   01 Jun 2027 22:05:25.157            95.151                Anadyr2          2973.469
        38   01 Jun 2027 22:05:38.813   01 Jun 2027 22:06:48.389            69.576                Anadyr1          2174.250
        39   01 Jun 2027 22:06:53.599   01 Jun 2027 22:07:40.226            46.627               Magadan1          1457.094
        40   01 Jun 2027 22:07:40.226   01 Jun 2027 22:08:19.904            39.678               Magadan2          1239.937
        41   01 Jun 2027 22:09:22.057   01 Jun 2027 22:09:59.832            37.775               Magadan2          1180.469
        42   01 Jun 2027 22:09:59.832   01 Jun 2027 22:10:19.140            19.308               Magadan1           603.375
        43   01 Jun 2027 22:10:37.313   01 Jun 2027 22:10:43.174             5.861               Magadan1           183.156
        44   01 Jun 2027 22:11:12.640   01 Jun 2027 22:11:39.262            26.622               Magadan1           831.937
        45   01 Jun 2027 22:17:34.708   01 Jun 2027 22:17:39.703             4.995               Magadan2           156.094
        46   01 Jun 2027 22:58:43.327   01 Jun 2027 23:01:02.377           139.050            RioGallegos          4345.312
        47   01 Jun 2027 23:01:41.417   01 Jun 2027 23:01:55.556            14.139            RioGallegos           441.844
        48   01 Jun 2027 23:04:03.764   01 Jun 2027 23:04:43.373            39.609            RioGallegos          1237.781
        49   01 Jun 2027 23:39:33.477   01 Jun 2027 23:40:53.244            79.767                Anadyr1          2492.719
        50   01 Jun 2027 23:41:39.693   01 Jun 2027 23:43:18.452            98.759                Norilsk          3086.219
        51   01 Jun 2027 23:43:51.086   01 Jun 2027 23:45:08.999            77.913               Magadan2          2434.781
        52   01 Jun 2027 23:45:32.016   01 Jun 2027 23:46:48.761            76.745               Magadan1          2398.281
        53   01 Jun 2027 23:46:48.761   01 Jun 2027 23:46:55.006             6.245               Magadan2           195.156
        54   01 Jun 2027 23:47:00.390   01 Jun 2027 23:47:15.124            14.734                Irkutsk           460.438
        55   01 Jun 2027 23:49:27.097   01 Jun 2027 23:49:33.338             6.241                Irkutsk           195.031
        56   01 Jun 2027 23:51:36.596   01 Jun 2027 23:52:12.960            36.364                Irkutsk          1136.375
        57   01 Jun 2027 23:54:39.887   01 Jun 2027 23:54:48.336             8.449                Irkutsk           264.031
        58   02 Jun 2027 00:00:09.436   02 Jun 2027 00:01:16.278            66.842                Sumatra          2088.813
        59   02 Jun 2027 00:05:54.260   02 Jun 2027 00:06:11.841            17.581                Sumatra           549.406
        60   02 Jun 2027 00:06:33.083   02 Jun 2027 00:06:48.550            15.467                Sumatra           483.344
        61   02 Jun 2027 00:33:32.788   02 Jun 2027 00:34:26.756            53.968            RioGallegos          1686.500
        62   02 Jun 2027 00:37:36.407   02 Jun 2027 00:37:55.038            18.631            RioGallegos           582.219
        63   02 Jun 2027 00:42:15.620   02 Jun 2027 00:42:33.070            17.450            RioGallegos           545.313
        64   02 Jun 2027 01:14:33.150   02 Jun 2027 01:15:21.861            48.711                Anadyr2          1522.219
        65   02 Jun 2027 01:15:21.861   02 Jun 2027 01:15:33.168            11.307                Anadyr1           353.344
        66   02 Jun 2027 01:16:12.216   02 Jun 2027 01:17:17.846            65.630                Anadyr2          2050.938
        67   02 Jun 2027 01:17:34.399   02 Jun 2027 01:19:21.217           106.818                Norilsk          3338.063
        68   02 Jun 2027 01:21:17.766   02 Jun 2027 01:21:24.353             6.587                Norilsk           205.844
        69   02 Jun 2027 01:21:26.867   02 Jun 2027 01:23:44.227           137.360                Irkutsk          4292.500
        70   02 Jun 2027 01:27:27.284   02 Jun 2027 01:27:39.610            12.326                Novosib           385.187
        71   02 Jun 2027 01:28:57.272   02 Jun 2027 01:29:01.319             4.047                Novosib           126.469
        72   02 Jun 2027 01:29:25.514   02 Jun 2027 01:30:26.282            60.768                Irkutsk          1899.000
        73   02 Jun 2027 01:34:46.126   02 Jun 2027 01:35:07.012            20.886                  Delhi           652.688
        74   02 Jun 2027 01:36:02.679   02 Jun 2027 01:37:05.109            62.430                Sumatra          1950.937
        75   02 Jun 2027 01:39:50.282   02 Jun 2027 01:41:14.186            83.904                Sumatra          2622.000
        76   02 Jun 2027 02:14:26.651   02 Jun 2027 02:15:01.603            34.952            RioGallegos          1092.250
        77   02 Jun 2027 02:17:53.400   02 Jun 2027 02:18:03.224             9.824            RioGallegos           307.000
        78   02 Jun 2027 02:48:18.799   02 Jun 2027 02:48:37.881            19.082                Anadyr2           596.313
        79   02 Jun 2027 02:48:57.955   02 Jun 2027 02:50:14.456            76.501                Anadyr2          2390.656
        80   02 Jun 2027 02:53:35.273   02 Jun 2027 02:54:03.440            28.167                Norilsk           880.219
        81   02 Jun 2027 02:54:30.721   02 Jun 2027 02:54:44.194            13.473                Norilsk           421.031
        82   02 Jun 2027 02:54:49.520   02 Jun 2027 02:55:21.557            32.037                Norilsk          1001.156
        83   02 Jun 2027 02:56:03.851   02 Jun 2027 02:56:36.478            32.627              Murmansk2          1019.594
        84   02 Jun 2027 02:57:21.657   02 Jun 2027 02:58:05.554            43.897                Novosib          1371.781
        85   02 Jun 2027 02:58:34.857   02 Jun 2027 03:01:06.103           151.246                Irkutsk          4726.438
        86   02 Jun 2027 03:01:19.333   02 Jun 2027 03:01:29.246             9.913                Irkutsk           309.781
        87   02 Jun 2027 03:01:59.376   02 Jun 2027 03:02:54.910            55.534                Irkutsk          1735.437
        88   02 Jun 2027 03:03:02.802   02 Jun 2027 03:03:43.813            41.011              Murmansk1          1281.594
        89   02 Jun 2027 03:03:45.618   02 Jun 2027 03:04:11.552            25.934                 Moscow           810.437
        90   02 Jun 2027 03:04:17.108   02 Jun 2027 03:04:21.539             4.431                Norilsk           138.469
        91   02 Jun 2027 03:04:31.450   02 Jun 2027 03:08:07.615           216.165                Irkutsk          6755.156
        92   02 Jun 2027 03:47:47.455   02 Jun 2027 03:48:01.203            13.748            RioGallegos           429.625
        93   02 Jun 2027 03:51:00.074   02 Jun 2027 03:51:11.029            10.955            RioGallegos           342.344
        94   02 Jun 2027 04:37:29.703   02 Jun 2027 04:38:04.690            34.987                Novosib          1093.344
        95   02 Jun 2027 04:38:22.989   02 Jun 2027 04:39:15.601            52.612                Novosib          1644.125
        96   02 Jun 2027 04:39:27.833   02 Jun 2027 04:40:00.073            32.240                Norilsk          1007.500
        97   02 Jun 2027 04:40:06.583   02 Jun 2027 04:41:24.226            77.643                Norilsk          2426.344
        98   02 Jun 2027 04:41:41.929   02 Jun 2027 04:41:59.673            17.744                 Moscow           554.500
        99   02 Jun 2027 04:42:01.066   02 Jun 2027 04:42:53.101            52.035                Novosib          1626.094
       100   02 Jun 2027 05:00:06.954   02 Jun 2027 05:00:35.622            28.668               CapeTown           895.875
       101   02 Jun 2027 06:17:12.738   02 Jun 2027 06:18:38.488            85.750                 Moscow          2679.688
       102   02 Jun 2027 06:19:06.990   02 Jun 2027 06:19:58.281            51.291              Murmansk1          1602.844
       103   02 Jun 2027 06:20:48.246   02 Jun 2027 06:20:49.501             1.255                 Moscow            39.219
       104   02 Jun 2027 06:35:02.965   02 Jun 2027 06:36:42.876            99.911               CapeTown          3122.219
       105   02 Jun 2027 06:39:43.119   02 Jun 2027 06:40:32.396            49.277               CapeTown          1539.906
       106   02 Jun 2027 07:38:06.620   02 Jun 2027 07:38:18.714            12.094               Magadan1           377.937
       107   02 Jun 2027 07:38:37.671   02 Jun 2027 07:42:20.066           222.395                Anadyr1          6949.844
       108   02 Jun 2027 09:16:22.906   02 Jun 2027 09:17:21.407            58.501                Anadyr2          1828.156
       109   02 Jun 2027 10:50:47.561   02 Jun 2027 10:51:52.616            65.055               Magadan2          2032.969
       110   02 Jun 2027 10:51:52.616   02 Jun 2027 10:52:11.109            18.493               Magadan1           577.906
       111   02 Jun 2027 10:52:21.381   02 Jun 2027 10:55:23.427           182.046               Magadan2          5688.938
       112   02 Jun 2027 10:55:46.897   02 Jun 2027 10:56:07.286            20.389                Norilsk           637.156
       113   02 Jun 2027 11:30:26.948   02 Jun 2027 11:31:36.800            69.852            RioGallegos          2182.875
       114   02 Jun 2027 12:05:58.243   02 Jun 2027 12:06:28.115            29.872                Sumatra           933.500
       115   02 Jun 2027 12:12:16.170   02 Jun 2027 12:12:31.678            15.508                Sumatra           484.625
       116   02 Jun 2027 12:15:59.243   02 Jun 2027 12:16:36.405            37.162                Sumatra          1161.313
       117   02 Jun 2027 12:18:56.477   02 Jun 2027 12:20:53.631           117.154                Irkutsk          3661.063
       118   02 Jun 2027 12:26:23.617   02 Jun 2027 12:27:37.445            73.828                Irkutsk          2307.125
       119   02 Jun 2027 13:08:04.861   02 Jun 2027 13:09:06.260            61.399            RioGallegos          1918.719
       120   02 Jun 2027 13:12:15.775   02 Jun 2027 13:13:04.374            48.599            RioGallegos          1518.719
       121   02 Jun 2027 13:42:18.154   02 Jun 2027 13:43:05.619            47.465                Sumatra          1483.281
       122   02 Jun 2027 13:45:19.669   02 Jun 2027 13:47:22.528           122.859                Sumatra          3839.344
       123   02 Jun 2027 13:57:47.916   02 Jun 2027 13:59:42.030           114.114                Irkutsk          3566.062
       124   02 Jun 2027 14:03:15.446   02 Jun 2027 14:04:15.155            59.709                Irkutsk          1865.906
       125   02 Jun 2027 15:27:30.505   02 Jun 2027 15:30:23.554           173.049                  Delhi          5407.781
       126   02 Jun 2027 15:36:00.319   02 Jun 2027 15:40:30.125           269.806                Novosib          8431.437
       127   02 Jun 2027 15:44:50.617   02 Jun 2027 15:45:29.114            38.497                Norilsk          1203.031
       128   02 Jun 2027 17:10:14.649   02 Jun 2027 17:11:41.668            87.019                 Moscow          2719.344
       129   02 Jun 2027 17:13:43.841   02 Jun 2027 17:14:42.145            58.304              Murmansk2          1822.000
       130   02 Jun 2027 17:19:51.712   02 Jun 2027 17:20:31.654            39.942              Murmansk1          1248.187
       131   02 Jun 2027 17:25:28.050   02 Jun 2027 17:25:47.503            19.453              Murmansk2           607.906
       132   02 Jun 2027 17:29:04.240   02 Jun 2027 17:29:38.238            33.998                Anadyr1          1062.438
       133   02 Jun 2027 17:29:55.013   02 Jun 2027 17:29:56.754             1.741                Anadyr2            54.406
       134   02 Jun 2027 17:30:13.166   02 Jun 2027 17:31:03.526            50.360                Anadyr2          1573.750
       135   02 Jun 2027 17:35:29.895   02 Jun 2027 17:35:33.969             4.074                Anadyr2           127.313
       136   02 Jun 2027 18:23:27.212   02 Jun 2027 18:25:19.633           112.421               CapeTown          3513.156
       137   02 Jun 2027 18:30:23.186   02 Jun 2027 18:31:10.053            46.867               CapeTown          1464.594
       138   02 Jun 2027 18:50:17.608   02 Jun 2027 18:54:00.021           222.413                 Moscow          6950.406
       139   02 Jun 2027 19:01:25.111   02 Jun 2027 19:02:05.291            40.180              Murmansk2          1255.625
       140   02 Jun 2027 19:12:14.460   02 Jun 2027 19:12:48.150            33.690                Anadyr2          1052.812
       141   02 Jun 2027 20:00:20.739   02 Jun 2027 20:01:13.335            52.596               CapeTown          1643.625
       142   02 Jun 2027 20:02:33.766   02 Jun 2027 20:04:09.951            96.185               CapeTown          3005.781
       143   02 Jun 2027 20:08:58.125   02 Jun 2027 20:09:07.485             9.360               CapeTown           292.500
       144   02 Jun 2027 20:33:22.384   02 Jun 2027 20:37:03.555           221.171              Murmansk2          6911.594
       145   02 Jun 2027 20:42:30.043   02 Jun 2027 20:43:41.681            71.638               Magadan2          2238.687
       146   02 Jun 2027 20:48:27.985   02 Jun 2027 20:48:37.667             9.682               Magadan1           302.563
       147   02 Jun 2027 20:48:52.821   02 Jun 2027 20:49:13.717            20.896               Magadan1           653.000
       148   02 Jun 2027 20:50:57.986   02 Jun 2027 20:51:46.059            48.073               Magadan1          1502.281
       149   02 Jun 2027 22:15:51.290   02 Jun 2027 22:20:59.196           307.906                Anadyr2          9622.063
       150   02 Jun 2027 22:21:06.670   02 Jun 2027 22:21:10.429             3.759                Norilsk           117.469
       151   02 Jun 2027 22:21:12.761   02 Jun 2027 22:22:01.652            48.891                Norilsk          1527.844
       152   02 Jun 2027 22:22:32.878   02 Jun 2027 22:22:44.539            11.661               Magadan1           364.406
       153   02 Jun 2027 22:23:14.314   02 Jun 2027 22:23:50.685            36.371               Magadan1          1136.594
       154   02 Jun 2027 22:28:40.988   02 Jun 2027 22:29:25.131            44.143               Magadan1          1379.469
       155   02 Jun 2027 23:10:27.083   02 Jun 2027 23:12:28.451           121.368            RioGallegos          3792.750
       156   02 Jun 2027 23:13:09.034   02 Jun 2027 23:13:47.623            38.589            RioGallegos          1205.906
       157   02 Jun 2027 23:51:31.326   02 Jun 2027 23:53:32.428           121.102                Anadyr2          3784.437
       158   02 Jun 2027 23:53:39.990   02 Jun 2027 23:55:19.853            99.863                Norilsk          3120.719
       159   02 Jun 2027 23:55:43.630   02 Jun 2027 23:56:08.008            24.378               Magadan1           761.812
       160   02 Jun 2027 23:57:51.350   02 Jun 2027 23:58:23.976            32.626                Norilsk          1019.562
       161   02 Jun 2027 23:58:37.404   02 Jun 2027 23:59:15.863            38.459                Irkutsk          1201.844
       162   02 Jun 2027 23:59:43.631   03 Jun 2027 00:00:08.932            25.301                Irkutsk           790.656
       163   03 Jun 2027 00:00:55.042   03 Jun 2027 00:02:10.294            75.252                Novosib          2351.625
       164   03 Jun 2027 00:11:48.960   03 Jun 2027 00:12:26.530            37.570                Sumatra          1174.063
       165   03 Jun 2027 00:12:26.616   03 Jun 2027 00:14:07.042           100.426                Sumatra          3138.313
       166   03 Jun 2027 00:49:56.141   03 Jun 2027 00:49:58.736             2.595            RioGallegos            81.094
       167   03 Jun 2027 00:51:29.379   03 Jun 2027 00:52:33.446            64.067            RioGallegos          2002.094
       168   03 Jun 2027 01:26:22.522   03 Jun 2027 01:26:48.572            26.050                Anadyr2           814.063
       169   03 Jun 2027 01:27:23.160   03 Jun 2027 01:28:20.603            57.443                Anadyr2          1795.094
       170   03 Jun 2027 01:28:38.546   03 Jun 2027 01:28:44.046             5.500                Anadyr1           171.875
       171   03 Jun 2027 01:29:36.765   03 Jun 2027 01:31:24.018           107.253                Norilsk          3351.656
       172   03 Jun 2027 01:31:39.337   03 Jun 2027 01:32:00.963            21.626               Magadan2           675.812
       173   03 Jun 2027 01:33:29.216   03 Jun 2027 01:35:21.289           112.073                Irkutsk          3502.281
       174   03 Jun 2027 01:38:21.190   03 Jun 2027 01:38:31.497            10.307                Irkutsk           322.094
       175   03 Jun 2027 01:38:50.259   03 Jun 2027 01:39:12.819            22.560                Irkutsk           705.000
       176   03 Jun 2027 01:41:40.373   03 Jun 2027 01:41:55.087            14.714                  Delhi           459.813
       177   03 Jun 2027 01:42:19.445   03 Jun 2027 01:42:30.852            11.407                Irkutsk           356.469
       178   03 Jun 2027 01:44:49.823   03 Jun 2027 01:45:39.459            49.636                  Delhi          1551.125
       179   03 Jun 2027 01:48:36.584   03 Jun 2027 01:49:07.565            30.981                Sumatra           968.156
       180   03 Jun 2027 01:50:41.165   03 Jun 2027 01:52:14.296            93.131                Sumatra          2910.344
       181   03 Jun 2027 02:22:16.828   03 Jun 2027 02:22:37.933            21.105            RioGallegos           659.531
       182   03 Jun 2027 02:27:09.194   03 Jun 2027 02:27:27.808            18.614            RioGallegos           581.688
       183   03 Jun 2027 02:28:12.906   03 Jun 2027 02:29:10.723            57.817            RioGallegos          1806.781
       184   03 Jun 2027 03:00:56.612   03 Jun 2027 03:01:18.210            21.598                Anadyr1           674.938
       185   03 Jun 2027 03:09:45.208   03 Jun 2027 03:09:52.309             7.101               Magadan2           221.906
       186   03 Jun 2027 03:10:32.151   03 Jun 2027 03:10:50.655            18.504              Murmansk1           578.250
       187   03 Jun 2027 03:10:54.069   03 Jun 2027 03:11:18.859            24.790                Norilsk           774.688
       188   03 Jun 2027 03:11:23.322   03 Jun 2027 03:14:53.138           209.816                Irkutsk          6556.750
       189   03 Jun 2027 03:15:46.616   03 Jun 2027 03:16:56.639            70.023                Irkutsk          2188.219
       190   03 Jun 2027 04:51:16.518   03 Jun 2027 04:54:55.932           219.414                Novosib          6856.687
       191   03 Jun 2027 04:55:25.277   03 Jun 2027 04:55:36.819            11.542                Novosib           360.688
       192   03 Jun 2027 04:56:20.580   03 Jun 2027 04:57:51.704            91.124                 Moscow          2847.625
       193   03 Jun 2027 05:11:42.231   03 Jun 2027 05:14:50.684           188.453               CapeTown          5889.156
       194   03 Jun 2027 06:07:44.448   03 Jun 2027 06:08:55.362            70.914                Anadyr2          2216.063
       195   03 Jun 2027 06:08:55.362   03 Jun 2027 06:09:29.911            34.549                Anadyr1          1079.656
       196   03 Jun 2027 06:30:32.893   03 Jun 2027 06:30:43.701            10.808                 Moscow           337.750
       197   03 Jun 2027 06:47:21.388   03 Jun 2027 06:48:38.351            76.963               CapeTown          2405.094
       198   03 Jun 2027 06:49:41.732   03 Jun 2027 06:51:50.314           128.582               CapeTown          4018.187
       199   03 Jun 2027 07:50:21.259   03 Jun 2027 07:50:22.625             1.366               Magadan1            42.687
       200   03 Jun 2027 07:50:38.179   03 Jun 2027 07:51:54.953            76.774                Anadyr1          2399.188
       201   03 Jun 2027 07:52:12.457   03 Jun 2027 07:52:55.595            43.138               Magadan2          1348.062
       202   03 Jun 2027 08:39:01.330   03 Jun 2027 08:39:18.622            17.292            RioGallegos           540.375
       203   03 Jun 2027 09:25:56.747   03 Jun 2027 09:27:33.405            96.658                Anadyr1          3020.562
       204   03 Jun 2027 09:28:00.366   03 Jun 2027 09:28:05.128             4.762               Magadan1           148.813
       205   03 Jun 2027 09:28:06.927   03 Jun 2027 09:28:21.246            14.319                Anadyr1           447.469
       206   03 Jun 2027 09:29:01.068   03 Jun 2027 09:30:08.455            67.387                Anadyr1          2105.844
       207   03 Jun 2027 10:10:25.128   03 Jun 2027 10:10:42.043            16.915            RioGallegos           528.594
       208   03 Jun 2027 11:01:03.020   03 Jun 2027 11:02:49.834           106.814               Magadan1          3337.937
       209   03 Jun 2027 11:03:23.934   03 Jun 2027 11:03:42.345            18.411               Magadan2           575.344
       210   03 Jun 2027 11:03:48.330   03 Jun 2027 11:07:16.458           208.128               Magadan2          6504.000
       211   03 Jun 2027 11:07:39.226   03 Jun 2027 11:08:00.933            21.707                Norilsk           678.344
       212   03 Jun 2027 11:42:28.170   03 Jun 2027 11:43:16.916            48.746            RioGallegos          1523.313
       213   03 Jun 2027 11:49:30.060   03 Jun 2027 11:50:14.776            44.716            RioGallegos          1397.375
       214   03 Jun 2027 12:17:41.425   03 Jun 2027 12:18:23.506            42.081                Sumatra          1315.031
       215   03 Jun 2027 12:31:04.948   03 Jun 2027 12:32:48.206           103.258                Irkutsk          3226.812
       216   03 Jun 2027 12:32:48.364   03 Jun 2027 12:33:06.364            18.000                Novosib           562.500
       217   03 Jun 2027 12:34:09.791   03 Jun 2027 12:35:05.483            55.692                Irkutsk          1740.375
       218   03 Jun 2027 12:39:56.699   03 Jun 2027 12:40:06.119             9.420                Irkutsk           294.375
       219   03 Jun 2027 12:46:27.780   03 Jun 2027 12:46:46.557            18.777                Norilsk           586.781
       220   03 Jun 2027 13:20:41.548   03 Jun 2027 13:23:21.980           160.432            RioGallegos          5013.500
       221   03 Jun 2027 13:23:51.405   03 Jun 2027 13:24:08.522            17.117            RioGallegos           534.906
       222   03 Jun 2027 13:24:30.449   03 Jun 2027 13:25:30.813            60.364            RioGallegos          1886.375
       223   03 Jun 2027 13:54:58.667   03 Jun 2027 13:55:10.959            12.292                Sumatra           384.125
       224   03 Jun 2027 13:58:12.128   03 Jun 2027 13:59:44.972            92.844                Sumatra          2901.375
       225   03 Jun 2027 14:08:47.098   03 Jun 2027 14:08:50.027             2.929                Novosib            91.531
       226   03 Jun 2027 14:10:42.108   03 Jun 2027 14:15:03.843           261.735                Irkutsk          8179.219
       227   03 Jun 2027 15:40:31.979   03 Jun 2027 15:44:46.477           254.498                  Delhi          7953.063
       228   03 Jun 2027 15:52:26.555   03 Jun 2027 15:53:13.113            46.558                Novosib          1454.937
       229   03 Jun 2027 15:55:28.590   03 Jun 2027 15:56:51.691            83.101                Norilsk          2596.906
       230   03 Jun 2027 17:22:30.151   03 Jun 2027 17:23:21.390            51.239                 Moscow          1601.219
       231   03 Jun 2027 17:25:04.944   03 Jun 2027 17:25:45.472            40.528                 Moscow          1266.500
       232   03 Jun 2027 17:25:55.819   03 Jun 2027 17:26:43.718            47.899              Murmansk2          1496.844
       233   03 Jun 2027 17:28:44.755   03 Jun 2027 17:29:30.603            45.848              Murmansk1          1432.750
       234   03 Jun 2027 17:40:50.517   03 Jun 2027 17:41:39.679            49.162                Anadyr1          1536.313
       235   03 Jun 2027 17:42:59.896   03 Jun 2027 17:43:30.478            30.582                Anadyr2           955.687
       236   03 Jun 2027 18:35:25.470   03 Jun 2027 18:37:52.007           146.537               CapeTown          4579.281
       237   03 Jun 2027 19:03:35.196   03 Jun 2027 19:07:23.821           228.625                 Moscow          7144.531
       238   03 Jun 2027 19:08:07.260   03 Jun 2027 19:08:57.020            49.760              Murmansk2          1555.000
       239   03 Jun 2027 19:10:25.003   03 Jun 2027 19:11:52.261            87.258              Murmansk1          2726.813
       240   03 Jun 2027 20:12:50.380   03 Jun 2027 20:13:22.220            31.840               CapeTown           995.000
       241   03 Jun 2027 20:15:58.203   03 Jun 2027 20:17:52.326           114.123               CapeTown          3566.344
       242   03 Jun 2027 20:47:05.246   03 Jun 2027 20:48:06.597            61.351              Murmansk1          1917.219
       243   03 Jun 2027 20:53:25.831   03 Jun 2027 20:53:33.508             7.677                Anadyr2           239.906
       244   03 Jun 2027 20:54:26.482   03 Jun 2027 20:56:13.692           107.210               Magadan1          3350.313
       245   03 Jun 2027 20:56:13.692   03 Jun 2027 20:56:48.654            34.962               Magadan2          1092.562
       246   03 Jun 2027 20:57:31.162   03 Jun 2027 20:57:58.531            27.369               Magadan2           855.281
       247   03 Jun 2027 21:00:30.220   03 Jun 2027 21:00:43.891            13.671               Magadan1           427.219
       248   03 Jun 2027 21:01:22.441   03 Jun 2027 21:02:02.786            40.345               Magadan1          1260.781
       249   03 Jun 2027 22:27:52.348   03 Jun 2027 22:31:37.553           225.205                Anadyr2          7037.656
       250   03 Jun 2027 22:31:48.171   03 Jun 2027 22:34:58.172           190.001               Magadan2          5937.531
       251   03 Jun 2027 22:35:25.790   03 Jun 2027 22:35:47.135            21.345               Magadan1           667.031
       252   03 Jun 2027 22:41:14.566   03 Jun 2027 22:41:34.466            19.900               Magadan2           621.875
       253   03 Jun 2027 23:22:15.074   03 Jun 2027 23:24:22.909           127.835            RioGallegos          3994.844
       254   03 Jun 2027 23:25:14.321   03 Jun 2027 23:25:41.886            27.565            RioGallegos           861.406
       255   03 Jun 2027 23:27:58.295   03 Jun 2027 23:28:05.379             7.084            RioGallegos           221.375
       256   03 Jun 2027 23:28:24.353   03 Jun 2027 23:28:24.357             0.004            RioGallegos             0.125
       257   03 Jun 2027 23:30:56.832   03 Jun 2027 23:31:42.069            45.237            RioGallegos          1413.656
       258   04 Jun 2027 00:03:28.418   04 Jun 2027 00:04:18.618            50.200                Anadyr1          1568.750
       259   04 Jun 2027 00:04:19.626   04 Jun 2027 00:05:00.209            40.583                Anadyr2          1268.219
       260   04 Jun 2027 00:05:40.826   04 Jun 2027 00:07:25.504           104.678                Norilsk          3271.188
       261   04 Jun 2027 00:08:27.287   04 Jun 2027 00:08:48.106            20.819               Magadan1           650.594
       262   04 Jun 2027 00:09:00.338   04 Jun 2027 00:09:49.861            49.523               Magadan1          1547.594
       263   04 Jun 2027 00:09:50.940   04 Jun 2027 00:11:10.588            79.648                Irkutsk          2489.000
       264   04 Jun 2027 00:11:36.756   04 Jun 2027 00:12:17.207            40.451                Novosib          1264.094
       265   04 Jun 2027 00:14:31.654   04 Jun 2027 00:16:16.467           104.813                Novosib          3275.406
       266   04 Jun 2027 00:27:11.846   04 Jun 2027 00:27:17.048             5.202                Sumatra           162.562
       267   04 Jun 2027 00:31:18.669   04 Jun 2027 00:31:38.951            20.282                Sumatra           633.812
       268   04 Jun 2027 00:57:34.998   04 Jun 2027 00:57:50.556            15.558            RioGallegos           486.188
       269   04 Jun 2027 01:01:22.344   04 Jun 2027 01:01:26.526             4.182            RioGallegos           130.688
       270   04 Jun 2027 01:02:16.514   04 Jun 2027 01:02:33.608            17.094            RioGallegos           534.187
       271   04 Jun 2027 01:04:27.664   04 Jun 2027 01:05:20.499            52.835            RioGallegos          1651.094
       272   04 Jun 2027 01:38:10.558   04 Jun 2027 01:40:21.289           130.731                Anadyr2          4085.344
       273   04 Jun 2027 01:41:39.175   04 Jun 2027 01:43:05.660            86.485                Norilsk          2702.656
       274   04 Jun 2027 01:43:07.571   04 Jun 2027 01:43:17.002             9.431               Magadan2           294.719
       275   04 Jun 2027 01:45:32.360   04 Jun 2027 01:47:20.720           108.360                Irkutsk          3386.250
       276   04 Jun 2027 01:47:46.442   04 Jun 2027 01:48:07.335            20.893                Novosib           652.906
       277   04 Jun 2027 01:49:05.329   04 Jun 2027 01:49:19.210            13.881                Novosib           433.781
       278   04 Jun 2027 01:51:04.986   04 Jun 2027 01:51:48.074            43.088                Irkutsk          1346.500
       279   04 Jun 2027 01:55:36.450   04 Jun 2027 01:56:43.089            66.639                  Delhi          2082.469
       280   04 Jun 2027 02:04:08.495   04 Jun 2027 02:05:59.572           111.077                Sumatra          3471.156
       281   04 Jun 2027 02:34:53.499   04 Jun 2027 02:35:27.346            33.847            RioGallegos          1057.719
       282   04 Jun 2027 02:41:05.964   04 Jun 2027 02:42:08.227            62.263            RioGallegos          1945.719
       283   04 Jun 2027 03:25:31.764   04 Jun 2027 03:26:44.668            72.904                Norilsk          2278.250
       284   04 Jun 2027 03:27:05.538   04 Jun 2027 03:29:23.324           137.786                Norilsk          4305.813
       285   04 Jun 2027 03:29:28.300   04 Jun 2027 03:30:29.823            61.523                Irkutsk          1922.594
       286   04 Jun 2027 03:31:17.225   04 Jun 2027 03:33:46.177           148.952                  Delhi          4654.750
       287   04 Jun 2027 05:02:34.168   04 Jun 2027 05:03:27.788            53.620                Novosib          1675.625
       288   04 Jun 2027 05:03:54.098   04 Jun 2027 05:07:01.758           187.660                Novosib          5864.375
       289   04 Jun 2027 05:08:25.201   04 Jun 2027 05:08:40.267            15.066                 Moscow           470.813
       290   04 Jun 2027 05:23:23.541   04 Jun 2027 05:24:54.273            90.732               CapeTown          2835.375
       291   04 Jun 2027 05:27:37.172   04 Jun 2027 05:29:38.403           121.231               CapeTown          3788.469
       292   04 Jun 2027 06:26:46.659   04 Jun 2027 06:27:10.604            23.945                Anadyr1           748.281
       293   04 Jun 2027 06:27:19.147   04 Jun 2027 06:28:23.834            64.687                Anadyr2          2021.469
       294   04 Jun 2027 06:37:56.074   04 Jun 2027 06:38:06.377            10.303                 Moscow           321.969
       295   04 Jun 2027 06:42:29.026   04 Jun 2027 06:42:53.918            24.892              Murmansk2           777.875
       296   04 Jun 2027 06:59:46.736   04 Jun 2027 07:00:38.871            52.135               CapeTown          1629.219
       297   04 Jun 2027 07:04:20.604   04 Jun 2027 07:04:55.338            34.734               CapeTown          1085.437
       298   04 Jun 2027 08:00:36.553   04 Jun 2027 08:00:43.540             6.987                Anadyr2           218.344
       299   04 Jun 2027 08:00:44.961   04 Jun 2027 08:01:36.199            51.238                Anadyr2          1601.187
       300   04 Jun 2027 08:02:23.589   04 Jun 2027 08:02:50.731            27.142               Magadan1           848.187
       301   04 Jun 2027 08:03:48.286   04 Jun 2027 08:04:38.617            50.331                Anadyr1          1572.844
       302   04 Jun 2027 08:05:04.620   04 Jun 2027 08:05:11.604             6.984               Magadan2           218.250
       303   04 Jun 2027 08:05:15.572   04 Jun 2027 08:05:19.617             4.045                Anadyr2           126.406
       304   04 Jun 2027 08:06:17.926   04 Jun 2027 08:07:01.105            43.179                Anadyr1          1349.344
       305   04 Jun 2027 08:51:08.577   04 Jun 2027 08:51:14.462             5.885            RioGallegos           183.906
       306   04 Jun 2027 09:36:20.780   04 Jun 2027 09:36:32.730            11.950               Magadan2           373.437
       307   04 Jun 2027 09:38:11.548   04 Jun 2027 09:39:00.343            48.795               Magadan1          1524.844
       308   04 Jun 2027 09:40:15.618   04 Jun 2027 09:40:31.514            15.896               Magadan1           496.750
       309   04 Jun 2027 09:40:48.078   04 Jun 2027 09:41:16.394            28.316               Magadan1           884.875
       310   04 Jun 2027 09:41:45.671   04 Jun 2027 09:42:36.781            51.110               Magadan1          1597.188
       311   04 Jun 2027 10:19:47.274   04 Jun 2027 10:20:16.858            29.584            RioGallegos           924.500
       312   04 Jun 2027 11:12:03.561   04 Jun 2027 11:15:23.017           199.456               Magadan1          6233.000
       313   04 Jun 2027 11:15:42.401   04 Jun 2027 11:16:51.992            69.591               Magadan2          2174.719
       314   04 Jun 2027 11:16:56.779   04 Jun 2027 11:17:30.342            33.563                Irkutsk          1048.844
       315   04 Jun 2027 11:17:39.065   04 Jun 2027 11:17:52.383            13.318                Irkutsk           416.188
       316   04 Jun 2027 11:18:12.878   04 Jun 2027 11:18:43.241            30.363                Norilsk           948.844
       317   04 Jun 2027 11:19:03.926   04 Jun 2027 11:19:24.570            20.644                Norilsk           645.125
       318   04 Jun 2027 11:19:28.264   04 Jun 2027 11:20:04.290            36.026                Norilsk          1125.812
       319   04 Jun 2027 11:54:32.818   04 Jun 2027 11:55:14.866            42.048            RioGallegos          1314.000
       320   04 Jun 2027 11:59:32.886   04 Jun 2027 11:59:38.467             5.581            RioGallegos           174.406
       321   04 Jun 2027 12:29:31.157   04 Jun 2027 12:32:19.904           168.747                Sumatra          5273.344
       322   04 Jun 2027 12:43:17.059   04 Jun 2027 12:43:39.961            22.902                Irkutsk           715.687
       323   04 Jun 2027 12:47:52.934   04 Jun 2027 12:48:53.279            60.345                Norilsk          1885.781
       324   04 Jun 2027 13:33:26.404   04 Jun 2027 13:35:14.889           108.485            RioGallegos          3390.156
       325   04 Jun 2027 14:07:59.486   04 Jun 2027 14:12:16.931           257.445                Sumatra          8045.156
       326   04 Jun 2027 14:23:53.484   04 Jun 2027 14:27:51.081           237.597                Irkutsk          7424.906
       327   04 Jun 2027 15:54:13.337   04 Jun 2027 15:56:58.877           165.540                  Delhi          5173.125
       328   04 Jun 2027 16:02:26.046   04 Jun 2027 16:06:05.382           219.336                Novosib          6854.250
       329   04 Jun 2027 17:34:49.429   04 Jun 2027 17:35:48.397            58.968                 Moscow          1842.750
       330   04 Jun 2027 17:37:22.889   04 Jun 2027 17:39:03.176           100.287                 Moscow          3133.969
       331   04 Jun 2027 17:40:46.845   04 Jun 2027 17:41:04.740            17.895              Murmansk2           559.219
       332   04 Jun 2027 17:41:04.740   04 Jun 2027 17:41:58.358            53.618              Murmansk1          1675.562
       333   04 Jun 2027 17:52:40.996   04 Jun 2027 17:53:18.734            37.738                Anadyr2          1179.313
       334   04 Jun 2027 17:54:50.653   04 Jun 2027 17:55:08.170            17.517                Anadyr1           547.406
       335   04 Jun 2027 17:55:22.708   04 Jun 2027 17:55:48.910            26.202                Anadyr1           818.813
       336   04 Jun 2027 18:47:26.594   04 Jun 2027 18:49:38.695           132.101               CapeTown          4128.156
       337   04 Jun 2027 19:17:00.214   04 Jun 2027 19:17:35.139            34.925              Murmansk2          1091.406
       338   04 Jun 2027 19:18:32.310   04 Jun 2027 19:22:15.373           223.063              Murmansk1          6970.719
       339   04 Jun 2027 19:22:25.682   04 Jun 2027 19:23:44.214            78.532              Murmansk2          2454.125
       340   04 Jun 2027 19:32:03.016   04 Jun 2027 19:32:43.744            40.728               Magadan2          1272.750
       341   04 Jun 2027 20:25:32.537   04 Jun 2027 20:27:10.782            98.245               CapeTown          3070.156
       342   04 Jun 2027 20:29:41.568   04 Jun 2027 20:30:16.710            35.142               CapeTown          1098.188
       343   04 Jun 2027 21:03:59.064   04 Jun 2027 21:07:11.175           192.111                Anadyr2          6003.469
       344   04 Jun 2027 21:07:24.120   04 Jun 2027 21:08:17.893            53.773               Magadan2          1680.406
       345   04 Jun 2027 21:08:17.893   04 Jun 2027 21:08:28.764            10.871               Magadan1           339.719
       346   04 Jun 2027 21:09:11.597   04 Jun 2027 21:09:26.619            15.022               Magadan2           469.438
       347   04 Jun 2027 21:12:59.949   04 Jun 2027 21:13:34.994            35.045               Magadan2          1095.156
       348   04 Jun 2027 21:15:28.521   04 Jun 2027 21:15:30.070             1.549               Magadan2            48.406
       349   04 Jun 2027 21:15:55.038   04 Jun 2027 21:16:05.963            10.925               Magadan1           341.406
       350   04 Jun 2027 22:39:53.121   04 Jun 2027 22:44:50.973           297.852                Anadyr2          9307.875
       351   04 Jun 2027 22:45:05.690   04 Jun 2027 22:45:12.875             7.185                Norilsk           224.531
       352   04 Jun 2027 22:45:24.273   04 Jun 2027 22:46:29.062            64.789               Magadan2          2024.656
       353   04 Jun 2027 22:47:08.865   04 Jun 2027 22:47:37.891            29.026               Magadan2           907.062
       354   04 Jun 2027 22:47:45.298   04 Jun 2027 22:48:01.152            15.854               Magadan1           495.438
       355   04 Jun 2027 22:48:24.611   04 Jun 2027 22:49:04.728            40.117                Irkutsk          1253.656
       356   04 Jun 2027 22:49:29.930   04 Jun 2027 22:50:04.635            34.705                Irkutsk          1084.531
       357   04 Jun 2027 23:34:06.177   04 Jun 2027 23:36:03.183           117.006            RioGallegos          3656.438
       358   04 Jun 2027 23:36:40.621   04 Jun 2027 23:37:07.897            27.276            RioGallegos           852.375
       359   04 Jun 2027 23:43:01.646   04 Jun 2027 23:43:35.120            33.474            RioGallegos          1046.062
       360   04 Jun 2027 23:44:59.328   04 Jun 2027 23:45:34.909            35.581            RioGallegos          1111.906
       361   05 Jun 2027 00:15:24.654   05 Jun 2027 00:17:01.327            96.673                Anadyr1          3021.031
       362   05 Jun 2027 00:17:01.327   05 Jun 2027 00:18:22.512            81.185                Anadyr2          2537.031
       363   05 Jun 2027 00:18:32.054   05 Jun 2027 00:19:27.723            55.669                Norilsk          1739.656
       364   05 Jun 2027 00:19:40.203   05 Jun 2027 00:20:07.413            27.210               Magadan2           850.313
       365   05 Jun 2027 00:21:46.720   05 Jun 2027 00:22:51.861            65.141                Irkutsk          2035.656
       366   05 Jun 2027 00:23:04.927   05 Jun 2027 00:24:25.803            80.876                Novosib          2527.375
       367   05 Jun 2027 00:35:28.272   05 Jun 2027 00:36:05.292            37.020                Sumatra          1156.875
       368   05 Jun 2027 00:40:02.706   05 Jun 2027 00:41:30.970            88.264                Sumatra          2758.250
       369   05 Jun 2027 01:14:30.154   05 Jun 2027 01:15:04.783            34.629            RioGallegos          1082.156
       370   05 Jun 2027 01:19:25.897   05 Jun 2027 01:19:52.889            26.992            RioGallegos           843.500
       371   05 Jun 2027 01:49:57.286   05 Jun 2027 01:50:31.194            33.908                Anadyr2          1059.625
       372   05 Jun 2027 01:50:31.194   05 Jun 2027 01:50:45.281            14.087                Anadyr1           440.219
       373   05 Jun 2027 01:51:25.856   05 Jun 2027 01:52:03.067            37.211                Anadyr2          1162.844
       374   05 Jun 2027 01:52:03.067   05 Jun 2027 01:52:14.714            11.647                Anadyr1           363.969
       375   05 Jun 2027 01:53:41.586   05 Jun 2027 01:55:03.934            82.348                Norilsk          2573.375
       376   05 Jun 2027 01:55:12.996   05 Jun 2027 01:55:16.794             3.798                Norilsk           118.688
       377   05 Jun 2027 01:56:40.560   05 Jun 2027 01:57:00.871            20.311                Norilsk           634.719
       378   05 Jun 2027 01:57:36.111   05 Jun 2027 01:59:34.586           118.475                Novosib          3702.344
       379   05 Jun 2027 01:59:52.258   05 Jun 2027 02:00:08.272            16.014                Irkutsk           500.437
       380   05 Jun 2027 02:00:32.637   05 Jun 2027 02:01:22.150            49.513                Irkutsk          1547.281
       381   05 Jun 2027 02:05:59.763   05 Jun 2027 02:06:04.696             4.933                  Delhi           154.156
       382   05 Jun 2027 02:06:31.495   05 Jun 2027 02:06:48.790            17.295                  Delhi           540.469
       383   05 Jun 2027 02:11:20.772   05 Jun 2027 02:11:50.306            29.534                  Delhi           922.938
       384   05 Jun 2027 02:14:05.813   05 Jun 2027 02:14:36.770            30.957                  Delhi           967.406
       385   05 Jun 2027 02:14:45.306   05 Jun 2027 02:15:56.614            71.308                Sumatra          2228.375
       386   05 Jun 2027 02:46:13.796   05 Jun 2027 02:47:33.230            79.434            RioGallegos          2482.312
       387   05 Jun 2027 02:48:45.108   05 Jun 2027 02:49:56.068            70.960            RioGallegos          2217.500
       388   05 Jun 2027 02:54:53.753   05 Jun 2027 02:55:19.673            25.920            RioGallegos           810.000
       389   05 Jun 2027 03:37:20.817   05 Jun 2027 03:37:50.446            29.629                Norilsk           925.906
       390   05 Jun 2027 03:38:19.830   05 Jun 2027 03:39:57.603            97.773                Novosib          3055.406
       391   05 Jun 2027 03:40:05.313   05 Jun 2027 03:42:28.427           143.114                Irkutsk          4472.313
       392   05 Jun 2027 03:42:40.686   05 Jun 2027 03:44:57.789           137.103                  Delhi          4284.469
       393   05 Jun 2027 04:56:52.844   05 Jun 2027 04:57:02.240             9.396                Anadyr2           293.625
       394   05 Jun 2027 04:58:23.315   05 Jun 2027 04:58:48.951            25.636                Anadyr2           801.125
       395   05 Jun 2027 04:59:21.200   05 Jun 2027 04:59:53.884            32.684                Anadyr2          1021.375
       396   05 Jun 2027 05:00:33.708   05 Jun 2027 05:00:46.869            13.161                Anadyr2           411.281
       397   05 Jun 2027 05:01:02.393   05 Jun 2027 05:01:10.886             8.493                Anadyr2           265.406
       398   05 Jun 2027 05:02:52.315   05 Jun 2027 05:02:59.291             6.976               Magadan2           218.000
       399   05 Jun 2027 05:04:02.450   05 Jun 2027 05:04:12.312             9.862               Magadan2           308.187
       400   05 Jun 2027 05:04:18.867   05 Jun 2027 05:04:49.633            30.766               Magadan2           961.438
       401   05 Jun 2027 05:15:33.937   05 Jun 2027 05:16:02.156            28.219                Novosib           881.844
       402   05 Jun 2027 05:16:55.342   05 Jun 2027 05:17:46.178            50.836                 Moscow          1588.625
       403   05 Jun 2027 05:17:57.746   05 Jun 2027 05:18:08.445            10.699                 Moscow           334.344
       404   05 Jun 2027 05:18:26.671   05 Jun 2027 05:18:36.962            10.291                 Moscow           321.594
       405   05 Jun 2027 05:18:53.217   05 Jun 2027 05:19:08.575            15.358                 Moscow           479.938
       406   05 Jun 2027 05:19:28.156   05 Jun 2027 05:20:30.339            62.183                 Moscow          1943.219
       407   05 Jun 2027 05:35:10.351   05 Jun 2027 05:36:03.530            53.179               CapeTown          1661.844
       408   05 Jun 2027 05:38:43.458   05 Jun 2027 05:38:43.659             0.201               CapeTown             6.281
       409   05 Jun 2027 06:38:05.896   05 Jun 2027 06:38:36.255            30.359               Magadan2           948.719
       410   05 Jun 2027 06:38:36.592   05 Jun 2027 06:39:27.442            50.850                Anadyr2          1589.063
       411   05 Jun 2027 06:39:41.516   05 Jun 2027 06:39:55.284            13.768               Magadan2           430.250
       412   05 Jun 2027 06:40:24.063   05 Jun 2027 06:40:44.042            19.979                Anadyr2           624.344
       413   05 Jun 2027 06:41:45.184   05 Jun 2027 06:42:33.956            48.772                Anadyr2          1524.125
       414   05 Jun 2027 06:52:05.922   05 Jun 2027 06:52:45.382            39.460                 Moscow          1233.125
       415   05 Jun 2027 07:12:20.502   05 Jun 2027 07:12:44.556            24.054               CapeTown           751.687
       416   05 Jun 2027 07:15:41.731   05 Jun 2027 07:17:15.931            94.200               CapeTown          2943.750
       417   05 Jun 2027 08:12:18.760   05 Jun 2027 08:12:52.820            34.060               Magadan1          1064.375
       418   05 Jun 2027 08:12:58.790   05 Jun 2027 08:13:47.996            49.206                Anadyr1          1537.688
       419   05 Jun 2027 08:14:13.394   05 Jun 2027 08:14:25.664            12.270               Magadan1           383.437
       420   05 Jun 2027 08:14:37.807   05 Jun 2027 08:15:38.996            61.189                Anadyr1          1912.156
       421   05 Jun 2027 08:15:58.471   05 Jun 2027 08:16:18.596            20.125               Magadan2           628.906
       422   05 Jun 2027 08:16:39.874   05 Jun 2027 08:17:45.199            65.325                Anadyr2          2041.406
       423   05 Jun 2027 08:59:55.994   05 Jun 2027 09:00:23.095            27.101            RioGallegos           846.906
       424   05 Jun 2027 09:47:35.687   05 Jun 2027 09:48:05.548            29.861               Magadan2           933.156
       425   05 Jun 2027 09:48:14.805   05 Jun 2027 09:48:22.615             7.810               Magadan1           244.063
       426   05 Jun 2027 09:49:11.263   05 Jun 2027 09:50:09.360            58.097               Magadan2          1815.531
       427   05 Jun 2027 09:50:42.780   05 Jun 2027 09:52:16.371            93.591               Magadan2          2924.719
       428   05 Jun 2027 09:52:44.254   05 Jun 2027 09:53:02.186            17.932               Magadan1           560.375
       429   05 Jun 2027 09:53:03.737   05 Jun 2027 09:53:39.325            35.588                Anadyr1          1112.125
       430   05 Jun 2027 09:53:41.223   05 Jun 2027 09:53:46.012             4.789               Magadan1           149.656
       431   05 Jun 2027 09:53:46.012   05 Jun 2027 09:54:40.851            54.839               Magadan2          1713.719
       432   05 Jun 2027 09:55:18.268   05 Jun 2027 09:55:20.984             2.716                Norilsk            84.875
       433   05 Jun 2027 09:55:36.329   05 Jun 2027 09:55:39.302             2.973                Norilsk            92.906
       434   05 Jun 2027 10:31:26.004   05 Jun 2027 10:31:50.691            24.687            RioGallegos           771.469
       435   05 Jun 2027 10:33:18.399   05 Jun 2027 10:33:39.909            21.510            RioGallegos           672.188
       436   05 Jun 2027 10:39:14.256   05 Jun 2027 10:39:59.762            45.506            RioGallegos          1422.062
       437   05 Jun 2027 11:11:54.207   05 Jun 2027 11:12:48.120            53.913                Sumatra          1684.781
       438   05 Jun 2027 11:26:07.773   05 Jun 2027 11:27:15.920            68.147               Magadan1          2129.594
       439   05 Jun 2027 11:27:34.328   05 Jun 2027 11:28:01.564            27.236               Magadan2           851.125
       440   05 Jun 2027 11:28:48.563   05 Jun 2027 11:29:53.202            64.639                Irkutsk          2019.969
       441   05 Jun 2027 11:30:00.313   05 Jun 2027 11:30:43.039            42.726                Irkutsk          1335.188
       442   05 Jun 2027 11:30:58.812   05 Jun 2027 11:31:31.944            33.132                Irkutsk          1035.375
       443   05 Jun 2027 11:31:41.056   05 Jun 2027 11:31:53.027            11.971                Irkutsk           374.094
       444   05 Jun 2027 12:06:41.022   05 Jun 2027 12:07:23.258            42.236            RioGallegos          1319.875
       445   05 Jun 2027 12:09:46.453   05 Jun 2027 12:10:39.168            52.715            RioGallegos          1647.344
       446   05 Jun 2027 12:41:26.827   05 Jun 2027 12:41:55.866            29.039                Sumatra           907.469
       447   05 Jun 2027 12:44:23.661   05 Jun 2027 12:44:25.893             2.232                Sumatra            69.750
       448   05 Jun 2027 12:44:56.126   05 Jun 2027 12:45:05.567             9.441                Sumatra           295.031
       449   05 Jun 2027 12:45:15.437   05 Jun 2027 12:45:23.761             8.324                Sumatra           260.125
       450   05 Jun 2027 12:55:33.059   05 Jun 2027 12:58:05.895           152.836                Irkutsk          4776.125
       451   05 Jun 2027 12:59:58.601   05 Jun 2027 13:00:52.643            54.042                Norilsk          1688.813
       452   05 Jun 2027 13:46:22.663   05 Jun 2027 13:47:29.619            66.956            RioGallegos          2092.375
       453   05 Jun 2027 13:50:37.727   05 Jun 2027 13:50:42.141             4.414            RioGallegos           137.937
       454   05 Jun 2027 13:51:13.341   05 Jun 2027 13:53:29.407           136.066            RioGallegos          4252.063
       455   05 Jun 2027 14:22:03.885   05 Jun 2027 14:24:29.476           145.591                Sumatra          4549.719
       456   05 Jun 2027 14:35:30.795   05 Jun 2027 14:37:32.821           122.026                Novosib          3813.312
       457   05 Jun 2027 14:37:57.360   05 Jun 2027 14:39:50.848           113.488                Irkutsk          3546.500
       458   05 Jun 2027 16:10:03.585   05 Jun 2027 16:11:16.258            72.673                 Moscow          2271.031
       459   05 Jun 2027 16:11:59.517   05 Jun 2027 16:12:18.401            18.884                 Moscow           590.125
       460   05 Jun 2027 16:13:28.194   05 Jun 2027 16:14:26.733            58.539              Murmansk1          1829.344
       461   05 Jun 2027 16:17:09.973   05 Jun 2027 16:18:34.742            84.769                Norilsk          2649.031
       462   05 Jun 2027 16:20:52.227   05 Jun 2027 16:22:47.743           115.516                Norilsk          3609.875
       463   05 Jun 2027 17:24:49.142   05 Jun 2027 17:25:15.311            26.169               CapeTown           817.781
       464   05 Jun 2027 17:27:47.776   05 Jun 2027 17:27:49.545             1.769               CapeTown            55.281
       465   05 Jun 2027 17:28:25.571   05 Jun 2027 17:28:34.324             8.753               CapeTown           273.531
       466   05 Jun 2027 17:30:32.560   05 Jun 2027 17:31:11.280            38.720               CapeTown          1210.000
       467   05 Jun 2027 17:47:12.827   05 Jun 2027 17:47:30.366            17.539                 Moscow           548.094
       468   05 Jun 2027 17:47:56.377   05 Jun 2027 17:48:48.676            52.299                 Moscow          1634.344
       469   05 Jun 2027 17:50:25.610   05 Jun 2027 17:51:27.635            62.025              Murmansk2          1938.281
       470   05 Jun 2027 17:52:05.313   05 Jun 2027 17:52:46.410            41.097              Murmansk2          1284.281
       471   05 Jun 2027 17:54:27.313   05 Jun 2027 17:54:46.078            18.765              Murmansk1           586.406
       472   05 Jun 2027 17:56:36.815   05 Jun 2027 17:58:04.444            87.629              Murmansk2          2738.406
       473   05 Jun 2027 18:07:04.622   05 Jun 2027 18:07:26.894            22.272                Anadyr1           696.000
       474   05 Jun 2027 18:59:30.493   05 Jun 2027 19:01:29.636           119.143               CapeTown          3723.219
       475   05 Jun 2027 19:05:52.035   05 Jun 2027 19:07:59.023           126.988               CapeTown          3968.375
       476   05 Jun 2027 19:29:35.716   05 Jun 2027 19:32:51.236           195.520              Murmansk2          6110.000
       477   05 Jun 2027 19:34:22.342   05 Jun 2027 19:35:02.601            40.259              Murmansk2          1258.094
       478   05 Jun 2027 19:35:31.576   05 Jun 2027 19:37:35.771           124.195              Murmansk2          3881.094
       479   05 Jun 2027 20:38:46.062   05 Jun 2027 20:40:49.336           123.274               CapeTown          3852.313
       480   05 Jun 2027 20:41:36.328   05 Jun 2027 20:42:17.832            41.504               CapeTown          1297.000
       481   05 Jun 2027 21:16:37.323   05 Jun 2027 21:16:53.005            15.682                Anadyr1           490.062
       482   05 Jun 2027 21:16:54.625   05 Jun 2027 21:17:07.108            12.483                Anadyr1           390.094
