uniorb/output/strategy_4/Drop/Drop_KinoSat_110306.txt

KinoSat_110306
-------------------------
    Access    *     Start Time (UTCG)     *     Stop Time (UTCG)  *   Duration (s)        *       Station  *  Data (Mbytes)
         1   01 Jun 2027 03:48:36.093   01 Jun 2027 03:48:57.009            20.916               Magadan1          2614.500
         2   01 Jun 2027 03:49:10.474   01 Jun 2027 03:50:49.847            99.373               Magadan2         12421.625
         3   01 Jun 2027 03:51:00.027   01 Jun 2027 03:51:30.541            30.514               Magadan2          3814.250
         4   01 Jun 2027 03:51:30.541   01 Jun 2027 03:52:09.983            39.442               Magadan1          4930.250
         5   01 Jun 2027 03:52:22.944   01 Jun 2027 03:52:50.263            27.319               Magadan1          3414.875
         6   01 Jun 2027 03:53:12.813   01 Jun 2027 03:53:35.042            22.229               Magadan1          2778.625
         7   01 Jun 2027 03:53:53.138   01 Jun 2027 03:54:21.726            28.588                Norilsk          3573.500
         8   01 Jun 2027 04:28:50.627   01 Jun 2027 04:30:09.702            79.075            RioGallegos          9884.375
         9   01 Jun 2027 05:04:03.279   01 Jun 2027 05:05:53.068           109.789                Sumatra         13723.625
        10   01 Jun 2027 05:17:40.084   01 Jun 2027 05:19:17.899            97.815                  Delhi         12226.875
        11   01 Jun 2027 05:26:24.241   01 Jun 2027 05:28:53.154           148.913                Irkutsk         18614.125
        12   01 Jun 2027 05:29:41.158   01 Jun 2027 05:29:44.935             3.777              Murmansk1           472.125
        13   01 Jun 2027 05:30:01.428   01 Jun 2027 05:30:04.473             3.045                Irkutsk           380.625
        14   01 Jun 2027 05:30:36.331   01 Jun 2027 05:31:14.728            38.397                Novosib          4799.625
        15   01 Jun 2027 05:33:39.190   01 Jun 2027 05:33:55.483            16.293                Norilsk          2036.625
        16   01 Jun 2027 06:07:07.431   01 Jun 2027 06:08:26.772            79.341            RioGallegos          9917.625
        17   01 Jun 2027 06:41:22.578   01 Jun 2027 06:41:47.522            24.944                Sumatra          3118.000
        18   01 Jun 2027 06:47:58.545   01 Jun 2027 06:49:51.030           112.485                  Delhi         14060.625
        19   01 Jun 2027 07:04:22.722   01 Jun 2027 07:04:48.240            25.518                Novosib          3189.750
        20   01 Jun 2027 07:04:56.963   01 Jun 2027 07:05:49.148            52.185              Murmansk1          6523.125
        21   01 Jun 2027 07:06:13.428   01 Jun 2027 07:06:44.926            31.498                Novosib          3937.250
        22   01 Jun 2027 08:26:59.205   01 Jun 2027 08:27:28.599            29.394                  Delhi          3674.250
        23   01 Jun 2027 08:36:32.280   01 Jun 2027 08:37:28.898            56.618                Novosib          7077.250
        24   01 Jun 2027 08:39:29.122   01 Jun 2027 08:41:32.458           123.336                Novosib         15417.000
        25   01 Jun 2027 08:42:03.518   01 Jun 2027 08:45:14.006           190.488                 Moscow         23811.000
        26   01 Jun 2027 08:45:22.554   01 Jun 2027 08:48:43.928           201.374              Murmansk1         25171.750
        27   01 Jun 2027 09:48:33.319   01 Jun 2027 09:51:14.397           161.078               CapeTown         20134.750
        28   01 Jun 2027 09:52:48.190   01 Jun 2027 09:55:19.299           151.109               CapeTown         18888.625
        29   01 Jun 2027 10:27:16.347   01 Jun 2027 10:27:18.956             2.609                Anadyr1           326.125
        30   01 Jun 2027 10:29:56.499   01 Jun 2027 10:31:30.091            93.592                Anadyr2         11699.000
        31   01 Jun 2027 12:07:09.349   01 Jun 2027 12:07:32.112            22.763                Anadyr2          2845.375
        32   01 Jun 2027 12:08:36.319   01 Jun 2027 12:10:12.927            96.608                Anadyr1         12076.000
        33   01 Jun 2027 13:40:50.010   01 Jun 2027 13:42:27.645            97.635               Magadan1         12204.375
        34   01 Jun 2027 13:42:36.092   01 Jun 2027 13:43:55.336            79.244               Magadan2          9905.500
        35   01 Jun 2027 13:48:21.313   01 Jun 2027 13:49:21.218            59.905               Magadan2          7488.125
        36   01 Jun 2027 16:08:38.577   01 Jun 2027 16:11:19.476           160.899            RioGallegos         20112.375
        37   01 Jun 2027 16:12:23.828   01 Jun 2027 16:14:26.300           122.472            RioGallegos         15309.000
        38   01 Jun 2027 16:56:14.078   01 Jun 2027 16:58:19.184           125.106                Irkutsk         15638.250
        39   01 Jun 2027 16:58:41.565   01 Jun 2027 17:01:22.591           161.026                Novosib         20128.250
        40   01 Jun 2027 17:11:37.543   01 Jun 2027 17:14:39.057           181.514                Sumatra         22689.250
        41   01 Jun 2027 18:39:44.518   01 Jun 2027 18:41:35.810           111.292                  Delhi          8891.250
        42   02 Jun 2027 04:06:22.672   02 Jun 2027 04:11:12.140           289.468                Norilsk         36183.500
        43   02 Jun 2027 05:15:52.937   02 Jun 2027 05:17:23.424            90.487                Sumatra         11310.875
        44   02 Jun 2027 05:18:51.245   02 Jun 2027 05:20:10.602            79.357                Sumatra          9919.625
        45   02 Jun 2027 05:31:35.563   02 Jun 2027 05:33:38.808           123.245                  Delhi         15405.625
        46   02 Jun 2027 05:40:27.008   02 Jun 2027 05:42:01.551            94.543                Irkutsk         11817.875
        47   02 Jun 2027 05:42:06.599   02 Jun 2027 05:43:41.758            95.159                 Moscow         11894.875
        48   02 Jun 2027 05:43:53.981   02 Jun 2027 05:47:09.627           195.646                Norilsk         24455.750
        49   02 Jun 2027 05:47:23.480   02 Jun 2027 05:49:27.048           123.568              Murmansk1         15446.000
        50   02 Jun 2027 06:57:19.311   02 Jun 2027 07:00:57.440           218.129                Sumatra         27266.125
        51   02 Jun 2027 07:07:24.610   02 Jun 2027 07:09:36.358           131.748                  Delhi         16468.500
        52   02 Jun 2027 07:17:40.899   02 Jun 2027 07:18:37.608            56.709              Murmansk2          7088.625
        53   02 Jun 2027 07:18:51.581   02 Jun 2027 07:20:13.346            81.765                Norilsk         10220.625
        54   02 Jun 2027 07:20:24.825   02 Jun 2027 07:21:29.023            64.198              Murmansk1          8024.750
        55   02 Jun 2027 07:21:29.023   02 Jun 2027 07:24:54.508           205.485              Murmansk2         25685.625
        56   02 Jun 2027 08:53:28.940   02 Jun 2027 08:54:14.161            45.221              Murmansk2          5652.625
        57   02 Jun 2027 08:54:47.320   02 Jun 2027 08:57:16.188           148.868                 Moscow         18608.500
        58   02 Jun 2027 08:57:23.925   02 Jun 2027 09:00:45.313           201.388              Murmansk2         25173.500
        59   02 Jun 2027 10:05:14.406   02 Jun 2027 10:08:23.324           188.918               CapeTown         23614.750
        60   02 Jun 2027 10:27:31.208   02 Jun 2027 10:29:21.182           109.974              Murmansk2         13746.750
        61   02 Jun 2027 10:30:02.474   02 Jun 2027 10:30:19.188            16.714                 Moscow          2089.250
        62   02 Jun 2027 10:31:52.524   02 Jun 2027 10:36:43.392           290.868              Murmansk1         36358.500
        63   02 Jun 2027 10:39:06.048   02 Jun 2027 10:47:31.753           505.705                Anadyr1         63213.125
        64   02 Jun 2027 11:41:45.656   02 Jun 2027 11:46:33.513           287.857               CapeTown         35982.125
        65   02 Jun 2027 12:03:25.926   02 Jun 2027 12:09:39.914           373.988              Murmansk2         46748.500
        66   02 Jun 2027 12:14:52.324   02 Jun 2027 12:16:57.142           124.818                Anadyr2         15602.250
        67   02 Jun 2027 12:18:29.207   02 Jun 2027 12:21:52.197           202.990               Magadan1         25373.750
        68   02 Jun 2027 13:55:57.265   02 Jun 2027 13:57:23.405            86.140               Magadan2         10767.500
        69   02 Jun 2027 15:34:50.580   02 Jun 2027 15:37:38.834           168.254                Irkutsk         21031.750
        70   02 Jun 2027 16:22:02.014   02 Jun 2027 16:23:57.748           115.734            RioGallegos         14466.750
        71   02 Jun 2027 17:08:09.364   02 Jun 2027 17:09:57.702           108.338                Irkutsk         13542.250
        72   02 Jun 2027 17:10:35.215   02 Jun 2027 17:16:55.257           380.042                Novosib         47505.250
        73   02 Jun 2027 18:50:53.218   02 Jun 2027 18:51:25.920            32.702                Novosib          4087.750
        74   02 Jun 2027 18:51:31.479   02 Jun 2027 18:53:47.389           135.910                  Delhi         16988.750
        75   02 Jun 2027 20:22:42.429   02 Jun 2027 20:26:37.943           235.514                 Moscow         19663.500
        76   03 Jun 2027 04:18:22.910   03 Jun 2027 04:19:30.147            67.237                Novosib          8404.625
        77   03 Jun 2027 04:19:38.779   03 Jun 2027 04:23:19.153           220.374              Murmansk1         27546.750
        78   03 Jun 2027 05:27:48.410   03 Jun 2027 05:28:32.318            43.908                Sumatra          5488.500
        79   03 Jun 2027 05:28:32.941   03 Jun 2027 05:30:21.234           108.293                Sumatra         13536.625
        80   03 Jun 2027 05:39:17.139   03 Jun 2027 05:41:13.286           116.147                  Delhi         14518.375
        81   03 Jun 2027 05:54:31.637   03 Jun 2027 05:59:11.433           279.796                Norilsk         34974.500
        82   03 Jun 2027 05:59:31.600   03 Jun 2027 06:01:22.876           111.276              Murmansk2         13909.500
        83   03 Jun 2027 07:20:06.274   03 Jun 2027 07:24:39.360           273.086                  Delhi         34135.750
        84   03 Jun 2027 07:24:41.682   03 Jun 2027 07:25:20.985            39.303                 Moscow          4912.875
        85   03 Jun 2027 07:25:26.048   03 Jun 2027 07:25:36.314            10.266                Irkutsk          1283.250
        86   03 Jun 2027 07:30:03.506   03 Jun 2027 07:30:38.192            34.686              Murmansk1          4335.750
        87   03 Jun 2027 07:32:01.061   03 Jun 2027 07:36:54.292           293.231              Murmansk2         36653.875
        88   03 Jun 2027 09:06:25.163   03 Jun 2027 09:07:47.364            82.201                Norilsk         10275.125
        89   03 Jun 2027 09:07:50.178   03 Jun 2027 09:09:17.828            87.650                 Moscow         10956.250
        90   03 Jun 2027 09:09:43.237   03 Jun 2027 09:12:46.809           183.572              Murmansk2         22946.500
        91   03 Jun 2027 10:19:31.566   03 Jun 2027 10:21:09.293            97.727               CapeTown         12215.875
        92   03 Jun 2027 10:39:09.149   03 Jun 2027 10:41:04.772           115.623              Murmansk1         14452.875
        93   03 Jun 2027 10:41:04.772   03 Jun 2027 10:48:44.748           459.976              Murmansk2         57497.000
        94   03 Jun 2027 10:50:58.587   03 Jun 2027 11:00:10.084           551.497                Anadyr2         68937.125
        95   03 Jun 2027 11:53:56.321   03 Jun 2027 11:58:25.876           269.555               CapeTown         33694.375
        96   03 Jun 2027 12:16:01.308   03 Jun 2027 12:24:27.369           506.061              Murmansk1         63257.625
        97   03 Jun 2027 12:26:28.068   03 Jun 2027 12:36:02.823           574.755                Anadyr1         71844.375
        98   03 Jun 2027 14:04:45.075   03 Jun 2027 14:05:53.479            68.404               Magadan1          8550.500
        99   03 Jun 2027 14:07:33.825   03 Jun 2027 14:11:16.503           222.678               Magadan1         27834.750
       100   03 Jun 2027 15:46:01.759   03 Jun 2027 15:49:26.491           204.732                Irkutsk         25591.500
       101   03 Jun 2027 15:50:11.589   03 Jun 2027 15:52:45.174           153.585                Irkutsk         19198.125
       102   03 Jun 2027 16:02:18.516   03 Jun 2027 16:03:31.636            73.120                Sumatra          9140.000
       103   03 Jun 2027 17:21:07.702   03 Jun 2027 17:25:05.854           238.152                Novosib         29769.000
       104   03 Jun 2027 17:34:01.400   03 Jun 2027 17:35:09.003            67.603                Sumatra          8450.375
       105   03 Jun 2027 17:43:25.396   03 Jun 2027 17:45:24.040           118.644                Sumatra         14830.500
       106   03 Jun 2027 19:03:22.847   03 Jun 2027 19:05:24.635           121.788                  Delhi         15223.500
       107   03 Jun 2027 19:06:14.938   03 Jun 2027 19:06:48.205            33.267                  Delhi          4158.375
       108   03 Jun 2027 20:33:48.130   03 Jun 2027 20:35:01.369            73.239              Murmansk2          9154.875
       109   03 Jun 2027 20:35:35.718   03 Jun 2027 20:38:32.239           176.521                 Moscow         12489.000
       110   04 Jun 2027 04:30:27.375   04 Jun 2027 04:35:10.701           283.326              Murmansk1         35415.750
       111   04 Jun 2027 05:39:49.465   04 Jun 2027 05:42:01.611           132.146                Sumatra         16518.250
       112   04 Jun 2027 05:50:20.533   04 Jun 2027 05:51:15.797            55.264                  Delhi          6908.000
       113   04 Jun 2027 05:55:57.630   04 Jun 2027 05:56:58.826            61.196                  Delhi          7649.500
       114   04 Jun 2027 06:06:21.632   04 Jun 2027 06:06:48.110            26.478                 Moscow          3309.750
       115   04 Jun 2027 06:07:00.175   04 Jun 2027 06:07:47.321            47.146                Novosib          5893.250
       116   04 Jun 2027 06:08:08.956   04 Jun 2027 06:11:13.298           184.342                Norilsk         23042.750
       117   04 Jun 2027 06:11:22.181   04 Jun 2027 06:13:19.343           117.162              Murmansk2         14645.250
       118   04 Jun 2027 07:32:10.404   04 Jun 2027 07:36:31.017           260.613                  Delhi         32576.625
       119   04 Jun 2027 07:41:59.150   04 Jun 2027 07:42:38.453            39.303              Murmansk2          4912.875
       120   04 Jun 2027 07:42:51.008   04 Jun 2027 07:43:12.618            21.610                Norilsk          2701.250
       121   04 Jun 2027 07:44:01.950   04 Jun 2027 07:48:54.399           292.449              Murmansk1         36556.125
       122   04 Jun 2027 09:17:01.170   04 Jun 2027 09:21:18.876           257.706                 Moscow         32213.250
       123   04 Jun 2027 09:22:01.602   04 Jun 2027 09:24:48.395           166.793              Murmansk2         20849.125
       124   04 Jun 2027 10:29:22.851   04 Jun 2027 10:33:43.761           260.910               CapeTown         32613.750
       125   04 Jun 2027 10:51:34.398   04 Jun 2027 10:52:27.124            52.726              Murmansk1          6590.750
       126   04 Jun 2027 10:52:27.124   04 Jun 2027 11:00:45.913           498.789              Murmansk2         62348.625
       127   04 Jun 2027 11:02:53.144   04 Jun 2027 11:12:44.040           590.896                Anadyr2         73862.000
       128   04 Jun 2027 12:00:52.750   04 Jun 2027 12:10:13.177           560.427               CapeTown         70053.375
       129   04 Jun 2027 12:28:40.193   04 Jun 2027 12:29:58.610            78.417              Murmansk2          9802.125
       130   04 Jun 2027 12:39:56.874   04 Jun 2027 12:41:24.742            87.868                Anadyr1         10983.500
       131   04 Jun 2027 12:41:44.390   04 Jun 2027 12:43:21.021            96.631               Magadan2         12078.875
       132   04 Jun 2027 12:45:43.993   04 Jun 2027 12:45:50.038             6.045               Magadan2           755.625
       133   04 Jun 2027 12:46:59.033   04 Jun 2027 12:48:04.660            65.627               Magadan1          8203.375
       134   04 Jun 2027 14:16:43.859   04 Jun 2027 14:17:42.948            59.089               Magadan2          7386.125
       135   04 Jun 2027 14:20:44.341   04 Jun 2027 14:21:24.604            40.263               Magadan1          5032.875
       136   04 Jun 2027 14:26:16.996   04 Jun 2027 14:27:10.988            53.992               Magadan1          6749.000
       137   04 Jun 2027 15:11:13.618   04 Jun 2027 15:13:39.598           145.980            RioGallegos         18247.500
       138   04 Jun 2027 15:57:31.777   04 Jun 2027 16:01:17.197           225.420                Irkutsk         28177.500
       139   04 Jun 2027 16:12:48.780   04 Jun 2027 16:15:09.644           140.864                Sumatra         17608.000
       140   04 Jun 2027 17:32:51.812   04 Jun 2027 17:34:26.266            94.454                Novosib         11806.750
       141   04 Jun 2027 17:39:01.166   04 Jun 2027 17:41:37.803           156.637                Novosib         19579.625
       142   04 Jun 2027 17:43:49.418   04 Jun 2027 17:45:02.833            73.415                  Delhi          9176.875
       143   04 Jun 2027 19:15:18.012   04 Jun 2027 19:16:54.836            96.824                  Delhi         12103.000
       144   04 Jun 2027 20:42:19.876   04 Jun 2027 20:42:55.125            35.249              Murmansk2          4406.125
       145   04 Jun 2027 20:46:12.918   04 Jun 2027 20:48:42.686           149.768                 Moscow         16564.875
       146   05 Jun 2027 04:18:18.319   05 Jun 2027 04:21:01.383           163.064                Sumatra         20383.000
       147   05 Jun 2027 04:42:26.145   05 Jun 2027 04:50:13.031           466.886              Murmansk2         58360.750
       148   05 Jun 2027 05:26:06.773   05 Jun 2027 05:29:32.651           205.878            RioGallegos         25734.750
       149   05 Jun 2027 05:51:56.187   05 Jun 2027 06:04:17.832           741.645                Sumatra         92705.625
       150   05 Jun 2027 06:06:40.493   05 Jun 2027 06:08:15.125            94.632                Irkutsk         11829.000
       151   05 Jun 2027 06:16:47.098   05 Jun 2027 06:17:28.543            41.445                Irkutsk          5180.625
       152   05 Jun 2027 06:18:13.028   05 Jun 2027 06:18:43.777            30.749              Murmansk2          3843.625
       153   05 Jun 2027 06:19:10.270   05 Jun 2027 06:19:48.240            37.970                Novosib          4746.250
       154   05 Jun 2027 06:20:04.952   05 Jun 2027 06:23:15.202           190.250                Norilsk         23781.250
       155   05 Jun 2027 06:23:19.955   05 Jun 2027 06:25:16.399           116.444              Murmansk1         14555.500
       156   05 Jun 2027 07:42:08.234   05 Jun 2027 07:48:18.325           370.091                  Delhi         46261.375
       157   05 Jun 2027 07:53:46.770   05 Jun 2027 07:54:38.797            52.027                 Moscow          6503.375
       158   05 Jun 2027 07:56:03.045   05 Jun 2027 07:57:42.173            99.128              Murmansk2         12391.000
       159   05 Jun 2027 07:57:42.173   05 Jun 2027 08:00:54.792           192.619              Murmansk1         24077.375
       160   05 Jun 2027 09:23:44.482   05 Jun 2027 09:25:07.104            82.622                 Moscow         10327.750
       161   05 Jun 2027 09:28:49.149   05 Jun 2027 09:31:02.492           133.343              Murmansk1         16667.875
       162   05 Jun 2027 09:31:10.190   05 Jun 2027 09:33:44.327           154.137                Norilsk         19267.125
       163   05 Jun 2027 09:34:05.503   05 Jun 2027 09:36:50.041           164.538              Murmansk1         20567.250
       164   05 Jun 2027 10:39:13.768   05 Jun 2027 10:46:09.642           415.874               CapeTown         51984.250
       165   05 Jun 2027 11:03:36.060   05 Jun 2027 11:04:28.264            52.204              Murmansk1          6525.500
       166   05 Jun 2027 11:04:30.404   05 Jun 2027 11:08:28.030           237.626                 Moscow         29703.250
       167   05 Jun 2027 11:08:30.300   05 Jun 2027 11:12:46.841           256.541              Murmansk2         32067.625
       168   05 Jun 2027 11:15:15.873   05 Jun 2027 11:22:44.483           448.610                Anadyr2         56076.250
       169   05 Jun 2027 12:53:31.294   05 Jun 2027 12:57:45.681           254.387               Magadan1         31798.375
       170   05 Jun 2027 12:59:25.610   05 Jun 2027 13:02:48.017           202.407               Magadan2         25300.875
       171   05 Jun 2027 15:22:17.730   05 Jun 2027 15:22:51.856            34.126            RioGallegos          4265.750
       172   05 Jun 2027 16:09:31.374   05 Jun 2027 16:13:10.249           218.875                Irkutsk         27359.375
       173   05 Jun 2027 16:23:53.117   05 Jun 2027 16:26:54.759           181.642                Sumatra         22705.250
       174   05 Jun 2027 17:47:44.724   05 Jun 2027 17:48:56.621            71.897                Novosib          8987.125
       175   05 Jun 2027 17:54:10.393   05 Jun 2027 17:56:43.042           152.649                  Delhi         19081.125
       176   05 Jun 2027 19:27:16.645   05 Jun 2027 19:28:43.815            87.170                  Delhi         10896.250
       177   05 Jun 2027 20:57:16.551   05 Jun 2027 20:59:00.799           104.248              Murmansk1         13031.000
       178   05 Jun 2027 21:00:49.584   05 Jun 2027 21:02:02.610            73.026                 Moscow          9128.250
       179   05 Jun 2027 21:24:13.842   05 Jun 2027 21:24:40.191            26.349               CapeTown          3293.625
       180   05 Jun 2027 21:26:43.189   05 Jun 2027 21:28:07.735            84.546               CapeTown          8215.125
       181   06 Jun 2027 03:17:13.130   06 Jun 2027 03:18:13.501            60.371               Magadan2          7546.375
       182   06 Jun 2027 03:18:16.289   06 Jun 2027 03:20:05.111           108.822              Murmansk2         13602.750
       183   06 Jun 2027 04:29:31.890   06 Jun 2027 04:30:59.449            87.559                Sumatra         10944.875
       184   06 Jun 2027 04:35:44.047   06 Jun 2027 04:37:45.414           121.367                Sumatra         15170.875
       185   06 Jun 2027 04:54:28.290   06 Jun 2027 04:59:18.219           289.929                Norilsk         36241.125
       186   06 Jun 2027 04:59:18.330   06 Jun 2027 05:02:05.287           166.957              Murmansk1         20869.625
       187   06 Jun 2027 06:11:58.287   06 Jun 2027 06:16:01.405           243.118                Sumatra         30389.750
       188   06 Jun 2027 06:18:57.310   06 Jun 2027 06:21:09.166           131.856                Novosib         16482.000
       189   06 Jun 2027 06:21:46.518   06 Jun 2027 06:25:50.825           244.307                Novosib         30538.375
       190   06 Jun 2027 06:29:23.846   06 Jun 2027 06:31:48.495           144.649                Novosib         18081.125
       191   06 Jun 2027 06:32:15.468   06 Jun 2027 06:33:51.342            95.874              Murmansk1         11984.250
       192   06 Jun 2027 06:33:51.342   06 Jun 2027 06:37:14.016           202.674              Murmansk2         25334.250
       193   06 Jun 2027 07:56:08.767   06 Jun 2027 07:56:20.524            11.757                  Delhi          1469.625
       194   06 Jun 2027 07:57:29.529   06 Jun 2027 08:01:52.340           262.811                Novosib         32851.375
       195   06 Jun 2027 08:06:32.655   06 Jun 2027 08:06:43.752            11.097                 Moscow          1387.125
       196   06 Jun 2027 08:08:04.301   06 Jun 2027 08:12:55.450           291.149              Murmansk2         36393.625
       197   06 Jun 2027 09:36:07.169   06 Jun 2027 09:36:40.799            33.630                 Moscow          4203.750
       198   06 Jun 2027 09:39:18.299   06 Jun 2027 09:39:40.732            22.433              Murmansk1          2804.125
       199   06 Jun 2027 09:40:18.369   06 Jun 2027 09:45:18.942           300.573                 Moscow         37571.625
       200   06 Jun 2027 09:45:24.872   06 Jun 2027 09:48:51.721           206.849              Murmansk1         25856.125
       201   06 Jun 2027 09:54:07.588   06 Jun 2027 09:55:51.900           104.312                Anadyr2         13039.000
       202   06 Jun 2027 10:53:56.618   06 Jun 2027 10:58:28.527           271.909               CapeTown         33988.625
       203   06 Jun 2027 11:16:17.233   06 Jun 2027 11:16:48.700            31.467                 Moscow          3933.375
       204   06 Jun 2027 11:19:40.641   06 Jun 2027 11:21:52.690           132.049              Murmansk1         16506.125
       205   06 Jun 2027 11:21:52.690   06 Jun 2027 11:24:47.454           174.764              Murmansk2         21845.500
       206   06 Jun 2027 11:26:46.376   06 Jun 2027 11:28:09.506            83.130                Anadyr2         10391.250
       207   06 Jun 2027 13:05:21.552   06 Jun 2027 13:07:49.244           147.692               Magadan2         18461.500
       208   06 Jun 2027 13:07:49.244   06 Jun 2027 13:09:42.531           113.287               Magadan1         14160.875
       209   06 Jun 2027 13:11:48.317   06 Jun 2027 13:15:23.711           215.394               Magadan2         26924.250
       210   06 Jun 2027 15:33:44.818   06 Jun 2027 15:35:08.292            83.474            RioGallegos         10434.250
       211   06 Jun 2027 16:23:26.880   06 Jun 2027 16:25:05.182            98.302                Irkutsk         12287.750
       212   06 Jun 2027 16:35:13.857   06 Jun 2027 16:38:46.067           212.210                Sumatra         26526.250
       213   06 Jun 2027 17:59:19.879   06 Jun 2027 18:00:06.695            46.816                Novosib          5852.000
       214   06 Jun 2027 18:05:17.965   06 Jun 2027 18:08:28.919           190.954                  Delhi         23869.250
       215   06 Jun 2027 21:08:23.418   06 Jun 2027 21:09:26.649            63.231              Murmansk2          7903.875
       216   06 Jun 2027 21:09:56.291   06 Jun 2027 21:11:27.884            91.593                 Moscow         11449.125
       217   06 Jun 2027 21:35:12.499   06 Jun 2027 21:36:40.896            88.397               CapeTown         11049.625
       218   06 Jun 2027 21:41:18.113   06 Jun 2027 21:42:31.858            73.745               CapeTown          9218.125
       219   07 Jun 2027 03:30:24.390   07 Jun 2027 03:31:15.451            51.061                Novosib          6382.625
       220   07 Jun 2027 03:31:55.620   07 Jun 2027 03:33:48.756           113.136                Norilsk         14142.000
       221   07 Jun 2027 04:40:58.500   07 Jun 2027 04:42:08.990            70.490                Sumatra          8811.250
       222   07 Jun 2027 04:47:51.193   07 Jun 2027 04:48:11.724            20.531                Sumatra          2566.375
       223   07 Jun 2027 05:06:30.026   07 Jun 2027 05:11:19.544           289.518                Norilsk         36189.750
       224   07 Jun 2027 05:11:46.372   07 Jun 2027 05:13:58.292           131.920              Murmansk2         16490.000
       225   07 Jun 2027 06:23:57.377   07 Jun 2027 06:27:37.593           220.216                Sumatra         27527.000
       226   07 Jun 2027 06:31:03.501   07 Jun 2027 06:33:37.675           154.174                Novosib         19271.750
       227   07 Jun 2027 06:33:55.031   07 Jun 2027 06:36:52.260           177.229                  Delhi         22153.625
       228   07 Jun 2027 06:36:53.377   07 Jun 2027 06:37:21.192            27.815                Irkutsk          3476.875
       229   07 Jun 2027 06:42:01.337   07 Jun 2027 06:43:48.001           106.664                Novosib         13333.000
       230   07 Jun 2027 06:44:14.904   07 Jun 2027 06:45:47.587            92.683              Murmansk1         11585.375
       231   07 Jun 2027 06:45:47.587   07 Jun 2027 06:49:12.143           204.556              Murmansk2         25569.500
       232   07 Jun 2027 08:08:02.735   07 Jun 2027 08:08:35.684            32.949                  Delhi          4118.625
       233   07 Jun 2027 08:09:54.789   07 Jun 2027 08:13:16.699           201.910                Novosib         25238.750
       234   07 Jun 2027 08:17:48.158   07 Jun 2027 08:18:39.173            51.015                Novosib          6376.875
       235   07 Jun 2027 08:18:55.123   07 Jun 2027 08:19:14.763            19.640                Norilsk          2455.000
       236   07 Jun 2027 08:20:05.708   07 Jun 2027 08:24:56.327           290.619              Murmansk2         36327.375
       237   07 Jun 2027 09:47:44.251   07 Jun 2027 09:48:10.349            26.098                 Moscow          3262.250
       238   07 Jun 2027 09:51:19.261   07 Jun 2027 09:52:39.573            80.312              Murmansk2         10039.000
       239   07 Jun 2027 09:52:39.573   07 Jun 2027 09:54:41.575           122.002              Murmansk1         15250.250
       240   07 Jun 2027 09:54:47.556   07 Jun 2027 09:57:17.789           150.233                 Moscow         18779.125
       241   07 Jun 2027 09:57:56.123   07 Jun 2027 10:00:53.399           177.276              Murmansk1         22159.500
       242   07 Jun 2027 10:04:07.541   07 Jun 2027 10:09:12.963           305.422                Anadyr1         38177.750
       243   07 Jun 2027 11:05:54.059   07 Jun 2027 11:10:41.356           287.297               CapeTown         35912.125
       244   07 Jun 2027 11:28:10.303   07 Jun 2027 11:29:02.683            52.380                 Moscow          6547.500
       245   07 Jun 2027 11:31:50.745   07 Jun 2027 11:33:49.817           119.072              Murmansk1         14884.000
       246   07 Jun 2027 11:33:49.817   07 Jun 2027 11:36:47.686           177.869              Murmansk2         22233.625
       247   07 Jun 2027 13:17:14.228   07 Jun 2027 13:20:09.661           175.433               Magadan2         21929.125
       248   07 Jun 2027 13:21:03.660   07 Jun 2027 13:26:24.775           321.115               Magadan1         40139.375
       249   07 Jun 2027 15:45:22.121   07 Jun 2027 15:49:18.500           236.379            RioGallegos         29547.375
       250   07 Jun 2027 16:46:45.441   07 Jun 2027 16:48:23.591            98.150                Sumatra         12268.750
       251   07 Jun 2027 16:58:00.005   07 Jun 2027 16:58:16.676            16.671                Sumatra          2083.875
       252   07 Jun 2027 18:08:24.280   07 Jun 2027 18:10:02.561            98.281                Novosib         12285.125
       253   07 Jun 2027 18:16:42.622   07 Jun 2027 18:20:19.376           216.754                  Delhi         27094.250
       254   07 Jun 2027 19:49:18.989   07 Jun 2027 19:50:26.423            67.434                 Moscow          8429.250
       255   07 Jun 2027 19:51:23.693   07 Jun 2027 19:51:32.989             9.296                 Moscow          1162.000
       256   07 Jun 2027 21:21:50.966   07 Jun 2027 21:23:52.462           121.496                 Moscow         15187.000
       257   07 Jun 2027 21:46:41.647   07 Jun 2027 21:48:03.097            81.450               CapeTown         10181.250
       258   08 Jun 2027 03:42:36.750   08 Jun 2027 03:44:44.183           127.433              Murmansk2         15929.125
       259   08 Jun 2027 04:52:34.430   08 Jun 2027 04:54:31.942           117.512                Sumatra         14689.000
       260   08 Jun 2027 05:06:55.544   08 Jun 2027 05:08:41.392           105.848                  Delhi         13231.000
       261   08 Jun 2027 05:17:50.996   08 Jun 2027 05:18:00.502             9.506              Murmansk1          1188.250
       262   08 Jun 2027 05:18:31.850   08 Jun 2027 05:23:21.026           289.176                Norilsk         36147.000
       263   08 Jun 2027 05:23:34.014   08 Jun 2027 05:25:52.042           138.028              Murmansk2         17253.500
       264   08 Jun 2027 06:43:12.826   08 Jun 2027 06:45:25.944           133.118                Novosib         16639.750
       265   08 Jun 2027 06:45:48.433   08 Jun 2027 06:48:57.675           189.242                  Delhi         23655.250
       266   08 Jun 2027 06:49:14.324   08 Jun 2027 06:50:20.158            65.834                Irkutsk          8229.250
       267   08 Jun 2027 06:54:24.510   08 Jun 2027 06:55:05.737            41.227                 Moscow          5153.375
       268   08 Jun 2027 06:55:18.095   08 Jun 2027 06:55:46.663            28.568                Novosib          3571.000
       269   08 Jun 2027 06:56:14.699   08 Jun 2027 06:58:00.763           106.064              Murmansk1         13258.000
       270   08 Jun 2027 06:58:00.763   08 Jun 2027 07:01:10.740           189.977              Murmansk2         23747.125
       271   08 Jun 2027 08:22:44.399   08 Jun 2027 08:25:35.534           171.135                Novosib         21391.875
       272   08 Jun 2027 08:32:07.222   08 Jun 2027 08:36:57.410           290.188              Murmansk1         36273.500
       273   08 Jun 2027 09:40:28.818   08 Jun 2027 09:41:48.604            79.786               CapeTown          9973.250
       274   08 Jun 2027 09:59:42.918   08 Jun 2027 10:00:42.348            59.430                 Moscow          7428.750
       275   08 Jun 2027 10:03:43.007   08 Jun 2027 10:05:57.019           134.012              Murmansk2         16751.500
       276   08 Jun 2027 10:06:07.107   08 Jun 2027 10:09:15.685           188.578                 Moscow         23572.250
       277   08 Jun 2027 10:09:30.131   08 Jun 2027 10:12:55.050           204.919              Murmansk1         25614.875
       278   08 Jun 2027 10:15:45.438   08 Jun 2027 10:22:13.280           387.842                Anadyr1         48480.250
       279   08 Jun 2027 11:17:46.549   08 Jun 2027 11:22:48.702           302.153               CapeTown         37769.125
       280   08 Jun 2027 11:40:01.111   08 Jun 2027 11:41:14.126            73.015                 Moscow          9126.875
       281   08 Jun 2027 11:43:48.055   08 Jun 2027 11:47:19.195           211.140              Murmansk1         26392.500
       282   08 Jun 2027 13:29:08.732   08 Jun 2027 13:33:49.755           281.023               Magadan1         35127.875
       283   08 Jun 2027 15:59:25.615   08 Jun 2027 16:03:11.058           225.443            RioGallegos         28180.375
       284   08 Jun 2027 16:44:35.188   08 Jun 2027 16:46:09.503            94.315                Irkutsk         11789.375
       285   08 Jun 2027 16:47:29.199   08 Jun 2027 16:47:43.382            14.183                Irkutsk          1772.875
       286   08 Jun 2027 16:49:05.353   08 Jun 2027 16:50:32.750            87.397                Novosib         10924.625
       287   08 Jun 2027 16:58:25.265   08 Jun 2027 17:00:20.736           115.471                Sumatra         14433.875
       288   08 Jun 2027 17:04:16.682   08 Jun 2027 17:04:45.220            28.538                Sumatra          3567.250
       289   08 Jun 2027 17:07:48.631   08 Jun 2027 17:08:45.023            56.392                Sumatra          7049.000
       290   08 Jun 2027 18:20:19.288   08 Jun 2027 18:22:10.392           111.104                Novosib         13888.000
       291   08 Jun 2027 18:28:17.320   08 Jun 2027 18:30:29.692           132.372                  Delhi         16546.500
       292   08 Jun 2027 18:31:26.314   08 Jun 2027 18:32:13.746            47.432                  Delhi          5929.000
       293   08 Jun 2027 20:00:37.027   08 Jun 2027 20:03:09.923           152.896                 Moscow         19112.000
       294   08 Jun 2027 21:41:37.319   08 Jun 2027 21:43:14.391            97.072                 Moscow         12134.000
       295   08 Jun 2027 21:58:17.423   08 Jun 2027 22:00:18.999           121.576               CapeTown          7706.625
       296   09 Jun 2027 03:54:35.878   09 Jun 2027 03:55:31.909            56.031                Novosib          7003.875
       297   09 Jun 2027 03:55:46.075   09 Jun 2027 03:59:27.629           221.554                Norilsk         27694.250
       298   09 Jun 2027 05:04:17.798   09 Jun 2027 05:06:07.456           109.658                Sumatra         13707.250
       299   09 Jun 2027 05:06:54.350   09 Jun 2027 05:08:49.151           114.801                Sumatra         14350.125
       300   09 Jun 2027 05:30:15.779   09 Jun 2027 05:30:19.153             3.374                Irkutsk           421.750
       301   09 Jun 2027 05:30:29.029   09 Jun 2027 05:30:42.974            13.945              Murmansk2          1743.125
       302   09 Jun 2027 05:30:43.712   09 Jun 2027 05:35:22.645           278.933                Norilsk         34866.625
       303   09 Jun 2027 05:35:28.208   09 Jun 2027 05:37:46.515           138.307              Murmansk1         17288.375
       304   09 Jun 2027 06:55:25.469   09 Jun 2027 06:57:39.586           134.117                Novosib         16764.625
       305   09 Jun 2027 06:57:47.127   09 Jun 2027 07:00:59.785           192.658                  Delhi         24082.250
       306   09 Jun 2027 07:01:00.054   09 Jun 2027 07:02:20.028            79.974                Irkutsk          9996.750
       307   09 Jun 2027 07:05:57.075   09 Jun 2027 07:07:24.372            87.297                 Moscow         10912.125
       308   09 Jun 2027 07:08:14.818   09 Jun 2027 07:13:09.775           294.957              Murmansk1         36869.625
       309   09 Jun 2027 08:32:48.487   09 Jun 2027 08:33:30.686            42.199                 Moscow          5274.875
       310   09 Jun 2027 08:36:47.369   09 Jun 2027 08:37:10.808            23.439                Novosib          2929.875
       311   09 Jun 2027 08:41:33.108   09 Jun 2027 08:41:55.120            22.012              Murmansk2          2751.500
       312   09 Jun 2027 08:43:14.463   09 Jun 2027 08:45:28.749           134.286                 Moscow         16785.750
       313   09 Jun 2027 08:45:37.273   09 Jun 2027 08:48:58.652           201.379              Murmansk2         25172.375
       314   09 Jun 2027 09:53:03.533   09 Jun 2027 09:55:35.110           151.577               CapeTown         18947.125
       315   09 Jun 2027 10:15:44.368   09 Jun 2027 10:18:04.942           140.574              Murmansk2         17571.750
       316   09 Jun 2027 10:18:13.327   09 Jun 2027 10:21:12.468           179.141                 Moscow         22392.625
       317   09 Jun 2027 10:21:17.583   09 Jun 2027 10:24:56.635           219.052              Murmansk1         27381.500
       318   09 Jun 2027 10:27:30.870   09 Jun 2027 10:35:03.552           452.682                Anadyr1         56585.250
       319   09 Jun 2027 11:29:44.069   09 Jun 2027 11:34:50.911           306.842               CapeTown         38355.250
       320   09 Jun 2027 11:51:42.406   09 Jun 2027 11:51:53.256            10.850              Murmansk1          1356.250
       321   09 Jun 2027 11:52:01.291   09 Jun 2027 11:54:37.411           156.120                 Moscow         19515.000
       322   09 Jun 2027 11:56:13.273   09 Jun 2027 12:00:46.522           273.249              Murmansk2         34156.125
       323   09 Jun 2027 12:02:42.670   09 Jun 2027 12:07:24.184           281.514                Anadyr1         35189.250
       324   09 Jun 2027 12:07:29.404   09 Jun 2027 12:09:25.836           116.432               Magadan2         14554.000
       325   09 Jun 2027 13:41:04.664   09 Jun 2027 13:42:51.141           106.477               Magadan2         13309.625
       326   09 Jun 2027 13:44:10.385   09 Jun 2027 13:46:20.759           130.374               Magadan2         16296.750
       327   09 Jun 2027 16:08:53.127   09 Jun 2027 16:11:34.532           161.405            RioGallegos         20175.625
       328   09 Jun 2027 16:12:39.251   09 Jun 2027 16:14:40.622           121.371            RioGallegos         15171.375
       329   09 Jun 2027 16:56:28.704   09 Jun 2027 16:58:34.212           125.508                Irkutsk         15688.500
       330   09 Jun 2027 16:58:53.269   09 Jun 2027 17:01:37.218           163.949                Novosib         20493.625
       331   09 Jun 2027 17:11:51.826   09 Jun 2027 17:13:01.001            69.175                Sumatra          8646.875
       332   09 Jun 2027 18:32:15.701   09 Jun 2027 18:33:46.287            90.586                Novosib         11323.250
       333   09 Jun 2027 18:39:59.003   09 Jun 2027 18:42:18.663           139.660                  Delhi         17457.500
       334   09 Jun 2027 18:49:22.017   09 Jun 2027 18:49:22.801             0.784                  Delhi            98.000
       335   09 Jun 2027 18:51:40.314   09 Jun 2027 18:51:44.352             4.038                  Delhi           504.750
       336   09 Jun 2027 20:11:20.414   09 Jun 2027 20:15:00.239           219.825                 Moscow         27478.125
       337   09 Jun 2027 21:56:13.850   09 Jun 2027 21:56:26.423            12.573                 Moscow          1467.250
       338   10 Jun 2027 04:06:39.025   10 Jun 2027 04:07:38.773            59.748                Novosib          7468.500
       339   10 Jun 2027 04:07:39.740   10 Jun 2027 04:11:27.618           227.878                Norilsk         28484.750
       340   10 Jun 2027 05:16:07.541   10 Jun 2027 05:17:39.388            91.847                Sumatra         11480.875
       341   10 Jun 2027 05:28:07.591   10 Jun 2027 05:29:45.721            98.130                  Delhi         12266.250
       342   10 Jun 2027 05:41:52.170   10 Jun 2027 05:42:59.774            67.604              Murmansk2          8450.500
       343   10 Jun 2027 05:43:02.011   10 Jun 2027 05:43:58.466            56.455                Novosib          7056.875
       344   10 Jun 2027 05:44:08.773   10 Jun 2027 05:47:24.363           195.590                Norilsk         24448.750
       345   10 Jun 2027 05:47:42.326   10 Jun 2027 05:49:41.688           119.362              Murmansk2         14920.250
       346   10 Jun 2027 07:07:39.187   10 Jun 2027 07:12:58.609           319.422                  Delhi         39927.750
       347   10 Jun 2027 07:13:31.307   10 Jun 2027 07:14:18.895            47.588                Irkutsk          5948.500
       348   10 Jun 2027 07:17:55.514   10 Jun 2027 07:18:54.820            59.306              Murmansk2          7413.250
       349   10 Jun 2027 07:19:26.655   10 Jun 2027 07:19:40.868            14.213                Novosib          1776.625
       350   10 Jun 2027 07:20:15.228   10 Jun 2027 07:21:44.016            88.788              Murmansk1         11098.500
       351   10 Jun 2027 07:21:44.016   10 Jun 2027 07:25:09.209           205.193              Murmansk2         25649.125
       352   10 Jun 2027 08:53:44.258   10 Jun 2027 08:54:31.791            47.533              Murmansk2          5941.625
       353   10 Jun 2027 08:55:02.713   10 Jun 2027 08:57:30.924           148.211                 Moscow         18526.375
       354   10 Jun 2027 08:57:38.665   10 Jun 2027 09:01:00.044           201.379              Murmansk2         25172.375
       355   10 Jun 2027 10:05:29.610   10 Jun 2027 10:08:38.793           189.183               CapeTown         23647.875
       356   10 Jun 2027 10:27:45.843   10 Jun 2027 10:29:30.103           104.260              Murmansk1         13032.500
       357   10 Jun 2027 10:30:16.494   10 Jun 2027 10:30:33.836            17.342                 Moscow          2167.750
       358   10 Jun 2027 10:32:07.373   10 Jun 2027 10:35:48.819           221.446              Murmansk1         27680.750
       359   10 Jun 2027 10:35:48.819   10 Jun 2027 10:36:58.126            69.307              Murmansk2          8663.375
       360   10 Jun 2027 10:39:20.619   10 Jun 2027 10:47:47.047           506.428                Anadyr2         63303.500
       361   10 Jun 2027 11:42:00.464   10 Jun 2027 11:46:48.145           287.681               CapeTown         35960.125
       362   10 Jun 2027 12:03:41.108   10 Jun 2027 12:12:44.811           543.703              Murmansk2         67962.875
       363   10 Jun 2027 12:14:42.533   10 Jun 2027 12:17:59.887           197.354                Anadyr1         24669.250
       364   10 Jun 2027 12:18:43.430   10 Jun 2027 12:22:07.692           204.262               Magadan1         25532.750
       365   10 Jun 2027 13:53:01.747   10 Jun 2027 13:55:12.963           131.216               Magadan1         16402.000
       366   10 Jun 2027 14:00:46.351   10 Jun 2027 14:02:28.252           101.901               Magadan1         12737.625
       367   10 Jun 2027 15:35:04.318   10 Jun 2027 15:37:49.064           164.746                Irkutsk         20593.250
       368   10 Jun 2027 16:20:43.787   10 Jun 2027 16:22:17.120            93.333            RioGallegos         11666.625
       369   10 Jun 2027 17:08:24.014   10 Jun 2027 17:10:12.001           107.987                Irkutsk         13498.375
       370   10 Jun 2027 17:10:50.581   10 Jun 2027 17:13:27.721           157.140                Novosib         19642.500
       371   10 Jun 2027 17:23:11.854   10 Jun 2027 17:24:05.294            53.440                Sumatra          6680.000
       372   10 Jun 2027 17:25:09.662   10 Jun 2027 17:25:40.308            30.646                Sumatra          3830.750
       373   10 Jun 2027 18:47:20.507   10 Jun 2027 18:48:52.412            91.905                Novosib         11488.125
       374   10 Jun 2027 18:51:46.038   10 Jun 2027 18:54:01.960           135.922                  Delhi         16990.250
       375   10 Jun 2027 18:54:13.849   10 Jun 2027 18:56:12.860           119.011                  Delhi         14876.375
       376   10 Jun 2027 20:22:56.847   10 Jun 2027 20:24:34.465            97.618                 Moscow         12202.250
       377   10 Jun 2027 21:58:47.461   10 Jun 2027 21:58:49.464             2.003                 Moscow           250.375
       378   10 Jun 2027 21:59:16.018   10 Jun 2027 21:59:22.433             6.415              Murmansk2           801.875
       379   10 Jun 2027 22:04:57.403   10 Jun 2027 22:05:42.716            45.313                 Moscow          2408.500
       380   11 Jun 2027 04:18:31.354   11 Jun 2027 04:19:44.934            73.580                Novosib          9197.500
       381   11 Jun 2027 04:19:54.454   11 Jun 2027 04:22:54.128           179.674                Norilsk         22459.250
       382   11 Jun 2027 05:28:03.095   11 Jun 2027 05:30:37.758           154.663                Sumatra         19332.875
       383   11 Jun 2027 05:38:30.890   11 Jun 2027 05:39:32.128            61.238                  Delhi          7654.750
       384   11 Jun 2027 05:44:03.559   11 Jun 2027 05:45:57.254           113.695                  Delhi         14211.875
       385   11 Jun 2027 05:54:30.318   11 Jun 2027 05:56:19.627           109.309                 Moscow         13663.625
       386   11 Jun 2027 05:56:31.586   11 Jun 2027 05:59:26.170           174.584                Norilsk         21823.000
       387   11 Jun 2027 05:59:47.636   11 Jun 2027 06:01:37.526           109.890              Murmansk1         13736.250
       388   11 Jun 2027 07:20:20.985   11 Jun 2027 07:24:53.980           272.995                  Delhi         34124.375
       389   11 Jun 2027 07:24:54.126   11 Jun 2027 07:25:36.264            42.138                 Moscow          5267.250
       390   11 Jun 2027 07:30:20.641   11 Jun 2027 07:30:55.378            34.737              Murmansk2          4342.125
       391   11 Jun 2027 07:30:57.285   11 Jun 2027 07:35:25.651           268.366                Norilsk         33545.750
       392   11 Jun 2027 07:35:32.595   11 Jun 2027 07:37:08.998            96.403              Murmansk2         12050.375
       393   11 Jun 2027 09:06:39.798   11 Jun 2027 09:07:43.888            64.090                Norilsk          8011.250
       394   11 Jun 2027 09:07:47.637   11 Jun 2027 09:09:32.556           104.919                 Moscow         13114.875
       395   11 Jun 2027 09:09:59.749   11 Jun 2027 09:13:01.541           181.792              Murmansk1         22724.000
       396   11 Jun 2027 10:20:41.017   11 Jun 2027 10:21:24.566            43.549               CapeTown          5443.625
       397   11 Jun 2027 10:39:23.884   11 Jun 2027 10:41:36.405           132.521              Murmansk1         16565.125
       398   11 Jun 2027 10:41:36.405   11 Jun 2027 10:48:59.479           443.074              Murmansk2         55384.250
       399   11 Jun 2027 10:51:13.198   11 Jun 2027 11:00:25.311           552.113                Anadyr1         69014.125
       400   11 Jun 2027 11:53:22.513   11 Jun 2027 11:58:40.440           317.927               CapeTown         39740.875
       401   11 Jun 2027 12:16:16.536   11 Jun 2027 12:21:43.599           327.063              Murmansk1         40882.875
       402   11 Jun 2027 12:21:43.599   11 Jun 2027 12:24:42.041           178.442              Murmansk2         22305.250
       403   11 Jun 2027 12:26:42.780   11 Jun 2027 12:34:41.761           478.981                Anadyr1         59872.625
       404   11 Jun 2027 12:34:42.553   11 Jun 2027 12:37:32.368           169.815               Magadan2         21226.875
       405   11 Jun 2027 14:04:59.763   11 Jun 2027 14:06:07.957            68.194               Magadan2          8524.250
       406   11 Jun 2027 14:07:49.491   11 Jun 2027 14:08:11.714            22.223               Magadan1          2777.875
       407   11 Jun 2027 14:09:38.624   11 Jun 2027 14:11:31.479           112.855               Magadan1         14106.875
       408   11 Jun 2027 15:46:15.936   11 Jun 2027 15:49:41.124           205.188                Irkutsk         25648.500
       409   11 Jun 2027 16:02:31.452   11 Jun 2027 16:05:12.352           160.900                Sumatra         20112.500
       410   11 Jun 2027 17:21:22.139   11 Jun 2027 17:25:20.564           238.425                Novosib         29803.125
       411   11 Jun 2027 17:34:02.962   11 Jun 2027 17:34:14.947            11.985                Sumatra          1498.125
       412   11 Jun 2027 17:35:24.376   11 Jun 2027 17:36:38.812            74.436                Sumatra          9304.500
       413   11 Jun 2027 19:00:36.739   11 Jun 2027 19:01:19.237            42.498                Novosib          5312.250
       414   11 Jun 2027 19:03:37.461   11 Jun 2027 19:07:01.906           204.445                  Delhi         25555.625
       415   11 Jun 2027 20:34:03.269   11 Jun 2027 20:35:16.202            72.933              Murmansk1          9116.625
       416   11 Jun 2027 20:35:51.739   11 Jun 2027 20:36:47.833            56.094                 Moscow          7011.750
       417   11 Jun 2027 22:09:42.146   11 Jun 2027 22:10:39.276            57.130                 Moscow          5566.750
       418   12 Jun 2027 04:30:41.754   12 Jun 2027 04:31:50.491            68.737                Novosib          8592.125
       419   12 Jun 2027 04:31:50.524   12 Jun 2027 04:35:25.517           214.993              Murmansk1         26874.125
       420   12 Jun 2027 05:40:04.230   12 Jun 2027 05:42:15.723           131.493                Sumatra         16436.625
       421   12 Jun 2027 05:50:35.599   12 Jun 2027 05:51:30.718            55.119                  Delhi          6889.875
       422   12 Jun 2027 05:57:12.542   12 Jun 2027 05:58:06.270            53.728                  Delhi          6716.000
       423   12 Jun 2027 06:05:17.872   12 Jun 2027 06:05:53.733            35.861                 Moscow          4482.625
       424   12 Jun 2027 06:06:37.941   12 Jun 2027 06:07:04.112            26.171                 Moscow          3271.375
       425   12 Jun 2027 06:07:18.926   12 Jun 2027 06:08:02.047            43.121                Novosib          5390.125
       426   12 Jun 2027 06:08:23.793   12 Jun 2027 06:11:28.036           184.243                Norilsk         23030.375
       427   12 Jun 2027 06:11:36.720   12 Jun 2027 06:13:34.003           117.283              Murmansk1         14660.375
       428   12 Jun 2027 07:32:25.074   12 Jun 2027 07:36:45.580           260.506                  Delhi         32563.250
       429   12 Jun 2027 07:42:03.485   12 Jun 2027 07:43:29.432            85.947                Novosib         10743.375
       430   12 Jun 2027 07:43:41.316   12 Jun 2027 07:45:25.282           103.966                 Moscow         12995.750
       431   12 Jun 2027 07:45:37.763   12 Jun 2027 07:47:26.881           109.118                Norilsk         13639.750
       432   12 Jun 2027 07:47:35.041   12 Jun 2027 07:49:09.110            94.069              Murmansk2         11758.625
       433   12 Jun 2027 09:17:15.893   12 Jun 2027 09:21:33.596           257.703                 Moscow         32212.875
       434   12 Jun 2027 09:21:54.333   12 Jun 2027 09:25:03.128           188.795              Murmansk2         23599.375
       435   12 Jun 2027 10:31:52.014   12 Jun 2027 10:33:58.895           126.881               CapeTown         15860.125
       436   12 Jun 2027 10:51:49.033   12 Jun 2027 10:52:41.857            52.824              Murmansk2          6603.000
       437   12 Jun 2027 10:52:41.857   12 Jun 2027 11:01:00.641           498.784              Murmansk1         62348.000
       438   12 Jun 2027 11:03:07.781   12 Jun 2027 11:12:59.208           591.427                Anadyr2         73928.375
       439   12 Jun 2027 12:01:07.637   12 Jun 2027 12:10:27.668           560.031               CapeTown         70003.875
       440   12 Jun 2027 12:28:55.475   12 Jun 2027 12:30:15.210            79.735              Murmansk2          9966.875
       441   12 Jun 2027 12:39:20.695   12 Jun 2027 12:40:11.830            51.135                Anadyr1          6391.875
       442   12 Jun 2027 12:41:58.879   12 Jun 2027 12:46:04.768           245.889               Magadan1         30736.125
       443   12 Jun 2027 14:16:58.554   12 Jun 2027 14:17:45.145            46.591               Magadan2          5823.875
       444   12 Jun 2027 14:23:56.306   12 Jun 2027 14:24:58.286            61.980               Magadan1          7747.500
       445   12 Jun 2027 15:11:27.172   12 Jun 2027 15:13:55.161           147.989            RioGallegos         18498.625
       446   12 Jun 2027 15:57:46.128   12 Jun 2027 16:01:31.877           225.749                Irkutsk         28218.625
       447   12 Jun 2027 16:13:02.530   12 Jun 2027 16:15:24.157           141.627                Sumatra         17703.375
       448   12 Jun 2027 17:34:42.113   12 Jun 2027 17:37:15.237           153.124                Novosib         19140.500
       449   12 Jun 2027 17:44:01.745   12 Jun 2027 17:45:17.258            75.513                  Delhi          9439.125
       450   12 Jun 2027 19:15:32.678   12 Jun 2027 19:18:02.750           150.072                  Delhi         18759.000
       451   12 Jun 2027 20:46:27.467   12 Jun 2027 20:48:57.848           150.381                 Moscow         18797.625
       452   12 Jun 2027 21:13:29.122   12 Jun 2027 21:15:17.358           108.236               CapeTown          8112.375
       453   13 Jun 2027 03:06:38.498   13 Jun 2027 03:07:32.958            54.460              Murmansk2          6807.500
       454   13 Jun 2027 04:18:32.245   13 Jun 2027 04:21:15.954           163.709                Sumatra         20463.625
       455   13 Jun 2027 04:33:03.203   13 Jun 2027 04:34:12.837            69.634                Irkutsk          8704.250
       456   13 Jun 2027 04:42:19.041   13 Jun 2027 04:42:40.618            21.577              Murmansk2          2697.125
       457   13 Jun 2027 04:42:40.618   13 Jun 2027 04:43:04.412            23.794              Murmansk1          2974.250
       458   13 Jun 2027 04:43:15.449   13 Jun 2027 04:47:31.805           256.356                Norilsk         32044.500
       459   13 Jun 2027 04:47:45.125   13 Jun 2027 04:50:27.621           162.496              Murmansk1         20312.000
       460   13 Jun 2027 05:27:12.833   13 Jun 2027 05:29:47.285           154.452            RioGallegos         19306.500
       461   13 Jun 2027 05:52:11.035   13 Jun 2027 06:04:32.355           741.320                Sumatra         92665.000
       462   13 Jun 2027 06:06:55.588   13 Jun 2027 06:08:29.731            94.143                Irkutsk         11767.875
       463   13 Jun 2027 06:17:01.632   13 Jun 2027 06:17:42.686            41.054                Irkutsk          5131.750
       464   13 Jun 2027 06:18:28.655   13 Jun 2027 06:18:58.343            29.688              Murmansk2          3711.000
       465   13 Jun 2027 06:19:29.129   13 Jun 2027 06:23:29.940           240.811                Norilsk         30101.375
       466   13 Jun 2027 06:23:35.870   13 Jun 2027 06:25:31.067           115.197              Murmansk2         14399.625
       467   13 Jun 2027 07:42:22.376   13 Jun 2027 07:48:32.821           370.445                  Delhi         46305.625
       468   13 Jun 2027 07:48:41.544   13 Jun 2027 07:49:39.159            57.615                Novosib          7201.875
       469   13 Jun 2027 07:54:10.524   13 Jun 2027 07:54:55.486            44.962              Murmansk1          5620.250
       470   13 Jun 2027 07:54:56.208   13 Jun 2027 07:55:20.696            24.488                Novosib          3061.000
       471   13 Jun 2027 07:56:17.890   13 Jun 2027 08:01:09.508           291.618              Murmansk2         36452.250
       472   13 Jun 2027 09:23:59.200   13 Jun 2027 09:25:22.527            83.327                 Moscow         10415.875
       473   13 Jun 2027 09:29:03.803   13 Jun 2027 09:31:19.499           135.696              Murmansk1         16962.000
       474   13 Jun 2027 09:32:15.568   13 Jun 2027 09:37:04.775           289.207              Murmansk1         36150.875
       475   13 Jun 2027 10:39:29.232   13 Jun 2027 10:46:24.667           415.435               CapeTown         51929.375
       476   13 Jun 2027 11:03:50.694   13 Jun 2027 11:04:42.998            52.304              Murmansk2          6538.000
       477   13 Jun 2027 11:04:47.453   13 Jun 2027 11:08:42.567           235.114                 Moscow         29389.250
       478   13 Jun 2027 11:08:46.945   13 Jun 2027 11:13:01.565           254.620              Murmansk2         31827.500
       479   13 Jun 2027 11:15:31.029   13 Jun 2027 11:19:31.189           240.160                Anadyr1         30020.000
       480   13 Jun 2027 12:53:45.838   13 Jun 2027 12:58:00.436           254.598               Magadan1         31824.750
       481   13 Jun 2027 12:59:40.859   13 Jun 2027 13:03:03.277           202.418               Magadan2         25302.250
       482   13 Jun 2027 15:22:31.854   13 Jun 2027 15:25:50.554           198.700            RioGallegos         24837.500
