uniorb/output/strategy_4/Drop/Drop_KinoSat_111306.txt

KinoSat_111306
-------------------------
    Access    *     Start Time (UTCG)     *     Stop Time (UTCG)  *   Duration (s)        *       Station  *  Data (Mbytes)
         1   01 Jun 2027 03:19:37.018   01 Jun 2027 03:20:15.707            38.689                 Moscow          1209.031
         2   01 Jun 2027 03:20:22.396   01 Jun 2027 03:21:13.979            51.583              Murmansk2          1611.969
         3   01 Jun 2027 03:21:20.508   01 Jun 2027 03:21:46.557            26.049              Murmansk1           814.031
         4   01 Jun 2027 03:22:12.552   01 Jun 2027 03:24:38.181           145.629              Murmansk1          4550.906
         5   01 Jun 2027 03:24:51.034   01 Jun 2027 03:26:41.913           110.879                 Moscow          3464.969
         6   01 Jun 2027 03:39:26.034   01 Jun 2027 03:42:20.058           174.024               CapeTown          5438.250
         7   01 Jun 2027 04:42:44.381   01 Jun 2027 04:45:39.123           174.742               Magadan2          5460.687
         8   01 Jun 2027 04:46:59.583   01 Jun 2027 04:47:18.315            18.732                Anadyr2           585.375
         9   01 Jun 2027 04:48:26.589   01 Jun 2027 04:48:57.847            31.258                Anadyr1           976.812
        10   01 Jun 2027 06:17:23.410   01 Jun 2027 06:17:58.414            35.004                Anadyr1          1093.875
        11   01 Jun 2027 06:18:20.760   01 Jun 2027 06:21:06.628           165.868                Anadyr1          5183.375
        12   01 Jun 2027 06:21:18.826   01 Jun 2027 06:23:45.434           146.608               Magadan1          4581.500
        13   01 Jun 2027 07:53:06.989   01 Jun 2027 07:57:20.410           253.421                Anadyr2          7919.406
        14   01 Jun 2027 07:57:20.410   01 Jun 2027 07:57:36.436            16.026                Anadyr1           500.813
        15   01 Jun 2027 07:57:41.825   01 Jun 2027 07:58:29.681            47.856                Anadyr1          1495.500
        16   01 Jun 2027 07:58:51.927   01 Jun 2027 07:59:24.178            32.251               Magadan1          1007.844
        17   01 Jun 2027 07:59:37.498   01 Jun 2027 08:00:25.705            48.207                Novosib          1506.469
        18   01 Jun 2027 08:00:31.320   01 Jun 2027 08:01:14.218            42.898              Murmansk2          1340.563
        19   01 Jun 2027 08:35:37.602   01 Jun 2027 08:36:39.088            61.486            RioGallegos          1921.437
        20   01 Jun 2027 09:30:55.302   01 Jun 2027 09:34:31.888           216.586               Magadan1          6768.313
        21   01 Jun 2027 09:35:31.114   01 Jun 2027 09:36:16.333            45.219                Irkutsk          1413.094
        22   01 Jun 2027 09:39:57.900   01 Jun 2027 09:40:31.408            33.508                Norilsk          1047.125
        23   01 Jun 2027 10:11:41.589   01 Jun 2027 10:12:27.648            46.059            RioGallegos          1439.344
        24   01 Jun 2027 10:15:14.569   01 Jun 2027 10:15:33.634            19.065            RioGallegos           595.781
        25   01 Jun 2027 10:45:47.950   01 Jun 2027 10:48:06.844           138.894                Sumatra          4340.437
        26   01 Jun 2027 11:05:59.153   01 Jun 2027 11:06:02.525             3.372                  Delhi           105.375
        27   01 Jun 2027 11:08:03.410   01 Jun 2027 11:08:21.973            18.563              Murmansk1           580.094
        28   01 Jun 2027 11:08:26.240   01 Jun 2027 11:11:07.685           161.445                Irkutsk          5045.156
        29   01 Jun 2027 11:11:22.392   01 Jun 2027 11:11:54.350            31.958                Irkutsk           998.687
        30   01 Jun 2027 11:11:55.008   01 Jun 2027 11:13:24.326            89.318                Novosib          2791.187
        31   01 Jun 2027 11:51:26.766   01 Jun 2027 11:52:57.032            90.266            RioGallegos          2820.813
        32   01 Jun 2027 11:54:12.306   01 Jun 2027 11:55:40.938            88.632            RioGallegos          2769.750
        33   01 Jun 2027 12:33:06.162   01 Jun 2027 12:34:11.129            64.967                  Delhi          2030.219
        34   01 Jun 2027 12:37:58.707   01 Jun 2027 12:39:42.253           103.546                Novosib          3235.813
        35   01 Jun 2027 12:40:59.981   01 Jun 2027 12:43:18.004           138.023                Novosib          4313.219
        36   01 Jun 2027 12:45:25.161   01 Jun 2027 12:46:15.444            50.283                Norilsk          1571.344
        37   01 Jun 2027 12:52:15.366   01 Jun 2027 12:52:27.583            12.217              Murmansk2           381.781
        38   01 Jun 2027 14:14:24.092   01 Jun 2027 14:18:16.426           232.334                 Moscow          7260.438
        39   01 Jun 2027 14:19:02.861   01 Jun 2027 14:21:11.667           128.806              Murmansk2          4025.188
        40   01 Jun 2027 14:21:58.437   01 Jun 2027 14:24:37.583           159.146                Norilsk          4973.312
        41   01 Jun 2027 14:25:16.330   01 Jun 2027 14:25:35.682            19.352                Norilsk           604.750
        42   01 Jun 2027 15:28:56.401   01 Jun 2027 15:29:51.567            55.166               CapeTown          1723.937
        43   01 Jun 2027 15:30:17.598   01 Jun 2027 15:32:02.232           104.634               CapeTown          3269.812
        44   01 Jun 2027 15:51:50.188   01 Jun 2027 15:52:36.666            46.478                 Moscow          1452.437
        45   01 Jun 2027 15:54:57.383   01 Jun 2027 15:55:10.438            13.055              Murmansk1           407.969
        46   01 Jun 2027 15:55:28.983   01 Jun 2027 15:56:16.124            47.141              Murmansk1          1473.156
        47   01 Jun 2027 15:57:29.386   01 Jun 2027 15:57:57.647            28.261              Murmansk1           883.156
        48   01 Jun 2027 16:08:53.734   01 Jun 2027 16:08:56.495             2.761                Anadyr1            86.281
        49   01 Jun 2027 16:09:17.127   01 Jun 2027 16:10:30.208            73.081                Anadyr2          2283.781
        50   01 Jun 2027 16:11:38.277   01 Jun 2027 16:12:55.289            77.012                Anadyr1          2406.625
        51   01 Jun 2027 17:03:54.810   01 Jun 2027 17:05:22.556            87.746               CapeTown          2742.062
        52   01 Jun 2027 17:34:20.721   01 Jun 2027 17:35:43.433            82.712              Murmansk2          2584.750
        53   01 Jun 2027 17:36:10.340   01 Jun 2027 17:38:50.499           160.159              Murmansk1          5004.969
        54   01 Jun 2027 17:44:27.643   01 Jun 2027 17:46:38.152           130.509                Anadyr1          4078.406
        55   01 Jun 2027 17:47:49.592   01 Jun 2027 17:50:11.938           142.346               Magadan1          4448.312
        56   01 Jun 2027 19:20:22.737   01 Jun 2027 19:22:16.401           113.664                Anadyr1          3552.000
        57   01 Jun 2027 19:22:27.877   01 Jun 2027 19:24:10.028           102.151                Anadyr2          3192.219
        58   01 Jun 2027 19:24:25.420   01 Jun 2027 19:26:11.969           106.549               Magadan2          3329.656
        59   01 Jun 2027 19:29:51.024   01 Jun 2027 19:30:17.511            26.487               Magadan1           827.719
        60   01 Jun 2027 20:17:56.593   01 Jun 2027 20:19:28.535            91.942            RioGallegos          2873.187
        61   01 Jun 2027 20:56:13.743   01 Jun 2027 20:59:50.408           216.665                Anadyr1          6770.781
        62   01 Jun 2027 20:59:57.339   01 Jun 2027 21:00:08.446            11.107                Norilsk           347.094
        63   01 Jun 2027 21:00:24.489   01 Jun 2027 21:00:39.815            15.326               Magadan2           478.938
        64   01 Jun 2027 21:00:45.310   01 Jun 2027 21:02:25.295            99.985               Magadan1          3124.531
        65   01 Jun 2027 21:03:26.384   01 Jun 2027 21:04:07.892            41.508                Norilsk          1297.125
        66   01 Jun 2027 21:05:21.638   01 Jun 2027 21:05:33.456            11.818                Norilsk           369.312
        67   01 Jun 2027 21:05:47.471   01 Jun 2027 21:06:39.121            51.650                Irkutsk          1614.063
        68   01 Jun 2027 21:07:03.199   01 Jun 2027 21:07:38.166            34.967                Irkutsk          1092.719
        69   01 Jun 2027 21:09:37.125   01 Jun 2027 21:10:02.956            25.831                Irkutsk           807.219
        70   01 Jun 2027 21:19:21.518   01 Jun 2027 21:20:58.846            97.328                Sumatra          3041.500
        71   01 Jun 2027 21:21:34.014   01 Jun 2027 21:21:59.247            25.233                Sumatra           788.531
        72   01 Jun 2027 21:23:49.272   01 Jun 2027 21:23:49.714             0.442                Sumatra            13.812
        73   01 Jun 2027 21:24:46.097   01 Jun 2027 21:25:56.886            70.789                Sumatra          2212.156
        74   01 Jun 2027 22:31:36.165   01 Jun 2027 22:32:15.048            38.883                Anadyr2          1215.094
        75   01 Jun 2027 22:34:06.621   01 Jun 2027 22:36:07.040           120.419                Norilsk          3763.094
        76   01 Jun 2027 22:36:27.437   01 Jun 2027 22:36:43.789            16.352               Magadan2           511.000
        77   01 Jun 2027 22:38:04.301   01 Jun 2027 22:39:56.665           112.364                Irkutsk          3511.375
        78   01 Jun 2027 22:42:03.673   01 Jun 2027 22:42:14.656            10.983                Novosib           343.219
        79   01 Jun 2027 22:51:49.452   01 Jun 2027 22:53:30.610           101.158                Sumatra          3161.187
        80   01 Jun 2027 23:26:03.917   01 Jun 2027 23:26:54.172            50.255            RioGallegos          1570.469
        81   02 Jun 2027 00:05:53.032   02 Jun 2027 00:08:07.626           134.594                Anadyr2          4206.063
        82   02 Jun 2027 00:08:07.626   02 Jun 2027 00:08:09.889             2.263                Anadyr1            70.719
        83   02 Jun 2027 00:10:06.568   02 Jun 2027 00:10:24.010            17.442                Norilsk           545.062
        84   02 Jun 2027 00:10:43.302   02 Jun 2027 00:11:48.688            65.386               Magadan1          2043.312
        85   02 Jun 2027 00:11:48.872   02 Jun 2027 00:12:40.080            51.208               Magadan2          1600.250
        86   02 Jun 2027 00:13:23.041   02 Jun 2027 00:16:34.330           191.289              Murmansk2          5977.781
        87   02 Jun 2027 00:21:19.259   02 Jun 2027 00:22:03.494            44.235                  Delhi          1382.344
        88   02 Jun 2027 00:23:54.837   02 Jun 2027 00:24:20.033            25.196                  Delhi           787.375
        89   02 Jun 2027 01:02:54.461   02 Jun 2027 01:03:54.431            59.970            RioGallegos          1874.062
        90   02 Jun 2027 01:04:13.157   02 Jun 2027 01:04:23.559            10.402            RioGallegos           325.062
        91   02 Jun 2027 01:05:35.211   02 Jun 2027 01:05:57.340            22.129            RioGallegos           691.531
        92   02 Jun 2027 01:07:04.685   02 Jun 2027 01:07:27.473            22.788            RioGallegos           712.125
        93   02 Jun 2027 01:39:12.450   02 Jun 2027 01:39:50.285            37.835                Anadyr2          1182.344
        94   02 Jun 2027 01:40:16.050   02 Jun 2027 01:40:48.746            32.696                Anadyr1          1021.750
        95   02 Jun 2027 01:41:26.001   02 Jun 2027 01:41:40.058            14.057                Anadyr2           439.281
        96   02 Jun 2027 01:41:51.001   02 Jun 2027 01:42:19.233            28.232                Anadyr1           882.250
        97   02 Jun 2027 01:45:22.161   02 Jun 2027 01:46:21.812            59.651               Magadan1          1864.094
        98   02 Jun 2027 01:47:12.254   02 Jun 2027 01:47:28.191            15.937               Magadan2           498.031
        99   02 Jun 2027 01:47:28.191   02 Jun 2027 01:47:38.239            10.048               Magadan1           314.000
       100   02 Jun 2027 01:47:42.039   02 Jun 2027 01:47:48.481             6.442                Norilsk           201.312
       101   02 Jun 2027 01:48:02.588   02 Jun 2027 01:48:09.603             7.015                Norilsk           219.219
       102   02 Jun 2027 01:48:18.616   02 Jun 2027 01:50:39.586           140.970              Murmansk1          4405.312
       103   02 Jun 2027 01:51:29.062   02 Jun 2027 01:51:50.041            20.979                Novosib           655.594
       104   02 Jun 2027 01:52:16.630   02 Jun 2027 01:53:00.674            44.044                 Moscow          1376.375
       105   02 Jun 2027 01:59:49.593   02 Jun 2027 02:01:24.380            94.787                  Delhi          2962.094
       106   02 Jun 2027 03:12:54.546   02 Jun 2027 03:13:16.318            21.772                Anadyr1           680.375
       107   02 Jun 2027 03:14:04.375   02 Jun 2027 03:14:39.108            34.733                Anadyr1          1085.406
       108   02 Jun 2027 03:15:52.792   02 Jun 2027 03:15:57.821             5.029                Anadyr2           157.156
       109   02 Jun 2027 03:17:05.866   02 Jun 2027 03:18:06.177            60.311               Magadan1          1884.719
       110   02 Jun 2027 03:32:38.160   02 Jun 2027 03:32:56.950            18.790              Murmansk2           587.188
       111   02 Jun 2027 03:33:05.721   02 Jun 2027 03:34:00.943            55.222                Novosib          1725.688
       112   02 Jun 2027 03:34:13.614   02 Jun 2027 03:36:49.357           155.743              Murmansk2          4866.969
       113   02 Jun 2027 03:36:56.321   02 Jun 2027 03:38:16.322            80.001                 Moscow          2500.031
       114   02 Jun 2027 03:51:20.881   02 Jun 2027 03:54:21.270           180.389               CapeTown          5637.156
       115   02 Jun 2027 03:58:15.940   02 Jun 2027 03:59:02.652            46.712               CapeTown          1459.750
       116   02 Jun 2027 04:54:40.362   02 Jun 2027 04:56:55.826           135.464               Magadan1          4233.250
       117   02 Jun 2027 04:57:01.613   02 Jun 2027 04:57:07.721             6.108               Magadan2           190.875
       118   02 Jun 2027 04:57:10.788   02 Jun 2027 04:58:40.536            89.748                Anadyr2          2804.625
       119   02 Jun 2027 04:59:22.677   02 Jun 2027 04:59:39.976            17.299               Magadan2           540.594
       120   02 Jun 2027 04:59:42.757   02 Jun 2027 05:00:32.905            50.148               Magadan2          1567.125
       121   02 Jun 2027 06:33:57.308   02 Jun 2027 06:34:32.329            35.021                Anadyr2          1094.406
       122   02 Jun 2027 06:34:32.329   02 Jun 2027 06:35:10.002            37.673                Anadyr1          1177.281
       123   02 Jun 2027 06:36:25.448   02 Jun 2027 06:36:36.751            11.303               Magadan2           353.219
       124   02 Jun 2027 08:06:22.885   02 Jun 2027 08:07:07.253            44.368               Magadan2          1386.500
       125   02 Jun 2027 08:07:35.124   02 Jun 2027 08:11:33.343           238.219               Magadan2          7444.344
       126   02 Jun 2027 08:47:24.647   02 Jun 2027 08:49:08.216           103.569            RioGallegos          3236.531
       127   02 Jun 2027 09:41:48.140   02 Jun 2027 09:42:53.695            65.555               Magadan1          2048.594
       128   02 Jun 2027 09:43:37.437   02 Jun 2027 09:44:58.651            81.214               Magadan1          2537.938
       129   02 Jun 2027 09:45:25.558   02 Jun 2027 09:45:51.977            26.419               Magadan2           825.594
       130   02 Jun 2027 09:46:04.807   02 Jun 2027 09:46:11.556             6.749               Magadan1           210.906
       131   02 Jun 2027 09:46:16.863   02 Jun 2027 09:46:19.524             2.661                Irkutsk            83.156
       132   02 Jun 2027 09:46:39.435   02 Jun 2027 09:47:14.615            35.180                Irkutsk          1099.375
       133   02 Jun 2027 09:47:24.250   02 Jun 2027 09:47:31.241             6.991                Irkutsk           218.469
       134   02 Jun 2027 09:47:44.515   02 Jun 2027 09:47:46.564             2.049                Irkutsk            64.031
       135   02 Jun 2027 09:47:51.510   02 Jun 2027 09:48:02.237            10.727                Novosib           335.219
       136   02 Jun 2027 09:48:16.185   02 Jun 2027 09:48:29.399            13.214                Novosib           412.937
       137   02 Jun 2027 10:23:22.833   02 Jun 2027 10:24:31.608            68.775            RioGallegos          2149.219
       138   02 Jun 2027 10:26:32.032   02 Jun 2027 10:27:28.847            56.815            RioGallegos          1775.469
       139   02 Jun 2027 11:06:33.506   02 Jun 2027 11:06:43.718            10.212                Sumatra           319.125
       140   02 Jun 2027 11:18:17.288   02 Jun 2027 11:18:22.791             5.503                  Delhi           171.969
       141   02 Jun 2027 11:19:58.208   02 Jun 2027 11:20:05.325             7.117                Novosib           222.406
       142   02 Jun 2027 11:20:33.021   02 Jun 2027 11:20:39.081             6.060                Irkutsk           189.375
       143   02 Jun 2027 11:21:36.098   02 Jun 2027 11:22:24.453            48.355                Irkutsk          1511.094
       144   02 Jun 2027 11:22:29.247   02 Jun 2027 11:23:42.333            73.086                Novosib          2283.938
       145   02 Jun 2027 11:23:47.220   02 Jun 2027 11:24:07.049            19.829                Norilsk           619.656
       146   02 Jun 2027 12:05:09.311   02 Jun 2027 12:06:09.778            60.467            RioGallegos          1889.594
       147   02 Jun 2027 12:42:22.437   02 Jun 2027 12:42:46.740            24.303                  Delhi           759.469
       148   02 Jun 2027 12:44:59.010   02 Jun 2027 12:46:53.543           114.533                  Delhi          3579.156
       149   02 Jun 2027 12:50:25.537   02 Jun 2027 12:51:19.043            53.506                Novosib          1672.063
       150   02 Jun 2027 12:54:18.042   02 Jun 2027 12:54:39.822            21.780              Murmansk2           680.625
       151   02 Jun 2027 12:55:02.865   02 Jun 2027 12:55:21.173            18.308                Novosib           572.125
       152   02 Jun 2027 12:55:38.050   02 Jun 2027 12:55:40.068             2.018                Norilsk            63.063
       153   02 Jun 2027 12:55:55.612   02 Jun 2027 12:56:39.511            43.899                Norilsk          1371.844
       154   02 Jun 2027 14:26:25.499   02 Jun 2027 14:29:41.175           195.676                 Moscow          6114.875
       155   02 Jun 2027 14:29:55.288   02 Jun 2027 14:33:02.858           187.570              Murmansk1          5861.563
       156   02 Jun 2027 14:34:45.020   02 Jun 2027 14:35:45.310            60.290                Norilsk          1884.063
       157   02 Jun 2027 14:37:40.080   02 Jun 2027 14:38:18.546            38.466                Norilsk          1202.062
       158   02 Jun 2027 15:40:36.768   02 Jun 2027 15:41:55.722            78.954               CapeTown          2467.312
       159   02 Jun 2027 15:43:19.239   02 Jun 2027 15:43:53.823            34.584               CapeTown          1080.750
       160   02 Jun 2027 16:04:20.996   02 Jun 2027 16:04:58.443            37.447                 Moscow          1170.219
       161   02 Jun 2027 16:07:16.396   02 Jun 2027 16:08:11.345            54.949              Murmansk2          1717.156
       162   02 Jun 2027 16:10:02.303   02 Jun 2027 16:10:57.703            55.400              Murmansk2          1731.250
       163   02 Jun 2027 16:20:49.489   02 Jun 2027 16:22:53.452           123.963                Anadyr1          3873.844
       164   02 Jun 2027 16:25:55.178   02 Jun 2027 16:26:45.045            49.867                Anadyr2          1558.344
       165   02 Jun 2027 17:16:02.914   02 Jun 2027 17:16:54.324            51.410               CapeTown          1606.563
       166   02 Jun 2027 17:17:51.008   02 Jun 2027 17:17:58.585             7.577               CapeTown           236.781
       167   02 Jun 2027 17:19:41.104   02 Jun 2027 17:20:20.207            39.103               CapeTown          1221.969
       168   02 Jun 2027 17:47:01.849   02 Jun 2027 17:50:21.382           199.533              Murmansk2          6235.406
       169   02 Jun 2027 17:50:51.866   02 Jun 2027 17:51:14.019            22.153              Murmansk1           692.281
       170   02 Jun 2027 17:56:28.589   02 Jun 2027 17:56:50.272            21.683                Anadyr2           677.594
       171   02 Jun 2027 17:56:50.272   02 Jun 2027 17:56:52.537             2.265                Anadyr1            70.781
       172   02 Jun 2027 17:57:51.333   02 Jun 2027 17:57:55.454             4.121                Anadyr2           128.781
       173   02 Jun 2027 17:59:34.969   02 Jun 2027 18:02:16.282           161.313               Magadan1          5041.031
       174   02 Jun 2027 18:02:33.646   02 Jun 2027 18:02:49.338            15.692               Magadan2           490.375
       175   02 Jun 2027 19:32:24.233   02 Jun 2027 19:35:49.042           204.809                Anadyr1          6400.281
       176   02 Jun 2027 19:35:57.535   02 Jun 2027 19:37:00.706            63.171               Magadan2          1974.094
       177   02 Jun 2027 19:37:15.855   02 Jun 2027 19:38:01.971            46.116               Magadan1          1441.125
       178   02 Jun 2027 19:39:37.467   02 Jun 2027 19:39:48.283            10.816               Magadan2           338.000
       179   02 Jun 2027 19:39:56.757   02 Jun 2027 19:40:23.195            26.438               Magadan2           826.187
       180   02 Jun 2027 19:41:43.903   02 Jun 2027 19:42:01.227            17.324               Magadan2           541.375
       181   02 Jun 2027 20:28:35.191   02 Jun 2027 20:31:05.895           150.704            RioGallegos          4709.500
       182   02 Jun 2027 20:33:55.082   02 Jun 2027 20:34:15.354            20.272            RioGallegos           633.500
       183   02 Jun 2027 21:08:13.268   02 Jun 2027 21:08:42.535            29.267                Anadyr2           914.594
       184   02 Jun 2027 21:09:28.029   02 Jun 2027 21:09:47.814            19.785                Anadyr2           618.281
       185   02 Jun 2027 21:09:58.140   02 Jun 2027 21:10:24.541            26.401                Anadyr2           825.031
       186   02 Jun 2027 21:10:37.855   02 Jun 2027 21:12:07.921            90.066               Magadan1          2814.563
       187   02 Jun 2027 21:12:09.630   02 Jun 2027 21:13:26.929            77.299                Norilsk          2415.594
       188   02 Jun 2027 21:13:57.672   02 Jun 2027 21:14:08.028            10.356               Magadan2           323.625
       189   02 Jun 2027 21:15:17.686   02 Jun 2027 21:16:08.041            50.355                Irkutsk          1573.594
       190   02 Jun 2027 21:17:46.209   02 Jun 2027 21:18:27.692            41.483                Irkutsk          1296.344
       191   02 Jun 2027 21:20:54.411   02 Jun 2027 21:21:31.457            37.046                Irkutsk          1157.688
       192   02 Jun 2027 21:30:14.591   02 Jun 2027 21:32:30.193           135.602                Sumatra          4237.563
       193   02 Jun 2027 21:34:14.973   02 Jun 2027 21:35:39.243            84.270                Sumatra          2633.438
       194   02 Jun 2027 22:46:08.289   02 Jun 2027 22:47:53.687           105.398                Norilsk          3293.688
       195   02 Jun 2027 22:48:07.469   02 Jun 2027 22:48:09.017             1.548                Norilsk            48.375
       196   02 Jun 2027 22:48:18.975   02 Jun 2027 22:48:44.631            25.656               Magadan2           801.750
       197   02 Jun 2027 22:50:03.230   02 Jun 2027 22:51:14.529            71.299                Irkutsk          2228.094
       198   02 Jun 2027 22:53:38.965   02 Jun 2027 22:54:32.675            53.710                Novosib          1678.437
       199   02 Jun 2027 23:00:41.852   02 Jun 2027 23:02:19.804            97.952                  Delhi          3061.000
       200   02 Jun 2027 23:09:56.190   02 Jun 2027 23:10:10.591            14.401                Sumatra           450.031
       201   02 Jun 2027 23:49:13.078   02 Jun 2027 23:49:43.186            30.108            RioGallegos           940.875
       202   03 Jun 2027 00:17:54.842   03 Jun 2027 00:18:44.741            49.899                Anadyr2          1559.344
       203   03 Jun 2027 00:18:54.806   03 Jun 2027 00:19:51.792            56.986                Anadyr2          1780.812
       204   03 Jun 2027 00:22:08.619   03 Jun 2027 00:23:08.945            60.326                Norilsk          1885.187
       205   03 Jun 2027 00:23:19.905   03 Jun 2027 00:23:29.457             9.552               Magadan2           298.500
       206   03 Jun 2027 00:23:50.662   03 Jun 2027 00:24:11.600            20.938                Norilsk           654.312
       207   03 Jun 2027 00:24:22.784   03 Jun 2027 00:24:51.361            28.577               Magadan1           893.031
       208   03 Jun 2027 00:25:04.431   03 Jun 2027 00:26:22.296            77.865              Murmansk1          2433.281
       209   03 Jun 2027 00:26:23.601   03 Jun 2027 00:27:40.217            76.616              Murmansk2          2394.250
       210   03 Jun 2027 00:28:07.521   03 Jun 2027 00:28:59.020            51.499              Murmansk2          1609.344
       211   03 Jun 2027 00:29:36.627   03 Jun 2027 00:30:27.236            50.609              Murmansk1          1581.531
       212   03 Jun 2027 00:40:06.380   03 Jun 2027 00:40:31.150            24.770                  Delhi           774.062
       213   03 Jun 2027 01:15:11.361   03 Jun 2027 01:16:11.750            60.389            RioGallegos          1887.156
       214   03 Jun 2027 01:22:00.176   03 Jun 2027 01:22:12.902            12.726            RioGallegos           397.687
       215   03 Jun 2027 01:50:54.167   03 Jun 2027 01:51:47.696            53.529                Anadyr2          1672.781
       216   03 Jun 2027 01:51:58.830   03 Jun 2027 01:52:28.122            29.292                Anadyr1           915.375
       217   03 Jun 2027 01:53:31.632   03 Jun 2027 01:54:09.639            38.007                Anadyr1          1187.719
       218   03 Jun 2027 01:56:53.645   03 Jun 2027 01:57:06.524            12.879                Anadyr2           402.469
       219   03 Jun 2027 01:57:42.928   03 Jun 2027 01:57:52.972            10.044               Magadan1           313.875
       220   03 Jun 2027 01:58:04.013   03 Jun 2027 01:58:25.258            21.245                Norilsk           663.906
       221   03 Jun 2027 01:58:37.589   03 Jun 2027 01:59:05.796            28.207               Magadan1           881.469
       222   03 Jun 2027 01:59:11.095   03 Jun 2027 01:59:29.873            18.778               Magadan1           586.812
       223   03 Jun 2027 02:00:18.846   03 Jun 2027 02:00:45.429            26.583              Murmansk1           830.719
       224   03 Jun 2027 02:01:11.094   03 Jun 2027 02:02:32.234            81.140              Murmansk1          2535.625
       225   03 Jun 2027 02:03:31.110   03 Jun 2027 02:04:04.219            33.109                Irkutsk          1034.656
       226   03 Jun 2027 02:04:41.744   03 Jun 2027 02:07:05.647           143.903                 Moscow          4496.969
       227   03 Jun 2027 03:28:10.234   03 Jun 2027 03:28:25.028            14.794                Anadyr1           462.312
       228   03 Jun 2027 03:29:26.161   03 Jun 2027 03:29:38.480            12.319                Anadyr1           384.969
       229   03 Jun 2027 03:32:42.694   03 Jun 2027 03:32:46.744             4.050               Magadan2           126.563
       230   03 Jun 2027 03:33:20.548   03 Jun 2027 03:33:25.210             4.662                Anadyr2           145.687
       231   03 Jun 2027 03:35:07.178   03 Jun 2027 03:35:32.027            24.849                Anadyr2           776.531
       232   03 Jun 2027 03:45:45.408   03 Jun 2027 03:46:00.205            14.797              Murmansk2           462.406
       233   03 Jun 2027 03:46:13.360   03 Jun 2027 03:46:59.088            45.728              Murmansk2          1429.000
       234   03 Jun 2027 03:47:34.076   03 Jun 2027 03:48:58.717            84.641              Murmansk2          2645.031
       235   03 Jun 2027 03:49:59.560   03 Jun 2027 03:50:01.725             2.165                 Moscow            67.656
       236   03 Jun 2027 03:51:11.283   03 Jun 2027 03:52:13.923            62.640                 Moscow          1957.500
       237   03 Jun 2027 04:12:10.920   03 Jun 2027 04:13:52.914           101.994               CapeTown          3187.313
       238   03 Jun 2027 05:06:04.224   03 Jun 2027 05:06:49.971            45.747               Magadan2          1429.594
       239   03 Jun 2027 05:07:10.748   03 Jun 2027 05:12:58.090           347.342                Anadyr2         10854.437
       240   03 Jun 2027 05:12:58.090   03 Jun 2027 05:13:00.797             2.707                Anadyr1            84.594
       241   03 Jun 2027 06:43:46.409   03 Jun 2027 06:44:19.807            33.398               Magadan1          1043.687
       242   03 Jun 2027 06:44:36.871   03 Jun 2027 06:44:38.377             1.506               Magadan2            47.062
       243   03 Jun 2027 06:44:52.211   03 Jun 2027 06:44:54.446             2.235               Magadan2            69.844
       244   03 Jun 2027 06:45:07.154   03 Jun 2027 06:46:25.736            78.582                Anadyr1          2455.687
       245   03 Jun 2027 08:17:01.854   03 Jun 2027 08:17:03.428             1.574               Magadan1            49.188
       246   03 Jun 2027 08:17:48.957   03 Jun 2027 08:18:16.181            27.224               Magadan2           850.750
       247   03 Jun 2027 08:19:09.226   03 Jun 2027 08:19:25.810            16.584               Magadan2           518.250
       248   03 Jun 2027 08:19:40.753   03 Jun 2027 08:20:41.040            60.287               Magadan2          1883.969
       249   03 Jun 2027 08:21:02.376   03 Jun 2027 08:21:38.768            36.392               Magadan2          1137.250
       250   03 Jun 2027 08:21:41.208   03 Jun 2027 08:22:50.736            69.528               Magadan1          2172.750
       251   03 Jun 2027 08:23:04.785   03 Jun 2027 08:23:07.251             2.466                Anadyr2            77.063
       252   03 Jun 2027 08:23:18.818   03 Jun 2027 08:23:45.361            26.543               Magadan1           829.469
       253   03 Jun 2027 08:24:10.046   03 Jun 2027 08:24:16.317             6.271               Magadan2           195.969
       254   03 Jun 2027 08:25:21.694   03 Jun 2027 08:26:13.540            51.846              Murmansk1          1620.187
       255   03 Jun 2027 08:59:14.889   03 Jun 2027 08:59:39.238            24.349            RioGallegos           760.906
       256   03 Jun 2027 09:00:00.824   03 Jun 2027 09:00:20.013            19.189            RioGallegos           599.656
       257   03 Jun 2027 09:35:49.932   03 Jun 2027 09:36:00.655            10.723                Sumatra           335.094
       258   03 Jun 2027 09:38:59.130   03 Jun 2027 09:40:19.200            80.070                Sumatra          2502.187
       259   03 Jun 2027 09:56:33.237   03 Jun 2027 09:57:02.489            29.252                Irkutsk           914.125
       260   03 Jun 2027 09:58:12.380   03 Jun 2027 09:58:15.407             3.027                Novosib            94.594
       261   03 Jun 2027 09:58:26.570   03 Jun 2027 09:58:57.183            30.613                Irkutsk           956.656
       262   03 Jun 2027 09:59:30.171   03 Jun 2027 09:59:32.865             2.694                Novosib            84.188
       263   03 Jun 2027 09:59:54.418   03 Jun 2027 10:00:17.006            22.588                Novosib           705.875
       264   03 Jun 2027 10:35:41.070   03 Jun 2027 10:35:47.534             6.464            RioGallegos           202.000
       265   03 Jun 2027 10:37:56.520   03 Jun 2027 10:38:25.102            28.582            RioGallegos           893.188
       266   03 Jun 2027 10:42:20.189   03 Jun 2027 10:42:33.717            13.528            RioGallegos           422.750
       267   03 Jun 2027 11:10:02.704   03 Jun 2027 11:10:11.803             9.099                Sumatra           284.344
       268   03 Jun 2027 11:12:46.330   03 Jun 2027 11:14:40.791           114.461                Sumatra          3576.906
       269   03 Jun 2027 11:30:51.571   03 Jun 2027 11:31:24.115            32.544                Irkutsk          1017.000
       270   03 Jun 2027 11:32:01.536   03 Jun 2027 11:32:03.792             2.256                Norilsk            70.500
       271   03 Jun 2027 11:32:38.915   03 Jun 2027 11:33:29.049            50.134                Irkutsk          1566.687
       272   03 Jun 2027 11:33:39.933   03 Jun 2027 11:33:44.082             4.149                Norilsk           129.656
       273   03 Jun 2027 11:33:46.368   03 Jun 2027 11:33:49.859             3.491                Novosib           109.094
       274   03 Jun 2027 11:33:56.439   03 Jun 2027 11:34:19.653            23.214                Norilsk           725.438
       275   03 Jun 2027 11:34:33.628   03 Jun 2027 11:35:39.431            65.803                Novosib          2056.344
       276   03 Jun 2027 11:35:48.567   03 Jun 2027 11:35:48.685             0.118                Norilsk             3.688
       277   03 Jun 2027 11:36:03.133   03 Jun 2027 11:36:12.808             9.675                Norilsk           302.344
       278   03 Jun 2027 12:54:43.432   03 Jun 2027 12:56:11.541            88.109                  Delhi          2753.406
       279   03 Jun 2027 12:58:57.589   03 Jun 2027 12:59:54.730            57.141                  Delhi          1785.656
       280   03 Jun 2027 13:02:55.972   03 Jun 2027 13:03:36.425            40.453                  Delhi          1264.156
       281   03 Jun 2027 13:04:31.475   03 Jun 2027 13:04:35.595             4.120                Novosib           128.750
       282   03 Jun 2027 13:05:02.437   03 Jun 2027 13:06:06.966            64.529                Novosib          2016.531
       283   03 Jun 2027 13:06:46.891   03 Jun 2027 13:07:12.384            25.493                Novosib           796.656
       284   03 Jun 2027 13:07:39.337   03 Jun 2027 13:08:37.878            58.541                Norilsk          1829.406
       285   03 Jun 2027 13:16:45.703   03 Jun 2027 13:17:14.536            28.833                Norilsk           901.031
       286   03 Jun 2027 14:38:29.868   03 Jun 2027 14:41:44.859           194.991                 Moscow          6093.469
       287   03 Jun 2027 14:42:48.282   03 Jun 2027 14:43:19.046            30.764              Murmansk2           961.375
       288   03 Jun 2027 14:47:37.550   03 Jun 2027 14:50:57.643           200.093                Norilsk          6252.906
       289   03 Jun 2027 15:52:22.602   03 Jun 2027 15:53:06.495            43.893               CapeTown          1371.656
       290   03 Jun 2027 16:16:57.627   03 Jun 2027 16:18:03.904            66.277                 Moscow          2071.156
       291   03 Jun 2027 16:19:37.613   03 Jun 2027 16:20:07.814            30.201              Murmansk2           943.781
       292   03 Jun 2027 16:20:07.814   03 Jun 2027 16:20:38.548            30.734              Murmansk1           960.437
       293   03 Jun 2027 16:22:54.498   03 Jun 2027 16:23:18.662            24.164              Murmansk1           755.125
       294   03 Jun 2027 16:27:03.493   03 Jun 2027 16:27:17.033            13.540              Murmansk2           423.125
       295   03 Jun 2027 16:28:43.198   03 Jun 2027 16:29:09.077            25.879              Murmansk1           808.719
       296   03 Jun 2027 16:32:46.511   03 Jun 2027 16:32:59.115            12.604                Anadyr1           393.875
       297   03 Jun 2027 16:33:03.407   03 Jun 2027 16:34:31.338            87.931                Anadyr2          2747.844
       298   03 Jun 2027 16:37:30.172   03 Jun 2027 16:38:18.417            48.245                Anadyr2          1507.656
       299   03 Jun 2027 16:41:27.226   03 Jun 2027 16:41:42.426            15.200                Anadyr2           475.000
       300   03 Jun 2027 17:28:14.217   03 Jun 2027 17:29:16.012            61.795               CapeTown          1931.094
       301   03 Jun 2027 17:33:42.642   03 Jun 2027 17:33:50.578             7.936               CapeTown           248.000
       302   03 Jun 2027 17:35:52.951   03 Jun 2027 17:36:04.096            11.145               CapeTown           348.281
       303   03 Jun 2027 17:59:47.517   03 Jun 2027 18:05:03.805           316.288              Murmansk2          9884.000
       304   03 Jun 2027 18:09:38.688   03 Jun 2027 18:09:52.113            13.425                Anadyr2           419.531
       305   03 Jun 2027 18:10:25.339   03 Jun 2027 18:10:37.824            12.485                Anadyr2           390.156
       306   03 Jun 2027 18:11:24.260   03 Jun 2027 18:12:46.983            82.723               Magadan1          2585.094
       307   03 Jun 2027 19:44:25.635   03 Jun 2027 19:48:12.130           226.495                Anadyr2          7077.969
       308   03 Jun 2027 19:48:12.947   03 Jun 2027 19:51:02.548           169.601               Magadan1          5300.031
       309   03 Jun 2027 19:53:48.161   03 Jun 2027 19:54:08.507            20.346               Magadan1           635.813
       310   03 Jun 2027 20:39:55.752   03 Jun 2027 20:42:49.424           173.672            RioGallegos          5427.250
       311   03 Jun 2027 20:45:26.241   03 Jun 2027 20:45:47.034            20.793            RioGallegos           649.781
       312   03 Jun 2027 20:46:11.486   03 Jun 2027 20:47:01.158            49.672            RioGallegos          1552.250
       313   03 Jun 2027 21:21:16.470   03 Jun 2027 21:22:32.582            76.112                Anadyr2          2378.500
       314   03 Jun 2027 21:22:40.396   03 Jun 2027 21:23:55.553            75.157               Magadan2          2348.656
       315   03 Jun 2027 21:24:57.828   03 Jun 2027 21:25:36.764            38.936                Norilsk          1216.750
       316   03 Jun 2027 21:25:49.427   03 Jun 2027 21:26:03.199            13.772                Norilsk           430.375
       317   03 Jun 2027 21:27:00.492   03 Jun 2027 21:29:41.826           161.334                Irkutsk          5041.688
       318   03 Jun 2027 21:41:29.159   03 Jun 2027 21:42:27.247            58.088                Sumatra          1815.250
       319   03 Jun 2027 21:45:44.249   03 Jun 2027 21:46:29.622            45.373                Sumatra          1417.906
       320   03 Jun 2027 21:48:11.258   03 Jun 2027 21:48:40.317            29.059                Sumatra           908.094
       321   03 Jun 2027 22:55:44.005   03 Jun 2027 22:56:25.577            41.572                Anadyr2          1299.125
       322   03 Jun 2027 22:58:10.131   03 Jun 2027 23:00:10.946           120.815                Norilsk          3775.469
       323   03 Jun 2027 23:02:03.193   03 Jun 2027 23:04:06.100           122.907                Irkutsk          3840.844
       324   03 Jun 2027 23:08:10.159   03 Jun 2027 23:08:13.957             3.798                Novosib           118.688
       325   03 Jun 2027 23:08:31.258   03 Jun 2027 23:09:08.807            37.549                Novosib          1173.406
       326   03 Jun 2027 23:11:36.885   03 Jun 2027 23:12:18.873            41.988                  Delhi          1312.125
       327   03 Jun 2027 23:12:57.564   03 Jun 2027 23:14:01.746            64.182                  Delhi          2005.687
       328   04 Jun 2027 00:00:11.559   04 Jun 2027 00:00:32.559            21.000            RioGallegos           656.250
       329   04 Jun 2027 00:01:53.660   04 Jun 2027 00:02:01.569             7.909            RioGallegos           247.156
       330   04 Jun 2027 00:29:19.457   04 Jun 2027 00:29:20.347             0.890                Anadyr2            27.812
       331   04 Jun 2027 00:29:37.361   04 Jun 2027 00:30:42.077            64.716                Anadyr2          2022.375
       332   04 Jun 2027 00:31:22.124   04 Jun 2027 00:31:50.333            28.209                Anadyr1           881.531
       333   04 Jun 2027 00:32:11.217   04 Jun 2027 00:32:16.494             5.277                Anadyr2           164.906
       334   04 Jun 2027 00:34:10.591   04 Jun 2027 00:34:27.096            16.505                Norilsk           515.781
       335   04 Jun 2027 00:34:42.105   04 Jun 2027 00:35:23.301            41.196               Magadan2          1287.375
       336   04 Jun 2027 00:35:23.301   04 Jun 2027 00:36:24.028            60.727               Magadan1          1897.719
       337   04 Jun 2027 00:36:53.188   04 Jun 2027 00:38:56.721           123.533              Murmansk1          3860.406
       338   04 Jun 2027 00:38:56.721   04 Jun 2027 00:40:23.821            87.100              Murmansk2          2721.875
       339   04 Jun 2027 00:45:32.014   04 Jun 2027 00:47:45.507           133.493                  Delhi          4171.656
       340   04 Jun 2027 01:27:33.217   04 Jun 2027 01:28:11.538            38.321            RioGallegos          1197.531
       341   04 Jun 2027 01:32:43.098   04 Jun 2027 01:32:54.403            11.305            RioGallegos           353.281
       342   04 Jun 2027 02:02:36.453   04 Jun 2027 02:03:45.794            69.341                Anadyr1          2166.906
       343   04 Jun 2027 02:04:42.574   04 Jun 2027 02:04:51.447             8.873                Anadyr1           277.281
       344   04 Jun 2027 02:05:24.558   04 Jun 2027 02:05:32.386             7.828                Anadyr2           244.625
       345   04 Jun 2027 02:08:11.293   04 Jun 2027 02:08:21.780            10.487                Anadyr1           327.719
       346   04 Jun 2027 02:08:29.610   04 Jun 2027 02:10:33.309           123.699               Magadan1          3865.594
       347   04 Jun 2027 02:12:19.515   04 Jun 2027 02:12:46.967            27.452              Murmansk1           857.875
       348   04 Jun 2027 02:13:12.882   04 Jun 2027 02:13:22.987            10.105              Murmansk2           315.781
       349   04 Jun 2027 02:13:36.568   04 Jun 2027 02:13:45.062             8.494              Murmansk2           265.438
       350   04 Jun 2027 02:13:55.000   04 Jun 2027 02:14:16.876            21.876              Murmansk1           683.625
       351   04 Jun 2027 02:14:34.663   04 Jun 2027 02:15:28.288            53.625                Novosib          1675.781
       352   04 Jun 2027 02:19:10.707   04 Jun 2027 02:19:31.122            20.415                 Moscow           637.969
       353   04 Jun 2027 02:23:37.631   04 Jun 2027 02:24:26.985            49.354                Novosib          1542.312
       354   04 Jun 2027 02:27:56.336   04 Jun 2027 02:28:35.048            38.712                  Delhi          1209.750
       355   04 Jun 2027 02:44:36.795   04 Jun 2027 02:45:22.185            45.390               CapeTown          1418.437
       356   04 Jun 2027 03:47:08.666   04 Jun 2027 03:47:31.685            23.019                Anadyr2           719.344
       357   04 Jun 2027 03:58:24.733   04 Jun 2027 03:58:53.671            28.938                 Moscow           904.312
       358   04 Jun 2027 03:59:13.670   04 Jun 2027 03:59:35.044            21.374                 Moscow           667.938
       359   04 Jun 2027 03:59:55.665   04 Jun 2027 04:03:12.766           197.101                 Moscow          6159.406
       360   04 Jun 2027 04:15:25.612   04 Jun 2027 04:16:14.464            48.852               CapeTown          1526.625
       361   04 Jun 2027 04:18:25.192   04 Jun 2027 04:19:43.828            78.636               CapeTown          2457.375
       362   04 Jun 2027 04:21:28.170   04 Jun 2027 04:21:40.882            12.712               CapeTown           397.250
       363   04 Jun 2027 04:26:08.976   04 Jun 2027 04:27:12.556            63.580               CapeTown          1986.875
       364   04 Jun 2027 05:12:12.622   04 Jun 2027 05:12:40.620            27.998                Anadyr1           874.937
       365   04 Jun 2027 05:13:19.123   04 Jun 2027 05:13:47.323            28.200                Anadyr1           881.250
       366   04 Jun 2027 05:16:13.609   04 Jun 2027 05:16:19.031             5.422                Anadyr1           169.437
       367   04 Jun 2027 05:16:24.740   04 Jun 2027 05:16:40.900            16.160                Anadyr1           505.000
       368   04 Jun 2027 05:17:16.205   04 Jun 2027 05:17:32.218            16.013                Anadyr1           500.406
       369   04 Jun 2027 05:17:32.218   04 Jun 2027 05:17:43.933            11.715                Anadyr2           366.094
       370   04 Jun 2027 05:17:57.089   04 Jun 2027 05:21:05.857           188.768                Anadyr2          5899.000
       371   04 Jun 2027 05:21:05.857   04 Jun 2027 05:22:45.075            99.218                Anadyr1          3100.562
       372   04 Jun 2027 05:22:45.351   04 Jun 2027 05:24:17.346            91.995               Magadan2          2874.844
       373   04 Jun 2027 06:55:33.500   04 Jun 2027 06:56:25.495            51.995                Anadyr1          1624.844
       374   04 Jun 2027 06:56:30.876   04 Jun 2027 06:56:57.779            26.903               Magadan1           840.719
       375   04 Jun 2027 06:57:06.725   04 Jun 2027 06:58:01.336            54.611                Anadyr1          1706.594
       376   04 Jun 2027 06:58:35.611   04 Jun 2027 06:58:57.499            21.888               Magadan2           684.000
       377   04 Jun 2027 06:59:18.514   04 Jun 2027 06:59:57.839            39.325                Anadyr2          1228.906
       378   04 Jun 2027 08:30:00.843   04 Jun 2027 08:30:09.067             8.224               Magadan2           257.000
       379   04 Jun 2027 08:30:36.133   04 Jun 2027 08:31:10.882            34.749               Magadan2          1085.906
       380   04 Jun 2027 08:31:49.069   04 Jun 2027 08:32:39.011            49.942               Magadan2          1560.687
       381   04 Jun 2027 08:32:45.417   04 Jun 2027 08:33:22.395            36.978                Irkutsk          1155.562
       382   04 Jun 2027 08:33:39.511   04 Jun 2027 08:34:55.160            75.649               Magadan1          2364.031
       383   04 Jun 2027 08:35:17.738   04 Jun 2027 08:35:19.670             1.932               Magadan1            60.375
       384   04 Jun 2027 08:35:55.169   04 Jun 2027 08:36:15.566            20.397                Norilsk           637.406
       385   04 Jun 2027 09:11:08.325   04 Jun 2027 09:11:32.639            24.314            RioGallegos           759.813
       386   04 Jun 2027 09:12:11.179   04 Jun 2027 09:13:24.095            72.916            RioGallegos          2278.625
       387   04 Jun 2027 09:47:11.532   04 Jun 2027 09:47:53.840            42.308                Sumatra          1322.125
       388   04 Jun 2027 10:08:26.157   04 Jun 2027 10:08:41.113            14.956                Novosib           467.375
       389   04 Jun 2027 10:09:05.511   04 Jun 2027 10:09:13.216             7.705                Irkutsk           240.781
       390   04 Jun 2027 10:09:43.363   04 Jun 2027 10:09:53.732            10.369                Novosib           324.031
       391   04 Jun 2027 10:10:10.801   04 Jun 2027 10:10:15.196             4.395                Irkutsk           137.344
       392   04 Jun 2027 10:10:32.708   04 Jun 2027 10:11:23.135            50.427                Irkutsk          1575.844
       393   04 Jun 2027 10:11:31.184   04 Jun 2027 10:12:02.395            31.211                Norilsk           975.344
       394   04 Jun 2027 10:12:04.884   04 Jun 2027 10:12:34.725            29.841                Novosib           932.531
       395   04 Jun 2027 10:48:03.898   04 Jun 2027 10:48:36.896            32.998            RioGallegos          1031.187
       396   04 Jun 2027 10:50:30.921   04 Jun 2027 10:51:06.157            35.236            RioGallegos          1101.125
       397   04 Jun 2027 11:22:19.615   04 Jun 2027 11:22:57.043            37.428                Sumatra          1169.625
       398   04 Jun 2027 11:31:21.516   04 Jun 2027 11:32:38.749            77.233                  Delhi          2413.531
       399   04 Jun 2027 11:45:12.704   04 Jun 2027 11:45:26.301            13.597                Novosib           424.906
       400   04 Jun 2027 11:45:43.323   04 Jun 2027 11:45:54.207            10.884                Novosib           340.125
       401   04 Jun 2027 11:45:56.153   04 Jun 2027 11:46:28.479            32.326                Norilsk          1010.188
       402   04 Jun 2027 11:46:35.665   04 Jun 2027 11:47:25.623            49.958                Irkutsk          1561.188
       403   04 Jun 2027 11:47:31.411   04 Jun 2027 11:47:50.121            18.710                Norilsk           584.688
       404   04 Jun 2027 13:07:12.384   04 Jun 2027 13:10:39.718           207.334                  Delhi          6479.188
       405   04 Jun 2027 13:11:04.066   04 Jun 2027 13:11:20.912            16.846                  Delhi           526.437
       406   04 Jun 2027 13:15:35.482   04 Jun 2027 13:16:33.805            58.323                Novosib          1822.594
       407   04 Jun 2027 13:17:08.153   04 Jun 2027 13:18:04.043            55.890                Novosib          1746.562
       408   04 Jun 2027 14:50:37.306   04 Jun 2027 14:52:36.736           119.430                 Moscow          3732.187
       409   04 Jun 2027 14:53:44.960   04 Jun 2027 14:54:48.430            63.470                 Moscow          1983.437
       410   04 Jun 2027 14:55:20.689   04 Jun 2027 14:57:17.215           116.526              Murmansk1          3641.437
       411   04 Jun 2027 15:00:39.874   04 Jun 2027 15:01:05.188            25.314                Norilsk           791.063
       412   04 Jun 2027 15:01:44.656   04 Jun 2027 15:03:30.318           105.662                Norilsk          3301.938
       413   04 Jun 2027 15:11:16.160   04 Jun 2027 15:11:36.356            20.196                Anadyr1           631.125
       414   04 Jun 2027 15:12:22.400   04 Jun 2027 15:13:16.245            53.845                Anadyr1          1682.656
       415   04 Jun 2027 16:08:34.016   04 Jun 2027 16:10:22.198           108.182               CapeTown          3380.687
       416   04 Jun 2027 16:29:41.471   04 Jun 2027 16:30:05.780            24.309                 Moscow           759.656
       417   04 Jun 2027 16:30:45.436   04 Jun 2027 16:31:30.339            44.903                 Moscow          1403.219
       418   04 Jun 2027 16:33:35.159   04 Jun 2027 16:34:49.648            74.489              Murmansk1          2327.781
       419   04 Jun 2027 16:44:44.514   04 Jun 2027 16:46:33.599           109.085                Anadyr1          3408.906
       420   04 Jun 2027 16:46:38.146   04 Jun 2027 16:47:09.609            31.463                Anadyr1           983.219
       421   04 Jun 2027 17:40:29.242   04 Jun 2027 17:41:26.206            56.964               CapeTown          1780.125
       422   04 Jun 2027 17:45:29.659   04 Jun 2027 17:46:00.141            30.482               CapeTown           952.562
       423   04 Jun 2027 17:50:04.147   04 Jun 2027 17:50:18.863            14.716               CapeTown           459.875
       424   04 Jun 2027 18:12:39.161   04 Jun 2027 18:17:24.287           285.126              Murmansk1          8910.188
       425   04 Jun 2027 18:23:16.286   04 Jun 2027 18:24:49.028            92.742               Magadan1          2898.188
       426   04 Jun 2027 18:27:49.145   04 Jun 2027 18:27:59.734            10.589               Magadan1           330.906
       427   04 Jun 2027 18:31:46.626   04 Jun 2027 18:32:02.190            15.564               Magadan2           486.375
       428   04 Jun 2027 19:56:26.901   04 Jun 2027 20:00:12.855           225.954                Anadyr2          7061.062
       429   04 Jun 2027 20:00:15.303   04 Jun 2027 20:02:52.937           157.634               Magadan2          4926.062
       430   04 Jun 2027 20:06:44.026   04 Jun 2027 20:06:57.239            13.213               Magadan1           412.906
       431   04 Jun 2027 20:08:44.197   04 Jun 2027 20:08:53.111             8.914               Magadan2           278.563
       432   04 Jun 2027 20:09:19.986   04 Jun 2027 20:09:30.734            10.748               Magadan2           335.875
       433   04 Jun 2027 20:10:08.585   04 Jun 2027 20:11:10.954            62.369               Magadan1          1949.031
       434   04 Jun 2027 20:51:29.806   04 Jun 2027 20:53:52.713           142.907            RioGallegos          4465.844
       435   04 Jun 2027 20:57:35.819   04 Jun 2027 20:58:05.585            29.766            RioGallegos           930.187
       436   04 Jun 2027 21:32:10.778   04 Jun 2027 21:32:58.108            47.330                Anadyr1          1479.063
       437   04 Jun 2027 21:34:19.316   04 Jun 2027 21:34:43.810            24.494                Norilsk           765.437
       438   04 Jun 2027 21:35:17.026   04 Jun 2027 21:36:48.485            91.459               Magadan2          2858.094
       439   04 Jun 2027 21:38:22.704   04 Jun 2027 21:39:27.222            64.518               Magadan2          2016.188
       440   04 Jun 2027 21:41:27.363   04 Jun 2027 21:42:12.804            45.441                Irkutsk          1420.031
       441   04 Jun 2027 21:43:20.016   04 Jun 2027 21:44:04.595            44.579                Irkutsk          1393.094
       442   04 Jun 2027 21:52:56.544   04 Jun 2027 21:55:46.103           169.559                Sumatra          5298.719
       443   04 Jun 2027 23:07:27.009   04 Jun 2027 23:08:29.149            62.140                Anadyr2          1941.875
       444   04 Jun 2027 23:09:36.344   04 Jun 2027 23:09:53.438            17.094                Anadyr2           534.187
       445   04 Jun 2027 23:10:12.102   04 Jun 2027 23:10:42.922            30.820                Norilsk           963.125
       446   04 Jun 2027 23:10:50.108   04 Jun 2027 23:11:06.932            16.824               Magadan2           525.750
       447   04 Jun 2027 23:11:21.896   04 Jun 2027 23:12:10.117            48.221               Magadan2          1506.906
       448   04 Jun 2027 23:12:20.615   04 Jun 2027 23:12:46.285            25.670               Magadan2           802.187
       449   04 Jun 2027 23:14:04.090   04 Jun 2027 23:14:27.280            23.190                Irkutsk           724.688
       450   04 Jun 2027 23:14:44.602   04 Jun 2027 23:15:51.622            67.020                Novosib          2094.375
       451   04 Jun 2027 23:17:25.406   04 Jun 2027 23:17:33.257             7.851                Novosib           245.344
       452   04 Jun 2027 23:19:17.456   04 Jun 2027 23:19:29.357            11.901                Novosib           371.906
       453   04 Jun 2027 23:19:48.486   04 Jun 2027 23:20:29.917            41.431                Novosib          1294.719
       454   04 Jun 2027 23:22:55.714   04 Jun 2027 23:23:55.552            59.838                  Delhi          1869.937
       455   04 Jun 2027 23:25:43.445   04 Jun 2027 23:25:56.584            13.139                  Delhi           410.594
       456   04 Jun 2027 23:26:32.230   04 Jun 2027 23:27:30.275            58.045                  Delhi          1813.906
       457   05 Jun 2027 00:10:40.088   05 Jun 2027 00:11:06.770            26.682            RioGallegos           833.812
       458   05 Jun 2027 00:41:01.493   05 Jun 2027 00:41:27.718            26.225                Anadyr2           819.531
       459   05 Jun 2027 00:41:49.631   05 Jun 2027 00:42:38.287            48.656                Anadyr1          1520.500
       460   05 Jun 2027 00:42:56.141   05 Jun 2027 00:43:23.463            27.322                Anadyr1           853.812
       461   05 Jun 2027 00:46:12.455   05 Jun 2027 00:46:29.026            16.571                Norilsk           517.844
       462   05 Jun 2027 00:46:39.258   05 Jun 2027 00:48:45.496           126.238               Magadan2          3944.938
       463   05 Jun 2027 00:48:45.866   05 Jun 2027 00:50:22.560            96.694              Murmansk1          3021.688
       464   05 Jun 2027 00:50:26.121   05 Jun 2027 00:51:02.668            36.547              Murmansk2          1142.094
       465   05 Jun 2027 00:51:25.157   05 Jun 2027 00:51:30.958             5.801              Murmansk2           181.281
       466   05 Jun 2027 00:51:40.334   05 Jun 2027 00:53:02.341            82.007              Murmansk2          2562.719
       467   05 Jun 2027 01:06:10.161   05 Jun 2027 01:06:21.743            11.582                  Delhi           361.938
       468   05 Jun 2027 01:07:36.755   05 Jun 2027 01:09:53.011           136.256                  Delhi          4258.000
       469   05 Jun 2027 02:14:19.473   05 Jun 2027 02:14:44.020            24.547                Anadyr1           767.094
       470   05 Jun 2027 02:15:44.493   05 Jun 2027 02:16:01.546            17.053                Anadyr1           532.906
       471   05 Jun 2027 02:16:01.546   05 Jun 2027 02:16:53.784            52.238                Anadyr2          1632.437
       472   05 Jun 2027 02:19:59.513   05 Jun 2027 02:21:00.515            61.002               Magadan1          1906.312
       473   05 Jun 2027 02:22:04.546   05 Jun 2027 02:22:25.012            20.466                Norilsk           639.562
       474   05 Jun 2027 02:24:20.532   05 Jun 2027 02:25:25.664            65.132              Murmansk2          2035.375
       475   05 Jun 2027 02:25:59.644   05 Jun 2027 02:26:11.970            12.326              Murmansk1           385.187
       476   05 Jun 2027 02:26:12.971   05 Jun 2027 02:27:06.137            53.166                Novosib          1661.437
       477   05 Jun 2027 02:27:37.827   05 Jun 2027 02:28:57.566            79.739                Novosib          2491.844
       478   05 Jun 2027 02:53:26.205   05 Jun 2027 02:53:54.286            28.081               CapeTown           877.531
       479   05 Jun 2027 02:59:07.667   05 Jun 2027 02:59:43.906            36.239               CapeTown          1132.469
       480   05 Jun 2027 03:03:27.799   05 Jun 2027 03:03:31.502             3.703               CapeTown           115.719
       481   05 Jun 2027 04:10:11.543   05 Jun 2027 04:13:12.222           180.679              Murmansk2          5646.219
       482   05 Jun 2027 04:39:42.153   05 Jun 2027 04:39:58.296            16.143               CapeTown           504.469
