uniorb/output/strategy_4/Drop/Drop_KinoSat_111402.txt

KinoSat_111402
-------------------------
    Access    *     Start Time (UTCG)     *     Stop Time (UTCG)  *   Duration (s)        *       Station  *  Data (Mbytes)
         1   01 Jun 2027 03:54:43.530   01 Jun 2027 03:55:47.754            64.224                Norilsk          2007.000
         2   01 Jun 2027 03:55:48.646   01 Jun 2027 03:56:09.370            20.724              Murmansk2           647.625
         3   01 Jun 2027 03:56:23.616   01 Jun 2027 03:57:25.103            61.487              Murmansk2          1921.469
         4   01 Jun 2027 03:57:42.865   01 Jun 2027 03:59:23.223           100.358              Murmansk2          3136.188
         5   01 Jun 2027 04:00:41.255   01 Jun 2027 04:01:32.259            51.004                 Moscow          1593.875
         6   01 Jun 2027 04:02:33.184   01 Jun 2027 04:02:54.296            21.112                 Moscow           659.750
         7   01 Jun 2027 04:23:27.462   01 Jun 2027 04:24:02.418            34.956               CapeTown          1092.375
         8   01 Jun 2027 05:17:38.990   01 Jun 2027 05:18:56.787            77.797                Anadyr2          2431.156
         9   01 Jun 2027 05:18:56.787   01 Jun 2027 05:19:49.888            53.101                Anadyr1          1659.406
        10   01 Jun 2027 05:20:00.697   01 Jun 2027 05:20:15.256            14.559                Anadyr1           454.969
        11   01 Jun 2027 05:21:09.431   01 Jun 2027 05:21:31.025            21.594                Anadyr1           674.813
        12   01 Jun 2027 06:52:19.681   01 Jun 2027 06:53:22.018            62.337               Magadan1          1948.031
        13   01 Jun 2027 06:53:29.310   01 Jun 2027 06:54:38.629            69.319                Anadyr2          2166.219
        14   01 Jun 2027 06:54:38.629   01 Jun 2027 06:55:50.665            72.036                Anadyr1          2251.125
        15   01 Jun 2027 06:56:27.167   01 Jun 2027 06:58:44.951           137.784                Anadyr2          4305.750
        16   01 Jun 2027 06:58:44.951   01 Jun 2027 06:59:24.085            39.134                Anadyr1          1222.937
        17   01 Jun 2027 06:59:55.964   01 Jun 2027 07:00:10.264            14.300              Murmansk2           446.875
        18   01 Jun 2027 07:00:45.716   01 Jun 2027 07:01:02.514            16.798              Murmansk2           524.938
        19   01 Jun 2027 07:01:25.816   01 Jun 2027 07:02:10.590            44.774              Murmansk2          1399.188
        20   01 Jun 2027 07:02:49.238   01 Jun 2027 07:03:49.456            60.218                 Moscow          1881.812
        21   01 Jun 2027 07:37:54.003   01 Jun 2027 07:38:12.337            18.334            RioGallegos           572.938
        22   01 Jun 2027 08:28:15.709   01 Jun 2027 08:34:16.345           360.636                Anadyr1         11269.875
        23   01 Jun 2027 08:39:10.836   01 Jun 2027 08:39:39.073            28.237              Murmansk2           882.406
        24   01 Jun 2027 09:10:02.244   01 Jun 2027 09:11:06.479            64.235            RioGallegos          2007.344
        25   01 Jun 2027 09:47:31.459   01 Jun 2027 09:49:07.037            95.578                Sumatra          2986.813
        26   01 Jun 2027 10:04:08.135   01 Jun 2027 10:05:27.155            79.020               Magadan2          2469.375
        27   01 Jun 2027 10:06:16.694   01 Jun 2027 10:08:19.964           123.270               Magadan1          3852.188
        28   01 Jun 2027 10:08:19.964   01 Jun 2027 10:08:29.960             9.996               Magadan2           312.375
        29   01 Jun 2027 10:09:52.257   01 Jun 2027 10:10:58.509            66.252                Novosib          2070.375
        30   01 Jun 2027 10:11:05.526   01 Jun 2027 10:11:56.407            50.881              Murmansk2          1590.031
        31   01 Jun 2027 10:13:39.646   01 Jun 2027 10:14:19.111            39.465                Norilsk          1233.281
        32   01 Jun 2027 10:45:55.704   01 Jun 2027 10:48:10.275           134.571            RioGallegos          4205.344
        33   01 Jun 2027 11:20:26.821   01 Jun 2027 11:21:47.728            80.907                Sumatra          2528.344
        34   01 Jun 2027 11:22:57.000   01 Jun 2027 11:24:31.312            94.312                Sumatra          2947.250
        35   01 Jun 2027 11:40:54.130   01 Jun 2027 11:40:55.208             1.078                  Delhi            33.687
        36   01 Jun 2027 11:42:21.442   01 Jun 2027 11:42:30.331             8.889                Norilsk           277.781
        37   01 Jun 2027 11:42:36.073   01 Jun 2027 11:42:55.916            19.843                Irkutsk           620.094
        38   01 Jun 2027 11:42:59.771   01 Jun 2027 11:43:23.347            23.576              Murmansk1           736.750
        39   01 Jun 2027 11:43:25.345   01 Jun 2027 11:43:51.810            26.465                 Moscow           827.031
        40   01 Jun 2027 11:43:56.076   01 Jun 2027 11:46:13.851           137.775                Novosib          4305.469
        41   01 Jun 2027 11:46:19.799   01 Jun 2027 11:47:32.629            72.830                Norilsk          2275.938
        42   01 Jun 2027 11:47:38.938   01 Jun 2027 11:48:23.177            44.239                Novosib          1382.469
        43   01 Jun 2027 11:50:19.592   01 Jun 2027 11:50:53.650            34.058              Murmansk2          1064.313
        44   01 Jun 2027 12:27:21.167   01 Jun 2027 12:30:36.690           195.523            RioGallegos          6110.094
        45   01 Jun 2027 13:04:55.152   01 Jun 2027 13:04:59.460             4.308                  Delhi           134.625
        46   01 Jun 2027 13:09:36.259   01 Jun 2027 13:10:45.251            68.992                  Delhi          2156.000
        47   01 Jun 2027 13:11:10.010   01 Jun 2027 13:12:54.407           104.397                  Delhi          3262.406
        48   01 Jun 2027 13:12:56.129   01 Jun 2027 13:13:31.577            35.448                Novosib          1107.750
        49   01 Jun 2027 13:15:32.442   01 Jun 2027 13:16:45.297            72.855                Novosib          2276.719
        50   01 Jun 2027 13:16:55.677   01 Jun 2027 13:18:13.605            77.928                Norilsk          2435.250
        51   01 Jun 2027 13:21:58.044   01 Jun 2027 13:22:15.007            16.963                Norilsk           530.094
        52   01 Jun 2027 13:22:38.102   01 Jun 2027 13:23:36.097            57.995                Novosib          1812.344
        53   01 Jun 2027 14:49:00.643   01 Jun 2027 14:52:56.604           235.961                 Moscow          7373.781
        54   01 Jun 2027 14:53:47.686   01 Jun 2027 14:55:15.538            87.852              Murmansk2          2745.375
        55   01 Jun 2027 14:57:11.814   01 Jun 2027 14:58:34.237            82.423                Norilsk          2575.719
        56   01 Jun 2027 15:00:05.076   01 Jun 2027 15:01:50.504           105.428                Norilsk          3294.625
        57   01 Jun 2027 16:03:15.091   01 Jun 2027 16:04:20.805            65.714               CapeTown          2053.562
        58   01 Jun 2027 16:06:28.962   01 Jun 2027 16:07:28.217            59.255               CapeTown          1851.719
        59   01 Jun 2027 16:13:17.544   01 Jun 2027 16:13:25.060             7.516               CapeTown           234.875
        60   01 Jun 2027 16:13:31.332   01 Jun 2027 16:13:59.762            28.430               CapeTown           888.438
        61   01 Jun 2027 16:27:44.556   01 Jun 2027 16:27:55.188            10.632                 Moscow           332.250
        62   01 Jun 2027 16:29:48.499   01 Jun 2027 16:29:52.386             3.887              Murmansk1           121.469
        63   01 Jun 2027 16:30:05.811   01 Jun 2027 16:30:59.714            53.903              Murmansk2          1684.469
        64   01 Jun 2027 16:31:47.187   01 Jun 2027 16:32:00.417            13.230              Murmansk2           413.438
        65   01 Jun 2027 16:32:33.976   01 Jun 2027 16:33:25.848            51.872              Murmansk2          1621.000
        66   01 Jun 2027 16:36:53.014   01 Jun 2027 16:37:11.737            18.723                 Moscow           585.094
        67   01 Jun 2027 16:38:14.665   01 Jun 2027 16:39:15.691            61.026              Murmansk2          1907.062
        68   01 Jun 2027 16:43:25.419   01 Jun 2027 16:44:25.121            59.702                Anadyr1          1865.688
        69   01 Jun 2027 16:44:38.353   01 Jun 2027 16:44:57.322            18.969                Anadyr1           592.781
        70   01 Jun 2027 16:46:11.156   01 Jun 2027 16:46:32.502            21.346                Anadyr1           667.062
        71   01 Jun 2027 16:48:23.567   01 Jun 2027 16:48:29.619             6.052                Anadyr1           189.125
        72   01 Jun 2027 16:48:29.619   01 Jun 2027 16:48:49.423            19.804                Anadyr2           618.875
        73   01 Jun 2027 16:49:25.846   01 Jun 2027 16:49:47.991            22.145                Anadyr2           692.031
        74   01 Jun 2027 16:50:15.629   01 Jun 2027 16:50:32.584            16.955                Anadyr2           529.844
        75   01 Jun 2027 16:51:59.506   01 Jun 2027 16:52:26.833            27.327                Anadyr1           853.969
        76   01 Jun 2027 17:42:50.053   01 Jun 2027 17:43:15.669            25.616               CapeTown           800.500
        77   01 Jun 2027 17:44:39.755   01 Jun 2027 17:46:33.349           113.594               CapeTown          3549.812
        78   01 Jun 2027 18:09:29.800   01 Jun 2027 18:13:26.112           236.312              Murmansk2          7384.750
        79   01 Jun 2027 18:20:21.564   01 Jun 2027 18:20:33.394            11.830                Anadyr1           369.688
        80   01 Jun 2027 18:22:12.347   01 Jun 2027 18:23:09.573            57.226               Magadan2          1788.312
        81   01 Jun 2027 18:24:43.394   01 Jun 2027 18:25:16.678            33.284               Magadan2          1040.125
        82   01 Jun 2027 18:28:34.768   01 Jun 2027 18:28:44.152             9.384                Anadyr1           293.250
        83   01 Jun 2027 18:29:43.952   01 Jun 2027 18:30:08.937            24.985               Magadan2           780.781
        84   01 Jun 2027 18:30:13.960   01 Jun 2027 18:30:57.325            43.365               Magadan2          1355.156
        85   01 Jun 2027 19:54:59.635   01 Jun 2027 19:58:51.438           231.803                Anadyr2          7243.844
        86   01 Jun 2027 19:59:12.719   01 Jun 2027 19:59:37.324            24.605               Magadan1           768.906
        87   01 Jun 2027 19:59:44.708   01 Jun 2027 20:01:00.366            75.658               Magadan2          2364.313
        88   01 Jun 2027 20:01:00.366   01 Jun 2027 20:01:08.140             7.774               Magadan1           242.937
        89   01 Jun 2027 20:01:11.857   01 Jun 2027 20:02:09.667            57.810               Magadan1          1806.563
        90   01 Jun 2027 20:05:13.730   01 Jun 2027 20:05:36.534            22.804               Magadan2           712.625
        91   01 Jun 2027 20:08:07.661   01 Jun 2027 20:08:26.632            18.971               Magadan2           592.844
        92   01 Jun 2027 20:51:19.144   01 Jun 2027 20:53:43.573           144.429            RioGallegos          4513.406
        93   01 Jun 2027 20:56:10.059   01 Jun 2027 20:56:37.072            27.013            RioGallegos           844.156
        94   01 Jun 2027 21:30:49.162   01 Jun 2027 21:33:11.059           141.897                Anadyr1          4434.281
        95   01 Jun 2027 21:33:13.109   01 Jun 2027 21:35:23.900           130.791               Magadan1          4087.219
        96   01 Jun 2027 21:36:21.701   01 Jun 2027 21:36:25.245             3.544               Magadan1           110.750
        97   01 Jun 2027 21:37:56.402   01 Jun 2027 21:38:35.871            39.469                Irkutsk          1233.406
        98   01 Jun 2027 21:40:27.969   01 Jun 2027 21:40:55.965            27.996                Irkutsk           874.875
        99   01 Jun 2027 21:43:38.013   01 Jun 2027 21:44:29.555            51.542                Irkutsk          1610.688
       100   01 Jun 2027 21:52:59.508   01 Jun 2027 21:55:09.278           129.770                Sumatra          4055.312
       101   01 Jun 2027 23:06:06.639   01 Jun 2027 23:08:38.404           151.765                Anadyr2          4742.656
       102   01 Jun 2027 23:08:43.408   01 Jun 2027 23:08:55.383            11.975                Norilsk           374.219
       103   01 Jun 2027 23:09:15.516   01 Jun 2027 23:09:20.359             4.843                Anadyr1           151.344
       104   01 Jun 2027 23:09:20.491   01 Jun 2027 23:09:41.629            21.138                Anadyr1           660.563
       105   01 Jun 2027 23:09:53.174   01 Jun 2027 23:10:35.196            42.022                Norilsk          1313.187
       106   01 Jun 2027 23:11:02.190   01 Jun 2027 23:12:36.399            94.209               Magadan2          2944.031
       107   01 Jun 2027 23:13:20.797   01 Jun 2027 23:15:57.890           157.093                Novosib          4909.156
       108   01 Jun 2027 23:24:42.271   01 Jun 2027 23:25:07.315            25.044                  Delhi           782.625
       109   01 Jun 2027 23:25:37.759   01 Jun 2027 23:26:08.328            30.569                  Delhi           955.281
       110   01 Jun 2027 23:36:45.220   01 Jun 2027 23:38:15.619            90.399                Sumatra          2824.969
       111   02 Jun 2027 00:10:21.731   02 Jun 2027 00:10:47.131            25.400            RioGallegos           793.750
       112   02 Jun 2027 00:40:15.440   02 Jun 2027 00:41:17.257            61.817                Anadyr1          1931.781
       113   02 Jun 2027 00:42:21.078   02 Jun 2027 00:43:15.783            54.705                Anadyr2          1709.531
       114   02 Jun 2027 00:44:43.831   02 Jun 2027 00:46:47.448           123.617                Norilsk          3863.031
       115   02 Jun 2027 00:46:50.884   02 Jun 2027 00:47:22.435            31.551               Magadan1           985.969
       116   02 Jun 2027 00:47:41.718   02 Jun 2027 00:48:49.259            67.541              Murmansk2          2110.656
       117   02 Jun 2027 00:48:58.940   02 Jun 2027 00:50:39.951           101.011                Irkutsk          3156.594
       118   02 Jun 2027 00:55:22.542   02 Jun 2027 00:55:51.269            28.727                Irkutsk           897.719
       119   02 Jun 2027 00:58:36.374   02 Jun 2027 00:58:38.566             2.192                  Delhi            68.500
       120   02 Jun 2027 00:59:02.728   02 Jun 2027 00:59:40.197            37.469                  Delhi          1170.906
       121   02 Jun 2027 01:02:41.844   02 Jun 2027 01:03:22.200            40.356                  Delhi          1261.125
       122   02 Jun 2027 01:37:44.267   02 Jun 2027 01:40:03.428           139.161            RioGallegos          4348.781
       123   02 Jun 2027 01:41:35.067   02 Jun 2027 01:42:29.453            54.386            RioGallegos          1699.563
       124   02 Jun 2027 02:14:14.924   02 Jun 2027 02:14:23.450             8.526                Anadyr2           266.438
       125   02 Jun 2027 02:16:10.705   02 Jun 2027 02:16:22.934            12.229                Anadyr1           382.156
       126   02 Jun 2027 02:19:21.291   02 Jun 2027 02:19:41.405            20.114                Anadyr2           628.563
       127   02 Jun 2027 02:20:16.858   02 Jun 2027 02:20:50.539            33.681               Magadan1          1052.531
       128   02 Jun 2027 02:21:07.975   02 Jun 2027 02:21:18.804            10.829               Magadan2           338.406
       129   02 Jun 2027 02:21:45.565   02 Jun 2027 02:22:06.349            20.784               Magadan2           649.500
       130   02 Jun 2027 02:22:21.022   02 Jun 2027 02:22:47.342            26.320                Norilsk           822.500
       131   02 Jun 2027 02:22:54.138   02 Jun 2027 02:23:49.441            55.303              Murmansk2          1728.219
       132   02 Jun 2027 02:24:16.216   02 Jun 2027 02:24:58.785            42.569              Murmansk2          1330.281
       133   02 Jun 2027 02:26:03.015   02 Jun 2027 02:27:20.459            77.444                Irkutsk          2420.125
       134   02 Jun 2027 02:33:33.692   02 Jun 2027 02:34:11.156            37.464                  Delhi          1170.750
       135   02 Jun 2027 02:39:06.813   02 Jun 2027 02:39:17.366            10.553                  Delhi           329.781
       136   02 Jun 2027 02:39:46.517   02 Jun 2027 02:39:47.670             1.153                  Delhi            36.031
       137   02 Jun 2027 02:56:26.034   02 Jun 2027 02:57:58.854            92.820               CapeTown          2900.625
       138   02 Jun 2027 04:07:23.071   02 Jun 2027 04:07:56.499            33.428                Norilsk          1044.625
       139   02 Jun 2027 04:08:11.748   02 Jun 2027 04:11:32.917           201.169              Murmansk2          6286.531
       140   02 Jun 2027 04:11:38.418   02 Jun 2027 04:12:01.837            23.419                 Moscow           731.844
       141   02 Jun 2027 04:36:24.563   02 Jun 2027 04:38:01.456            96.893               CapeTown          3027.906
       142   02 Jun 2027 05:29:30.568   02 Jun 2027 05:29:45.766            15.198                Anadyr1           474.938
       143   02 Jun 2027 05:30:08.184   02 Jun 2027 05:35:18.776           310.592                Anadyr1          9706.000
       144   02 Jun 2027 05:35:24.469   02 Jun 2027 05:35:36.215            11.746                Anadyr1           367.062
       145   02 Jun 2027 07:08:27.645   02 Jun 2027 07:09:52.332            84.687                Anadyr1          2646.469
       146   02 Jun 2027 07:10:06.055   02 Jun 2027 07:10:09.707             3.652                Anadyr1           114.125
       147   02 Jun 2027 07:10:39.090   02 Jun 2027 07:11:13.688            34.598               Magadan1          1081.187
       148   02 Jun 2027 08:40:37.733   02 Jun 2027 08:40:49.968            12.235               Magadan2           382.344
       149   02 Jun 2027 08:40:52.360   02 Jun 2027 08:41:41.714            49.354               Magadan1          1542.313
       150   02 Jun 2027 08:41:53.642   02 Jun 2027 08:44:42.729           169.087                Anadyr1          5283.969
       151   02 Jun 2027 08:45:21.772   02 Jun 2027 08:46:52.802            91.030               Magadan2          2844.687
       152   02 Jun 2027 10:18:10.166   02 Jun 2027 10:19:33.502            83.336               Magadan1          2604.250
       153   02 Jun 2027 10:20:06.200   02 Jun 2027 10:20:06.776             0.576                Norilsk            18.000
       154   02 Jun 2027 10:20:23.270   02 Jun 2027 10:20:34.716            11.446                Novosib           357.688
       155   02 Jun 2027 10:20:37.100   02 Jun 2027 10:20:46.234             9.134                Irkutsk           285.438
       156   02 Jun 2027 10:20:51.528   02 Jun 2027 10:20:56.608             5.080                Norilsk           158.750
       157   02 Jun 2027 10:21:00.359   02 Jun 2027 10:21:32.428            32.069                Irkutsk          1002.156
       158   02 Jun 2027 10:22:03.168   02 Jun 2027 10:22:11.348             8.180                Novosib           255.625
       159   02 Jun 2027 10:22:24.413   02 Jun 2027 10:22:33.175             8.762                Novosib           273.813
       160   02 Jun 2027 10:22:35.410   02 Jun 2027 10:22:49.191            13.781                Irkutsk           430.656
       161   02 Jun 2027 10:58:13.249   02 Jun 2027 10:58:37.451            24.202            RioGallegos           756.312
       162   02 Jun 2027 11:00:36.407   02 Jun 2027 11:00:39.375             2.968            RioGallegos            92.750
       163   02 Jun 2027 11:00:52.866   02 Jun 2027 11:01:54.493            61.627            RioGallegos          1925.844
       164   02 Jun 2027 11:32:36.182   02 Jun 2027 11:33:02.308            26.126                Sumatra           816.437
       165   02 Jun 2027 11:41:26.235   02 Jun 2027 11:42:22.543            56.308                Sumatra          1759.625
       166   02 Jun 2027 11:53:57.980   02 Jun 2027 11:54:46.630            48.650                Irkutsk          1520.313
       167   02 Jun 2027 11:54:51.851   02 Jun 2027 11:55:02.464            10.613                Irkutsk           331.656
       168   02 Jun 2027 11:55:46.610   02 Jun 2027 11:55:51.106             4.496                Novosib           140.500
       169   02 Jun 2027 11:56:08.642   02 Jun 2027 11:56:39.906            31.264                Novosib           977.000
       170   02 Jun 2027 11:56:54.956   02 Jun 2027 11:56:57.845             2.889                Norilsk            90.281
       171   02 Jun 2027 11:57:08.285   02 Jun 2027 11:58:11.334            63.049                Novosib          1970.281
       172   02 Jun 2027 11:58:17.429   02 Jun 2027 11:58:21.139             3.710                Norilsk           115.937
       173   02 Jun 2027 11:58:24.210   02 Jun 2027 11:58:29.244             5.034              Murmansk1           157.313
       174   02 Jun 2027 11:58:37.218   02 Jun 2027 11:58:44.506             7.288              Murmansk1           227.750
       175   02 Jun 2027 12:00:26.859   02 Jun 2027 12:00:52.900            26.041              Murmansk1           813.781
       176   02 Jun 2027 12:02:09.316   02 Jun 2027 12:02:38.187            28.871                Norilsk           902.219
       177   02 Jun 2027 12:05:39.733   02 Jun 2027 12:05:50.229            10.496              Murmansk2           328.000
       178   02 Jun 2027 13:17:14.996   02 Jun 2027 13:18:12.783            57.787                  Delhi          1805.844
       179   02 Jun 2027 13:21:35.453   02 Jun 2027 13:22:17.633            42.180                  Delhi          1318.125
       180   02 Jun 2027 13:23:29.799   02 Jun 2027 13:24:12.883            43.084                  Delhi          1346.375
       181   02 Jun 2027 13:24:43.352   02 Jun 2027 13:25:33.477            50.125                  Delhi          1566.406
       182   02 Jun 2027 13:26:05.110   02 Jun 2027 13:28:43.720           158.610                Novosib          4956.562
       183   02 Jun 2027 13:29:20.585   02 Jun 2027 13:30:15.002            54.417                Norilsk          1700.531
       184   02 Jun 2027 13:33:58.477   02 Jun 2027 13:34:10.526            12.049                Norilsk           376.531
       185   02 Jun 2027 13:34:37.994   02 Jun 2027 13:35:38.898            60.904                Novosib          1903.250
       186   02 Jun 2027 15:01:04.531   02 Jun 2027 15:05:07.860           243.329                 Moscow          7604.031
       187   02 Jun 2027 15:05:49.484   02 Jun 2027 15:06:10.452            20.968              Murmansk2           655.250
       188   02 Jun 2027 15:06:16.109   02 Jun 2027 15:06:35.019            18.910              Murmansk1           590.937
       189   02 Jun 2027 15:09:47.757   02 Jun 2027 15:09:56.038             8.281              Murmansk2           258.781
       190   02 Jun 2027 15:10:03.100   02 Jun 2027 15:11:48.419           105.319                Norilsk          3291.219
       191   02 Jun 2027 15:12:07.493   02 Jun 2027 15:13:37.661            90.168                Norilsk          2817.750
       192   02 Jun 2027 16:15:00.156   02 Jun 2027 16:15:43.758            43.602               CapeTown          1362.563
       193   02 Jun 2027 16:20:47.186   02 Jun 2027 16:21:18.397            31.211               CapeTown           975.344
       194   02 Jun 2027 16:25:47.875   02 Jun 2027 16:26:08.023            20.148               CapeTown           629.625
       195   02 Jun 2027 16:39:26.466   02 Jun 2027 16:39:49.861            23.395                 Moscow           731.094
       196   02 Jun 2027 16:40:33.036   02 Jun 2027 16:41:08.754            35.718                 Moscow          1116.187
       197   02 Jun 2027 16:42:09.378   02 Jun 2027 16:42:38.466            29.088              Murmansk1           909.000
       198   02 Jun 2027 16:45:23.216   02 Jun 2027 16:45:54.808            31.592              Murmansk1           987.250
       199   02 Jun 2027 16:47:31.614   02 Jun 2027 16:47:32.131             0.517              Murmansk1            16.156
       200   02 Jun 2027 16:49:39.917   02 Jun 2027 16:50:17.925            38.008              Murmansk2          1187.750
       201   02 Jun 2027 16:55:22.315   02 Jun 2027 16:56:57.974            95.659                Anadyr2          2989.344
       202   02 Jun 2027 16:58:29.468   02 Jun 2027 16:58:35.816             6.348                Anadyr1           198.375
       203   02 Jun 2027 16:59:20.185   02 Jun 2027 16:59:46.165            25.980                Anadyr2           811.875
       204   02 Jun 2027 17:00:43.848   02 Jun 2027 17:00:47.490             3.642                Anadyr2           113.812
       205   02 Jun 2027 17:01:07.829   02 Jun 2027 17:01:20.648            12.819                Anadyr2           400.594
       206   02 Jun 2027 17:50:47.815   02 Jun 2027 17:51:48.782            60.967               CapeTown          1905.219
       207   02 Jun 2027 17:57:40.439   02 Jun 2027 17:58:28.547            48.108               CapeTown          1503.375
       208   02 Jun 2027 18:02:02.454   02 Jun 2027 18:02:10.970             8.516               CapeTown           266.125
       209   02 Jun 2027 18:22:14.617   02 Jun 2027 18:27:27.795           313.178              Murmansk2          9786.812
       210   02 Jun 2027 18:34:01.164   02 Jun 2027 18:34:50.443            49.279               Magadan1          1539.969
       211   02 Jun 2027 18:42:32.063   02 Jun 2027 18:43:18.700            46.637               Magadan2          1457.406
       212   02 Jun 2027 20:07:01.115   02 Jun 2027 20:09:57.487           176.372                Anadyr2          5511.625
       213   02 Jun 2027 20:10:02.690   02 Jun 2027 20:10:04.495             1.805                Anadyr2            56.406
       214   02 Jun 2027 20:10:16.829   02 Jun 2027 20:13:35.773           198.944               Magadan1          6217.000
       215   02 Jun 2027 20:15:48.533   02 Jun 2027 20:16:21.202            32.669               Magadan1          1020.906
       216   02 Jun 2027 21:02:36.331   02 Jun 2027 21:05:26.054           169.723            RioGallegos          5303.844
       217   02 Jun 2027 21:08:04.463   02 Jun 2027 21:08:44.246            39.783            RioGallegos          1243.219
       218   02 Jun 2027 21:42:48.338   02 Jun 2027 21:44:56.145           127.807                Anadyr2          3993.969
       219   02 Jun 2027 21:44:57.568   02 Jun 2027 21:46:03.653            66.085                Norilsk          2065.156
       220   02 Jun 2027 21:46:58.335   02 Jun 2027 21:47:15.568            17.233                Norilsk           538.531
       221   02 Jun 2027 21:47:59.069   02 Jun 2027 21:48:07.299             8.230                Norilsk           257.187
       222   02 Jun 2027 21:48:08.221   02 Jun 2027 21:48:22.203            13.982                Norilsk           436.938
       223   02 Jun 2027 21:49:38.372   02 Jun 2027 21:50:33.887            55.515                Irkutsk          1734.844
       224   02 Jun 2027 21:55:36.171   02 Jun 2027 21:55:39.580             3.409                Irkutsk           106.531
       225   02 Jun 2027 21:57:21.689   02 Jun 2027 21:57:29.171             7.482                Irkutsk           233.813
       226   02 Jun 2027 21:57:42.645   02 Jun 2027 21:58:25.809            43.164                Irkutsk          1348.875
       227   02 Jun 2027 22:04:11.313   02 Jun 2027 22:06:47.349           156.036                Sumatra          4876.125
       228   02 Jun 2027 23:17:59.076   02 Jun 2027 23:18:38.261            39.185                Anadyr2          1224.531
       229   02 Jun 2027 23:19:11.490   02 Jun 2027 23:20:28.806            77.316                Anadyr2          2416.125
       230   02 Jun 2027 23:20:45.285   02 Jun 2027 23:20:56.836            11.551                Norilsk           360.969
       231   02 Jun 2027 23:21:22.813   02 Jun 2027 23:23:12.233           109.420               Magadan2          3419.375
       232   02 Jun 2027 23:24:08.675   02 Jun 2027 23:24:37.566            28.891               Magadan1           902.844
       233   02 Jun 2027 23:24:38.736   02 Jun 2027 23:25:20.568            41.832                Irkutsk          1307.250
       234   02 Jun 2027 23:28:07.392   02 Jun 2027 23:28:23.867            16.475                Novosib           514.844
       235   02 Jun 2027 23:34:20.922   02 Jun 2027 23:36:53.525           152.603                  Delhi          4768.844
       236   03 Jun 2027 00:20:10.248   03 Jun 2027 00:20:14.686             4.438            RioGallegos           138.687
       237   03 Jun 2027 00:20:18.003   03 Jun 2027 00:20:34.777            16.774            RioGallegos           524.187
       238   03 Jun 2027 00:23:52.201   03 Jun 2027 00:24:21.878            29.677            RioGallegos           927.406
       239   03 Jun 2027 00:51:58.355   03 Jun 2027 00:52:17.940            19.585                Anadyr2           612.031
       240   03 Jun 2027 00:52:38.771   03 Jun 2027 00:53:18.532            39.761                Anadyr1          1242.531
       241   03 Jun 2027 00:54:15.133   03 Jun 2027 00:54:25.642            10.509                Anadyr1           328.406
       242   03 Jun 2027 00:54:26.933   03 Jun 2027 00:54:32.409             5.476                Anadyr1           171.125
       243   03 Jun 2027 00:56:45.873   03 Jun 2027 00:56:56.215            10.342                Norilsk           323.187
       244   03 Jun 2027 00:57:18.755   03 Jun 2027 00:57:43.231            24.476               Magadan2           764.875
       245   03 Jun 2027 00:58:03.073   03 Jun 2027 00:59:23.754            80.681               Magadan1          2521.281
       246   03 Jun 2027 00:59:29.759   03 Jun 2027 01:02:05.236           155.477              Murmansk2          4858.656
       247   03 Jun 2027 01:07:52.703   03 Jun 2027 01:10:40.397           167.694                  Delhi          5240.438
       248   03 Jun 2027 01:50:05.267   03 Jun 2027 01:51:17.456            72.189            RioGallegos          2255.906
       249   03 Jun 2027 01:55:07.108   03 Jun 2027 01:55:19.370            12.262            RioGallegos           383.188
       250   03 Jun 2027 02:25:15.197   03 Jun 2027 02:25:21.088             5.891                Anadyr2           184.094
       251   03 Jun 2027 02:26:16.261   03 Jun 2027 02:26:49.148            32.887                Anadyr1          1027.719
       252   03 Jun 2027 02:27:59.004   03 Jun 2027 02:28:18.147            19.143                Anadyr1           598.219
       253   03 Jun 2027 02:31:10.977   03 Jun 2027 02:32:01.430            50.453               Magadan1          1576.656
       254   03 Jun 2027 02:32:40.092   03 Jun 2027 02:32:56.705            16.613                Norilsk           519.156
       255   03 Jun 2027 02:33:08.016   03 Jun 2027 02:33:12.980             4.964               Magadan1           155.125
       256   03 Jun 2027 02:33:20.543   03 Jun 2027 02:34:08.966            48.423               Magadan1          1513.219
       257   03 Jun 2027 02:34:54.802   03 Jun 2027 02:35:44.531            49.729              Murmansk2          1554.031
       258   03 Jun 2027 02:36:08.273   03 Jun 2027 02:36:26.477            18.204              Murmansk2           568.875
       259   03 Jun 2027 02:36:42.334   03 Jun 2027 02:37:15.708            33.374                Novosib          1042.937
       260   03 Jun 2027 02:38:32.715   03 Jun 2027 02:38:38.145             5.430                Novosib           169.687
       261   03 Jun 2027 02:39:25.649   03 Jun 2027 02:39:33.938             8.289                Irkutsk           259.031
       262   03 Jun 2027 02:39:50.691   03 Jun 2027 02:40:56.447            65.756                Irkutsk          2054.875
       263   03 Jun 2027 02:48:13.917   03 Jun 2027 02:50:13.341           119.424                  Delhi          3732.000
       264   03 Jun 2027 04:19:09.141   03 Jun 2027 04:19:43.659            34.518                 Moscow          1078.688
       265   03 Jun 2027 04:19:55.184   03 Jun 2027 04:24:21.790           266.606                 Moscow          8331.438
       266   03 Jun 2027 04:24:45.059   03 Jun 2027 04:25:13.755            28.696                 Moscow           896.750
       267   03 Jun 2027 04:25:41.459   03 Jun 2027 04:25:49.095             7.636                 Moscow           238.625
       268   03 Jun 2027 04:26:15.695   03 Jun 2027 04:26:57.548            41.853                 Moscow          1307.906
       269   03 Jun 2027 04:46:43.135   03 Jun 2027 04:48:41.488           118.353               CapeTown          3698.531
       270   03 Jun 2027 05:41:18.826   03 Jun 2027 05:45:18.034           239.208                Anadyr2          7475.250
       271   03 Jun 2027 05:45:42.237   03 Jun 2027 05:46:56.592            74.355               Magadan2          2323.594
       272   03 Jun 2027 07:19:22.163   03 Jun 2027 07:19:30.431             8.268               Magadan1           258.375
       273   03 Jun 2027 07:19:43.514   03 Jun 2027 07:20:30.065            46.551                Anadyr1          1454.719
       274   03 Jun 2027 07:20:50.792   03 Jun 2027 07:21:53.561            62.769                Anadyr2          1961.531
       275   03 Jun 2027 08:52:29.452   03 Jun 2027 08:52:45.001            15.549               Magadan1           485.906
       276   03 Jun 2027 08:53:09.463   03 Jun 2027 08:54:22.534            73.071               Magadan2          2283.469
       277   03 Jun 2027 08:54:48.739   03 Jun 2027 08:55:16.037            27.298               Magadan1           853.063
       278   03 Jun 2027 08:55:29.931   03 Jun 2027 08:56:09.628            39.697               Magadan1          1240.531
       279   03 Jun 2027 08:57:03.560   03 Jun 2027 08:57:32.160            28.600                Irkutsk           893.750
       280   03 Jun 2027 08:57:50.023   03 Jun 2027 08:58:21.734            31.711               Magadan1           990.969
       281   03 Jun 2027 08:58:28.113   03 Jun 2027 08:58:34.262             6.149               Magadan1           192.156
       282   03 Jun 2027 09:01:21.125   03 Jun 2027 09:01:39.923            18.798                Norilsk           587.438
       283   03 Jun 2027 09:33:44.879   03 Jun 2027 09:34:44.408            59.529            RioGallegos          1860.281
       284   03 Jun 2027 10:09:52.701   03 Jun 2027 10:10:24.660            31.959                Sumatra           998.719
       285   03 Jun 2027 10:14:51.772   03 Jun 2027 10:15:00.854             9.082                Sumatra           283.812
       286   03 Jun 2027 10:18:41.762   03 Jun 2027 10:19:03.078            21.316                Sumatra           666.125
       287   03 Jun 2027 10:31:12.301   03 Jun 2027 10:31:40.422            28.121                Irkutsk           878.781
       288   03 Jun 2027 10:31:54.702   03 Jun 2027 10:32:42.989            48.287                Irkutsk          1508.969
       289   03 Jun 2027 10:32:53.782   03 Jun 2027 10:33:13.556            19.774                Norilsk           617.938
       290   03 Jun 2027 10:33:22.025   03 Jun 2027 10:33:25.093             3.068                Norilsk            95.875
       291   03 Jun 2027 10:33:55.983   03 Jun 2027 10:34:00.345             4.362                Novosib           136.312
       292   03 Jun 2027 10:34:00.663   03 Jun 2027 10:34:18.406            17.743                Irkutsk           554.469
       293   03 Jun 2027 10:34:20.529   03 Jun 2027 10:34:27.007             6.478                Novosib           202.437
       294   03 Jun 2027 10:34:34.246   03 Jun 2027 10:34:34.773             0.527                Norilsk            16.469
       295   03 Jun 2027 10:34:35.323   03 Jun 2027 10:34:35.428             0.105                Norilsk             3.281
       296   03 Jun 2027 10:34:36.737   03 Jun 2027 10:34:57.310            20.573                Irkutsk           642.906
       297   03 Jun 2027 11:10:35.310   03 Jun 2027 11:11:11.716            36.406            RioGallegos          1137.688
       298   03 Jun 2027 11:12:31.038   03 Jun 2027 11:12:59.025            27.987            RioGallegos           874.594
       299   03 Jun 2027 11:44:51.987   03 Jun 2027 11:45:40.341            48.354                Sumatra          1511.062
       300   03 Jun 2027 11:49:42.228   03 Jun 2027 11:49:45.175             2.947                Sumatra            92.094
       301   03 Jun 2027 11:53:14.730   03 Jun 2027 11:53:44.446            29.716                  Delhi           928.625
       302   03 Jun 2027 12:05:05.107   03 Jun 2027 12:05:25.954            20.847                Irkutsk           651.469
       303   03 Jun 2027 12:06:47.769   03 Jun 2027 12:07:32.073            44.304                Novosib          1384.500
       304   03 Jun 2027 13:29:42.548   03 Jun 2027 13:33:16.195           213.647                  Delhi          6676.469
       305   03 Jun 2027 13:33:47.120   03 Jun 2027 13:34:57.040            69.920                  Delhi          2185.000
       306   03 Jun 2027 13:39:03.003   03 Jun 2027 13:39:39.537            36.534                Novosib          1141.688
       307   03 Jun 2027 13:41:04.327   03 Jun 2027 13:41:34.348            30.021                Novosib           938.156
       308   03 Jun 2027 13:42:43.038   03 Jun 2027 13:42:53.794            10.756                Novosib           336.125
       309   03 Jun 2027 13:46:43.707   03 Jun 2027 13:46:55.623            11.916                Norilsk           372.375
       310   03 Jun 2027 13:47:50.920   03 Jun 2027 13:48:07.930            17.010                Norilsk           531.563
       311   03 Jun 2027 13:49:00.322   03 Jun 2027 13:49:36.815            36.493                Norilsk          1140.406
       312   03 Jun 2027 15:13:11.477   03 Jun 2027 15:15:13.499           122.022                 Moscow          3813.188
       313   03 Jun 2027 15:16:42.955   03 Jun 2027 15:19:32.802           169.847              Murmansk2          5307.719
       314   03 Jun 2027 15:23:03.064   03 Jun 2027 15:24:02.001            58.937                Norilsk          1841.781
       315   03 Jun 2027 15:24:09.817   03 Jun 2027 15:25:53.864           104.047                Norilsk          3251.469
       316   03 Jun 2027 16:28:35.629   03 Jun 2027 16:28:41.551             5.922               CapeTown           185.063
       317   03 Jun 2027 16:29:21.792   03 Jun 2027 16:29:23.124             1.332               CapeTown            41.625
       318   03 Jun 2027 16:31:07.379   03 Jun 2027 16:33:00.694           113.315               CapeTown          3541.094
       319   03 Jun 2027 16:52:11.362   03 Jun 2027 16:52:35.136            23.774                 Moscow           742.937
       320   03 Jun 2027 16:54:32.533   03 Jun 2027 16:55:27.669            55.136              Murmansk1          1723.000
       321   03 Jun 2027 17:01:41.438   03 Jun 2027 17:02:22.792            41.354              Murmansk1          1292.313
       322   03 Jun 2027 17:07:20.238   03 Jun 2027 17:08:22.668            62.430                Anadyr1          1950.938
       323   03 Jun 2027 17:08:32.696   03 Jun 2027 17:08:35.560             2.864                Anadyr2            89.500
       324   03 Jun 2027 17:08:50.863   03 Jun 2027 17:08:58.888             8.025                Anadyr2           250.781
       325   03 Jun 2027 17:09:19.296   03 Jun 2027 17:09:46.557            27.261                Anadyr1           851.906
       326   03 Jun 2027 17:12:23.955   03 Jun 2027 17:12:31.936             7.981                Anadyr2           249.406
       327   03 Jun 2027 17:13:08.504   03 Jun 2027 17:13:16.967             8.463                Anadyr1           264.469
       328   03 Jun 2027 17:13:37.722   03 Jun 2027 17:13:41.720             3.998                Anadyr2           124.937
       329   03 Jun 2027 17:14:31.417   03 Jun 2027 17:15:31.854            60.437                Anadyr2          1888.656
       330   03 Jun 2027 18:08:27.672   03 Jun 2027 18:08:35.194             7.522               CapeTown           235.063
       331   03 Jun 2027 18:10:06.132   03 Jun 2027 18:10:26.800            20.668               CapeTown           645.875
       332   03 Jun 2027 18:35:05.058   03 Jun 2027 18:39:39.531           274.473              Murmansk2          8577.281
       333   03 Jun 2027 18:39:39.531   03 Jun 2027 18:39:43.335             3.804              Murmansk1           118.875
       334   03 Jun 2027 18:45:52.865   03 Jun 2027 18:46:25.340            32.475               Magadan1          1014.844
       335   03 Jun 2027 18:46:50.641   03 Jun 2027 18:47:13.930            23.289               Magadan1           727.781
       336   03 Jun 2027 18:47:44.016   03 Jun 2027 18:48:01.884            17.868               Magadan1           558.375
       337   03 Jun 2027 18:48:33.937   03 Jun 2027 18:48:47.480            13.543               Magadan2           423.219
       338   03 Jun 2027 18:52:38.125   03 Jun 2027 18:52:40.583             2.458               Magadan1            76.813
       339   03 Jun 2027 18:54:22.765   03 Jun 2027 18:55:22.188            59.423               Magadan2          1856.969
       340   03 Jun 2027 20:19:02.456   03 Jun 2027 20:21:55.303           172.847                Anadyr1          5401.469
       341   03 Jun 2027 20:21:56.034   03 Jun 2027 20:25:23.833           207.799               Magadan2          6493.719
       342   03 Jun 2027 20:28:04.518   03 Jun 2027 20:28:23.494            18.976               Magadan1           593.000
       343   03 Jun 2027 20:30:33.581   03 Jun 2027 20:31:02.633            29.052               Magadan2           907.875
       344   03 Jun 2027 21:14:08.830   03 Jun 2027 21:16:11.163           122.333            RioGallegos          3822.906
       345   03 Jun 2027 21:16:26.516   03 Jun 2027 21:17:01.822            35.306            RioGallegos          1103.313
       346   03 Jun 2027 21:20:25.662   03 Jun 2027 21:20:37.839            12.177            RioGallegos           380.531
       347   03 Jun 2027 21:54:46.965   03 Jun 2027 21:55:15.536            28.571                Anadyr2           892.844
       348   03 Jun 2027 21:56:54.747   03 Jun 2027 22:00:00.261           185.514                Norilsk          5797.313
       349   03 Jun 2027 22:00:29.435   03 Jun 2027 22:00:37.022             7.587                Norilsk           237.094
       350   03 Jun 2027 22:00:54.490   03 Jun 2027 22:01:39.171            44.681               Magadan1          1396.281
       351   03 Jun 2027 22:01:55.132   03 Jun 2027 22:02:33.028            37.896                Irkutsk          1184.250
       352   03 Jun 2027 22:03:56.350   03 Jun 2027 22:04:03.882             7.532                Irkutsk           235.375
       353   03 Jun 2027 22:15:36.889   03 Jun 2027 22:18:32.588           175.699                Sumatra          5490.594
       354   03 Jun 2027 23:29:50.286   03 Jun 2027 23:32:13.053           142.767                Anadyr2          4461.469
       355   03 Jun 2027 23:32:47.300   03 Jun 2027 23:34:34.194           106.894                Norilsk          3340.438
       356   03 Jun 2027 23:37:02.939   03 Jun 2027 23:37:54.952            52.013                Novosib          1625.406
       357   03 Jun 2027 23:38:22.653   03 Jun 2027 23:39:47.754            85.101                Novosib          2659.406
       358   03 Jun 2027 23:45:37.010   03 Jun 2027 23:46:27.861            50.851                  Delhi          1589.094
       359   03 Jun 2027 23:48:12.356   03 Jun 2027 23:48:55.265            42.909                  Delhi          1340.906
       360   04 Jun 2027 00:27:03.508   04 Jun 2027 00:27:40.367            36.859            RioGallegos          1151.844
       361   04 Jun 2027 00:35:53.943   04 Jun 2027 00:36:21.520            27.577            RioGallegos           861.781
       362   04 Jun 2027 01:03:40.506   04 Jun 2027 01:04:15.881            35.375                Anadyr2          1105.469
       363   04 Jun 2027 01:04:39.640   04 Jun 2027 01:06:01.474            81.834                Anadyr1          2557.312
       364   04 Jun 2027 01:08:47.808   04 Jun 2027 01:08:58.128            10.320                Norilsk           322.500
       365   04 Jun 2027 01:09:16.344   04 Jun 2027 01:09:17.609             1.265               Magadan1            39.531
       366   04 Jun 2027 01:09:19.390   04 Jun 2027 01:11:04.893           105.503               Magadan2          3296.969
       367   04 Jun 2027 01:11:22.044   04 Jun 2027 01:13:24.720           122.676              Murmansk1          3833.625
       368   04 Jun 2027 01:13:48.471   04 Jun 2027 01:14:06.693            18.222              Murmansk2           569.437
       369   04 Jun 2027 01:17:56.975   04 Jun 2027 01:18:10.702            13.727              Murmansk2           428.969
       370   04 Jun 2027 01:19:56.285   04 Jun 2027 01:21:51.001           114.716                  Delhi          3584.875
       371   04 Jun 2027 02:02:34.705   04 Jun 2027 02:03:50.172            75.467            RioGallegos          2358.344
       372   04 Jun 2027 02:04:49.243   04 Jun 2027 02:04:59.947            10.704            RioGallegos           334.500
       373   04 Jun 2027 02:05:47.772   04 Jun 2027 02:06:24.340            36.568            RioGallegos          1142.750
       374   04 Jun 2027 02:36:58.088   04 Jun 2027 02:37:22.722            24.634                Anadyr1           769.812
       375   04 Jun 2027 02:39:46.125   04 Jun 2027 02:39:59.936            13.811                Anadyr2           431.594
       376   04 Jun 2027 02:42:41.101   04 Jun 2027 02:44:40.739           119.638               Magadan2          3738.688
       377   04 Jun 2027 02:46:55.830   04 Jun 2027 02:47:59.510            63.680              Murmansk1          1990.000
       378   04 Jun 2027 02:48:31.778   04 Jun 2027 02:48:34.876             3.098              Murmansk2            96.812
       379   04 Jun 2027 02:48:47.878   04 Jun 2027 02:49:33.439            45.561                Novosib          1423.781
       380   04 Jun 2027 02:50:12.841   04 Jun 2027 02:50:28.432            15.591                Novosib           487.219
       381   04 Jun 2027 02:51:49.923   04 Jun 2027 02:52:09.611            19.688                Irkutsk           615.250
       382   04 Jun 2027 02:58:47.701   04 Jun 2027 02:58:55.715             8.014                 Moscow           250.437
       383   04 Jun 2027 03:15:35.472   04 Jun 2027 03:15:51.449            15.977               CapeTown           499.281
       384   04 Jun 2027 03:16:26.215   04 Jun 2027 03:18:21.263           115.048               CapeTown          3595.250
       385   04 Jun 2027 04:31:35.480   04 Jun 2027 04:32:43.923            68.443              Murmansk1          2138.844
       386   04 Jun 2027 04:32:52.751   04 Jun 2027 04:33:47.658            54.907                 Moscow          1715.844
       387   04 Jun 2027 05:53:43.335   04 Jun 2027 05:56:40.146           176.811               Magadan1          5525.344
       388   04 Jun 2027 07:31:11.801   04 Jun 2027 07:31:42.640            30.839                Anadyr1           963.719
       389   04 Jun 2027 07:31:42.640   04 Jun 2027 07:31:56.405            13.765                Anadyr2           430.156
       390   04 Jun 2027 07:32:02.880   04 Jun 2027 07:33:05.465            62.585               Magadan1          1955.781
       391   04 Jun 2027 07:33:54.528   04 Jun 2027 07:35:05.018            70.490                Anadyr2          2202.813
       392   04 Jun 2027 09:04:23.431   04 Jun 2027 09:04:35.125            11.694               Magadan2           365.438
       393   04 Jun 2027 09:05:32.394   04 Jun 2027 09:05:44.933            12.539               Magadan1           391.844
       394   04 Jun 2027 09:06:33.190   04 Jun 2027 09:07:13.221            40.031               Magadan1          1250.969
       395   04 Jun 2027 09:07:13.221   04 Jun 2027 09:07:32.643            19.422               Magadan2           606.937
       396   04 Jun 2027 09:07:36.614   04 Jun 2027 09:08:09.642            33.028               Magadan1          1032.125
       397   04 Jun 2027 09:08:58.885   04 Jun 2027 09:09:32.848            33.963                Irkutsk          1061.344
       398   04 Jun 2027 09:09:42.044   04 Jun 2027 09:10:10.963            28.919                Irkutsk           903.719
       399   04 Jun 2027 09:10:22.828   04 Jun 2027 09:10:42.074            19.246               Magadan1           601.437
       400   04 Jun 2027 09:13:32.132   04 Jun 2027 09:13:57.446            25.314                Norilsk           791.063
       401   04 Jun 2027 09:45:41.014   04 Jun 2027 09:46:49.656            68.642            RioGallegos          2145.062
       402   04 Jun 2027 10:21:23.467   04 Jun 2027 10:22:36.741            73.274                Sumatra          2289.812
       403   04 Jun 2027 10:41:40.369   04 Jun 2027 10:41:42.452             2.083                Novosib            65.094
       404   04 Jun 2027 10:41:52.630   04 Jun 2027 10:42:26.713            34.083                Irkutsk          1065.094
       405   04 Jun 2027 10:42:32.265   04 Jun 2027 10:42:36.875             4.610                Irkutsk           144.063
       406   04 Jun 2027 10:42:39.250   04 Jun 2027 10:42:45.553             6.303                Novosib           196.969
       407   04 Jun 2027 10:42:47.109   04 Jun 2027 10:42:49.832             2.723                Norilsk            85.094
       408   04 Jun 2027 10:43:10.895   04 Jun 2027 10:44:33.681            82.786                Novosib          2587.063
       409   04 Jun 2027 10:45:12.228   04 Jun 2027 10:45:51.311            39.083                Irkutsk          1221.344
       410   04 Jun 2027 10:45:54.177   04 Jun 2027 10:46:46.605            52.428                Irkutsk          1638.375
       411   04 Jun 2027 11:23:02.448   04 Jun 2027 11:23:57.282            54.834            RioGallegos          1713.563
       412   04 Jun 2027 11:25:04.263   04 Jun 2027 11:25:44.582            40.319            RioGallegos          1259.969
       413   04 Jun 2027 11:57:15.429   04 Jun 2027 11:58:35.839            80.410                Sumatra          2512.813
       414   04 Jun 2027 12:11:42.694   04 Jun 2027 12:12:30.648            47.954                Novosib          1498.562
       415   04 Jun 2027 12:13:35.604   04 Jun 2027 12:14:11.433            35.829                Irkutsk          1119.656
       416   04 Jun 2027 12:25:54.727   04 Jun 2027 12:26:13.314            18.587                Norilsk           580.844
       417   04 Jun 2027 13:42:19.826   04 Jun 2027 13:45:54.353           214.527                  Delhi          6703.969
       418   04 Jun 2027 13:50:48.333   04 Jun 2027 13:51:47.706            59.373                Novosib          1855.406
       419   04 Jun 2027 13:52:34.220   04 Jun 2027 13:53:30.013            55.793                Novosib          1743.531
       420   04 Jun 2027 13:53:32.227   04 Jun 2027 13:53:51.394            19.167              Murmansk2           598.969
       421   04 Jun 2027 13:54:17.470   04 Jun 2027 13:54:34.408            16.938                Norilsk           529.312
       422   04 Jun 2027 13:54:54.054   04 Jun 2027 13:56:01.529            67.475                Novosib          2108.594
       423   04 Jun 2027 14:02:14.289   04 Jun 2027 14:02:39.262            24.973                Norilsk           780.406
       424   04 Jun 2027 15:25:21.617   04 Jun 2027 15:27:12.052           110.435                 Moscow          3451.094
       425   04 Jun 2027 15:28:20.209   04 Jun 2027 15:29:23.175            62.966                 Moscow          1967.688
       426   04 Jun 2027 15:29:52.813   04 Jun 2027 15:31:53.506           120.693              Murmansk1          3771.656
       427   04 Jun 2027 15:36:24.750   04 Jun 2027 15:37:52.033            87.283                Norilsk          2727.594
       428   04 Jun 2027 15:38:05.158   04 Jun 2027 15:38:19.059            13.901                Norilsk           434.406
       429   04 Jun 2027 15:44:29.901   04 Jun 2027 15:45:16.020            46.119                Anadyr2          1441.219
       430   04 Jun 2027 15:45:59.328   04 Jun 2027 15:46:11.683            12.355                Anadyr1           386.094
       431   04 Jun 2027 15:46:20.138   04 Jun 2027 15:48:12.031           111.893                Anadyr1          3496.656
       432   04 Jun 2027 17:06:03.371   04 Jun 2027 17:06:59.099            55.728                 Moscow          1741.500
       433   04 Jun 2027 17:09:13.003   04 Jun 2027 17:09:58.559            45.556              Murmansk2          1423.625
       434   04 Jun 2027 17:15:48.053   04 Jun 2027 17:17:24.963            96.910              Murmansk2          3028.437
       435   04 Jun 2027 17:19:30.935   04 Jun 2027 17:20:00.141            29.206                Anadyr2           912.687
       436   04 Jun 2027 17:21:16.328   04 Jun 2027 17:21:53.222            36.894                Anadyr2          1152.937
       437   04 Jun 2027 18:15:21.175   04 Jun 2027 18:16:05.783            44.608               CapeTown          1394.000
       438   04 Jun 2027 18:20:16.639   04 Jun 2027 18:20:47.728            31.089               CapeTown           971.531
       439   04 Jun 2027 18:48:03.904   04 Jun 2027 18:52:02.315           238.411              Murmansk2          7450.344
       440   04 Jun 2027 18:52:21.462   04 Jun 2027 18:52:25.596             4.134              Murmansk1           129.187
       441   04 Jun 2027 18:55:07.957   04 Jun 2027 18:55:10.496             2.539                Anadyr2            79.344
       442   04 Jun 2027 18:57:46.700   04 Jun 2027 18:58:37.997            51.297               Magadan2          1603.031
       443   04 Jun 2027 18:58:45.118   04 Jun 2027 18:59:39.933            54.815               Magadan1          1712.969
       444   04 Jun 2027 19:00:36.619   04 Jun 2027 19:00:45.889             9.270               Magadan1           289.687
       445   04 Jun 2027 19:02:21.302   04 Jun 2027 19:03:26.764            65.462               Magadan2          2045.687
       446   04 Jun 2027 20:31:03.637   04 Jun 2027 20:34:47.163           223.526                Anadyr2          6985.187
       447   04 Jun 2027 20:34:50.455   04 Jun 2027 20:35:09.578            19.123                Norilsk           597.594
       448   04 Jun 2027 20:35:32.519   04 Jun 2027 20:37:43.072           130.553               Magadan1          4079.781
       449   04 Jun 2027 20:46:01.327   04 Jun 2027 20:46:14.325            12.998               Magadan1           406.188
       450   04 Jun 2027 21:25:49.376   04 Jun 2027 21:28:08.191           138.815            RioGallegos          4337.969
       451   04 Jun 2027 21:28:31.943   04 Jun 2027 21:29:03.332            31.389            RioGallegos           980.906
       452   04 Jun 2027 21:30:29.121   04 Jun 2027 21:30:43.185            14.064            RioGallegos           439.500
       453   04 Jun 2027 21:34:33.741   04 Jun 2027 21:34:56.547            22.806            RioGallegos           712.687
       454   04 Jun 2027 22:06:44.969   04 Jun 2027 22:07:34.678            49.709                Anadyr1          1553.406
       455   04 Jun 2027 22:08:54.404   04 Jun 2027 22:10:40.747           106.343                Norilsk          3323.219
       456   04 Jun 2027 22:10:50.956   04 Jun 2027 22:11:17.412            26.456               Magadan1           826.750
       457   04 Jun 2027 22:13:15.102   04 Jun 2027 22:14:33.166            78.064                Irkutsk          2439.500
       458   04 Jun 2027 22:16:27.910   04 Jun 2027 22:16:28.817             0.907                Irkutsk            28.344
       459   04 Jun 2027 22:19:28.160   04 Jun 2027 22:21:40.284           132.124                Irkutsk          4128.875
       460   04 Jun 2027 22:29:09.434   04 Jun 2027 22:30:24.069            74.635                Sumatra          2332.344
       461   04 Jun 2027 23:41:40.203   04 Jun 2027 23:42:04.808            24.605                Anadyr1           768.906
       462   04 Jun 2027 23:42:45.168   04 Jun 2027 23:43:05.982            20.814                Anadyr1           650.438
       463   04 Jun 2027 23:43:58.414   04 Jun 2027 23:44:13.383            14.969                Anadyr2           467.781
       464   04 Jun 2027 23:44:49.402   04 Jun 2027 23:45:10.943            21.541                Norilsk           673.156
       465   04 Jun 2027 23:45:27.651   04 Jun 2027 23:46:27.370            59.719                Norilsk          1866.219
       466   04 Jun 2027 23:46:36.421   04 Jun 2027 23:46:49.207            12.786                Norilsk           399.562
       467   04 Jun 2027 23:47:09.451   04 Jun 2027 23:47:35.772            26.321               Magadan1           822.531
       468   04 Jun 2027 23:48:23.918   04 Jun 2027 23:49:16.381            52.463               Magadan2          1639.469
       469   04 Jun 2027 23:49:45.516   04 Jun 2027 23:50:48.532            63.016                Novosib          1969.250
       470   04 Jun 2027 23:52:22.543   04 Jun 2027 23:53:41.602            79.059                Novosib          2470.594
       471   04 Jun 2027 23:57:06.525   04 Jun 2027 23:57:32.139            25.614                  Delhi           800.437
       472   04 Jun 2027 23:57:48.008   04 Jun 2027 23:58:02.000            13.992                  Delhi           437.250
       473   05 Jun 2027 00:00:01.711   05 Jun 2027 00:00:58.542            56.831                  Delhi          1775.969
       474   05 Jun 2027 00:02:27.454   05 Jun 2027 00:03:34.666            67.212                  Delhi          2100.375
       475   05 Jun 2027 01:15:22.087   05 Jun 2027 01:16:40.284            78.197                Anadyr1          2443.656
       476   05 Jun 2027 01:17:21.201   05 Jun 2027 01:17:48.286            27.085                Anadyr2           846.406
       477   05 Jun 2027 01:20:49.614   05 Jun 2027 01:21:36.056            46.442                Norilsk          1451.313
       478   05 Jun 2027 01:21:51.136   05 Jun 2027 01:22:56.302            65.166               Magadan1          2036.438
       479   05 Jun 2027 01:22:56.302   05 Jun 2027 01:23:24.135            27.833               Magadan2           869.781
       480   05 Jun 2027 01:24:11.080   05 Jun 2027 01:26:08.028           116.948              Murmansk1          3654.625
       481   05 Jun 2027 01:27:16.477   05 Jun 2027 01:28:08.278            51.801                Irkutsk          1618.781
       482   05 Jun 2027 01:31:18.420   05 Jun 2027 01:31:41.770            23.350                 Moscow           729.687
