uniorb/output/strategy_4/Drop/Drop_KinoSat_111209.txt

KinoSat_111209
-------------------------
    Access    *     Start Time (UTCG)     *     Stop Time (UTCG)  *   Duration (s)        *       Station  *  Data (Mbytes)
         1   01 Jun 2027 04:18:32.801   01 Jun 2027 04:20:10.865            98.064                Anadyr2          3064.500
         2   01 Jun 2027 05:52:48.142   01 Jun 2027 05:53:51.061            62.919               Magadan1          1966.219
         3   01 Jun 2027 05:53:58.125   01 Jun 2027 05:54:34.444            36.319               Magadan2          1134.969
         4   01 Jun 2027 05:54:55.793   01 Jun 2027 05:55:15.658            19.865                Anadyr1           620.781
         5   01 Jun 2027 05:55:46.350   01 Jun 2027 05:57:44.242           117.892               Magadan1          3684.125
         6   01 Jun 2027 05:57:48.379   01 Jun 2027 05:59:49.449           121.070                Anadyr1          3783.437
         7   01 Jun 2027 07:28:29.929   01 Jun 2027 07:33:59.792           329.863                Anadyr2         10308.219
         8   01 Jun 2027 07:34:26.488   01 Jun 2027 07:35:27.512            61.024                Novosib          1907.000
         9   01 Jun 2027 09:06:39.508   01 Jun 2027 09:09:49.242           189.734               Magadan2          5929.187
        10   01 Jun 2027 09:09:52.551   01 Jun 2027 09:10:32.004            39.453                Irkutsk          1232.906
        11   01 Jun 2027 09:10:51.149   01 Jun 2027 09:10:58.705             7.556                Irkutsk           236.125
        12   01 Jun 2027 09:11:08.315   01 Jun 2027 09:11:59.776            51.461              Murmansk2          1608.156
        13   01 Jun 2027 09:12:07.300   01 Jun 2027 09:12:33.140            25.840                Novosib           807.500
        14   01 Jun 2027 09:12:52.301   01 Jun 2027 09:14:11.987            79.686              Murmansk2          2490.188
        15   01 Jun 2027 09:14:25.011   01 Jun 2027 09:14:57.835            32.824                Norilsk          1025.750
        16   01 Jun 2027 09:17:57.514   01 Jun 2027 09:18:46.354            48.840              Murmansk1          1526.250
        17   01 Jun 2027 09:46:09.695   01 Jun 2027 09:47:25.544            75.849            RioGallegos          2370.281
        18   01 Jun 2027 10:20:48.715   01 Jun 2027 10:21:16.823            28.108                Sumatra           878.375
        19   01 Jun 2027 10:22:58.730   01 Jun 2027 10:24:57.556           118.826                Sumatra          3713.313
        20   01 Jun 2027 10:30:54.525   01 Jun 2027 10:31:08.503            13.978                  Delhi           436.813
        21   01 Jun 2027 10:43:20.527   01 Jun 2027 10:45:42.172           141.645                Irkutsk          4426.406
        22   01 Jun 2027 10:45:58.685   01 Jun 2027 10:47:17.666            78.981              Murmansk2          2468.156
        23   01 Jun 2027 10:47:17.666   01 Jun 2027 10:48:28.544            70.878              Murmansk1          2214.937
        24   01 Jun 2027 10:50:00.441   01 Jun 2027 10:50:35.956            35.515              Murmansk2          1109.844
        25   01 Jun 2027 10:52:04.816   01 Jun 2027 10:52:13.094             8.278                Norilsk           258.688
        26   01 Jun 2027 11:26:28.936   01 Jun 2027 11:30:37.758           248.822            RioGallegos          7775.688
        27   01 Jun 2027 12:07:16.147   01 Jun 2027 12:08:06.783            50.636                  Delhi          1582.375
        28   01 Jun 2027 12:09:10.936   01 Jun 2027 12:09:44.016            33.080                  Delhi          1033.750
        29   01 Jun 2027 12:12:59.861   01 Jun 2027 12:13:38.894            39.033                Novosib          1219.781
        30   01 Jun 2027 12:14:37.646   01 Jun 2027 12:14:49.032            11.386                Novosib           355.812
        31   01 Jun 2027 12:15:26.732   01 Jun 2027 12:18:02.995           156.263                Novosib          4883.219
        32   01 Jun 2027 12:20:50.471   01 Jun 2027 12:21:20.054            29.583                Norilsk           924.469
        33   01 Jun 2027 12:22:26.999   01 Jun 2027 12:22:42.008            15.009                Norilsk           469.031
        34   01 Jun 2027 13:49:24.824   01 Jun 2027 13:52:39.395           194.571                 Moscow          6080.344
        35   01 Jun 2027 13:52:51.859   01 Jun 2027 13:55:55.678           183.819              Murmansk2          5744.344
        36   01 Jun 2027 13:56:12.409   01 Jun 2027 13:56:14.676             2.267              Murmansk1            70.844
        37   01 Jun 2027 13:57:00.205   01 Jun 2027 13:59:14.420           134.215                Norilsk          4194.219
        38   01 Jun 2027 14:00:42.262   01 Jun 2027 14:01:44.282            62.020                Norilsk          1938.125
        39   01 Jun 2027 15:03:57.016   01 Jun 2027 15:05:04.667            67.651               CapeTown          2114.094
        40   01 Jun 2027 15:08:14.915   01 Jun 2027 15:08:47.948            33.033               CapeTown          1032.281
        41   01 Jun 2027 15:26:51.406   01 Jun 2027 15:27:41.267            49.861                 Moscow          1558.156
        42   01 Jun 2027 15:29:58.458   01 Jun 2027 15:31:23.458            85.000              Murmansk2          2656.250
        43   01 Jun 2027 15:43:54.702   01 Jun 2027 15:45:42.550           107.848                Anadyr2          3370.250
        44   01 Jun 2027 15:46:31.640   01 Jun 2027 15:46:43.638            11.998                Anadyr1           374.938
        45   01 Jun 2027 15:48:13.069   01 Jun 2027 15:48:20.236             7.167                Anadyr1           223.969
        46   01 Jun 2027 15:48:27.836   01 Jun 2027 15:48:34.745             6.909                Anadyr1           215.906
        47   01 Jun 2027 16:38:55.583   01 Jun 2027 16:40:15.827            80.244               CapeTown          2507.625
        48   01 Jun 2027 16:44:36.507   01 Jun 2027 16:44:39.023             2.516               CapeTown            78.625
        49   01 Jun 2027 16:47:03.639   01 Jun 2027 16:47:33.992            30.353               CapeTown           948.531
        50   01 Jun 2027 17:09:22.296   01 Jun 2027 17:12:42.288           199.992              Murmansk2          6249.750
        51   01 Jun 2027 17:13:49.030   01 Jun 2027 17:14:14.057            25.027              Murmansk2           782.094
        52   01 Jun 2027 17:19:28.477   01 Jun 2027 17:21:36.271           127.794                Anadyr1          3993.562
        53   01 Jun 2027 17:22:50.508   01 Jun 2027 17:24:28.083            97.575               Magadan2          3049.219
        54   01 Jun 2027 17:28:21.952   01 Jun 2027 17:30:05.062           103.110               Magadan1          3222.188
        55   01 Jun 2027 18:55:23.451   01 Jun 2027 18:58:08.846           165.395                Anadyr1          5168.594
        56   01 Jun 2027 18:58:33.482   01 Jun 2027 18:59:13.711            40.229                Anadyr1          1257.156
        57   01 Jun 2027 19:00:10.942   01 Jun 2027 19:00:26.059            15.117               Magadan1           472.406
        58   01 Jun 2027 19:00:45.012   01 Jun 2027 19:01:56.928            71.916               Magadan1          2247.375
        59   01 Jun 2027 19:04:53.449   01 Jun 2027 19:05:48.145            54.696               Magadan1          1709.250
        60   01 Jun 2027 19:52:56.717   01 Jun 2027 19:54:30.267            93.550            RioGallegos          2923.437
        61   01 Jun 2027 20:31:14.310   01 Jun 2027 20:31:42.086            27.776                Anadyr1           868.000
        62   01 Jun 2027 20:32:24.619   01 Jun 2027 20:33:01.142            36.523                Anadyr1          1141.344
        63   01 Jun 2027 20:33:03.977   01 Jun 2027 20:33:21.320            17.343                Anadyr1           541.969
        64   01 Jun 2027 20:33:27.417   01 Jun 2027 20:37:08.010           220.593                Norilsk          6893.531
        65   01 Jun 2027 20:38:42.341   01 Jun 2027 20:41:10.715           148.374                Irkutsk          4636.687
        66   01 Jun 2027 20:44:34.868   01 Jun 2027 20:45:09.446            34.578                Irkutsk          1080.562
        67   01 Jun 2027 20:54:21.227   01 Jun 2027 20:55:59.722            98.495                Sumatra          3077.969
        68   01 Jun 2027 22:06:48.389   01 Jun 2027 22:07:45.583            57.194                Anadyr1          1787.312
        69   01 Jun 2027 22:08:11.690   01 Jun 2027 22:08:27.106            15.416                Anadyr1           481.750
        70   01 Jun 2027 22:08:56.095   01 Jun 2027 22:09:02.041             5.946                Anadyr1           185.813
        71   01 Jun 2027 22:09:07.559   01 Jun 2027 22:10:32.653            85.094                Norilsk          2659.188
        72   01 Jun 2027 22:13:05.084   01 Jun 2027 22:14:25.768            80.684                Irkutsk          2521.375
        73   01 Jun 2027 22:15:04.981   01 Jun 2027 22:15:12.419             7.438                Novosib           232.437
        74   01 Jun 2027 22:17:04.040   01 Jun 2027 22:17:53.924            49.884                Novosib          1558.875
        75   01 Jun 2027 22:29:57.540   01 Jun 2027 22:30:23.417            25.877                Sumatra           808.656
        76   01 Jun 2027 22:31:30.997   01 Jun 2027 22:32:40.754            69.757                Sumatra          2179.906
        77   01 Jun 2027 23:40:53.244   01 Jun 2027 23:42:51.727           118.483                Anadyr1          3702.594
        78   01 Jun 2027 23:43:04.334   01 Jun 2027 23:43:24.777            20.443                Anadyr2           638.844
        79   01 Jun 2027 23:43:45.822   01 Jun 2027 23:43:55.767             9.945                Anadyr2           310.781
        80   01 Jun 2027 23:45:07.377   01 Jun 2027 23:46:40.175            92.798                Norilsk          2899.937
        81   01 Jun 2027 23:46:48.761   01 Jun 2027 23:47:16.986            28.225               Magadan1           882.031
        82   01 Jun 2027 23:48:24.422   01 Jun 2027 23:49:35.101            70.679              Murmansk1          2208.719
        83   01 Jun 2027 23:49:54.907   01 Jun 2027 23:51:00.807            65.900                Novosib          2059.375
        84   01 Jun 2027 23:51:36.928   01 Jun 2027 23:51:37.806             0.878              Murmansk1            27.437
        85   01 Jun 2027 23:51:51.063   01 Jun 2027 23:52:26.738            35.675              Murmansk2          1114.844
        86   01 Jun 2027 23:59:13.415   01 Jun 2027 23:59:19.542             6.127                  Delhi           191.469
        87   01 Jun 2027 23:59:57.252   02 Jun 2027 00:02:07.457           130.205                  Delhi          4068.906
        88   02 Jun 2027 01:14:12.739   02 Jun 2027 01:14:37.677            24.938                Anadyr1           779.313
        89   02 Jun 2027 01:15:21.861   02 Jun 2027 01:16:12.216            50.355                Anadyr2          1573.594
        90   02 Jun 2027 01:16:12.216   02 Jun 2027 01:16:43.513            31.297                Anadyr1           978.031
        91   02 Jun 2027 01:17:17.846   02 Jun 2027 01:17:49.315            31.469                Anadyr2           983.406
        92   02 Jun 2027 01:20:21.646   02 Jun 2027 01:22:38.975           137.329               Magadan1          4291.531
        93   02 Jun 2027 01:23:19.588   02 Jun 2027 01:24:08.324            48.736              Murmansk1          1523.000
        94   02 Jun 2027 01:24:58.514   02 Jun 2027 01:26:26.887            88.373                Novosib          2761.656
        95   02 Jun 2027 01:27:17.465   02 Jun 2027 01:27:21.234             3.769                 Moscow           117.781
        96   02 Jun 2027 01:28:20.771   02 Jun 2027 01:30:31.660           130.889                 Moscow          4090.281
        97   02 Jun 2027 02:47:55.049   02 Jun 2027 02:49:16.646            81.597                Anadyr1          2549.906
        98   02 Jun 2027 02:50:14.456   02 Jun 2027 02:50:56.517            42.061                Anadyr1          1314.406
        99   02 Jun 2027 02:51:16.807   02 Jun 2027 02:51:20.564             3.757                Anadyr2           117.406
       100   02 Jun 2027 02:52:05.818   02 Jun 2027 02:53:23.714            77.896               Magadan2          2434.250
       101   02 Jun 2027 02:53:54.480   02 Jun 2027 02:54:04.278             9.798               Magadan2           306.187
       102   02 Jun 2027 02:55:52.087   02 Jun 2027 02:56:17.848            25.761               Magadan2           805.031
       103   02 Jun 2027 02:58:21.790   02 Jun 2027 02:58:26.068             4.278                Norilsk           133.688
       104   02 Jun 2027 02:59:04.553   02 Jun 2027 02:59:18.721            14.168                Norilsk           442.750
       105   02 Jun 2027 02:59:20.359   02 Jun 2027 02:59:41.762            21.403              Murmansk2           668.844
       106   02 Jun 2027 03:00:43.765   02 Jun 2027 03:01:11.758            27.993              Murmansk1           874.781
       107   02 Jun 2027 03:05:31.699   02 Jun 2027 03:05:46.391            14.692                Norilsk           459.125
       108   02 Jun 2027 03:06:16.259   02 Jun 2027 03:06:51.704            35.445              Murmansk2          1107.656
       109   02 Jun 2027 03:06:53.933   02 Jun 2027 03:07:51.752            57.819                Norilsk          1806.844
       110   02 Jun 2027 03:08:11.003   02 Jun 2027 03:08:34.801            23.798              Murmansk1           743.687
       111   02 Jun 2027 03:08:47.694   02 Jun 2027 03:09:01.509            13.815                Novosib           431.719
       112   02 Jun 2027 03:09:35.242   02 Jun 2027 03:14:13.518           278.276                 Moscow          8696.125
       113   02 Jun 2027 03:26:21.562   02 Jun 2027 03:29:20.534           178.972               CapeTown          5592.875
       114   02 Jun 2027 03:30:17.447   02 Jun 2027 03:31:05.836            48.389               CapeTown          1512.156
       115   02 Jun 2027 04:23:03.983   02 Jun 2027 04:24:32.864            88.881                Anadyr1          2777.531
       116   02 Jun 2027 04:24:32.864   02 Jun 2027 04:25:16.509            43.645                Anadyr2          1363.906
       117   02 Jun 2027 04:25:27.830   02 Jun 2027 04:27:53.529           145.699               Magadan1          4553.094
       118   02 Jun 2027 04:29:40.609   02 Jun 2027 04:30:53.624            73.015               Magadan2          2281.719
       119   02 Jun 2027 04:30:58.492   02 Jun 2027 04:33:19.445           140.953                Anadyr2          4404.781
       120   02 Jun 2027 04:34:36.610   02 Jun 2027 04:35:09.289            32.679                Norilsk          1021.219
       121   02 Jun 2027 06:07:48.734   02 Jun 2027 06:08:58.792            70.058               Magadan2          2189.312
       122   02 Jun 2027 06:10:05.851   02 Jun 2027 06:10:30.254            24.403                Norilsk           762.594
       123   02 Jun 2027 07:42:06.419   02 Jun 2027 07:44:20.905           134.486               Magadan1          4202.688
       124   02 Jun 2027 07:44:20.905   02 Jun 2027 07:44:56.366            35.461               Magadan2          1108.156
       125   02 Jun 2027 07:45:05.852   02 Jun 2027 07:46:36.319            90.467                Anadyr2          2827.094
       126   02 Jun 2027 08:22:25.166   02 Jun 2027 08:22:46.224            21.058            RioGallegos           658.063
       127   02 Jun 2027 08:23:10.210   02 Jun 2027 08:23:27.009            16.799            RioGallegos           524.969
       128   02 Jun 2027 09:17:52.822   02 Jun 2027 09:18:36.183            43.361               Magadan1          1355.031
       129   02 Jun 2027 09:19:28.222   02 Jun 2027 09:19:43.212            14.990                Irkutsk           468.438
       130   02 Jun 2027 09:20:03.115   02 Jun 2027 09:21:10.769            67.654               Magadan2          2114.188
       131   02 Jun 2027 09:21:17.303   02 Jun 2027 09:21:23.943             6.640                Irkutsk           207.500
       132   02 Jun 2027 09:21:29.889   02 Jun 2027 09:22:03.044            33.155                Novosib          1036.094
       133   02 Jun 2027 09:22:17.491   02 Jun 2027 09:22:50.823            33.332                Novosib          1041.625
       134   02 Jun 2027 09:22:53.321   02 Jun 2027 09:22:59.590             6.269                Novosib           195.906
       135   02 Jun 2027 09:23:06.142   02 Jun 2027 09:23:42.926            36.784                Novosib          1149.500
       136   02 Jun 2027 09:58:23.790   02 Jun 2027 09:59:20.635            56.845            RioGallegos          1776.406
       137   02 Jun 2027 10:32:53.162   02 Jun 2027 10:33:15.858            22.696                Sumatra           709.250
       138   02 Jun 2027 10:35:55.422   02 Jun 2027 10:37:15.901            80.479                Sumatra          2514.969
       139   02 Jun 2027 10:42:21.340   02 Jun 2027 10:42:27.524             6.184                  Delhi           193.250
       140   02 Jun 2027 10:53:08.182   02 Jun 2027 10:53:23.838            15.656                  Delhi           489.250
       141   02 Jun 2027 10:55:27.559   02 Jun 2027 10:55:30.458             2.899                Norilsk            90.594
       142   02 Jun 2027 10:55:38.153   02 Jun 2027 10:55:40.877             2.724                Irkutsk            85.125
       143   02 Jun 2027 10:56:13.917   02 Jun 2027 10:56:34.609            20.692                Novosib           646.625
       144   02 Jun 2027 10:56:37.259   02 Jun 2027 10:56:56.215            18.956                Irkutsk           592.375
       145   02 Jun 2027 10:56:58.054   02 Jun 2027 10:57:25.622            27.568                Irkutsk           861.500
       146   02 Jun 2027 10:57:29.996   02 Jun 2027 10:57:39.792             9.796                Novosib           306.125
       147   02 Jun 2027 10:57:56.754   02 Jun 2027 10:58:31.048            34.294                Norilsk          1071.688
       148   02 Jun 2027 10:58:46.423   02 Jun 2027 10:59:09.369            22.946                Norilsk           717.062
       149   02 Jun 2027 11:40:12.847   02 Jun 2027 11:41:08.982            56.135            RioGallegos          1754.219
       150   02 Jun 2027 12:17:23.369   02 Jun 2027 12:18:06.554            43.185                  Delhi          1349.531
       151   02 Jun 2027 12:19:59.524   02 Jun 2027 12:20:10.518            10.994                  Delhi           343.562
       152   02 Jun 2027 12:22:15.833   02 Jun 2027 12:22:17.428             1.595                  Delhi            49.844
       153   02 Jun 2027 12:25:15.766   02 Jun 2027 12:25:59.821            44.055                  Delhi          1376.719
       154   02 Jun 2027 12:26:38.709   02 Jun 2027 12:27:10.211            31.502                Novosib           984.438
       155   02 Jun 2027 12:27:30.062   02 Jun 2027 12:27:58.912            28.850                Novosib           901.563
       156   02 Jun 2027 12:29:06.626   02 Jun 2027 12:30:05.045            58.419                Novosib          1825.594
       157   02 Jun 2027 12:30:27.190   02 Jun 2027 12:30:52.065            24.875              Murmansk1           777.344
       158   02 Jun 2027 12:32:40.281   02 Jun 2027 12:32:52.014            11.733                Norilsk           366.656
       159   02 Jun 2027 12:35:42.182   02 Jun 2027 12:36:08.788            26.606              Murmansk1           831.438
       160   02 Jun 2027 14:01:26.243   02 Jun 2027 14:05:29.628           243.385                 Moscow          7605.781
       161   02 Jun 2027 14:06:25.024   02 Jun 2027 14:08:14.148           109.124              Murmansk2          3410.125
       162   02 Jun 2027 14:08:40.943   02 Jun 2027 14:08:42.871             1.928              Murmansk2            60.250
       163   02 Jun 2027 14:09:46.879   02 Jun 2027 14:11:22.501            95.622                Norilsk          2988.188
       164   02 Jun 2027 14:12:44.622   02 Jun 2027 14:14:17.413            92.791                Norilsk          2899.719
       165   02 Jun 2027 15:15:37.409   02 Jun 2027 15:16:48.298            70.889               CapeTown          2215.281
       166   02 Jun 2027 15:17:40.951   02 Jun 2027 15:18:56.961            76.010               CapeTown          2375.312
       167   02 Jun 2027 15:43:50.392   02 Jun 2027 15:44:12.221            21.829              Murmansk1           682.156
       168   02 Jun 2027 15:46:29.230   02 Jun 2027 15:47:00.287            31.057              Murmansk2           970.531
       169   02 Jun 2027 15:52:04.839   02 Jun 2027 15:52:08.591             3.752              Murmansk1           117.250
       170   02 Jun 2027 15:55:50.404   02 Jun 2027 15:57:43.027           112.623                Anadyr1          3519.469
       171   02 Jun 2027 15:58:24.563   02 Jun 2027 15:59:29.447            64.884                Anadyr2          2027.625
       172   02 Jun 2027 16:51:03.655   02 Jun 2027 16:51:43.470            39.815               CapeTown          1244.219
       173   02 Jun 2027 16:58:55.711   02 Jun 2027 16:59:48.827            53.116               CapeTown          1659.875
       174   02 Jun 2027 17:22:03.469   02 Jun 2027 17:23:19.405            75.936              Murmansk2          2373.000
       175   02 Jun 2027 17:24:17.723   02 Jun 2027 17:25:00.683            42.960              Murmansk2          1342.500
       176   02 Jun 2027 17:25:28.050   02 Jun 2027 17:25:47.503            19.453              Murmansk1           607.906
       177   02 Jun 2027 17:31:29.371   02 Jun 2027 17:32:22.511            53.140                Anadyr2          1660.625
       178   02 Jun 2027 17:33:29.312   02 Jun 2027 17:33:37.650             8.338                Anadyr2           260.562
       179   02 Jun 2027 17:34:31.607   02 Jun 2027 17:34:47.514            15.907                Anadyr1           497.094
       180   02 Jun 2027 17:35:33.969   02 Jun 2027 17:35:36.130             2.161                Anadyr2            67.531
       181   02 Jun 2027 17:35:40.903   02 Jun 2027 17:35:48.905             8.002                Anadyr2           250.062
       182   02 Jun 2027 17:36:13.511   02 Jun 2027 17:36:30.119            16.608                Anadyr1           519.000
       183   02 Jun 2027 17:36:51.662   02 Jun 2027 17:37:21.924            30.262                Anadyr2           945.688
       184   02 Jun 2027 17:37:45.273   02 Jun 2027 17:38:51.438            66.165               Magadan1          2067.656
       185   02 Jun 2027 17:41:17.329   02 Jun 2027 17:41:41.323            23.994               Magadan1           749.813
       186   02 Jun 2027 19:07:24.894   02 Jun 2027 19:09:28.276           123.382                Anadyr1          3855.687
       187   02 Jun 2027 19:09:43.759   02 Jun 2027 19:12:28.078           164.319               Magadan2          5134.969
       188   02 Jun 2027 19:12:28.078   02 Jun 2027 19:12:39.667            11.589               Magadan1           362.156
       189   02 Jun 2027 19:13:03.862   02 Jun 2027 19:13:26.139            22.277                Anadyr2           696.156
       190   02 Jun 2027 19:13:35.218   02 Jun 2027 19:14:23.977            48.759               Magadan1          1523.719
       191   02 Jun 2027 19:20:44.082   02 Jun 2027 19:20:52.494             8.412               Magadan1           262.875
       192   02 Jun 2027 19:21:59.389   02 Jun 2027 19:22:22.835            23.446               Magadan1           732.688
       193   02 Jun 2027 20:03:35.855   02 Jun 2027 20:06:08.184           152.329            RioGallegos          4760.281
       194   02 Jun 2027 20:09:07.021   02 Jun 2027 20:09:16.629             9.608            RioGallegos           300.250
       195   02 Jun 2027 20:43:13.778   02 Jun 2027 20:43:43.893            30.115                Anadyr2           941.094
       196   02 Jun 2027 20:45:13.745   02 Jun 2027 20:45:19.342             5.597                Anadyr2           174.906
       197   02 Jun 2027 20:45:23.682   02 Jun 2027 20:48:28.549           184.867                Norilsk          5777.094
       198   02 Jun 2027 20:48:45.795   02 Jun 2027 20:49:07.177            21.382                Norilsk           668.188
       199   02 Jun 2027 20:50:18.459   02 Jun 2027 20:51:19.656            61.197                Irkutsk          1912.406
       200   02 Jun 2027 20:52:13.378   02 Jun 2027 20:52:58.930            45.552                Norilsk          1423.500
       201   02 Jun 2027 20:52:59.255   02 Jun 2027 20:53:30.668            31.413                Irkutsk           981.656
       202   02 Jun 2027 20:55:44.092   02 Jun 2027 20:56:51.835            67.743                Irkutsk          2116.969
       203   02 Jun 2027 21:05:14.706   02 Jun 2027 21:07:31.839           137.133                Sumatra          4285.406
       204   02 Jun 2027 22:21:10.429   02 Jun 2027 22:21:12.761             2.332                Norilsk            72.875
       205   02 Jun 2027 22:21:44.987   02 Jun 2027 22:22:44.539            59.552               Magadan2          1861.000
       206   02 Jun 2027 22:22:54.502   02 Jun 2027 22:23:12.270            17.768                Norilsk           555.250
       207   02 Jun 2027 22:23:14.314   02 Jun 2027 22:23:23.055             8.741               Magadan2           273.156
       208   02 Jun 2027 22:25:03.964   02 Jun 2027 22:26:21.794            77.830                Irkutsk          2432.187
       209   02 Jun 2027 22:26:45.813   02 Jun 2027 22:28:59.783           133.970                Novosib          4186.562
       210   02 Jun 2027 22:35:41.884   02 Jun 2027 22:37:27.556           105.672                  Delhi          3302.250
       211   02 Jun 2027 23:53:06.202   02 Jun 2027 23:54:50.926           104.724                Anadyr1          3272.625
       212   02 Jun 2027 23:57:09.376   02 Jun 2027 23:57:51.350            41.974                Norilsk          1311.687
       213   02 Jun 2027 23:58:23.976   02 Jun 2027 23:58:39.216            15.240                Norilsk           476.250
       214   03 Jun 2027 00:00:05.658   03 Jun 2027 00:01:34.531            88.873              Murmansk2          2777.281
       215   03 Jun 2027 00:01:56.741   03 Jun 2027 00:03:31.608            94.867              Murmansk1          2964.594
       216   03 Jun 2027 00:10:22.366   03 Jun 2027 00:10:58.889            36.523                  Delhi          1141.344
       217   03 Jun 2027 00:12:33.070   03 Jun 2027 00:12:46.280            13.210                  Delhi           412.812
       218   03 Jun 2027 00:15:09.242   03 Jun 2027 00:15:33.193            23.951                  Delhi           748.469
       219   03 Jun 2027 00:20:38.482   03 Jun 2027 00:21:04.601            26.119                  Delhi           816.219
       220   03 Jun 2027 00:50:11.855   03 Jun 2027 00:51:19.995            68.140            RioGallegos          2129.375
       221   03 Jun 2027 01:25:54.459   03 Jun 2027 01:26:22.522            28.063                Anadyr2           876.969
       222   03 Jun 2027 01:26:48.572   03 Jun 2027 01:27:23.160            34.588                Anadyr2          1080.875
       223   03 Jun 2027 01:28:20.603   03 Jun 2027 01:28:58.807            38.204                Anadyr2          1193.875
       224   03 Jun 2027 01:31:56.972   03 Jun 2027 01:34:06.599           129.627               Magadan1          4050.844
       225   03 Jun 2027 01:35:19.759   03 Jun 2027 01:38:24.489           184.730              Murmansk2          5772.813
       226   03 Jun 2027 01:46:33.687   03 Jun 2027 01:47:03.877            30.190                  Delhi           943.438
       227   03 Jun 2027 01:51:36.062   03 Jun 2027 01:52:11.355            35.293                  Delhi          1102.906
       228   03 Jun 2027 02:07:47.459   03 Jun 2027 02:08:14.536            27.077               CapeTown           846.156
       229   03 Jun 2027 02:13:15.591   03 Jun 2027 02:13:58.435            42.844               CapeTown          1338.875
       230   03 Jun 2027 02:59:44.939   03 Jun 2027 03:01:18.210            93.271                Anadyr2          2914.719
       231   03 Jun 2027 03:03:58.853   03 Jun 2027 03:04:00.787             1.934               Magadan1            60.437
       232   03 Jun 2027 03:05:34.278   03 Jun 2027 03:05:37.426             3.148                Anadyr1            98.375
       233   03 Jun 2027 03:08:43.188   03 Jun 2027 03:08:58.448            15.260                Anadyr2           476.875
       234   03 Jun 2027 03:10:30.264   03 Jun 2027 03:10:55.365            25.101                Anadyr1           784.406
       235   03 Jun 2027 03:19:50.153   03 Jun 2027 03:20:25.982            35.829              Murmansk2          1119.656
       236   03 Jun 2027 03:21:01.949   03 Jun 2027 03:23:59.461           177.512              Murmansk1          5547.250
       237   03 Jun 2027 03:24:03.767   03 Jun 2027 03:24:41.094            37.327                 Moscow          1166.469
       238   03 Jun 2027 03:38:21.417   03 Jun 2027 03:40:59.847           158.430               CapeTown          4950.938
       239   03 Jun 2027 04:35:07.658   03 Jun 2027 04:38:25.939           198.281                Anadyr2          6196.281
       240   03 Jun 2027 04:41:34.160   03 Jun 2027 04:41:53.896            19.736               Magadan1           616.750
       241   03 Jun 2027 04:42:15.845   03 Jun 2027 04:43:12.584            56.739                Anadyr1          1773.094
       242   03 Jun 2027 04:43:22.130   03 Jun 2027 04:45:23.515           121.385               Magadan2          3793.281
       243   03 Jun 2027 06:18:56.333   03 Jun 2027 06:19:01.221             4.888               Magadan1           152.750
       244   03 Jun 2027 06:19:01.884   03 Jun 2027 06:19:43.621            41.737                Norilsk          1304.281
       245   03 Jun 2027 06:19:50.920   03 Jun 2027 06:19:59.389             8.469               Magadan2           264.656
       246   03 Jun 2027 06:20:05.764   03 Jun 2027 06:21:31.469            85.705                Anadyr1          2678.281
       247   03 Jun 2027 07:53:11.830   03 Jun 2027 07:53:14.339             2.509               Magadan1            78.406
       248   03 Jun 2027 07:53:19.771   03 Jun 2027 07:54:08.343            48.572               Magadan1          1517.875
       249   03 Jun 2027 07:54:19.352   03 Jun 2027 07:54:58.384            39.032                Anadyr1          1219.750
       250   03 Jun 2027 07:55:03.032   03 Jun 2027 07:55:39.721            36.689               Magadan2          1146.531
       251   03 Jun 2027 07:56:02.640   03 Jun 2027 07:56:07.115             4.475               Magadan1           139.844
       252   03 Jun 2027 07:56:27.386   03 Jun 2027 07:57:36.590            69.204                Anadyr1          2162.625
       253   03 Jun 2027 07:57:46.559   03 Jun 2027 07:58:17.722            31.163                Irkutsk           973.844
       254   03 Jun 2027 07:58:35.735   03 Jun 2027 07:58:42.454             6.719               Magadan1           209.969
       255   03 Jun 2027 07:59:16.021   03 Jun 2027 07:59:16.760             0.739               Magadan2            23.094
       256   03 Jun 2027 08:01:35.174   03 Jun 2027 08:01:59.458            24.284              Murmansk2           758.875
       257   03 Jun 2027 08:34:15.436   03 Jun 2027 08:34:36.195            20.759            RioGallegos           648.719
       258   03 Jun 2027 08:34:58.425   03 Jun 2027 08:35:27.444            29.019            RioGallegos           906.844
       259   03 Jun 2027 09:10:50.152   03 Jun 2027 09:11:07.145            16.993                Sumatra           531.031
       260   03 Jun 2027 09:13:31.206   03 Jun 2027 09:14:09.879            38.673                Sumatra          1208.531
       261   03 Jun 2027 09:19:35.765   03 Jun 2027 09:19:53.133            17.368                Sumatra           542.750
       262   03 Jun 2027 09:31:31.911   03 Jun 2027 09:32:03.179            31.268                Irkutsk           977.125
       263   03 Jun 2027 09:32:29.424   03 Jun 2027 09:32:48.555            19.131                Norilsk           597.844
       264   03 Jun 2027 09:32:53.133   03 Jun 2027 09:33:18.436            25.303                Norilsk           790.719
       265   03 Jun 2027 09:33:21.320   03 Jun 2027 09:33:24.331             3.011                Irkutsk            94.094
       266   03 Jun 2027 09:33:29.764   03 Jun 2027 09:34:27.974            58.210                Novosib          1819.062
       267   03 Jun 2027 09:34:33.230   03 Jun 2027 09:34:44.330            11.100                Norilsk           346.875
       268   03 Jun 2027 09:35:01.168   03 Jun 2027 09:35:10.090             8.922                Irkutsk           278.813
       269   03 Jun 2027 10:10:42.043   03 Jun 2027 10:11:32.563            50.520            RioGallegos          1578.750
       270   03 Jun 2027 10:17:22.595   03 Jun 2027 10:17:51.144            28.549            RioGallegos           892.156
       271   03 Jun 2027 10:45:03.501   03 Jun 2027 10:45:31.353            27.852                Sumatra           870.375
       272   03 Jun 2027 10:47:46.837   03 Jun 2027 10:49:47.189           120.352                Sumatra          3761.000
       273   03 Jun 2027 11:08:27.665   03 Jun 2027 11:09:08.584            40.919                Irkutsk          1278.719
       274   03 Jun 2027 11:09:27.070   03 Jun 2027 11:09:34.385             7.315                Novosib           228.594
       275   03 Jun 2027 11:09:50.581   03 Jun 2027 11:10:33.058            42.477                Norilsk          1327.406
       276   03 Jun 2027 11:10:46.116   03 Jun 2027 11:11:02.063            15.947                Novosib           498.344
       277   03 Jun 2027 12:29:44.406   03 Jun 2027 12:31:41.080           116.674                  Delhi          3646.063
       278   03 Jun 2027 12:33:57.436   03 Jun 2027 12:34:18.982            21.546                  Delhi           673.312
       279   03 Jun 2027 12:37:58.699   03 Jun 2027 12:38:28.195            29.496                Novosib           921.750
       280   03 Jun 2027 12:38:58.597   03 Jun 2027 12:39:06.820             8.223                 Moscow           256.969
       281   03 Jun 2027 12:39:32.873   03 Jun 2027 12:41:04.841            91.968                Novosib          2874.000
       282   03 Jun 2027 12:41:20.896   03 Jun 2027 12:41:48.567            27.671                Novosib           864.719
       283   03 Jun 2027 12:41:50.706   03 Jun 2027 12:42:31.736            41.030                Norilsk          1282.188
       284   03 Jun 2027 12:50:34.001   03 Jun 2027 12:51:07.736            33.735                Norilsk          1054.219
       285   03 Jun 2027 14:13:30.617   03 Jun 2027 14:16:45.496           194.879                 Moscow          6089.969
       286   03 Jun 2027 14:17:01.929   03 Jun 2027 14:19:31.349           149.420              Murmansk1          4669.375
       287   03 Jun 2027 14:20:15.958   03 Jun 2027 14:20:29.844            13.886              Murmansk1           433.938
       288   03 Jun 2027 14:22:45.678   03 Jun 2027 14:23:44.275            58.597                Norilsk          1831.156
       289   03 Jun 2027 14:34:18.715   03 Jun 2027 14:35:51.952            93.237                Anadyr2          2913.656
       290   03 Jun 2027 15:27:23.243   03 Jun 2027 15:28:03.067            39.824               CapeTown          1244.500
       291   03 Jun 2027 15:28:20.736   03 Jun 2027 15:28:38.830            18.094               CapeTown           565.438
       292   03 Jun 2027 15:29:30.725   03 Jun 2027 15:29:34.846             4.121               CapeTown           128.781
       293   03 Jun 2027 15:54:38.668   03 Jun 2027 15:55:35.605            56.937              Murmansk1          1779.281
       294   03 Jun 2027 15:56:13.403   03 Jun 2027 15:56:34.465            21.062              Murmansk2           658.188
       295   03 Jun 2027 15:58:05.112   03 Jun 2027 15:59:00.366            55.254              Murmansk2          1726.687
       296   03 Jun 2027 16:02:21.604   03 Jun 2027 16:03:50.052            88.448              Murmansk2          2764.000
       297   03 Jun 2027 16:07:47.373   03 Jun 2027 16:08:23.442            36.069                Anadyr1          1127.156
       298   03 Jun 2027 16:08:34.449   03 Jun 2027 16:10:15.935           101.486                Anadyr2          3171.438
       299   03 Jun 2027 17:03:14.920   03 Jun 2027 17:04:13.199            58.279               CapeTown          1821.219
       300   03 Jun 2027 17:34:49.210   03 Jun 2027 17:36:19.110            89.900              Murmansk1          2809.375
       301   03 Jun 2027 17:36:19.110   03 Jun 2027 17:37:44.882            85.772              Murmansk2          2680.375
       302   03 Jun 2027 17:43:30.478   03 Jun 2027 17:44:16.535            46.057                Anadyr2          1439.281
       303   03 Jun 2027 17:44:59.498   03 Jun 2027 17:45:13.911            14.413                Anadyr2           450.406
       304   03 Jun 2027 17:46:25.100   03 Jun 2027 17:46:35.218            10.118               Magadan1           316.187
       305   03 Jun 2027 17:47:58.229   03 Jun 2027 17:49:53.944           115.715               Magadan1          3616.094
       306   03 Jun 2027 17:51:42.256   03 Jun 2027 17:53:53.475           131.219               Magadan1          4100.594
       307   03 Jun 2027 19:19:26.242   03 Jun 2027 19:21:28.950           122.708                Anadyr1          3834.625
       308   03 Jun 2027 19:21:43.723   03 Jun 2027 19:23:09.332            85.609               Magadan2          2675.281
       309   03 Jun 2027 19:23:50.358   03 Jun 2027 19:23:57.272             6.914               Magadan2           216.063
       310   03 Jun 2027 19:24:21.268   03 Jun 2027 19:24:33.107            11.839               Magadan2           369.969
       311   03 Jun 2027 19:24:50.354   03 Jun 2027 19:25:39.226            48.872               Magadan2          1527.250
       312   03 Jun 2027 19:29:30.223   03 Jun 2027 19:29:44.288            14.065               Magadan1           439.531
       313   03 Jun 2027 20:14:56.476   03 Jun 2027 20:17:52.052           175.576            RioGallegos          5486.750
       314   03 Jun 2027 20:21:09.236   03 Jun 2027 20:22:03.695            54.459            RioGallegos          1701.844
       315   03 Jun 2027 20:55:18.028   03 Jun 2027 20:55:39.418            21.390                Anadyr1           668.438
       316   03 Jun 2027 20:57:21.434   03 Jun 2027 20:59:23.771           122.337                Norilsk          3823.031
       317   03 Jun 2027 20:59:52.779   03 Jun 2027 21:00:33.357            40.578                Norilsk          1268.062
       318   03 Jun 2027 21:01:00.415   03 Jun 2027 21:01:07.057             6.642                Norilsk           207.563
       319   03 Jun 2027 21:02:01.248   03 Jun 2027 21:05:01.526           180.278                Irkutsk          5633.687
       320   03 Jun 2027 21:16:29.453   03 Jun 2027 21:17:11.362            41.909                Sumatra          1309.656
       321   03 Jun 2027 21:18:29.587   03 Jun 2027 21:19:12.139            42.552                Sumatra          1329.750
       322   03 Jun 2027 21:22:08.484   03 Jun 2027 21:22:41.831            33.347                Sumatra          1042.094
       323   03 Jun 2027 22:32:05.419   03 Jun 2027 22:32:55.538            50.119                Anadyr1          1566.219
       324   03 Jun 2027 22:33:10.960   03 Jun 2027 22:34:04.892            53.932                Norilsk          1685.375
       325   03 Jun 2027 22:35:16.338   03 Jun 2027 22:35:25.790             9.452               Magadan2           295.375
       326   03 Jun 2027 22:37:03.881   03 Jun 2027 22:38:14.743            70.862                Irkutsk          2214.437
       327   03 Jun 2027 22:38:21.820   03 Jun 2027 22:40:52.808           150.988                Novosib          4718.375
       328   03 Jun 2027 22:46:37.251   03 Jun 2027 22:49:03.681           146.430                  Delhi          4575.937
       329   04 Jun 2027 00:09:00.142   04 Jun 2027 00:09:48.384            48.242                Anadyr1          1507.562
       330   04 Jun 2027 00:09:49.861   04 Jun 2027 00:10:10.111            20.250               Magadan2           632.813
       331   04 Jun 2027 00:10:27.785   04 Jun 2027 00:10:40.372            12.587                Norilsk           393.344
       332   04 Jun 2027 00:10:53.785   04 Jun 2027 00:11:22.269            28.484               Magadan2           890.125
       333   04 Jun 2027 00:11:22.269   04 Jun 2027 00:11:37.743            15.474               Magadan1           483.563
       334   04 Jun 2027 00:11:54.308   04 Jun 2027 00:14:24.700           150.392              Murmansk1          4699.750
       335   04 Jun 2027 00:14:38.749   04 Jun 2027 00:15:53.822            75.073              Murmansk1          2346.031
       336   04 Jun 2027 00:24:59.507   04 Jun 2027 00:26:08.967            69.460                  Delhi          2170.625
       337   04 Jun 2027 01:03:39.361   04 Jun 2027 01:04:06.663            27.302            RioGallegos           853.187
       338   04 Jun 2027 01:07:11.182   04 Jun 2027 01:07:36.332            25.150            RioGallegos           785.938
       339   04 Jun 2027 01:37:36.749   04 Jun 2027 01:38:10.558            33.809                Anadyr2          1056.531
       340   04 Jun 2027 01:38:30.501   04 Jun 2027 01:39:24.500            53.999                Anadyr1          1687.469
       341   04 Jun 2027 01:40:21.289   04 Jun 2027 01:40:43.148            21.859                Anadyr2           683.094
       342   04 Jun 2027 01:40:43.862   04 Jun 2027 01:40:48.711             4.849                Anadyr1           151.531
       343   04 Jun 2027 01:43:29.146   04 Jun 2027 01:44:04.351            35.205               Magadan1          1100.156
       344   04 Jun 2027 01:44:05.003   04 Jun 2027 01:44:58.416            53.413               Magadan2          1669.156
       345   04 Jun 2027 01:45:45.761   04 Jun 2027 01:47:07.112            81.351               Magadan2          2542.219
       346   04 Jun 2027 01:47:20.373   04 Jun 2027 01:48:11.343            50.970              Murmansk1          1592.812
       347   04 Jun 2027 01:48:19.808   04 Jun 2027 01:49:28.848            69.040              Murmansk2          2157.500
       348   04 Jun 2027 01:55:28.398   04 Jun 2027 01:55:47.425            19.027                 Moscow           594.594
       349   04 Jun 2027 01:56:21.378   04 Jun 2027 01:57:01.866            40.488                 Moscow          1265.250
       350   04 Jun 2027 02:16:28.880   04 Jun 2027 02:17:43.935            75.055               CapeTown          2345.469
       351   04 Jun 2027 03:11:36.314   04 Jun 2027 03:12:10.748            34.434                Anadyr1          1076.063
       352   04 Jun 2027 03:17:34.939   04 Jun 2027 03:17:39.689             4.750                Anadyr2           148.438
       353   04 Jun 2027 03:17:41.430   04 Jun 2027 03:18:00.137            18.707                Anadyr2           584.594
       354   04 Jun 2027 03:19:59.067   04 Jun 2027 03:20:23.011            23.944               Magadan1           748.250
       355   04 Jun 2027 03:33:27.802   04 Jun 2027 03:34:21.729            53.927                 Moscow          1685.219
       356   04 Jun 2027 03:35:26.903   04 Jun 2027 03:36:21.412            54.509                 Moscow          1703.406
       357   04 Jun 2027 03:37:01.450   04 Jun 2027 03:37:06.530             5.080                 Moscow           158.750
       358   04 Jun 2027 03:38:29.827   04 Jun 2027 03:39:22.299            52.472                 Moscow          1639.750
       359   04 Jun 2027 03:50:26.348   04 Jun 2027 03:52:44.753           138.405               CapeTown          4325.156
       360   04 Jun 2027 03:54:44.146   04 Jun 2027 03:55:30.209            46.063               CapeTown          1439.469
       361   04 Jun 2027 04:01:06.220   04 Jun 2027 04:01:37.057            30.837               CapeTown           963.656
       362   04 Jun 2027 04:47:13.368   04 Jun 2027 04:48:33.790            80.422                Anadyr2          2513.188
       363   04 Jun 2027 04:48:33.790   04 Jun 2027 04:49:10.941            37.151                Anadyr1          1160.969
       364   04 Jun 2027 04:52:29.955   04 Jun 2027 04:52:55.684            25.729                Anadyr2           804.031
       365   04 Jun 2027 04:53:15.792   04 Jun 2027 04:53:56.468            40.676               Magadan2          1271.125
       366   04 Jun 2027 04:54:08.762   04 Jun 2027 05:00:02.698           353.936                Anadyr1         11060.500
       367   04 Jun 2027 06:30:12.642   04 Jun 2027 06:30:17.939             5.297                Anadyr1           165.531
       368   04 Jun 2027 06:30:32.541   04 Jun 2027 06:31:22.767            50.226                Anadyr1          1569.562
       369   04 Jun 2027 06:31:29.349   04 Jun 2027 06:32:05.290            35.941                Anadyr2          1123.156
       370   04 Jun 2027 06:32:22.939   04 Jun 2027 06:33:42.687            79.748               Magadan1          2492.125
       371   04 Jun 2027 08:05:11.604   04 Jun 2027 08:05:32.797            21.193               Magadan1           662.281
       372   04 Jun 2027 08:06:46.489   04 Jun 2027 08:07:37.665            51.176               Magadan2          1599.250
       373   04 Jun 2027 08:07:46.369   04 Jun 2027 08:08:09.835            23.466               Magadan1           733.313
       374   04 Jun 2027 08:08:19.595   04 Jun 2027 08:09:24.684            65.089                Irkutsk          2034.031
       375   04 Jun 2027 08:09:39.799   04 Jun 2027 08:09:44.339             4.540                Irkutsk           141.875
       376   04 Jun 2027 08:09:53.035   04 Jun 2027 08:10:20.795            27.760               Magadan2           867.500
       377   04 Jun 2027 08:10:26.860   04 Jun 2027 08:10:49.236            22.376              Murmansk1           699.250
       378   04 Jun 2027 08:10:57.249   04 Jun 2027 08:11:05.123             7.874               Magadan2           246.062
       379   04 Jun 2027 08:13:04.153   04 Jun 2027 08:13:23.694            19.541              Murmansk1           610.656
       380   04 Jun 2027 08:46:08.890   04 Jun 2027 08:47:08.791            59.901            RioGallegos          1871.906
       381   04 Jun 2027 09:22:11.881   04 Jun 2027 09:23:17.101            65.220                Sumatra          2038.125
       382   04 Jun 2027 09:43:06.979   04 Jun 2027 09:43:34.829            27.850                Irkutsk           870.312
       383   04 Jun 2027 09:43:49.810   04 Jun 2027 09:44:43.446            53.636                Novosib          1676.125
       384   04 Jun 2027 09:44:52.411   04 Jun 2027 09:45:28.841            36.430                Novosib          1138.438
       385   04 Jun 2027 09:46:18.367   04 Jun 2027 09:46:37.052            18.685                Novosib           583.906
       386   04 Jun 2027 09:46:40.556   04 Jun 2027 09:47:11.915            31.359                Irkutsk           979.969
       387   04 Jun 2027 10:23:24.493   04 Jun 2027 10:23:34.751            10.258            RioGallegos           320.563
       388   04 Jun 2027 10:23:58.360   04 Jun 2027 10:24:08.316             9.956            RioGallegos           311.125
       389   04 Jun 2027 10:25:32.394   04 Jun 2027 10:26:09.456            37.062            RioGallegos          1158.187
       390   04 Jun 2027 10:57:20.427   04 Jun 2027 10:58:58.202            97.775                Sumatra          3055.469
       391   04 Jun 2027 11:19:07.147   04 Jun 2027 11:19:48.857            41.710                Irkutsk          1303.437
       392   04 Jun 2027 11:20:11.159   04 Jun 2027 11:20:28.128            16.969                Novosib           530.281
       393   04 Jun 2027 11:20:55.158   04 Jun 2027 11:20:59.473             4.315                Novosib           134.844
       394   04 Jun 2027 11:21:04.097   04 Jun 2027 11:21:41.843            37.746                Novosib          1179.563
       395   04 Jun 2027 11:22:14.142   04 Jun 2027 11:22:20.580             6.438                Novosib           201.188
       396   04 Jun 2027 11:22:35.009   04 Jun 2027 11:22:49.214            14.205                Norilsk           443.906
       397   04 Jun 2027 12:42:13.400   04 Jun 2027 12:45:39.345           205.945                  Delhi          6435.781
       398   04 Jun 2027 12:50:36.745   04 Jun 2027 12:50:46.801            10.056                Novosib           314.250
       399   04 Jun 2027 12:53:01.931   04 Jun 2027 12:53:25.364            23.433                Novosib           732.281
       400   04 Jun 2027 12:54:10.289   04 Jun 2027 12:55:19.984            69.695                Novosib          2177.969
       401   04 Jun 2027 12:56:44.306   04 Jun 2027 12:56:55.670            11.364                Norilsk           355.125
       402   04 Jun 2027 14:25:38.061   04 Jun 2027 14:27:34.687           116.626                 Moscow          3644.563
       403   04 Jun 2027 14:28:38.271   04 Jun 2027 14:29:57.551            79.280                 Moscow          2477.500
       404   04 Jun 2027 14:29:59.059   04 Jun 2027 14:32:52.281           173.222              Murmansk2          5413.187
       405   04 Jun 2027 14:35:42.301   04 Jun 2027 14:36:03.547            21.246                Norilsk           663.938
       406   04 Jun 2027 14:36:49.077   04 Jun 2027 14:38:27.947            98.870                Norilsk          3089.688
       407   04 Jun 2027 14:45:18.920   04 Jun 2027 14:46:03.406            44.486                Anadyr1          1390.188
       408   04 Jun 2027 14:48:07.259   04 Jun 2027 14:48:46.930            39.671                Anadyr1          1239.719
       409   04 Jun 2027 15:39:13.376   04 Jun 2027 15:40:17.858            64.482               CapeTown          2015.062
       410   04 Jun 2027 16:05:07.082   04 Jun 2027 16:05:44.256            37.174                 Moscow          1161.687
       411   04 Jun 2027 16:07:02.168   04 Jun 2027 16:08:14.293            72.125              Murmansk1          2253.906
       412   04 Jun 2027 16:19:45.323   04 Jun 2027 16:22:08.191           142.868                Anadyr1          4464.625
       413   04 Jun 2027 16:23:21.533   04 Jun 2027 16:23:31.915            10.382                Anadyr2           324.437
       414   04 Jun 2027 17:15:29.905   04 Jun 2027 17:16:59.151            89.246               CapeTown          2788.937
       415   04 Jun 2027 17:47:40.989   04 Jun 2027 17:52:01.736           260.747              Murmansk2          8148.344
       416   04 Jun 2027 17:55:31.758   04 Jun 2027 17:55:48.910            17.152                Anadyr2           536.000
       417   04 Jun 2027 17:55:48.910   04 Jun 2027 17:56:12.309            23.399                Anadyr1           731.219
       418   04 Jun 2027 17:58:17.081   04 Jun 2027 18:01:51.869           214.788               Magadan2          6712.125
       419   04 Jun 2027 19:31:27.455   04 Jun 2027 19:33:30.588           123.133                Anadyr1          3847.906
       420   04 Jun 2027 19:33:35.709   04 Jun 2027 19:34:51.791            76.082                Anadyr2          2377.562
       421   04 Jun 2027 19:34:59.186   04 Jun 2027 19:36:02.290            63.104               Magadan1          1972.000
       422   04 Jun 2027 19:36:58.262   04 Jun 2027 19:37:24.645            26.383               Magadan1           824.469
       423   04 Jun 2027 19:37:24.645   04 Jun 2027 19:37:55.735            31.090               Magadan2           971.562
       424   04 Jun 2027 19:43:40.601   04 Jun 2027 19:43:47.514             6.913               Magadan1           216.031
       425   04 Jun 2027 19:44:34.823   04 Jun 2027 19:45:12.118            37.295               Magadan1          1165.469
       426   04 Jun 2027 20:26:30.529   04 Jun 2027 20:29:13.808           163.279            RioGallegos          5102.469
       427   04 Jun 2027 20:29:38.808   04 Jun 2027 20:29:40.006             1.198            RioGallegos            37.438
       428   04 Jun 2027 20:32:55.724   04 Jun 2027 20:33:07.905            12.181            RioGallegos           380.656
       429   04 Jun 2027 21:07:11.175   04 Jun 2027 21:07:47.416            36.241                Anadyr2          1132.531
       430   04 Jun 2027 21:09:20.262   04 Jun 2027 21:11:40.334           140.072                Norilsk          4377.250
       431   04 Jun 2027 21:13:34.994   04 Jun 2027 21:13:37.249             2.255               Magadan2            70.469
       432   04 Jun 2027 21:13:48.464   04 Jun 2027 21:15:18.094            89.630                Irkutsk          2800.938
       433   04 Jun 2027 21:16:28.388   04 Jun 2027 21:17:16.040            47.652                Irkutsk          1489.125
       434   04 Jun 2027 21:18:51.723   04 Jun 2027 21:19:09.501            17.778                Irkutsk           555.563
       435   04 Jun 2027 21:27:56.938   04 Jun 2027 21:30:59.243           182.305                Sumatra          5697.031
       436   04 Jun 2027 22:45:12.875   04 Jun 2027 22:46:05.884            53.009                Norilsk          1656.531
       437   04 Jun 2027 22:46:05.930   04 Jun 2027 22:46:29.062            23.132               Magadan1           722.875
       438   04 Jun 2027 22:47:08.865   04 Jun 2027 22:47:28.467            19.602               Magadan1           612.563
       439   04 Jun 2027 22:47:37.891   04 Jun 2027 22:47:45.298             7.407               Magadan2           231.469
       440   04 Jun 2027 22:48:01.152   04 Jun 2027 22:48:40.263            39.111               Magadan1          1222.219
       441   04 Jun 2027 22:49:04.728   04 Jun 2027 22:49:10.945             6.217                Irkutsk           194.281
       442   04 Jun 2027 22:49:27.118   04 Jun 2027 22:50:02.147            35.029                Novosib          1094.656
       443   04 Jun 2027 22:50:04.635   04 Jun 2027 22:51:15.583            70.948                Irkutsk          2217.125
       444   04 Jun 2027 22:55:51.325   04 Jun 2027 22:56:09.607            18.282                Novosib           571.313
       445   04 Jun 2027 22:57:56.186   04 Jun 2027 23:00:45.833           169.647                  Delhi          5301.469
       446   04 Jun 2027 23:02:40.449   04 Jun 2027 23:04:12.938            92.489                  Delhi          2890.281
       447   05 Jun 2027 00:21:13.108   05 Jun 2027 00:21:48.484            35.376                Norilsk          1105.500
       448   05 Jun 2027 00:22:37.090   05 Jun 2027 00:23:24.798            47.708               Magadan2          1490.875
       449   05 Jun 2027 00:23:24.798   05 Jun 2027 00:23:42.064            17.266               Magadan1           539.563
       450   05 Jun 2027 00:23:46.005   05 Jun 2027 00:24:16.341            30.336               Magadan1           948.000
       451   05 Jun 2027 00:24:57.608   05 Jun 2027 00:25:34.974            37.366              Murmansk1          1167.688
       452   05 Jun 2027 00:25:35.905   05 Jun 2027 00:27:06.108            90.203                Novosib          2818.844
       453   05 Jun 2027 00:27:36.300   05 Jun 2027 00:28:33.544            57.244              Murmansk1          1788.875
       454   05 Jun 2027 00:29:19.028   05 Jun 2027 00:29:38.998            19.970              Murmansk2           624.063
       455   05 Jun 2027 00:35:26.065   05 Jun 2027 00:36:21.076            55.011                  Delhi          1719.094
       456   05 Jun 2027 00:42:21.586   05 Jun 2027 00:42:40.088            18.502                  Delhi           578.187
       457   05 Jun 2027 01:15:36.040   05 Jun 2027 01:15:51.079            15.039            RioGallegos           469.969
       458   05 Jun 2027 01:17:27.161   05 Jun 2027 01:17:48.694            21.533            RioGallegos           672.906
       459   05 Jun 2027 01:49:19.773   05 Jun 2027 01:49:42.844            23.071                Anadyr2           720.969
       460   05 Jun 2027 01:49:50.643   05 Jun 2027 01:50:31.194            40.551                Anadyr1          1267.219
       461   05 Jun 2027 01:50:45.281   05 Jun 2027 01:51:25.856            40.575                Anadyr1          1267.969
       462   05 Jun 2027 01:52:14.714   05 Jun 2027 01:52:28.545            13.831                Anadyr2           432.219
       463   05 Jun 2027 01:54:59.109   05 Jun 2027 01:56:06.202            67.093               Magadan2          2096.656
       464   05 Jun 2027 01:56:49.286   05 Jun 2027 01:57:26.850            37.564               Magadan2          1173.875
       465   05 Jun 2027 01:58:44.602   05 Jun 2027 01:59:02.459            17.857               Magadan2           558.031
       466   05 Jun 2027 01:59:21.336   05 Jun 2027 02:00:27.405            66.069              Murmansk1          2064.656
       467   05 Jun 2027 02:01:09.032   05 Jun 2027 02:01:23.872            14.840              Murmansk2           463.750
       468   05 Jun 2027 02:01:47.445   05 Jun 2027 02:03:59.057           131.612                Novosib          4112.875
       469   05 Jun 2027 02:27:54.807   05 Jun 2027 02:28:40.196            45.389               CapeTown          1418.406
       470   05 Jun 2027 02:35:28.966   05 Jun 2027 02:37:07.290            98.324               CapeTown          3072.625
       471   05 Jun 2027 03:44:54.798   05 Jun 2027 03:48:12.869           198.071              Murmansk1          6189.719
       472   05 Jun 2027 03:49:17.948   05 Jun 2027 03:51:19.083           121.135                 Moscow          3785.469
       473   05 Jun 2027 05:05:31.260   05 Jun 2027 05:06:17.293            46.033                Anadyr1          1438.531
       474   05 Jun 2027 05:06:17.293   05 Jun 2027 05:08:13.918           116.625                Anadyr2          3644.531
       475   05 Jun 2027 05:08:52.270   05 Jun 2027 05:09:14.694            22.424                Anadyr1           700.750
       476   05 Jun 2027 05:09:36.976   05 Jun 2027 05:10:07.778            30.802                Anadyr1           962.562
       477   05 Jun 2027 05:10:35.850   05 Jun 2027 05:10:46.570            10.720                Anadyr1           335.000
       478   05 Jun 2027 06:43:22.250   05 Jun 2027 06:43:36.343            14.093                Anadyr2           440.406
       479   05 Jun 2027 06:43:54.540   05 Jun 2027 06:44:13.525            18.985               Magadan2           593.281
       480   05 Jun 2027 06:44:29.143   05 Jun 2027 06:45:40.753            71.610               Magadan1          2237.812
       481   05 Jun 2027 06:47:36.259   05 Jun 2027 06:47:41.781             5.522                Anadyr2           172.562
       482   05 Jun 2027 08:17:00.649   05 Jun 2027 08:17:57.480            56.831               Magadan1          1775.969
