uniorb/output/strategy_4/Drop/Drop_KinoSat_111504.txt

KinoSat_111504
-------------------------
    Access    *     Start Time (UTCG)     *     Stop Time (UTCG)  *   Duration (s)        *       Station  *  Data (Mbytes)
         1   01 Jun 2027 03:30:47.189   01 Jun 2027 03:31:00.066            12.877              Murmansk2           402.406
         2   01 Jun 2027 03:31:07.748   01 Jun 2027 03:33:57.976           170.228              Murmansk2          5319.625
         3   01 Jun 2027 03:36:40.428   01 Jun 2027 03:38:23.624           103.196                 Moscow          3224.875
         4   01 Jun 2027 03:52:00.543   01 Jun 2027 03:56:49.956           289.413               CapeTown          9044.156
         5   01 Jun 2027 04:01:42.654   01 Jun 2027 04:02:23.461            40.807               CapeTown          1275.219
         6   01 Jun 2027 05:07:39.051   01 Jun 2027 05:08:14.968            35.917              Murmansk1          1122.406
         7   01 Jun 2027 05:08:21.116   01 Jun 2027 05:08:52.352            31.236                 Moscow           976.125
         8   01 Jun 2027 05:09:02.777   01 Jun 2027 05:10:15.030            72.253              Murmansk1          2257.906
         9   01 Jun 2027 05:10:15.030   01 Jun 2027 05:10:34.074            19.044              Murmansk2           595.125
        10   01 Jun 2027 05:10:34.074   01 Jun 2027 05:10:48.180            14.106              Murmansk1           440.812
        11   01 Jun 2027 06:30:59.431   01 Jun 2027 06:31:31.589            32.158                Anadyr1          1004.937
        12   01 Jun 2027 06:31:48.512   01 Jun 2027 06:31:55.895             7.383                Norilsk           230.719
        13   01 Jun 2027 06:32:07.888   01 Jun 2027 06:34:50.094           162.206                Anadyr2          5068.938
        14   01 Jun 2027 06:34:51.227   01 Jun 2027 06:36:33.862           102.635                Anadyr1          3207.344
        15   01 Jun 2027 08:07:37.688   01 Jun 2027 08:09:15.236            97.548                Anadyr1          3048.375
        16   01 Jun 2027 08:09:22.046   01 Jun 2027 08:12:07.964           165.918                Anadyr2          5184.938
        17   01 Jun 2027 09:42:53.739   01 Jun 2027 09:43:15.036            21.297               Magadan1           665.531
        18   01 Jun 2027 09:43:35.876   01 Jun 2027 09:46:20.433           164.557               Magadan1          5142.406
        19   01 Jun 2027 09:47:15.430   01 Jun 2027 09:47:48.894            33.464              Murmansk2          1045.750
        20   01 Jun 2027 09:47:53.610   01 Jun 2027 09:48:53.022            59.412                Norilsk          1856.625
        21   01 Jun 2027 09:49:46.139   01 Jun 2027 09:50:13.626            27.487              Murmansk1           858.969
        22   01 Jun 2027 09:51:04.844   01 Jun 2027 09:51:14.757             9.913              Murmansk1           309.781
        23   01 Jun 2027 09:51:55.303   01 Jun 2027 09:52:48.355            53.052              Murmansk2          1657.875
        24   01 Jun 2027 10:22:34.380   01 Jun 2027 10:23:38.906            64.526            RioGallegos          2016.437
        25   01 Jun 2027 10:24:12.097   01 Jun 2027 10:25:01.575            49.478            RioGallegos          1546.187
        26   01 Jun 2027 10:57:56.075   01 Jun 2027 10:59:34.814            98.739                Sumatra          3085.594
        27   01 Jun 2027 11:19:12.213   01 Jun 2027 11:22:43.147           210.934                Irkutsk          6591.688
        28   01 Jun 2027 11:23:11.574   01 Jun 2027 11:23:46.242            34.668                Norilsk          1083.375
        29   01 Jun 2027 11:24:01.284   01 Jun 2027 11:25:23.879            82.595                Novosib          2581.094
        30   01 Jun 2027 12:00:30.467   01 Jun 2027 12:01:50.407            79.940            RioGallegos          2498.125
        31   01 Jun 2027 12:34:44.122   01 Jun 2027 12:35:32.648            48.526                Sumatra          1516.437
        32   01 Jun 2027 12:36:50.190   01 Jun 2027 12:37:53.141            62.951                Sumatra          1967.219
        33   01 Jun 2027 12:38:35.351   01 Jun 2027 12:39:49.927            74.576                Sumatra          2330.500
        34   01 Jun 2027 12:51:04.204   01 Jun 2027 12:51:28.979            24.775                Irkutsk           774.219
        35   01 Jun 2027 12:51:59.841   01 Jun 2027 12:54:14.120           134.279                Irkutsk          4196.219
        36   01 Jun 2027 13:01:32.029   01 Jun 2027 13:02:47.657            75.628                Norilsk          2363.375
        37   01 Jun 2027 14:20:06.673   01 Jun 2027 14:22:39.889           153.216                  Delhi          4788.000
        38   01 Jun 2027 14:28:38.022   01 Jun 2027 14:31:40.507           182.485                Novosib          5702.656
        39   01 Jun 2027 14:31:44.477   01 Jun 2027 14:32:44.799            60.322                Norilsk          1885.063
        40   01 Jun 2027 14:33:44.312   01 Jun 2027 14:34:49.181            64.869                Norilsk          2027.156
        41   01 Jun 2027 15:42:54.606   01 Jun 2027 15:44:42.716           108.110               CapeTown          3378.438
        42   01 Jun 2027 16:02:29.527   01 Jun 2027 16:03:05.816            36.289                 Moscow          1134.031
        43   01 Jun 2027 16:05:12.801   01 Jun 2027 16:05:14.200             1.399                 Moscow            43.719
        44   01 Jun 2027 16:05:57.150   01 Jun 2027 16:08:32.681           155.531              Murmansk1          4860.344
        45   01 Jun 2027 16:21:05.241   01 Jun 2027 16:23:24.498           139.257                Anadyr1          4351.781
        46   01 Jun 2027 16:27:00.602   01 Jun 2027 16:27:14.004            13.402                Anadyr2           418.812
        47   01 Jun 2027 16:27:27.678   01 Jun 2027 16:27:56.396            28.718                Anadyr2           897.438
        48   01 Jun 2027 17:15:33.247   01 Jun 2027 17:17:50.870           137.623               CapeTown          4300.719
        49   01 Jun 2027 17:43:02.559   01 Jun 2027 17:47:03.059           240.500                 Moscow          7515.625
        50   01 Jun 2027 17:58:14.509   01 Jun 2027 17:58:28.848            14.339                Anadyr2           448.094
        51   01 Jun 2027 17:59:15.511   01 Jun 2027 17:59:53.787            38.276                Anadyr1          1196.125
        52   01 Jun 2027 18:01:45.603   01 Jun 2027 18:03:30.001           104.398               Magadan2          3262.438
        53   01 Jun 2027 18:52:41.279   01 Jun 2027 18:53:43.450            62.171               CapeTown          1942.844
        54   01 Jun 2027 18:56:22.505   01 Jun 2027 18:57:58.608            96.103               CapeTown          3003.219
        55   01 Jun 2027 19:26:16.220   01 Jun 2027 19:27:53.414            97.194              Murmansk2          3037.312
        56   01 Jun 2027 19:27:53.414   01 Jun 2027 19:28:47.170            53.756              Murmansk1          1679.875
        57   01 Jun 2027 19:34:35.786   01 Jun 2027 19:36:02.417            86.631               Magadan1          2707.219
        58   01 Jun 2027 19:37:23.693   01 Jun 2027 19:37:37.705            14.012               Magadan1           437.875
        59   01 Jun 2027 19:40:17.695   01 Jun 2027 19:40:24.032             6.337               Magadan2           198.031
        60   01 Jun 2027 19:40:39.600   01 Jun 2027 19:40:43.611             4.011               Magadan2           125.344
        61   01 Jun 2027 19:40:59.554   01 Jun 2027 19:41:16.897            17.343               Magadan1           541.969
        62   01 Jun 2027 19:43:23.828   01 Jun 2027 19:43:47.831            24.003               Magadan2           750.094
        63   01 Jun 2027 21:07:58.704   01 Jun 2027 21:11:48.057           229.353                Anadyr2          7167.281
        64   01 Jun 2027 21:12:26.937   01 Jun 2027 21:14:41.468           134.531                Norilsk          4204.094
        65   01 Jun 2027 21:15:15.372   01 Jun 2027 21:17:02.981           107.609               Magadan2          3362.781
        66   01 Jun 2027 21:20:23.553   01 Jun 2027 21:20:40.870            17.317               Magadan2           541.156
        67   01 Jun 2027 21:20:42.883   01 Jun 2027 21:20:45.562             2.679               Magadan2            83.719
        68   01 Jun 2027 21:20:48.015   01 Jun 2027 21:20:54.928             6.913               Magadan2           216.031
        69   01 Jun 2027 21:21:10.380   01 Jun 2027 21:22:13.862            63.482               Magadan2          1983.812
        70   01 Jun 2027 22:02:28.336   01 Jun 2027 22:04:44.541           136.205            RioGallegos          4256.406
        71   01 Jun 2027 22:43:36.379   01 Jun 2027 22:45:54.447           138.068                Anadyr1          4314.625
        72   01 Jun 2027 22:45:56.128   01 Jun 2027 22:47:30.953            94.825                Norilsk          2963.281
        73   01 Jun 2027 22:47:35.317   01 Jun 2027 22:49:32.087           116.770                Norilsk          3649.063
        74   01 Jun 2027 22:50:01.272   01 Jun 2027 22:51:22.695            81.423                Irkutsk          2544.469
        75   01 Jun 2027 22:52:08.906   01 Jun 2027 22:53:15.238            66.332                Novosib          2072.875
        76   01 Jun 2027 23:03:48.534   01 Jun 2027 23:04:27.319            38.785                Sumatra          1212.031
        77   01 Jun 2027 23:11:12.759   01 Jun 2027 23:11:26.977            14.218                Sumatra           444.312
        78   01 Jun 2027 23:13:14.184   01 Jun 2027 23:13:54.069            39.885                Sumatra          1246.406
        79   01 Jun 2027 23:38:01.617   01 Jun 2027 23:38:23.604            21.987            RioGallegos           687.094
        80   01 Jun 2027 23:39:54.555   01 Jun 2027 23:39:56.257             1.702            RioGallegos            53.187
        81   01 Jun 2027 23:40:12.586   01 Jun 2027 23:40:59.334            46.748            RioGallegos          1460.875
        82   01 Jun 2027 23:48:09.628   01 Jun 2027 23:48:35.584            25.956            RioGallegos           811.125
        83   02 Jun 2027 00:18:22.730   02 Jun 2027 00:19:08.289            45.559                Anadyr2          1423.719
        84   02 Jun 2027 00:19:48.280   02 Jun 2027 00:20:37.682            49.402                Anadyr2          1543.813
        85   02 Jun 2027 00:20:37.682   02 Jun 2027 00:21:00.678            22.996                Anadyr1           718.625
        86   02 Jun 2027 00:21:11.081   02 Jun 2027 00:21:11.345             0.264                Anadyr1             8.250
        87   02 Jun 2027 00:21:45.478   02 Jun 2027 00:23:31.148           105.670                Norilsk          3302.187
        88   02 Jun 2027 00:25:26.814   02 Jun 2027 00:25:43.390            16.576               Magadan2           518.000
        89   02 Jun 2027 00:25:46.934   02 Jun 2027 00:28:06.051           139.117                Novosib          4347.406
        90   02 Jun 2027 00:29:57.687   02 Jun 2027 00:30:52.792            55.105                Irkutsk          1722.031
        91   02 Jun 2027 00:33:00.261   02 Jun 2027 00:33:23.970            23.709                Novosib           740.906
        92   02 Jun 2027 00:35:04.990   02 Jun 2027 00:35:57.961            52.971                  Delhi          1655.344
        93   02 Jun 2027 00:38:54.878   02 Jun 2027 00:39:38.594            43.716                  Delhi          1366.125
        94   02 Jun 2027 00:46:02.800   02 Jun 2027 00:46:19.826            17.026                Sumatra           532.062
        95   02 Jun 2027 01:17:38.119   02 Jun 2027 01:17:47.613             9.494            RioGallegos           296.687
        96   02 Jun 2027 01:18:47.614   02 Jun 2027 01:19:45.673            58.059            RioGallegos          1814.344
        97   02 Jun 2027 01:22:12.733   02 Jun 2027 01:22:32.305            19.572            RioGallegos           611.625
        98   02 Jun 2027 01:51:56.902   02 Jun 2027 01:52:11.980            15.078                Anadyr1           471.187
        99   02 Jun 2027 01:52:49.456   02 Jun 2027 01:53:44.235            54.779                Anadyr2          1711.844
       100   02 Jun 2027 01:56:48.881   02 Jun 2027 01:57:16.154            27.273                Anadyr2           852.281
       101   02 Jun 2027 01:57:45.290   02 Jun 2027 01:58:59.385            74.095                Norilsk          2315.469
       102   02 Jun 2027 01:59:43.591   02 Jun 2027 01:59:46.779             3.188                Norilsk            99.625
       103   02 Jun 2027 02:00:07.107   02 Jun 2027 02:01:39.255            92.148              Murmansk2          2879.625
       104   02 Jun 2027 02:01:49.363   02 Jun 2027 02:02:04.089            14.726                Novosib           460.187
       105   02 Jun 2027 02:02:44.102   02 Jun 2027 02:03:04.410            20.308                Novosib           634.625
       106   02 Jun 2027 02:04:47.890   02 Jun 2027 02:06:21.611            93.721                Novosib          2928.781
       107   02 Jun 2027 02:16:52.668   02 Jun 2027 02:17:45.857            53.189                  Delhi          1662.156
       108   02 Jun 2027 03:34:43.936   02 Jun 2027 03:35:06.281            22.345               Magadan2           698.281
       109   02 Jun 2027 03:35:17.927   02 Jun 2027 03:35:26.685             8.758               Magadan2           273.688
       110   02 Jun 2027 03:36:10.296   02 Jun 2027 03:36:35.953            25.657                Anadyr1           801.781
       111   02 Jun 2027 03:43:24.374   02 Jun 2027 03:43:47.298            22.924              Murmansk2           716.375
       112   02 Jun 2027 03:43:55.510   02 Jun 2027 03:47:52.261           236.751              Murmansk2          7398.469
       113   02 Jun 2027 03:47:52.261   02 Jun 2027 03:47:54.595             2.334              Murmansk1            72.938
       114   02 Jun 2027 03:48:44.815   02 Jun 2027 03:51:37.841           173.026                 Moscow          5407.062
       115   02 Jun 2027 04:03:38.994   02 Jun 2027 04:10:07.784           388.790               CapeTown         12149.687
       116   02 Jun 2027 04:10:31.784   02 Jun 2027 04:11:06.291            34.507               CapeTown          1078.344
       117   02 Jun 2027 04:11:23.333   02 Jun 2027 04:13:00.301            96.968               CapeTown          3030.250
       118   02 Jun 2027 05:07:37.378   02 Jun 2027 05:08:32.356            54.978                Anadyr1          1718.063
       119   02 Jun 2027 05:22:23.075   02 Jun 2027 05:23:11.367            48.292              Murmansk2          1509.125
       120   02 Jun 2027 06:41:46.344   02 Jun 2027 06:44:51.434           185.090                Anadyr1          5784.063
       121   02 Jun 2027 06:44:51.434   02 Jun 2027 06:48:34.632           223.198                Anadyr2          6974.937
       122   02 Jun 2027 08:20:43.150   02 Jun 2027 08:21:16.985            33.835               Magadan2          1057.344
       123   02 Jun 2027 08:21:30.238   02 Jun 2027 08:24:02.113           151.875                Anadyr1          4746.094
       124   02 Jun 2027 09:54:08.657   02 Jun 2027 09:54:36.676            28.019                Irkutsk           875.594
       125   02 Jun 2027 09:54:36.864   02 Jun 2027 09:55:25.209            48.345               Magadan1          1510.781
       126   02 Jun 2027 09:55:49.554   02 Jun 2027 09:55:59.502             9.948                Irkutsk           310.875
       127   02 Jun 2027 09:56:15.353   02 Jun 2027 09:56:58.593            43.240               Magadan2          1351.250
       128   02 Jun 2027 09:57:31.115   02 Jun 2027 09:57:47.613            16.498                Irkutsk           515.562
       129   02 Jun 2027 09:57:50.417   02 Jun 2027 09:57:54.859             4.442                Irkutsk           138.812
       130   02 Jun 2027 09:57:57.125   02 Jun 2027 09:58:31.857            34.732                Irkutsk          1085.375
       131   02 Jun 2027 09:59:16.127   02 Jun 2027 09:59:44.592            28.465                Novosib           889.531
       132   02 Jun 2027 10:00:47.736   02 Jun 2027 10:00:53.046             5.310                Novosib           165.937
       133   02 Jun 2027 10:34:37.266   02 Jun 2027 10:35:35.228            57.962            RioGallegos          1811.313
       134   02 Jun 2027 11:09:42.607   02 Jun 2027 11:12:08.589           145.982                Sumatra          4561.937
       135   02 Jun 2027 11:30:54.146   02 Jun 2027 11:30:59.668             5.522                Novosib           172.562
       136   02 Jun 2027 11:31:15.577   02 Jun 2027 11:31:18.845             3.268                Novosib           102.125
       137   02 Jun 2027 11:31:37.679   02 Jun 2027 11:32:06.889            29.210                Novosib           912.812
       138   02 Jun 2027 11:32:10.495   02 Jun 2027 11:32:24.001            13.506                Irkutsk           422.063
       139   02 Jun 2027 11:33:02.999   02 Jun 2027 11:33:14.634            11.635                Irkutsk           363.594
       140   02 Jun 2027 11:33:37.659   02 Jun 2027 11:33:55.558            17.899                Novosib           559.344
       141   02 Jun 2027 11:34:07.717   02 Jun 2027 11:34:10.669             2.952                Irkutsk            92.250
       142   02 Jun 2027 11:34:16.687   02 Jun 2027 11:34:19.795             3.108                Novosib            97.125
       143   02 Jun 2027 11:34:42.969   02 Jun 2027 11:35:43.687            60.718                Irkutsk          1897.437
       144   02 Jun 2027 12:13:10.982   02 Jun 2027 12:13:20.971             9.989            RioGallegos           312.156
       145   02 Jun 2027 12:15:39.834   02 Jun 2027 12:17:50.541           130.707            RioGallegos          4084.594
       146   02 Jun 2027 13:02:05.172   02 Jun 2027 13:03:41.762            96.590                Novosib          3018.437
       147   02 Jun 2027 13:05:05.515   02 Jun 2027 13:05:59.796            54.281                Norilsk          1696.281
       148   02 Jun 2027 13:06:53.674   02 Jun 2027 13:07:54.710            61.036                Norilsk          1907.375
       149   02 Jun 2027 14:33:22.980   02 Jun 2027 14:36:52.123           209.143                  Delhi          6535.719
       150   02 Jun 2027 14:39:42.034   02 Jun 2027 14:40:08.764            26.730                 Moscow           835.312
       151   02 Jun 2027 14:41:33.017   02 Jun 2027 14:42:43.920            70.903              Murmansk2          2215.719
       152   02 Jun 2027 14:42:49.332   02 Jun 2027 14:43:38.423            49.091              Murmansk1          1534.094
       153   02 Jun 2027 14:44:19.678   02 Jun 2027 14:45:00.588            40.910                Norilsk          1278.437
       154   02 Jun 2027 14:46:46.027   02 Jun 2027 14:47:16.178            30.151                Norilsk           942.219
       155   02 Jun 2027 14:48:24.515   02 Jun 2027 14:49:04.751            40.236                Norilsk          1257.375
       156   02 Jun 2027 15:53:51.194   02 Jun 2027 15:56:04.212           133.018               CapeTown          4156.813
       157   02 Jun 2027 16:14:46.820   02 Jun 2027 16:15:37.694            50.874                 Moscow          1589.813
       158   02 Jun 2027 16:18:10.001   02 Jun 2027 16:19:06.969            56.968              Murmansk1          1780.250
       159   02 Jun 2027 16:20:52.608   02 Jun 2027 16:21:30.022            37.414              Murmansk2          1169.188
       160   02 Jun 2027 16:26:42.964   02 Jun 2027 16:26:54.800            11.836              Murmansk2           369.875
       161   02 Jun 2027 16:32:53.581   02 Jun 2027 16:35:02.389           128.808                Anadyr1          4025.250
       162   02 Jun 2027 16:36:03.289   02 Jun 2027 16:36:10.079             6.790                Anadyr1           212.187
       163   02 Jun 2027 16:38:49.826   02 Jun 2027 16:39:01.581            11.755                Anadyr2           367.344
       164   02 Jun 2027 16:39:47.429   02 Jun 2027 16:39:54.023             6.594                Anadyr2           206.063
       165   02 Jun 2027 17:27:32.808   02 Jun 2027 17:30:02.854           150.046               CapeTown          4688.938
       166   02 Jun 2027 17:56:43.417   02 Jun 2027 17:59:30.859           167.442                 Moscow          5232.563
       167   02 Jun 2027 18:00:21.449   02 Jun 2027 18:00:41.331            19.882              Murmansk2           621.313
       168   02 Jun 2027 18:09:12.715   02 Jun 2027 18:09:39.016            26.301                Anadyr2           821.906
       169   02 Jun 2027 18:10:33.704   02 Jun 2027 18:10:34.649             0.945                Anadyr2            29.531
       170   02 Jun 2027 18:11:02.324   02 Jun 2027 18:11:14.389            12.065                Anadyr2           377.031
       171   02 Jun 2027 18:11:51.732   02 Jun 2027 18:11:54.585             2.853                Anadyr2            89.156
       172   02 Jun 2027 18:12:22.951   02 Jun 2027 18:12:49.143            26.192                Anadyr2           818.500
       173   02 Jun 2027 18:13:09.346   02 Jun 2027 18:15:12.041           122.695               Magadan1          3834.219
       174   02 Jun 2027 19:44:05.217   02 Jun 2027 19:47:49.975           224.758                Anadyr2          7023.687
       175   02 Jun 2027 19:48:14.650   02 Jun 2027 19:51:19.633           184.983               Magadan1          5780.719
       176   02 Jun 2027 21:19:59.460   02 Jun 2027 21:23:40.671           221.211                Anadyr2          6912.844
       177   02 Jun 2027 21:24:28.807   02 Jun 2027 21:25:51.541            82.734                Norilsk          2585.437
       178   02 Jun 2027 21:25:52.920   02 Jun 2027 21:26:50.158            57.238               Magadan1          1788.687
       179   02 Jun 2027 21:27:23.924   02 Jun 2027 21:27:30.175             6.251               Magadan1           195.344
       180   02 Jun 2027 21:28:29.304   02 Jun 2027 21:29:09.045            39.741               Magadan2          1241.906
       181   02 Jun 2027 21:29:16.878   02 Jun 2027 21:30:55.502            98.624                Irkutsk          3082.000
       182   02 Jun 2027 22:14:17.830   02 Jun 2027 22:16:10.710           112.880            RioGallegos          3527.500
       183   02 Jun 2027 22:17:17.177   02 Jun 2027 22:17:35.021            17.844            RioGallegos           557.625
       184   02 Jun 2027 22:22:32.389   02 Jun 2027 22:22:47.155            14.766            RioGallegos           461.438
       185   02 Jun 2027 22:55:32.900   02 Jun 2027 22:56:03.024            30.124                Anadyr2           941.375
       186   02 Jun 2027 22:57:20.273   02 Jun 2027 22:57:32.802            12.529                Anadyr2           391.531
       187   02 Jun 2027 22:57:49.221   02 Jun 2027 22:59:32.973           103.752                Norilsk          3242.250
       188   02 Jun 2027 23:00:03.635   02 Jun 2027 23:00:15.644            12.009               Magadan2           375.281
       189   02 Jun 2027 23:01:25.537   02 Jun 2027 23:01:34.623             9.086               Magadan2           283.938
       190   02 Jun 2027 23:01:39.689   02 Jun 2027 23:01:42.735             3.046               Magadan2            95.187
       191   02 Jun 2027 23:01:49.554   02 Jun 2027 23:02:02.876            13.322               Magadan1           416.313
       192   02 Jun 2027 23:02:02.876   02 Jun 2027 23:02:09.340             6.464               Magadan2           202.000
       193   02 Jun 2027 23:02:52.387   02 Jun 2027 23:04:26.408            94.021                Irkutsk          2938.156
       194   02 Jun 2027 23:04:44.958   02 Jun 2027 23:05:39.118            54.160                Novosib          1692.500
       195   02 Jun 2027 23:15:38.214   02 Jun 2027 23:17:57.751           139.537                Sumatra          4360.531
       196   02 Jun 2027 23:25:05.627   02 Jun 2027 23:25:08.582             2.955                Sumatra            92.344
       197   02 Jun 2027 23:28:12.672   02 Jun 2027 23:28:15.826             3.154                Sumatra            98.562
       198   02 Jun 2027 23:57:46.564   02 Jun 2027 23:58:15.945            29.381            RioGallegos           918.156
       199   02 Jun 2027 23:59:39.456   03 Jun 2027 00:00:06.063            26.607            RioGallegos           831.469
       200   03 Jun 2027 00:30:10.019   03 Jun 2027 00:31:01.584            51.565                Anadyr2          1611.406
       201   03 Jun 2027 00:32:25.591   03 Jun 2027 00:32:43.235            17.644                Anadyr2           551.375
       202   03 Jun 2027 00:33:47.729   03 Jun 2027 00:33:52.151             4.422                Norilsk           138.188
       203   03 Jun 2027 00:34:27.410   03 Jun 2027 00:36:29.740           122.330               Magadan2          3822.812
       204   03 Jun 2027 00:37:41.150   03 Jun 2027 00:38:18.621            37.471                Irkutsk          1170.969
       205   03 Jun 2027 00:38:49.557   03 Jun 2027 00:40:24.079            94.522                Novosib          2953.812
       206   03 Jun 2027 00:41:14.741   03 Jun 2027 00:42:33.311            78.570                Novosib          2455.312
       207   03 Jun 2027 00:45:22.386   03 Jun 2027 00:45:40.019            17.633                  Delhi           551.031
       208   03 Jun 2027 00:46:03.918   03 Jun 2027 00:46:18.119            14.201                  Delhi           443.781
       209   03 Jun 2027 00:47:32.698   03 Jun 2027 00:49:17.085           104.387                  Delhi          3262.094
       210   03 Jun 2027 01:27:02.234   03 Jun 2027 01:27:54.685            52.451            RioGallegos          1639.094
       211   03 Jun 2027 01:34:21.454   03 Jun 2027 01:34:58.848            37.394            RioGallegos          1168.562
       212   03 Jun 2027 02:03:37.935   03 Jun 2027 02:03:57.256            19.321                Anadyr2           603.781
       213   03 Jun 2027 02:04:49.817   03 Jun 2027 02:05:02.089            12.272                Anadyr2           383.500
       214   03 Jun 2027 02:05:59.534   03 Jun 2027 02:06:20.345            20.811                Anadyr2           650.344
       215   03 Jun 2027 02:09:44.866   03 Jun 2027 02:10:00.449            15.583                Anadyr1           486.969
       216   03 Jun 2027 02:10:22.991   03 Jun 2027 02:12:06.626           103.635               Magadan2          3238.594
       217   03 Jun 2027 02:12:22.729   03 Jun 2027 02:14:32.185           129.456              Murmansk2          4045.500
       218   03 Jun 2027 02:17:13.063   03 Jun 2027 02:17:32.295            19.232                Irkutsk           601.000
       219   03 Jun 2027 02:21:23.381   03 Jun 2027 02:22:05.173            41.792                  Delhi          1306.000
       220   03 Jun 2027 02:26:09.981   03 Jun 2027 02:26:55.530            45.549                  Delhi          1423.406
       221   03 Jun 2027 03:39:01.755   03 Jun 2027 03:39:12.979            11.224                Anadyr2           350.750
       222   03 Jun 2027 03:39:54.667   03 Jun 2027 03:40:03.429             8.762                Anadyr1           273.812
       223   03 Jun 2027 03:42:55.607   03 Jun 2027 03:43:00.544             4.937                Anadyr1           154.281
       224   03 Jun 2027 03:43:36.277   03 Jun 2027 03:43:39.582             3.305                Anadyr1           103.281
       225   03 Jun 2027 03:44:02.680   03 Jun 2027 03:44:13.781            11.101               Magadan2           346.906
       226   03 Jun 2027 03:44:30.692   03 Jun 2027 03:44:42.820            12.128                Anadyr2           379.000
       227   03 Jun 2027 03:45:06.030   03 Jun 2027 03:45:20.040            14.010                Anadyr2           437.812
       228   03 Jun 2027 03:46:36.962   03 Jun 2027 03:46:40.359             3.397                Anadyr2           106.156
       229   03 Jun 2027 03:47:03.282   03 Jun 2027 03:47:18.492            15.210                Anadyr2           475.312
       230   03 Jun 2027 03:55:29.597   03 Jun 2027 03:56:24.763            55.166                Novosib          1723.938
       231   03 Jun 2027 03:56:32.058   03 Jun 2027 03:58:20.273           108.215                Novosib          3381.719
       232   03 Jun 2027 03:58:33.278   03 Jun 2027 04:00:09.859            96.581              Murmansk1          3018.156
       233   03 Jun 2027 04:00:47.204   03 Jun 2027 04:02:28.956           101.752                 Moscow          3179.750
       234   03 Jun 2027 04:02:47.252   03 Jun 2027 04:03:50.174            62.922                 Moscow          1966.313
       235   03 Jun 2027 04:18:05.334   03 Jun 2027 04:18:47.228            41.894               CapeTown          1309.187
       236   03 Jun 2027 04:19:09.460   03 Jun 2027 04:21:42.985           153.525               CapeTown          4797.656
       237   03 Jun 2027 05:18:37.957   03 Jun 2027 05:20:19.380           101.423               Magadan1          3169.469
       238   03 Jun 2027 05:22:36.246   03 Jun 2027 05:23:45.368            69.122                Anadyr2          2160.062
       239   03 Jun 2027 05:23:59.061   03 Jun 2027 05:24:24.411            25.350                Anadyr2           792.188
       240   03 Jun 2027 05:34:30.569   03 Jun 2027 05:34:41.250            10.681              Murmansk2           333.781
       241   03 Jun 2027 06:53:30.005   03 Jun 2027 06:53:32.463             2.458               Magadan1            76.813
       242   03 Jun 2027 06:53:57.260   03 Jun 2027 06:54:41.230            43.970                Anadyr2          1374.063
       243   03 Jun 2027 06:54:55.687   03 Jun 2027 06:56:10.323            74.636               Magadan1          2332.375
       244   03 Jun 2027 06:56:28.802   03 Jun 2027 06:56:31.229             2.427               Magadan1            75.844
       245   03 Jun 2027 06:56:31.229   03 Jun 2027 06:56:50.022            18.793               Magadan2           587.281
       246   03 Jun 2027 06:56:52.614   03 Jun 2027 06:58:12.826            80.212                Anadyr2          2506.625
       247   03 Jun 2027 06:58:13.701   03 Jun 2027 06:58:14.909             1.208               Magadan1            37.750
       248   03 Jun 2027 08:27:45.307   03 Jun 2027 08:27:52.183             6.876               Magadan1           214.875
       249   03 Jun 2027 08:28:21.674   03 Jun 2027 08:29:40.340            78.666                Anadyr2          2458.313
       250   03 Jun 2027 08:30:13.878   03 Jun 2027 08:30:18.024             4.146               Magadan2           129.563
       251   03 Jun 2027 08:31:00.179   03 Jun 2027 08:31:13.922            13.743               Magadan2           429.469
       252   03 Jun 2027 08:31:38.412   03 Jun 2027 08:32:28.732            50.320                Anadyr1          1572.500
       253   03 Jun 2027 08:32:41.946   03 Jun 2027 08:33:32.193            50.247                Anadyr2          1570.219
       254   03 Jun 2027 08:33:37.037   03 Jun 2027 08:33:46.980             9.943               Magadan2           310.719
       255   03 Jun 2027 08:33:46.980   03 Jun 2027 08:34:32.018            45.038               Magadan1          1407.438
       256   03 Jun 2027 08:34:45.475   03 Jun 2027 08:35:53.946            68.471                Anadyr1          2139.719
       257   03 Jun 2027 10:06:33.507   03 Jun 2027 10:07:49.921            76.414               Magadan2          2387.937
       258   03 Jun 2027 10:08:05.820   03 Jun 2027 10:08:59.110            53.290                Irkutsk          1665.313
       259   03 Jun 2027 10:09:05.265   03 Jun 2027 10:09:36.836            31.571                Norilsk           986.594
       260   03 Jun 2027 10:09:42.336   03 Jun 2027 10:09:56.007            13.671                Irkutsk           427.219
       261   03 Jun 2027 10:09:58.938   03 Jun 2027 10:10:21.605            22.667                Norilsk           708.344
       262   03 Jun 2027 10:10:30.131   03 Jun 2027 10:10:42.402            12.271                Irkutsk           383.469
       263   03 Jun 2027 10:10:45.606   03 Jun 2027 10:11:08.138            22.532                Norilsk           704.125
       264   03 Jun 2027 10:11:11.180   03 Jun 2027 10:11:20.744             9.564                Novosib           298.875
       265   03 Jun 2027 10:11:31.692   03 Jun 2027 10:11:46.789            15.097                Norilsk           471.781
       266   03 Jun 2027 10:12:12.814   03 Jun 2027 10:12:21.797             8.983                Novosib           280.719
       267   03 Jun 2027 10:46:43.611   03 Jun 2027 10:47:29.865            46.254            RioGallegos          1445.438
       268   03 Jun 2027 10:48:04.037   03 Jun 2027 10:48:45.985            41.948            RioGallegos          1310.875
       269   03 Jun 2027 11:21:35.290   03 Jun 2027 11:22:09.580            34.290                Sumatra          1071.563
       270   03 Jun 2027 11:24:39.867   03 Jun 2027 11:24:46.271             6.404                Sumatra           200.125
       271   03 Jun 2027 11:34:41.070   03 Jun 2027 11:35:20.028            38.958                  Delhi          1217.438
       272   03 Jun 2027 11:42:48.905   03 Jun 2027 11:43:06.085            17.180                Novosib           536.875
       273   03 Jun 2027 11:43:39.518   03 Jun 2027 11:44:02.564            23.046                Novosib           720.188
       274   03 Jun 2027 11:44:13.702   03 Jun 2027 11:45:09.329            55.627                Novosib          1738.344
       275   03 Jun 2027 11:45:20.128   03 Jun 2027 11:45:36.858            16.730                Irkutsk           522.813
       276   03 Jun 2027 11:45:41.626   03 Jun 2027 11:45:55.276            13.650                Novosib           426.562
       277   03 Jun 2027 11:46:13.928   03 Jun 2027 11:46:46.057            32.129                Irkutsk          1004.031
       278   03 Jun 2027 11:47:05.847   03 Jun 2027 11:47:12.467             6.620                Norilsk           206.875
       279   03 Jun 2027 11:47:16.290   03 Jun 2027 11:47:22.128             5.838                Norilsk           182.438
       280   03 Jun 2027 11:47:23.133   03 Jun 2027 11:47:30.657             7.524                Novosib           235.125
       281   03 Jun 2027 11:47:55.205   03 Jun 2027 11:48:09.459            14.254                Norilsk           445.438
       282   03 Jun 2027 12:26:01.050   03 Jun 2027 12:26:40.477            39.427            RioGallegos          1232.094
       283   03 Jun 2027 12:29:50.883   03 Jun 2027 12:30:41.738            50.855            RioGallegos          1589.219
       284   03 Jun 2027 13:00:52.824   03 Jun 2027 13:01:32.404            39.580                Sumatra          1236.875
       285   03 Jun 2027 13:04:36.795   03 Jun 2027 13:04:58.235            21.440                Sumatra           670.000
       286   03 Jun 2027 13:08:17.213   03 Jun 2027 13:08:47.093            29.880                  Delhi           933.750
       287   03 Jun 2027 13:13:20.333   03 Jun 2027 13:14:07.622            47.289                Novosib          1477.781
       288   03 Jun 2027 13:15:39.093   03 Jun 2027 13:17:29.241           110.148                Novosib          3442.125
       289   03 Jun 2027 13:18:11.574   03 Jun 2027 13:18:46.971            35.397                Irkutsk          1106.156
       290   03 Jun 2027 13:28:14.730   03 Jun 2027 13:28:17.997             3.267                Norilsk           102.094
       291   03 Jun 2027 14:50:11.649   03 Jun 2027 14:53:53.131           221.482                 Moscow          6921.312
       292   03 Jun 2027 14:54:51.227   03 Jun 2027 14:56:49.097           117.870              Murmansk1          3683.438
       293   03 Jun 2027 14:56:57.981   03 Jun 2027 14:58:00.322            62.341                Norilsk          1948.156
       294   03 Jun 2027 14:59:18.436   03 Jun 2027 15:01:00.993           102.557                Norilsk          3204.906
       295   03 Jun 2027 16:05:11.522   03 Jun 2027 16:05:21.434             9.912               CapeTown           309.750
       296   03 Jun 2027 16:06:11.961   03 Jun 2027 16:07:58.068           106.107               CapeTown          3315.844
       297   03 Jun 2027 16:27:08.038   03 Jun 2027 16:27:39.695            31.657                 Moscow           989.281
       298   03 Jun 2027 16:30:08.894   03 Jun 2027 16:31:25.874            76.980                 Moscow          2405.625
       299   03 Jun 2027 16:32:25.279   03 Jun 2027 16:32:54.492            29.213              Murmansk1           912.906
       300   03 Jun 2027 16:38:16.004   03 Jun 2027 16:38:45.011            29.007              Murmansk1           906.469
       301   03 Jun 2027 16:44:45.330   03 Jun 2027 16:46:01.078            75.748                Anadyr1          2367.125
       302   03 Jun 2027 16:46:45.748   03 Jun 2027 16:47:55.289            69.541                Anadyr2          2173.156
       303   03 Jun 2027 16:53:24.913   03 Jun 2027 16:53:35.689            10.776                Anadyr2           336.750
       304   03 Jun 2027 17:39:35.153   03 Jun 2027 17:41:53.182           138.029               CapeTown          4313.406
       305   03 Jun 2027 18:09:25.669   03 Jun 2027 18:12:17.727           172.058              Murmansk2          5376.813
       306   03 Jun 2027 18:14:38.418   03 Jun 2027 18:14:38.885             0.467              Murmansk2            14.594
       307   03 Jun 2027 18:15:39.442   03 Jun 2027 18:16:20.381            40.939              Murmansk1          1279.344
       308   03 Jun 2027 18:23:57.183   03 Jun 2027 18:25:21.511            84.328               Magadan1          2635.250
       309   03 Jun 2027 18:25:21.511   03 Jun 2027 18:25:38.245            16.734               Magadan2           522.938
       310   03 Jun 2027 18:26:00.089   03 Jun 2027 18:27:57.401           117.312               Magadan2          3666.000
       311   03 Jun 2027 19:56:06.913   03 Jun 2027 19:57:47.161           100.248                Anadyr1          3132.750
       312   03 Jun 2027 19:57:48.519   03 Jun 2027 19:59:51.509           122.990                Anadyr2          3843.438
       313   03 Jun 2027 20:00:04.478   03 Jun 2027 20:01:51.220           106.742               Magadan1          3335.688
       314   03 Jun 2027 20:04:40.900   03 Jun 2027 20:05:08.644            27.744               Magadan1           867.000
       315   03 Jun 2027 21:31:59.914   03 Jun 2027 21:34:07.950           128.036                Anadyr2          4001.125
       316   03 Jun 2027 21:34:17.245   03 Jun 2027 21:39:27.589           310.344                Norilsk          9698.250
       317   03 Jun 2027 21:40:05.654   03 Jun 2027 21:40:22.581            16.927                Irkutsk           528.969
       318   03 Jun 2027 21:40:53.223   03 Jun 2027 21:41:37.004            43.781                Irkutsk          1368.156
       319   03 Jun 2027 21:45:43.402   03 Jun 2027 21:45:50.563             7.161                Irkutsk           223.781
       320   03 Jun 2027 21:57:55.296   03 Jun 2027 21:59:01.647            66.351                Sumatra          2073.469
       321   03 Jun 2027 22:26:10.040   03 Jun 2027 22:26:51.990            41.950            RioGallegos          1310.938
       322   03 Jun 2027 22:34:18.544   03 Jun 2027 22:35:26.652            68.108            RioGallegos          2128.375
       323   03 Jun 2027 23:07:28.520   03 Jun 2027 23:08:06.275            37.755                Anadyr1          1179.844
       324   03 Jun 2027 23:08:11.750   03 Jun 2027 23:09:21.587            69.837                Anadyr2          2182.406
       325   03 Jun 2027 23:09:33.764   03 Jun 2027 23:09:52.402            18.638                Anadyr2           582.437
       326   03 Jun 2027 23:09:59.354   03 Jun 2027 23:10:46.809            47.455                Norilsk          1482.969
       327   03 Jun 2027 23:10:56.991   03 Jun 2027 23:11:06.367             9.376                Norilsk           293.000
       328   03 Jun 2027 23:11:36.041   03 Jun 2027 23:11:53.090            17.049               Magadan1           532.781
       329   03 Jun 2027 23:13:01.794   03 Jun 2027 23:13:11.320             9.526               Magadan2           297.688
       330   03 Jun 2027 23:13:39.417   03 Jun 2027 23:14:02.797            23.380               Magadan2           730.625
       331   03 Jun 2027 23:14:12.097   03 Jun 2027 23:14:56.350            44.253                Irkutsk          1382.906
       332   03 Jun 2027 23:15:01.308   03 Jun 2027 23:15:01.779             0.471                Novosib            14.719
       333   03 Jun 2027 23:15:14.292   03 Jun 2027 23:15:58.226            43.934                Novosib          1372.937
       334   03 Jun 2027 23:17:31.987   03 Jun 2027 23:18:00.640            28.653                Novosib           895.406
       335   03 Jun 2027 23:18:20.908   03 Jun 2027 23:20:47.727           146.819                Novosib          4588.094
       336   04 Jun 2027 00:09:29.309   04 Jun 2027 00:09:43.556            14.247            RioGallegos           445.219
       337   04 Jun 2027 00:11:23.155   04 Jun 2027 00:12:05.025            41.870            RioGallegos          1308.438
       338   04 Jun 2027 00:41:56.033   04 Jun 2027 00:42:16.634            20.601                Anadyr2           643.781
       339   04 Jun 2027 00:42:56.520   04 Jun 2027 00:43:44.925            48.405                Anadyr1          1512.656
       340   04 Jun 2027 00:44:14.809   04 Jun 2027 00:44:25.153            10.344                Anadyr2           323.250
       341   04 Jun 2027 00:45:49.981   04 Jun 2027 00:47:34.301           104.320                Norilsk          3260.000
       342   04 Jun 2027 00:48:03.712   04 Jun 2027 00:48:30.230            26.518               Magadan1           828.687
       343   04 Jun 2027 00:49:42.722   04 Jun 2027 00:51:41.075           118.353                Novosib          3698.531
       344   04 Jun 2027 00:52:20.436   04 Jun 2027 00:52:38.432            17.996                Novosib           562.375
       345   04 Jun 2027 00:55:17.433   04 Jun 2027 00:55:38.751            21.318                Novosib           666.188
       346   04 Jun 2027 00:57:11.856   04 Jun 2027 00:58:01.137            49.281                  Delhi          1540.031
       347   04 Jun 2027 01:00:35.957   04 Jun 2027 01:01:16.164            40.207                  Delhi          1256.469
       348   04 Jun 2027 01:05:28.057   04 Jun 2027 01:06:40.795            72.738                  Delhi          2273.063
       349   04 Jun 2027 01:40:31.373   04 Jun 2027 01:41:03.589            32.216            RioGallegos          1006.750
       350   04 Jun 2027 01:44:34.859   04 Jun 2027 01:44:53.273            18.414            RioGallegos           575.438
       351   04 Jun 2027 02:15:18.993   04 Jun 2027 02:15:55.039            36.046                Anadyr1          1126.437
       352   04 Jun 2027 02:16:49.831   04 Jun 2027 02:17:01.818            11.987                Anadyr1           374.594
       353   04 Jun 2027 02:17:42.954   04 Jun 2027 02:18:36.907            53.953                Anadyr2          1686.031
       354   04 Jun 2027 02:21:32.193   04 Jun 2027 02:21:34.316             2.123               Magadan2            66.344
       355   04 Jun 2027 02:21:43.266   04 Jun 2027 02:22:43.179            59.913               Magadan2          1872.281
       356   04 Jun 2027 02:23:17.167   04 Jun 2027 02:23:21.675             4.508                Norilsk           140.875
       357   04 Jun 2027 02:24:04.253   04 Jun 2027 02:25:33.007            88.754              Murmansk2          2773.563
       358   04 Jun 2027 02:25:33.007   04 Jun 2027 02:25:42.019             9.012              Murmansk1           281.625
       359   04 Jun 2027 02:26:36.927   04 Jun 2027 02:27:11.183            34.256                Irkutsk          1070.500
       360   04 Jun 2027 02:27:51.131   04 Jun 2027 02:28:32.276            41.145                Irkutsk          1285.781
       361   04 Jun 2027 02:32:23.217   04 Jun 2027 02:32:32.019             8.802                Irkutsk           275.063
       362   04 Jun 2027 02:34:21.933   04 Jun 2027 02:34:46.571            24.638                  Delhi           769.938
       363   04 Jun 2027 02:37:08.878   04 Jun 2027 02:38:06.306            57.428                  Delhi          1794.625
       364   04 Jun 2027 02:56:33.144   04 Jun 2027 02:56:42.870             9.726               CapeTown           303.938
       365   04 Jun 2027 02:57:52.890   04 Jun 2027 02:57:58.998             6.108               CapeTown           190.875
       366   04 Jun 2027 03:55:09.074   04 Jun 2027 03:55:17.338             8.264                Anadyr1           258.250
       367   04 Jun 2027 03:56:16.638   04 Jun 2027 03:56:27.128            10.490               Magadan1           327.813
       368   04 Jun 2027 03:57:40.402   04 Jun 2027 03:57:59.160            18.758               Magadan2           586.188
       369   04 Jun 2027 03:58:08.279   04 Jun 2027 03:58:13.869             5.590               Magadan2           174.687
       370   04 Jun 2027 03:58:48.212   04 Jun 2027 03:59:36.945            48.733               Magadan2          1522.906
       371   04 Jun 2027 04:07:11.179   04 Jun 2027 04:07:53.876            42.697                Norilsk          1334.281
       372   04 Jun 2027 04:08:22.780   04 Jun 2027 04:09:33.235            70.455                Novosib          2201.719
       373   04 Jun 2027 04:09:45.129   04 Jun 2027 04:10:24.422            39.293              Murmansk1          1227.906
       374   04 Jun 2027 04:10:45.552   04 Jun 2027 04:12:23.163            97.611              Murmansk1          3050.344
       375   04 Jun 2027 04:13:53.768   04 Jun 2027 04:15:59.187           125.419                 Moscow          3919.344
       376   04 Jun 2027 05:30:52.536   04 Jun 2027 05:32:11.949            79.413                Anadyr1          2481.656
       377   04 Jun 2027 05:32:59.846   04 Jun 2027 05:34:22.702            82.856               Magadan2          2589.250
       378   04 Jun 2027 05:34:37.414   04 Jun 2027 05:36:43.589           126.175                Anadyr1          3942.969
       379   04 Jun 2027 05:46:03.002   04 Jun 2027 05:46:25.343            22.341              Murmansk2           698.156
       380   04 Jun 2027 07:05:08.960   04 Jun 2027 07:06:10.522            61.562                Anadyr1          1923.813
       381   04 Jun 2027 07:06:29.968   04 Jun 2027 07:06:34.664             4.696               Magadan1           146.750
       382   04 Jun 2027 07:06:40.333   04 Jun 2027 07:08:53.534           133.201                Anadyr1          4162.531
       383   04 Jun 2027 07:09:04.940   04 Jun 2027 07:09:21.443            16.503               Magadan2           515.719
       384   04 Jun 2027 07:09:29.471   04 Jun 2027 07:10:16.631            47.160                Anadyr1          1473.750
       385   04 Jun 2027 07:17:30.066   04 Jun 2027 07:18:14.636            44.570                 Moscow          1392.813
       386   04 Jun 2027 08:39:35.322   04 Jun 2027 08:40:28.904            53.582               Magadan2          1674.437
       387   04 Jun 2027 08:40:33.772   04 Jun 2027 08:40:46.219            12.447               Magadan1           388.969
       388   04 Jun 2027 08:40:51.516   04 Jun 2027 08:41:18.740            27.224                Anadyr1           850.750
       389   04 Jun 2027 08:41:31.965   04 Jun 2027 08:42:11.064            39.099               Magadan2          1221.844
       390   04 Jun 2027 08:42:41.457   04 Jun 2027 08:43:14.140            32.683               Magadan2          1021.344
       391   04 Jun 2027 08:44:29.632   04 Jun 2027 08:45:20.385            50.753               Magadan1          1586.031
       392   04 Jun 2027 08:45:25.575   04 Jun 2027 08:46:33.988            68.413               Magadan2          2137.906
       393   04 Jun 2027 08:46:44.734   04 Jun 2027 08:47:42.423            57.689                Anadyr2          1802.781
       394   04 Jun 2027 09:23:24.801   04 Jun 2027 09:23:28.723             3.922            RioGallegos           122.562
       395   04 Jun 2027 09:30:46.559   04 Jun 2027 09:31:25.570            39.011            RioGallegos          1219.094
       396   04 Jun 2027 10:02:07.191   04 Jun 2027 10:02:47.903            40.712                Sumatra          1272.250
       397   04 Jun 2027 10:18:32.994   04 Jun 2027 10:19:39.811            66.817               Magadan1          2088.031
       398   04 Jun 2027 10:20:52.419   04 Jun 2027 10:20:53.259             0.840                Irkutsk            26.250
       399   04 Jun 2027 10:21:15.631   04 Jun 2027 10:22:15.096            59.465               Magadan1          1858.281
       400   04 Jun 2027 10:22:51.951   04 Jun 2027 10:22:52.582             0.631                Irkutsk            19.719
       401   04 Jun 2027 10:22:56.709   04 Jun 2027 10:23:09.151            12.442                Irkutsk           388.813
       402   04 Jun 2027 10:23:19.240   04 Jun 2027 10:23:26.943             7.703                Norilsk           240.719
       403   04 Jun 2027 10:23:33.101   04 Jun 2027 10:23:44.268            11.167                Norilsk           348.969
       404   04 Jun 2027 10:23:46.937   04 Jun 2027 10:24:01.873            14.936                Irkutsk           466.750
       405   04 Jun 2027 10:58:53.589   04 Jun 2027 11:00:09.135            75.546            RioGallegos          2360.813
       406   04 Jun 2027 11:33:33.712   04 Jun 2027 11:34:05.912            32.200                Sumatra          1006.250
       407   04 Jun 2027 11:36:43.368   04 Jun 2027 11:37:33.094            49.726                Sumatra          1553.937
       408   04 Jun 2027 11:53:36.965   04 Jun 2027 11:53:46.130             9.165                  Delhi           286.406
       409   04 Jun 2027 11:55:40.746   04 Jun 2027 11:56:23.699            42.953                Novosib          1342.281
       410   04 Jun 2027 11:57:00.930   04 Jun 2027 11:57:05.212             4.282                Novosib           133.813
       411   04 Jun 2027 11:57:22.197   04 Jun 2027 11:57:41.587            19.390                Irkutsk           605.937
       412   04 Jun 2027 11:57:45.097   04 Jun 2027 11:58:13.729            28.632                Novosib           894.750
       413   04 Jun 2027 11:58:16.385   04 Jun 2027 11:58:52.513            36.128                Irkutsk          1129.000
       414   04 Jun 2027 11:59:08.035   04 Jun 2027 11:59:12.098             4.063                Norilsk           126.969
       415   04 Jun 2027 11:59:20.122   04 Jun 2027 11:59:41.004            20.882                Irkutsk           652.562
       416   04 Jun 2027 11:59:53.797   04 Jun 2027 11:59:58.551             4.754                Norilsk           148.563
       417   04 Jun 2027 12:00:23.764   04 Jun 2027 12:00:58.226            34.462                Norilsk          1076.938
       418   04 Jun 2027 12:03:13.255   04 Jun 2027 12:03:39.916            26.661                Norilsk           833.156
       419   04 Jun 2027 12:39:05.642   04 Jun 2027 12:41:50.098           164.456            RioGallegos          5139.250
       420   04 Jun 2027 13:23:36.614   04 Jun 2027 13:23:47.620            11.006                  Delhi           343.937
       421   04 Jun 2027 13:25:42.420   04 Jun 2027 13:26:09.496            27.076                Novosib           846.125
       422   04 Jun 2027 13:26:49.188   04 Jun 2027 13:27:33.892            44.704                Novosib          1397.000
       423   04 Jun 2027 13:27:53.701   04 Jun 2027 13:29:55.282           121.581                Novosib          3799.406
       424   04 Jun 2027 13:32:06.079   04 Jun 2027 13:32:57.694            51.615                Norilsk          1612.969
       425   04 Jun 2027 13:38:35.578   04 Jun 2027 13:38:58.247            22.669              Murmansk1           708.406
       426   04 Jun 2027 13:39:12.508   04 Jun 2027 13:39:37.464            24.956                Norilsk           779.875
       427   04 Jun 2027 15:02:10.006   04 Jun 2027 15:05:58.264           228.258                 Moscow          7133.062
       428   04 Jun 2027 15:06:53.143   04 Jun 2027 15:07:10.058            16.915              Murmansk2           528.594
       429   04 Jun 2027 15:07:15.644   04 Jun 2027 15:07:26.070            10.426              Murmansk2           325.813
       430   04 Jun 2027 15:08:03.250   04 Jun 2027 15:08:06.839             3.589              Murmansk2           112.156
       431   04 Jun 2027 15:08:50.050   04 Jun 2027 15:08:57.449             7.399              Murmansk2           231.219
       432   04 Jun 2027 15:09:11.035   04 Jun 2027 15:09:29.696            18.661              Murmansk2           583.156
       433   04 Jun 2027 15:09:39.844   04 Jun 2027 15:11:21.365           101.521                Norilsk          3172.531
       434   04 Jun 2027 15:13:03.942   04 Jun 2027 15:13:53.406            49.464                Norilsk          1545.750
       435   04 Jun 2027 15:15:11.697   04 Jun 2027 15:15:17.635             5.938                Norilsk           185.563
       436   04 Jun 2027 16:16:43.796   04 Jun 2027 16:17:52.597            68.801               CapeTown          2150.031
       437   04 Jun 2027 16:20:23.977   04 Jun 2027 16:20:35.298            11.321               CapeTown           353.781
       438   04 Jun 2027 16:20:51.254   04 Jun 2027 16:21:21.065            29.811               CapeTown           931.594
       439   04 Jun 2027 16:25:45.210   04 Jun 2027 16:26:01.723            16.513               CapeTown           516.031
       440   04 Jun 2027 16:39:33.585   04 Jun 2027 16:40:26.232            52.647                 Moscow          1645.219
       441   04 Jun 2027 16:42:41.617   04 Jun 2027 16:43:11.084            29.467              Murmansk2           920.844
       442   04 Jun 2027 16:43:11.084   04 Jun 2027 16:43:58.570            47.486              Murmansk1          1483.938
       443   04 Jun 2027 16:50:12.833   04 Jun 2027 16:50:46.995            34.162              Murmansk1          1067.563
       444   04 Jun 2027 16:52:47.043   04 Jun 2027 16:53:45.416            58.373              Murmansk2          1824.156
       445   04 Jun 2027 16:56:39.415   04 Jun 2027 16:57:01.942            22.527                Anadyr1           703.969
       446   04 Jun 2027 16:57:20.635   04 Jun 2027 16:57:48.796            28.161                Anadyr2           880.031
       447   04 Jun 2027 16:59:42.792   04 Jun 2027 17:00:06.763            23.971                Anadyr1           749.094
       448   04 Jun 2027 17:05:23.076   04 Jun 2027 17:05:30.142             7.066                Anadyr1           220.812
       449   04 Jun 2027 17:05:33.856   04 Jun 2027 17:05:43.123             9.267                Anadyr2           289.594
       450   04 Jun 2027 17:06:10.004   04 Jun 2027 17:06:10.295             0.291                Anadyr1             9.094
       451   04 Jun 2027 17:51:40.273   04 Jun 2027 17:52:15.741            35.468               CapeTown          1108.375
       452   04 Jun 2027 17:55:17.394   04 Jun 2027 17:55:44.516            27.122               CapeTown           847.563
       453   04 Jun 2027 17:59:48.585   04 Jun 2027 18:00:12.188            23.603               CapeTown           737.594
       454   04 Jun 2027 18:02:05.062   04 Jun 2027 18:02:09.362             4.300               CapeTown           134.375
       455   04 Jun 2027 18:03:18.902   04 Jun 2027 18:04:05.960            47.058               CapeTown          1470.562
       456   04 Jun 2027 18:22:02.792   04 Jun 2027 18:23:00.969            58.177              Murmansk1          1818.031
       457   04 Jun 2027 18:24:09.587   04 Jun 2027 18:26:15.471           125.884              Murmansk2          3933.875
       458   04 Jun 2027 18:26:37.947   04 Jun 2027 18:27:00.540            22.593              Murmansk2           706.031
       459   04 Jun 2027 18:34:59.836   04 Jun 2027 18:35:18.433            18.597                Anadyr2           581.156
       460   04 Jun 2027 18:35:36.044   04 Jun 2027 18:36:15.664            39.620               Magadan1          1238.125
       461   04 Jun 2027 18:36:15.664   04 Jun 2027 18:36:41.016            25.352               Magadan2           792.250
       462   04 Jun 2027 18:38:27.523   04 Jun 2027 18:38:41.853            14.330               Magadan2           447.812
       463   04 Jun 2027 18:38:41.853   04 Jun 2027 18:38:48.721             6.868               Magadan1           214.625
       464   04 Jun 2027 18:39:30.869   04 Jun 2027 18:39:48.138            17.269               Magadan1           539.656
       465   04 Jun 2027 18:40:21.226   04 Jun 2027 18:40:36.495            15.269               Magadan2           477.156
       466   04 Jun 2027 18:40:51.487   04 Jun 2027 18:41:38.296            46.809               Magadan2          1462.781
       467   04 Jun 2027 20:08:08.587   04 Jun 2027 20:09:47.659            99.072                Anadyr1          3096.000
       468   04 Jun 2027 20:10:13.269   04 Jun 2027 20:12:02.285           109.016                Anadyr2          3406.750
       469   04 Jun 2027 20:12:02.503   04 Jun 2027 20:13:49.982           107.479               Magadan1          3358.719
       470   04 Jun 2027 20:13:49.982   04 Jun 2027 20:14:09.929            19.947               Magadan2           623.344
       471   04 Jun 2027 20:16:19.214   04 Jun 2027 20:16:37.116            17.902               Magadan1           559.437
       472   04 Jun 2027 20:17:18.745   04 Jun 2027 20:18:29.794            71.049               Magadan1          2220.281
       473   04 Jun 2027 21:05:53.170   04 Jun 2027 21:07:15.037            81.867            RioGallegos          2558.344
       474   04 Jun 2027 21:43:59.998   04 Jun 2027 21:46:09.265           129.267                Anadyr2          4039.594
       475   04 Jun 2027 21:46:11.491   04 Jun 2027 21:47:59.096           107.605                Norilsk          3362.656
       476   04 Jun 2027 21:48:17.828   04 Jun 2027 21:49:46.592            88.764                Norilsk          2773.875
       477   04 Jun 2027 21:51:28.956   04 Jun 2027 21:51:43.499            14.543                Irkutsk           454.469
       478   04 Jun 2027 21:52:38.234   04 Jun 2027 21:53:41.128            62.894                Irkutsk          1965.438
       479   04 Jun 2027 22:07:14.242   04 Jun 2027 22:08:47.069            92.827                Sumatra          2900.844
       480   04 Jun 2027 22:11:31.707   04 Jun 2027 22:12:14.452            42.745                Sumatra          1335.781
       481   04 Jun 2027 23:19:23.145   04 Jun 2027 23:22:11.042           167.897                Anadyr2          5246.781
       482   04 Jun 2027 23:22:18.544   04 Jun 2027 23:23:05.355            46.811                Norilsk          1462.844
