uniorb/output/strategy_4/Drop/Drop_KinoSat_110204.txt

KinoSat_110204
-------------------------
    Access    *     Start Time (UTCG)     *     Stop Time (UTCG)  *   Duration (s)        *       Station  *  Data (Mbytes)
         1   01 Jun 2027 04:13:18.886   01 Jun 2027 04:15:56.668           157.782                Irkutsk         19722.750
         2   01 Jun 2027 04:16:31.538   01 Jun 2027 04:16:51.538            20.000                Norilsk          2500.000
         3   01 Jun 2027 04:17:09.703   01 Jun 2027 04:18:11.548            61.845                Novosib          7730.625
         4   01 Jun 2027 04:53:48.107   01 Jun 2027 04:54:49.526            61.419            RioGallegos          7677.375
         5   01 Jun 2027 04:57:07.469   01 Jun 2027 04:57:50.993            43.524            RioGallegos          5440.500
         6   01 Jun 2027 05:28:04.396   01 Jun 2027 05:28:34.238            29.842                Sumatra          3730.250
         7   01 Jun 2027 05:30:24.224   01 Jun 2027 05:32:31.748           127.524                Sumatra         15940.500
         8   01 Jun 2027 05:38:52.851   01 Jun 2027 05:40:49.146           116.295                  Delhi         14536.875
         9   01 Jun 2027 05:52:22.153   01 Jun 2027 05:53:16.679            54.526                Irkutsk          6815.750
        10   01 Jun 2027 07:12:54.720   01 Jun 2027 07:14:23.783            89.063                  Delhi         11132.875
        11   01 Jun 2027 07:15:12.744   01 Jun 2027 07:15:56.921            44.177                  Delhi          5522.125
        12   01 Jun 2027 07:27:39.541   01 Jun 2027 07:27:52.501            12.960                 Moscow          1620.000
        13   01 Jun 2027 07:27:53.890   01 Jun 2027 07:28:12.219            18.329                 Moscow          2291.125
        14   01 Jun 2027 07:28:30.635   01 Jun 2027 07:29:28.214            57.579                 Moscow          7197.375
        15   01 Jun 2027 07:29:38.484   01 Jun 2027 07:30:30.507            52.023              Murmansk2          6502.875
        16   01 Jun 2027 10:14:39.203   01 Jun 2027 10:14:52.611            13.408               CapeTown          1676.000
        17   01 Jun 2027 10:50:34.747   01 Jun 2027 10:51:44.817            70.070                Anadyr1          8758.750
        18   01 Jun 2027 10:54:51.061   01 Jun 2027 10:55:04.265            13.204                Anadyr2          1650.500
        19   01 Jun 2027 10:55:17.840   01 Jun 2027 10:55:39.816            21.976                Anadyr2          2747.000
        20   01 Jun 2027 10:57:51.645   01 Jun 2027 10:57:54.323             2.678                Anadyr1           334.750
        21   01 Jun 2027 12:29:07.835   01 Jun 2027 12:33:36.409           268.574               Magadan2         33571.750
        22   01 Jun 2027 14:04:32.616   01 Jun 2027 14:05:05.014            32.398               Magadan2          4049.750
        23   01 Jun 2027 14:06:14.427   01 Jun 2027 14:07:45.103            90.676               Magadan1         11334.500
        24   01 Jun 2027 15:01:16.037   01 Jun 2027 15:05:31.220           255.183            RioGallegos         31897.875
        25   01 Jun 2027 15:44:40.095   01 Jun 2027 15:45:06.142            26.047                Irkutsk          3255.875
        26   01 Jun 2027 15:47:25.701   01 Jun 2027 15:48:58.342            92.641                Irkutsk         11580.125
        27   01 Jun 2027 15:58:51.882   01 Jun 2027 15:59:53.461            61.579                Sumatra          7697.375
        28   01 Jun 2027 16:01:10.074   01 Jun 2027 16:02:39.023            88.949                Sumatra         11118.625
        29   01 Jun 2027 16:05:46.327   01 Jun 2027 16:06:19.831            33.504                Sumatra          4188.000
        30   01 Jun 2027 17:20:17.547   01 Jun 2027 17:24:35.802           258.255                Novosib         32281.875
        31   01 Jun 2027 17:28:53.093   01 Jun 2027 17:32:18.740           205.647                  Delhi          9552.251
        32   02 Jun 2027 05:40:27.074   02 Jun 2027 05:42:03.865            96.791                Sumatra         12098.875
        33   02 Jun 2027 05:48:14.370   02 Jun 2027 05:51:03.443           169.073                  Delhi         21134.125
        34   02 Jun 2027 06:03:56.196   02 Jun 2027 06:04:21.458            25.262                Novosib          3157.750
        35   02 Jun 2027 06:05:52.557   02 Jun 2027 06:07:36.884           104.327                Novosib         13040.875
        36   02 Jun 2027 06:07:59.812   02 Jun 2027 06:08:45.309            45.497                 Moscow          5687.125
        37   02 Jun 2027 06:08:50.412   02 Jun 2027 06:13:00.780           250.368              Murmansk2         31296.000
        38   02 Jun 2027 07:31:43.921   02 Jun 2027 07:35:13.831           209.910                  Delhi         26238.750
        39   02 Jun 2027 07:35:36.000   02 Jun 2027 07:36:58.273            82.273                 Moscow         10284.125
        40   02 Jun 2027 07:42:01.132   02 Jun 2027 07:45:13.281           192.149                 Moscow         24018.625
        41   02 Jun 2027 07:45:26.694   02 Jun 2027 07:48:45.913           199.219              Murmansk1         24902.375
        42   02 Jun 2027 09:11:33.138   02 Jun 2027 09:13:08.866            95.728                 Moscow         11966.000
        43   02 Jun 2027 09:15:17.998   02 Jun 2027 09:17:12.319           114.321              Murmansk2         14290.125
        44   02 Jun 2027 09:17:13.123   02 Jun 2027 09:21:06.422           233.299                 Moscow         29162.375
        45   02 Jun 2027 09:21:09.610   02 Jun 2027 09:24:43.253           213.643              Murmansk1         26705.375
        46   02 Jun 2027 09:27:47.442   02 Jun 2027 09:29:34.531           107.089                Anadyr1         13386.125
        47   02 Jun 2027 11:02:33.136   02 Jun 2027 11:03:28.927            55.791                Anadyr2          6973.875
        48   02 Jun 2027 12:41:01.241   02 Jun 2027 12:43:41.907           160.666               Magadan2         20083.250
        49   02 Jun 2027 12:44:56.529   02 Jun 2027 12:45:34.693            38.164               Magadan1          4770.500
        50   02 Jun 2027 12:49:56.933   02 Jun 2027 12:51:53.567           116.634               Magadan2         14579.250
        51   02 Jun 2027 15:09:04.777   02 Jun 2027 15:13:10.651           245.874            RioGallegos         30734.250
        52   02 Jun 2027 15:57:40.099   02 Jun 2027 16:00:30.708           170.609                Irkutsk         21326.125
        53   02 Jun 2027 16:12:21.742   02 Jun 2027 16:14:38.866           137.124                Sumatra         17140.500
        54   02 Jun 2027 17:32:11.499   02 Jun 2027 17:34:00.756           109.257                Novosib         13657.125
        55   02 Jun 2027 17:40:21.841   02 Jun 2027 17:44:11.243           229.402                  Delhi         28675.250
        56   02 Jun 2027 19:18:07.649   02 Jun 2027 19:20:00.660           113.011                  Delhi         14126.375
        57   02 Jun 2027 20:45:38.633   02 Jun 2027 20:47:22.255           103.622                 Moscow         12781.375
        58   03 Jun 2027 04:16:16.950   03 Jun 2027 04:20:40.892           263.942                Sumatra         32992.750
        59   03 Jun 2027 04:42:01.228   03 Jun 2027 04:42:09.656             8.428                Irkutsk          1053.500
        60   03 Jun 2027 04:42:12.941   03 Jun 2027 04:43:43.182            90.241                Novosib         11280.125
        61   03 Jun 2027 04:43:44.014   03 Jun 2027 04:49:39.166           355.152              Murmansk1         44394.000
        62   03 Jun 2027 05:54:59.144   03 Jun 2027 06:02:39.194           460.050                Sumatra         57506.250
        63   03 Jun 2027 06:03:10.391   03 Jun 2027 06:09:36.607           386.216                  Delhi         48277.000
        64   03 Jun 2027 06:17:43.680   03 Jun 2027 06:20:52.902           189.222                 Moscow         23652.750
        65   03 Jun 2027 06:20:59.840   03 Jun 2027 06:24:59.557           239.717              Murmansk1         29964.625
        66   03 Jun 2027 07:43:33.067   03 Jun 2027 07:44:14.850            41.783                  Delhi          5222.875
        67   03 Jun 2027 07:46:53.958   03 Jun 2027 07:48:57.931           123.973                Novosib         15496.625
        68   03 Jun 2027 07:54:45.781   03 Jun 2027 07:55:51.726            65.945                Norilsk          8243.125
        69   03 Jun 2027 07:56:03.661   03 Jun 2027 08:00:47.077           283.416              Murmansk2         35427.000
        70   03 Jun 2027 09:04:42.586   03 Jun 2027 09:06:25.276           102.690               CapeTown         12836.250
        71   03 Jun 2027 09:23:31.496   03 Jun 2027 09:24:13.532            42.036                 Moscow          5254.500
        72   03 Jun 2027 09:27:19.225   03 Jun 2027 09:29:21.402           122.177              Murmansk1         15272.125
        73   03 Jun 2027 09:30:10.218   03 Jun 2027 09:33:03.970           173.752                 Moscow         21719.000
        74   03 Jun 2027 09:33:11.922   03 Jun 2027 09:35:41.445           149.523              Murmansk2         18690.375
        75   03 Jun 2027 09:35:41.445   03 Jun 2027 09:36:44.907            63.462              Murmansk1          7932.750
        76   03 Jun 2027 09:39:28.669   03 Jun 2027 09:46:21.500           412.831                Anadyr1         51603.875
        77   03 Jun 2027 10:41:09.187   03 Jun 2027 10:45:08.160           238.973               CapeTown         29871.625
        78   03 Jun 2027 11:15:50.815   03 Jun 2027 11:16:31.208            40.393                Anadyr1          5049.125
        79   03 Jun 2027 11:23:32.922   03 Jun 2027 11:24:06.345            33.423                Anadyr1          4177.875
        80   03 Jun 2027 12:52:56.315   03 Jun 2027 12:54:46.530           110.215               Magadan1         13776.875
        81   03 Jun 2027 12:57:41.075   03 Jun 2027 12:58:10.695            29.620               Magadan1          3702.500
        82   03 Jun 2027 13:00:25.461   03 Jun 2027 13:04:18.569           233.108               Magadan2         29138.500
        83   03 Jun 2027 15:20:49.871   03 Jun 2027 15:23:25.758           155.887            RioGallegos         19485.875
        84   03 Jun 2027 16:08:21.840   03 Jun 2027 16:11:16.002           174.162                Irkutsk         21770.250
        85   03 Jun 2027 16:22:09.014   03 Jun 2027 16:24:41.364           152.350                Sumatra         19043.750
        86   03 Jun 2027 17:44:07.061   03 Jun 2027 17:45:45.331            98.270                Novosib         12283.750
        87   03 Jun 2027 17:51:59.294   03 Jun 2027 17:56:07.440           248.146                  Delhi         31018.250
        88   03 Jun 2027 20:54:12.260   03 Jun 2027 20:54:31.394            19.134              Murmansk2          2391.750
        89   03 Jun 2027 20:55:06.826   03 Jun 2027 20:56:03.008            56.182              Murmansk1          7022.750
        90   03 Jun 2027 20:57:35.256   03 Jun 2027 20:58:56.619            81.363                 Moscow         10170.375
        91   03 Jun 2027 21:21:59.502   03 Jun 2027 21:22:46.181            46.679               CapeTown          5834.875
        92   03 Jun 2027 23:00:33.180   03 Jun 2027 23:01:31.078            57.898               CapeTown          3317.375
        93   04 Jun 2027 03:18:21.020   04 Jun 2027 03:19:23.601            62.581                Novosib          7822.625
        94   04 Jun 2027 03:19:24.567   04 Jun 2027 03:23:18.821           234.254                Norilsk         29281.750
        95   04 Jun 2027 04:28:02.695   04 Jun 2027 04:30:48.502           165.807                Sumatra         20725.875
        96   04 Jun 2027 04:54:22.234   04 Jun 2027 04:55:21.827            59.593                 Moscow          7449.125
        97   04 Jun 2027 04:55:22.331   04 Jun 2027 04:59:12.514           230.183                Norilsk         28772.875
        98   04 Jun 2027 04:59:13.294   04 Jun 2027 05:01:33.909           140.615              Murmansk1         17576.875
        99   04 Jun 2027 06:19:41.295   04 Jun 2027 06:24:49.010           307.715                  Delhi         38464.375
       100   04 Jun 2027 06:24:51.396   04 Jun 2027 06:25:20.927            29.531              Murmansk2          3691.375
       101   04 Jun 2027 06:29:57.649   04 Jun 2027 06:32:59.682           182.033                 Moscow         22754.125
       102   04 Jun 2027 06:33:24.249   04 Jun 2027 06:36:58.755           214.506              Murmansk1         26813.250
       103   04 Jun 2027 07:57:30.267   04 Jun 2027 07:59:07.005            96.738                 Moscow         12092.250
       104   04 Jun 2027 08:06:47.634   04 Jun 2027 08:11:00.797           253.163                Norilsk         31645.375
       105   04 Jun 2027 08:11:09.231   04 Jun 2027 08:12:48.393            99.162              Murmansk1         12395.250
       106   04 Jun 2027 09:17:12.751   04 Jun 2027 09:19:49.914           157.163               CapeTown         19645.375
       107   04 Jun 2027 09:35:28.820   04 Jun 2027 09:35:51.479            22.659                 Moscow          2832.375
       108   04 Jun 2027 09:39:20.602   04 Jun 2027 09:40:02.230            41.628              Murmansk1          5203.500
       109   04 Jun 2027 09:40:05.932   04 Jun 2027 09:45:00.323           294.391                 Moscow         36798.875
       110   04 Jun 2027 09:45:13.817   04 Jun 2027 09:47:31.068           137.251              Murmansk2         17156.375
       111   04 Jun 2027 09:47:31.068   04 Jun 2027 09:48:46.485            75.417              Murmansk1          9427.125
       112   04 Jun 2027 09:51:15.924   04 Jun 2027 09:59:09.116           473.192                Anadyr1         59149.000
       113   04 Jun 2027 10:53:30.750   04 Jun 2027 10:58:39.752           309.002               CapeTown         38625.250
       114   04 Jun 2027 11:19:56.308   04 Jun 2027 11:21:13.692            77.384              Murmansk1          9673.000
       115   04 Jun 2027 11:21:13.692   04 Jun 2027 11:24:35.397           201.705              Murmansk2         25213.125
       116   04 Jun 2027 11:26:31.787   04 Jun 2027 11:38:38.388           726.601                Anadyr2         90825.125
       117   04 Jun 2027 13:04:52.706   04 Jun 2027 13:10:19.035           326.329               Magadan2         40791.125
       118   04 Jun 2027 15:32:38.678   04 Jun 2027 15:36:34.415           235.737            RioGallegos         29467.125
       119   04 Jun 2027 16:20:16.058   04 Jun 2027 16:22:19.736           123.678                Irkutsk         15459.750
       120   04 Jun 2027 16:33:57.902   04 Jun 2027 16:36:54.028           176.126                Sumatra         22015.750
       121   04 Jun 2027 17:56:03.942   04 Jun 2027 17:57:21.599            77.657                Novosib          9707.125
       122   04 Jun 2027 18:03:43.052   04 Jun 2027 18:05:49.229           126.177                  Delhi         15772.125
       123   04 Jun 2027 19:42:19.123   04 Jun 2027 19:42:39.187            20.064                 Moscow          2508.000
       124   04 Jun 2027 21:06:13.669   04 Jun 2027 21:06:30.274            16.605              Murmansk2          2075.625
       125   04 Jun 2027 21:06:41.048   04 Jun 2027 21:07:46.049            65.001              Murmansk1          8125.125
       126   04 Jun 2027 21:09:33.028   04 Jun 2027 21:10:38.503            65.475                 Moscow          8184.375
       127   04 Jun 2027 21:16:21.734   04 Jun 2027 21:17:37.672            75.938                 Moscow          9492.250
       128   04 Jun 2027 21:33:43.074   04 Jun 2027 21:36:23.696           160.622               CapeTown         13317.375
       129   05 Jun 2027 03:30:17.995   05 Jun 2027 03:34:42.608           264.613              Murmansk1         33076.625
       130   05 Jun 2027 04:39:54.570   05 Jun 2027 04:42:58.050           183.480                Sumatra         22935.000
       131   05 Jun 2027 05:06:15.289   05 Jun 2027 05:07:48.529            93.240                Novosib         11655.000
       132   05 Jun 2027 05:07:57.759   05 Jun 2027 05:11:14.289           196.530                Norilsk         24566.250
       133   05 Jun 2027 05:11:37.071   05 Jun 2027 05:13:29.336           112.265              Murmansk2         14033.125
       134   05 Jun 2027 06:31:58.169   05 Jun 2027 06:36:46.655           288.486                  Delhi         36060.750
       135   05 Jun 2027 06:36:47.393   05 Jun 2027 06:37:14.102            26.709                 Moscow          3338.625
       136   05 Jun 2027 06:42:10.213   05 Jun 2027 06:43:28.636            78.423                Novosib          9802.875
       137   05 Jun 2027 06:43:32.233   05 Jun 2027 06:45:05.776            93.543                 Moscow         11692.875
       138   05 Jun 2027 06:45:18.227   05 Jun 2027 06:48:58.332           220.105              Murmansk2         27513.125
       139   05 Jun 2027 08:17:47.343   05 Jun 2027 08:18:22.874            35.531                Norilsk          4441.375
       140   05 Jun 2027 08:18:49.425   05 Jun 2027 08:22:58.100           248.675                Norilsk         31084.375
       141   05 Jun 2027 08:23:19.306   05 Jun 2027 08:24:49.843            90.537              Murmansk2         11317.125
       142   05 Jun 2027 09:29:35.187   05 Jun 2027 09:32:46.023           190.836               CapeTown         23854.500
       143   05 Jun 2027 09:51:22.084   05 Jun 2027 09:52:29.109            67.025              Murmansk2          8378.125
       144   05 Jun 2027 09:52:55.095   05 Jun 2027 09:54:10.126            75.031                 Moscow          9378.875
       145   05 Jun 2027 09:56:03.057   05 Jun 2027 10:00:47.956           284.899              Murmansk2         35612.375
       146   05 Jun 2027 10:03:53.163   05 Jun 2027 10:11:50.622           477.459                Anadyr1         59682.375
       147   05 Jun 2027 11:05:45.933   05 Jun 2027 11:10:35.241           289.308               CapeTown         36163.500
       148   05 Jun 2027 11:31:06.375   05 Jun 2027 11:36:33.372           326.997              Murmansk1         40874.625
       149   05 Jun 2027 11:41:07.014   05 Jun 2027 11:50:52.991           585.977                Anadyr1         73247.125
       150   05 Jun 2027 13:14:25.282   05 Jun 2027 13:19:15.651           290.369                Anadyr2         36296.125
       151   05 Jun 2027 13:21:33.565   05 Jun 2027 13:21:55.450            21.885               Magadan1          2735.625
       152   05 Jun 2027 13:24:45.562   05 Jun 2027 13:26:06.488            80.926               Magadan1         10115.750
       153   05 Jun 2027 14:59:51.749   05 Jun 2027 15:00:10.902            19.153               Magadan1          2394.125
       154   05 Jun 2027 15:05:23.502   05 Jun 2027 15:05:24.553             1.051               Magadan1           131.375
       155   05 Jun 2027 15:44:30.275   05 Jun 2027 15:47:42.646           192.371            RioGallegos         24046.375
       156   05 Jun 2027 15:52:08.076   05 Jun 2027 15:53:59.684           111.608            RioGallegos         13951.000
       157   05 Jun 2027 16:32:11.951   05 Jun 2027 16:33:47.025            95.074                Irkutsk         11884.250
       158   05 Jun 2027 16:40:11.794   05 Jun 2027 16:41:42.126            90.332                Irkutsk         11291.500
       159   05 Jun 2027 16:45:52.658   05 Jun 2027 16:49:00.613           187.955                Sumatra         23494.375
       160   05 Jun 2027 18:10:55.534   05 Jun 2027 18:12:48.241           112.707                Novosib         14088.375
       161   05 Jun 2027 18:15:31.761   05 Jun 2027 18:18:09.577           157.816                  Delhi         19727.000
       162   05 Jun 2027 19:46:39.371   05 Jun 2027 19:47:45.451            66.080                 Moscow          8260.000
       163   05 Jun 2027 21:18:15.202   05 Jun 2027 21:18:29.777            14.575              Murmansk1          1821.875
       164   05 Jun 2027 21:25:14.662   05 Jun 2027 21:26:20.275            65.613                 Moscow          8201.625
       165   05 Jun 2027 21:29:37.483   05 Jun 2027 21:31:05.898            88.415                 Moscow         11051.875
       166   05 Jun 2027 21:45:31.885   05 Jun 2027 21:46:34.633            62.748               CapeTown          7843.500
       167   05 Jun 2027 21:53:20.649   05 Jun 2027 21:55:01.077           100.428               CapeTown          8469.125
       168   06 Jun 2027 03:42:30.784   06 Jun 2027 03:47:00.031           269.247                Norilsk         33655.875
       169   06 Jun 2027 04:51:52.142   06 Jun 2027 04:54:40.117           167.975                Sumatra         20996.875
       170   06 Jun 2027 05:18:29.474   06 Jun 2027 05:23:16.141           286.667                Norilsk         35833.375
       171   06 Jun 2027 05:23:16.475   06 Jun 2027 05:25:25.425           128.950              Murmansk2         16118.750
       172   06 Jun 2027 06:44:04.956   06 Jun 2027 06:48:40.750           275.794                  Delhi         34474.250
       173   06 Jun 2027 06:48:41.567   06 Jun 2027 06:49:31.186            49.619                 Moscow          6202.375
       174   06 Jun 2027 06:53:56.016   06 Jun 2027 06:54:21.049            25.033                Novosib          3129.125
       175   06 Jun 2027 06:54:31.724   06 Jun 2027 06:57:11.274           159.550                 Moscow         19943.750
       176   06 Jun 2027 06:57:12.931   06 Jun 2027 07:00:58.259           225.328              Murmansk1         28166.000
       177   06 Jun 2027 08:30:20.435   06 Jun 2027 08:33:22.289           181.854                 Moscow         22731.750
       178   06 Jun 2027 08:33:32.286   06 Jun 2027 08:36:51.399           199.113              Murmansk2         24889.125
       179   06 Jun 2027 09:35:20.813   06 Jun 2027 09:45:27.257           606.444               CapeTown         75805.500
       180   06 Jun 2027 10:00:27.267   06 Jun 2027 10:00:51.245            23.978                 Moscow          2997.250
       181   06 Jun 2027 10:03:13.718   06 Jun 2027 10:04:43.988            90.270              Murmansk1         11283.750
       182   06 Jun 2027 10:04:43.988   06 Jun 2027 10:05:03.571            19.583              Murmansk2          2447.875
       183   06 Jun 2027 10:05:09.036   06 Jun 2027 10:07:15.392           126.356                 Moscow         15794.500
       184   06 Jun 2027 10:08:03.448   06 Jun 2027 10:10:52.869           169.421              Murmansk1         21177.625
       185   06 Jun 2027 10:10:52.869   06 Jun 2027 10:12:49.264           116.395              Murmansk2         14549.375
       186   06 Jun 2027 10:15:00.232   06 Jun 2027 10:24:27.258           567.026                Anadyr2         70878.250
       187   06 Jun 2027 11:17:55.434   06 Jun 2027 11:22:25.754           270.320               CapeTown         33790.000
       188   06 Jun 2027 11:43:56.651   06 Jun 2027 11:48:30.168           273.517              Murmansk1         34189.625
       189   06 Jun 2027 11:53:58.861   06 Jun 2027 11:58:02.596           243.735               Magadan1         30466.875
       190   06 Jun 2027 11:58:54.862   06 Jun 2027 12:01:26.542           151.680               Magadan1         18960.000
       191   06 Jun 2027 13:31:08.428   06 Jun 2027 13:33:34.213           145.785               Magadan2         18223.125
       192   06 Jun 2027 15:25:42.469   06 Jun 2027 15:29:20.870           218.401                Sumatra         27300.125
       193   06 Jun 2027 15:56:24.066   06 Jun 2027 15:58:36.625           132.559            RioGallegos         16569.875
       194   06 Jun 2027 16:45:05.096   06 Jun 2027 16:46:30.961            85.865                Novosib         10733.125
       195   06 Jun 2027 16:52:09.553   06 Jun 2027 16:54:06.355           116.802                Novosib         14600.250
       196   06 Jun 2027 16:59:03.110   06 Jun 2027 17:00:12.916            69.806                Sumatra          8725.750
       197   06 Jun 2027 18:23:58.072   06 Jun 2027 18:25:01.300            63.228                Novosib          7903.500
       198   06 Jun 2027 18:27:24.610   06 Jun 2027 18:30:34.914           190.304                  Delhi         23788.000
       199   06 Jun 2027 18:36:49.440   06 Jun 2027 18:36:56.062             6.622                  Delhi           827.750
       200   06 Jun 2027 19:56:05.276   06 Jun 2027 19:57:54.236           108.960              Murmansk1         13620.000
       201   06 Jun 2027 19:59:55.565   06 Jun 2027 20:01:15.349            79.784                 Moscow          9973.000
       202   06 Jun 2027 21:45:00.763   06 Jun 2027 21:46:22.877            82.114                 Moscow         10264.250
       203   06 Jun 2027 21:57:25.713   06 Jun 2027 21:59:17.270           111.557               CapeTown          4527.375
       204   07 Jun 2027 03:54:23.557   07 Jun 2027 03:58:48.468           264.911                Norilsk         33113.875
       205   07 Jun 2027 05:03:55.302   07 Jun 2027 05:05:50.151           114.849                Sumatra         14356.125
       206   07 Jun 2027 05:14:33.422   07 Jun 2027 05:16:24.336           110.914                  Delhi         13864.250
       207   07 Jun 2027 05:30:26.208   07 Jun 2027 05:31:51.750            85.542                Novosib         10692.750
       208   07 Jun 2027 05:32:13.171   07 Jun 2027 05:32:29.879            16.708                 Moscow          2088.500
       209   07 Jun 2027 05:32:57.710   07 Jun 2027 05:37:22.131           264.421              Murmansk1         33052.625
       210   07 Jun 2027 06:54:36.336   07 Jun 2027 06:55:27.318            50.982                  Delhi          6372.750
       211   07 Jun 2027 06:56:08.385   07 Jun 2027 07:00:30.897           262.512                  Delhi         32814.000
       212   07 Jun 2027 07:00:36.884   07 Jun 2027 07:01:21.249            44.365                 Moscow          5545.625
       213   07 Jun 2027 07:06:30.053   07 Jun 2027 07:09:16.231           166.178                 Moscow         20772.250
       214   07 Jun 2027 07:09:26.351   07 Jun 2027 07:12:58.496           212.145              Murmansk1         26518.125
       215   07 Jun 2027 08:35:47.992   07 Jun 2027 08:36:01.602            13.610                 Moscow          1701.250
       216   07 Jun 2027 08:37:08.570   07 Jun 2027 08:37:54.888            46.318              Murmansk1          5789.750
       217   07 Jun 2027 08:40:59.427   07 Jun 2027 08:45:23.127           263.700                 Moscow         32962.500
       218   07 Jun 2027 08:45:33.133   07 Jun 2027 08:48:53.031           199.898              Murmansk1         24987.250
       219   07 Jun 2027 09:50:09.789   07 Jun 2027 09:57:58.309           468.520               CapeTown         58565.000
       220   07 Jun 2027 10:15:25.289   07 Jun 2027 10:16:31.555            66.266              Murmansk2          8283.250
       221   07 Jun 2027 10:16:31.555   07 Jun 2027 10:18:51.250           139.695              Murmansk1         17461.875
       222   07 Jun 2027 10:20:05.066   07 Jun 2027 10:24:50.374           285.308              Murmansk2         35663.500
       223   07 Jun 2027 10:26:59.608   07 Jun 2027 10:36:59.753           600.145                Anadyr2         75018.125
       224   07 Jun 2027 11:29:59.679   07 Jun 2027 11:31:47.604           107.925               CapeTown         13490.625
       225   07 Jun 2027 12:06:40.856   07 Jun 2027 12:09:36.553           175.697               Magadan2         21962.125
       226   07 Jun 2027 13:40:47.559   07 Jun 2027 13:41:22.953            35.394               Magadan1          4424.250
       227   07 Jun 2027 13:44:21.508   07 Jun 2027 13:45:35.248            73.740               Magadan2          9217.500
       228   07 Jun 2027 15:21:27.052   07 Jun 2027 15:21:29.646             2.594                Irkutsk           324.250
       229   07 Jun 2027 15:26:05.363   07 Jun 2027 15:27:07.266            61.903                Irkutsk          7737.875
       230   07 Jun 2027 15:36:29.540   07 Jun 2027 15:39:11.167           161.627                Sumatra         20203.375
       231   07 Jun 2027 15:41:41.133   07 Jun 2027 15:44:53.211           192.078                Sumatra         24009.750
       232   07 Jun 2027 16:58:43.644   07 Jun 2027 17:00:12.945            89.301                Novosib         11162.625
       233   07 Jun 2027 17:07:05.322   07 Jun 2027 17:09:01.774           116.452                  Delhi         14556.500
       234   07 Jun 2027 17:10:19.560   07 Jun 2027 17:12:01.571           102.011                  Delhi         12751.375
       235   07 Jun 2027 18:39:21.118   07 Jun 2027 18:42:31.164           190.046                  Delhi         23755.750
       236   07 Jun 2027 20:10:12.999   07 Jun 2027 20:14:36.464           263.465                 Moscow         29157.124
       237   08 Jun 2027 04:06:16.264   08 Jun 2027 04:07:36.195            79.931              Murmansk1          9991.375
       238   08 Jun 2027 04:07:36.195   08 Jun 2027 04:07:57.356            21.161              Murmansk2          2645.125
       239   08 Jun 2027 05:16:04.242   08 Jun 2027 05:16:21.959            17.717                Sumatra          2214.625
       240   08 Jun 2027 05:18:11.904   08 Jun 2027 05:18:52.367            40.463                Sumatra          5057.875
       241   08 Jun 2027 05:22:00.259   08 Jun 2027 05:22:42.832            42.573                Sumatra          5321.625
       242   08 Jun 2027 05:25:03.708   08 Jun 2027 05:26:53.206           109.498                  Delhi         13687.250
       243   08 Jun 2027 05:40:49.350   08 Jun 2027 05:41:13.331            23.981                 Moscow          2997.625
       244   08 Jun 2027 05:42:19.240   08 Jun 2027 05:43:52.453            93.213                Novosib         11651.625
       245   08 Jun 2027 05:44:36.059   08 Jun 2027 05:44:41.704             5.645                 Moscow           705.625
       246   08 Jun 2027 05:44:52.609   08 Jun 2027 05:49:19.417           266.808              Murmansk1         33351.000
       247   08 Jun 2027 07:08:08.540   08 Jun 2027 07:12:16.398           247.858                  Delhi         30982.250
       248   08 Jun 2027 07:12:17.400   08 Jun 2027 07:13:07.798            50.398              Murmansk2          6299.750
       249   08 Jun 2027 07:17:47.508   08 Jun 2027 07:18:09.561            22.053                Novosib          2756.625
       250   08 Jun 2027 07:18:21.241   08 Jun 2027 07:21:20.686           179.445                 Moscow         22430.625
       251   08 Jun 2027 07:21:24.758   08 Jun 2027 07:24:59.012           214.254              Murmansk2         26781.750
       252   08 Jun 2027 08:47:48.698   08 Jun 2027 08:50:03.988           135.290                 Moscow         16911.250
       253   08 Jun 2027 08:52:39.172   08 Jun 2027 08:57:23.284           284.112                 Moscow         35514.000
       254   08 Jun 2027 08:57:43.371   08 Jun 2027 09:00:54.713           191.342              Murmansk1         23917.750
       255   08 Jun 2027 10:03:24.970   08 Jun 2027 10:10:21.462           416.492               CapeTown         52061.500
       256   08 Jun 2027 10:27:26.955   08 Jun 2027 10:28:38.229            71.274              Murmansk1          8909.250
       257   08 Jun 2027 10:29:00.987   08 Jun 2027 10:31:01.208           120.221                 Moscow         15027.625
       258   08 Jun 2027 10:32:06.597   08 Jun 2027 10:34:19.486           132.889              Murmansk2         16611.125
       259   08 Jun 2027 10:34:19.486   08 Jun 2027 10:36:42.614           143.128              Murmansk1         17891.000
       260   08 Jun 2027 10:42:39.281   08 Jun 2027 10:43:18.896            39.615                Anadyr1          4951.875
       261   08 Jun 2027 12:17:31.241   08 Jun 2027 12:20:59.469           208.228               Magadan1         26028.500
       262   08 Jun 2027 13:52:47.240   08 Jun 2027 13:53:25.445            38.205               Magadan1          4775.625
       263   08 Jun 2027 13:59:34.329   08 Jun 2027 14:00:04.218            29.889               Magadan2          3736.125
       264   08 Jun 2027 14:50:21.991   08 Jun 2027 14:53:15.854           173.863            RioGallegos         21732.875
       265   08 Jun 2027 15:34:03.984   08 Jun 2027 15:37:17.436           193.452                Irkutsk         24181.500
       266   08 Jun 2027 15:47:40.988   08 Jun 2027 15:50:59.601           198.613                Sumatra         24826.625
       267   08 Jun 2027 17:11:56.100   08 Jun 2027 17:15:40.895           224.795                Novosib         28099.375
       268   08 Jun 2027 17:17:51.972   08 Jun 2027 17:20:45.123           173.151                  Delhi         21643.875
       269   08 Jun 2027 20:22:04.492   08 Jun 2027 20:26:06.978           242.486                 Moscow         25232.375
       270   09 Jun 2027 04:18:19.671   09 Jun 2027 04:18:25.472             5.801                Irkutsk           725.125
       271   09 Jun 2027 04:18:27.277   09 Jun 2027 04:19:50.780            83.503                Novosib         10437.875
       272   09 Jun 2027 04:19:52.538   09 Jun 2027 04:19:58.493             5.955              Murmansk1           744.375
       273   09 Jun 2027 05:28:19.544   09 Jun 2027 05:28:48.601            29.057                Sumatra          3632.125
       274   09 Jun 2027 05:30:38.765   09 Jun 2027 05:32:46.461           127.696                Sumatra         15962.000
       275   09 Jun 2027 05:36:43.381   09 Jun 2027 05:39:07.885           144.504                  Delhi         18063.000
       276   09 Jun 2027 05:53:38.560   09 Jun 2027 05:56:51.646           193.086                 Moscow         24135.750
       277   09 Jun 2027 05:56:56.074   09 Jun 2027 06:01:17.247           261.173              Murmansk1         32646.625
       278   09 Jun 2027 07:20:05.334   09 Jun 2027 07:23:56.124           230.790                  Delhi         28848.750
       279   09 Jun 2027 07:23:56.149   09 Jun 2027 07:24:41.481            45.332                Novosib          5666.500
       280   09 Jun 2027 07:25:00.008   09 Jun 2027 07:25:04.873             4.865              Murmansk2           608.125
       281   09 Jun 2027 07:30:09.229   09 Jun 2027 07:33:24.659           195.430                 Moscow         24428.750
       282   09 Jun 2027 07:33:42.896   09 Jun 2027 07:36:59.775           196.879              Murmansk1         24609.875
       283   09 Jun 2027 08:59:48.715   09 Jun 2027 09:02:24.301           155.586                 Moscow         19448.250
       284   09 Jun 2027 09:03:31.583   09 Jun 2027 09:04:49.278            77.695              Murmansk1          9711.875
       285   09 Jun 2027 09:04:54.935   09 Jun 2027 09:09:22.690           267.755                 Moscow         33469.375
       286   09 Jun 2027 09:09:33.727   09 Jun 2027 09:12:56.418           202.691              Murmansk1         25336.375
       287   09 Jun 2027 09:16:32.675   09 Jun 2027 09:18:41.346           128.671                Anadyr1         16083.875
       288   09 Jun 2027 10:55:19.520   09 Jun 2027 10:55:32.818            13.298                Anadyr1          1662.250
       289   09 Jun 2027 10:58:11.319   09 Jun 2027 11:00:22.712           131.393                Anadyr2         16424.125
       290   09 Jun 2027 12:30:03.519   09 Jun 2027 12:33:51.337           227.818               Magadan2         28477.250
       291   09 Jun 2027 15:01:26.741   09 Jun 2027 15:03:15.091           108.350            RioGallegos         13543.750
       292   09 Jun 2027 15:44:54.699   09 Jun 2027 15:47:41.500           166.801                Irkutsk         20850.125
       293   09 Jun 2027 16:01:28.051   09 Jun 2027 16:02:53.944            85.893                Sumatra         10736.625
       294   09 Jun 2027 16:06:01.398   09 Jun 2027 16:06:33.227            31.829                Sumatra          3978.625
       295   09 Jun 2027 16:08:20.007   09 Jun 2027 16:10:06.580           106.573                Sumatra         13321.625
       296   09 Jun 2027 17:20:32.243   09 Jun 2027 17:21:49.470            77.227                Novosib          9653.375
       297   09 Jun 2027 17:29:07.279   09 Jun 2027 17:32:33.519           206.240                  Delhi         25780.000
       298   09 Jun 2027 17:35:09.358   09 Jun 2027 17:38:23.882           194.524                  Delhi         24315.500
       299   09 Jun 2027 20:33:58.094   09 Jun 2027 20:36:16.523           138.429                 Moscow         16417.125
       300   10 Jun 2027 05:42:18.279   10 Jun 2027 05:43:00.859            42.580                Sumatra          5322.500
       301   10 Jun 2027 05:43:38.568   10 Jun 2027 05:44:49.816            71.248                Sumatra          8906.000
       302   10 Jun 2027 05:48:28.997   10 Jun 2027 05:51:18.413           169.416                  Delhi         21177.000
       303   10 Jun 2027 06:06:05.774   10 Jun 2027 06:07:51.693           105.919                Novosib         13239.875
       304   10 Jun 2027 06:08:14.822   10 Jun 2027 06:09:00.254            45.432                 Moscow          5679.000
       305   10 Jun 2027 06:09:05.505   10 Jun 2027 06:13:15.573           250.068              Murmansk1         31258.500
       306   10 Jun 2027 07:31:58.508   10 Jun 2027 07:35:28.107           209.599                  Delhi         26199.875
       307   10 Jun 2027 07:35:50.882   10 Jun 2027 07:37:12.355            81.473                 Moscow         10184.125
       308   10 Jun 2027 07:37:26.699   10 Jun 2027 07:38:04.131            37.432              Murmansk1          4679.000
       309   10 Jun 2027 07:42:15.300   10 Jun 2027 07:45:28.157           192.857                 Moscow         24107.125
       310   10 Jun 2027 07:45:44.771   10 Jun 2027 07:49:00.754           195.983              Murmansk1         24497.875
       311   10 Jun 2027 09:11:47.946   10 Jun 2027 09:13:23.574            95.628                 Moscow         11953.500
       312   10 Jun 2027 09:13:34.472   10 Jun 2027 09:14:25.180            50.708              Murmansk1          6338.500
       313   10 Jun 2027 09:15:32.652   10 Jun 2027 09:17:05.289            92.637              Murmansk1         11579.625
       314   10 Jun 2027 09:17:08.495   10 Jun 2027 09:21:21.219           252.724                 Moscow         31590.500
       315   10 Jun 2027 09:21:26.086   10 Jun 2027 09:24:40.433           194.347              Murmansk1         24293.375
       316   10 Jun 2027 11:02:47.929   10 Jun 2027 11:03:43.399            55.470                Anadyr1          6933.750
       317   10 Jun 2027 12:41:15.957   10 Jun 2027 12:43:55.430           159.473               Magadan2         19934.125
       318   10 Jun 2027 12:45:11.936   10 Jun 2027 12:46:54.190           102.254               Magadan1         12781.750
       319   10 Jun 2027 14:18:55.851   10 Jun 2027 14:20:05.747            69.896               Magadan1          8737.000
       320   10 Jun 2027 15:09:19.298   10 Jun 2027 15:13:25.511           246.213            RioGallegos         30776.625
       321   10 Jun 2027 15:57:55.454   10 Jun 2027 16:00:46.228           170.774                Irkutsk         21346.750
       322   10 Jun 2027 16:18:02.774   10 Jun 2027 16:20:01.092           118.318                Sumatra         14789.750
       323   10 Jun 2027 17:32:26.227   10 Jun 2027 17:34:15.996           109.769                Novosib         13721.125
       324   10 Jun 2027 17:40:36.209   10 Jun 2027 17:44:26.106           229.897                  Delhi         28737.125
       325   10 Jun 2027 19:14:40.543   10 Jun 2027 19:15:26.231            45.688                 Moscow          5711.000
       326   10 Jun 2027 20:43:37.502   10 Jun 2027 20:44:19.734            42.232              Murmansk1          5279.000
       327   10 Jun 2027 20:45:53.382   10 Jun 2027 20:47:36.503           103.121                 Moscow         12890.125
       328   10 Jun 2027 21:17:50.149   10 Jun 2027 21:19:52.476           122.327               CapeTown          7858.500
       329   11 Jun 2027 03:06:38.893   11 Jun 2027 03:07:25.659            46.766              Murmansk1          5845.750
       330   11 Jun 2027 04:16:31.475   11 Jun 2027 04:20:55.990           264.515                Sumatra         33064.375
       331   11 Jun 2027 04:42:16.910   11 Jun 2027 04:42:24.458             7.548                Irkutsk           943.500
       332   11 Jun 2027 04:42:27.333   11 Jun 2027 04:43:58.057            90.724                Novosib         11340.500
       333   11 Jun 2027 04:44:01.618   11 Jun 2027 04:49:53.886           352.268              Murmansk2         44033.500
       334   11 Jun 2027 05:55:13.908   11 Jun 2027 06:02:53.279           459.371                Sumatra         57421.375
       335   11 Jun 2027 06:03:25.303   11 Jun 2027 06:09:51.397           386.094                  Delhi         48261.750
       336   11 Jun 2027 06:17:59.804   11 Jun 2027 06:21:07.835           188.031                 Moscow         23503.875
       337   11 Jun 2027 06:21:16.604   11 Jun 2027 06:25:14.359           237.755              Murmansk1         29719.375
       338   11 Jun 2027 07:47:09.789   11 Jun 2027 07:49:16.963           127.174                Novosib         15896.750
       339   11 Jun 2027 07:55:00.418   11 Jun 2027 07:56:06.918            66.500                Norilsk          8312.500
       340   11 Jun 2027 07:56:18.371   11 Jun 2027 08:01:01.922           283.551              Murmansk2         35443.875
       341   11 Jun 2027 09:04:58.294   11 Jun 2027 09:06:42.008           103.714               CapeTown         12964.250
       342   11 Jun 2027 09:23:46.289   11 Jun 2027 09:24:28.249            41.960                 Moscow          5245.000
       343   11 Jun 2027 09:27:33.880   11 Jun 2027 09:29:36.211           122.331              Murmansk2         15291.375
       344   11 Jun 2027 09:30:24.821   11 Jun 2027 09:33:18.749           173.928                 Moscow         21741.000
       345   11 Jun 2027 09:33:27.801   11 Jun 2027 09:36:59.765           211.964              Murmansk2         26495.500
       346   11 Jun 2027 09:39:43.209   11 Jun 2027 09:46:37.219           414.010                Anadyr1         51751.250
       347   11 Jun 2027 10:41:24.255   11 Jun 2027 10:46:54.183           329.928               CapeTown         41241.000
       348   11 Jun 2027 12:53:11.058   11 Jun 2027 12:55:00.701           109.643               Magadan2         13705.375
       349   11 Jun 2027 12:57:56.372   11 Jun 2027 12:58:25.254            28.882               Magadan1          3610.250
       350   11 Jun 2027 14:28:49.143   11 Jun 2027 14:29:12.080            22.937               Magadan1          2867.125
       351   11 Jun 2027 14:31:06.145   11 Jun 2027 14:32:08.887            62.742               Magadan2          7842.750
       352   11 Jun 2027 14:33:41.532   11 Jun 2027 14:34:30.628            49.096               Magadan2          6137.000
       353   11 Jun 2027 15:21:04.465   11 Jun 2027 15:25:20.999           256.534            RioGallegos         32066.750
       354   11 Jun 2027 16:08:36.543   11 Jun 2027 16:11:29.617           173.074                Irkutsk         21634.250
       355   11 Jun 2027 16:22:23.596   11 Jun 2027 16:24:56.458           152.862                Sumatra         19107.750
       356   11 Jun 2027 17:44:21.816   11 Jun 2027 17:46:38.080           136.264                Novosib         17033.000
       357   11 Jun 2027 17:52:13.787   11 Jun 2027 17:56:22.379           248.592                  Delhi         31074.000
       358   11 Jun 2027 20:54:27.100   11 Jun 2027 20:54:46.071            18.971              Murmansk2          2371.375
       359   11 Jun 2027 20:57:50.028   11 Jun 2027 20:59:10.987            80.959                 Moscow         10119.875
       360   11 Jun 2027 21:22:14.002   11 Jun 2027 21:23:09.975            55.973               CapeTown          6996.625
       361   12 Jun 2027 03:18:36.020   12 Jun 2027 03:19:38.533            62.513                Novosib          7814.125
       362   12 Jun 2027 03:19:40.106   12 Jun 2027 03:23:33.646           233.540                Norilsk         29192.500
       363   12 Jun 2027 03:23:44.547   12 Jun 2027 03:24:20.756            36.209              Murmansk2          4526.125
       364   12 Jun 2027 04:28:17.331   12 Jun 2027 04:31:03.540           166.209                Sumatra         20776.125
       365   12 Jun 2027 04:54:06.657   12 Jun 2027 04:56:00.974           114.317                Novosib         14289.625
       366   12 Jun 2027 04:56:09.451   12 Jun 2027 04:59:27.370           197.919                Norilsk         24739.875
       367   12 Jun 2027 04:59:52.284   12 Jun 2027 05:01:48.642           116.358              Murmansk2         14544.750
       368   12 Jun 2027 06:19:56.023   12 Jun 2027 06:25:03.824           307.801                  Delhi         38475.125
       369   12 Jun 2027 06:25:06.136   12 Jun 2027 06:25:41.243            35.107                 Moscow          4388.375
       370   12 Jun 2027 06:30:11.848   12 Jun 2027 06:30:41.447            29.599                Novosib          3699.875
       371   12 Jun 2027 06:30:44.724   12 Jun 2027 06:33:14.605           149.881                 Moscow         18735.125
       372   12 Jun 2027 06:33:26.386   12 Jun 2027 06:35:27.348           120.962                Norilsk         15120.250
       373   12 Jun 2027 06:35:50.718   12 Jun 2027 06:37:13.565            82.847              Murmansk1         10355.875
       374   12 Jun 2027 08:07:02.269   12 Jun 2027 08:09:29.553           147.284                Norilsk         18410.500
       375   12 Jun 2027 08:09:41.701   12 Jun 2027 08:13:03.241           201.540              Murmansk1         25192.500
       376   12 Jun 2027 09:17:28.279   12 Jun 2027 09:20:05.874           157.595               CapeTown         19699.375
       377   12 Jun 2027 09:35:43.595   12 Jun 2027 09:36:06.143            22.548                 Moscow          2818.500
       378   12 Jun 2027 09:39:35.259   12 Jun 2027 09:40:16.878            41.619              Murmansk2          5202.375
       379   12 Jun 2027 09:40:25.085   12 Jun 2027 09:45:15.081           289.996                 Moscow         36249.500
       380   12 Jun 2027 09:45:16.008   12 Jun 2027 09:49:01.341           225.333              Murmansk1         28166.625
       381   12 Jun 2027 09:51:30.547   12 Jun 2027 09:59:24.710           474.163                Anadyr2         59270.375
       382   12 Jun 2027 10:53:45.721   12 Jun 2027 10:58:54.541           308.820               CapeTown         38602.500
       383   12 Jun 2027 11:20:11.029   12 Jun 2027 11:21:28.427            77.398              Murmansk2          9674.750
       384   12 Jun 2027 11:21:28.427   12 Jun 2027 11:24:50.211           201.784              Murmansk1         25223.000
       385   12 Jun 2027 11:26:46.603   12 Jun 2027 11:38:53.486           726.883                Anadyr1         90860.375
       386   12 Jun 2027 13:02:38.756   12 Jun 2027 13:03:46.694            67.938                Anadyr2          8492.250
       387   12 Jun 2027 13:05:07.477   12 Jun 2027 13:09:48.355           280.878               Magadan1         35109.750
       388   12 Jun 2027 15:32:53.334   12 Jun 2027 15:38:32.885           339.551            RioGallegos         42443.875
       389   12 Jun 2027 16:20:30.794   12 Jun 2027 16:22:33.869           123.075                Irkutsk         15384.375
       390   12 Jun 2027 16:34:12.589   12 Jun 2027 16:37:09.018           176.429                Sumatra         22053.625
       391   12 Jun 2027 17:56:18.720   12 Jun 2027 17:57:35.990            77.270                Novosib          9658.750
       392   12 Jun 2027 18:03:57.642   12 Jun 2027 18:08:22.059           264.417                  Delhi         33052.125
       393   12 Jun 2027 21:09:47.821   12 Jun 2027 21:10:52.950            65.129                 Moscow          8141.125
       394   12 Jun 2027 21:14:33.729   12 Jun 2027 21:16:36.800           123.071                 Moscow         15383.875
       395   12 Jun 2027 21:36:38.673   12 Jun 2027 21:37:28.694            50.021               CapeTown          3895.501
       396   13 Jun 2027 03:30:35.053   13 Jun 2027 03:35:01.837           266.784              Murmansk1         33348.000
       397   13 Jun 2027 04:40:09.307   13 Jun 2027 04:43:12.986           183.679                Sumatra         22959.875
       398   13 Jun 2027 05:06:13.230   13 Jun 2027 05:08:03.390           110.160                Novosib         13770.000
       399   13 Jun 2027 05:08:14.459   13 Jun 2027 05:11:29.148           194.689                Norilsk         24336.125
       400   13 Jun 2027 05:11:54.404   13 Jun 2027 05:13:44.082           109.678              Murmansk2         13709.750
       401   13 Jun 2027 06:32:12.998   13 Jun 2027 06:37:01.411           288.413                  Delhi         36051.625
       402   13 Jun 2027 06:42:24.656   13 Jun 2027 06:43:43.389            78.733                Novosib          9841.625
       403   13 Jun 2027 06:43:48.169   13 Jun 2027 06:44:54.011            65.842                Norilsk          8230.250
       404   13 Jun 2027 06:45:03.956   13 Jun 2027 06:45:20.691            16.735                 Moscow          2091.875
       405   13 Jun 2027 06:45:32.781   13 Jun 2027 06:49:13.150           220.369              Murmansk1         27546.125
       406   13 Jun 2027 08:18:37.591   13 Jun 2027 08:21:38.073           180.482                Norilsk         22560.250
       407   13 Jun 2027 08:21:43.669   13 Jun 2027 08:25:04.695           201.026              Murmansk2         25128.250
       408   13 Jun 2027 09:29:50.569   13 Jun 2027 09:33:01.660           191.091               CapeTown         23886.375
       409   13 Jun 2027 09:51:36.742   13 Jun 2027 09:52:45.433            68.691              Murmansk2          8586.375
       410   13 Jun 2027 09:53:09.745   13 Jun 2027 09:54:24.800            75.055                 Moscow          9381.875
       411   13 Jun 2027 09:56:18.069   13 Jun 2027 10:01:02.811           284.742              Murmansk1         35592.750
       412   13 Jun 2027 10:03:21.519   13 Jun 2027 10:12:06.119           524.600                Anadyr2         65575.000
       413   13 Jun 2027 11:06:00.816   13 Jun 2027 11:10:49.946           289.130               CapeTown         36141.250
       414   13 Jun 2027 11:31:21.460   13 Jun 2027 11:33:27.683           126.223              Murmansk1         15777.875
       415   13 Jun 2027 11:33:27.683   13 Jun 2027 11:36:48.169           200.486              Murmansk2         25060.750
       416   13 Jun 2027 11:41:22.104   13 Jun 2027 11:51:08.047           585.943                Anadyr2         73242.875
       417   13 Jun 2027 13:14:40.131   13 Jun 2027 13:17:32.624           172.493                Anadyr2         21561.625
       418   13 Jun 2027 13:19:24.357   13 Jun 2027 13:22:10.075           165.718               Magadan2         20714.750
       419   13 Jun 2027 13:25:00.700   13 Jun 2027 13:26:21.712            81.012               Magadan2         10126.500
       420   13 Jun 2027 15:44:44.970   13 Jun 2027 15:47:55.997           191.027            RioGallegos         23878.375
       421   13 Jun 2027 15:54:14.410   13 Jun 2027 15:56:24.593           130.183            RioGallegos         16272.875
       422   13 Jun 2027 16:32:26.710   13 Jun 2027 16:34:01.336            94.626                Irkutsk         11828.250
       423   13 Jun 2027 16:40:58.488   13 Jun 2027 16:41:35.116            36.628                Novosib          4578.500
       424   13 Jun 2027 16:41:57.438   13 Jun 2027 16:41:58.979             1.541                Irkutsk           192.625
       425   13 Jun 2027 16:46:07.443   13 Jun 2027 16:49:15.501           188.058                Sumatra         23507.250
       426   13 Jun 2027 18:10:53.874   13 Jun 2027 18:13:03.254           129.380                Novosib         16172.500
       427   13 Jun 2027 18:15:46.428   13 Jun 2027 18:18:24.694           158.266                  Delhi         19783.250
       428   13 Jun 2027 18:20:25.018   13 Jun 2027 18:20:58.525            33.507                  Delhi          4188.375
       429   13 Jun 2027 19:46:53.884   13 Jun 2027 19:48:10.279            76.395                 Moscow          9549.375
       430   13 Jun 2027 21:26:35.299   13 Jun 2027 21:28:59.586           144.287                 Moscow         18035.875
       431   13 Jun 2027 21:45:46.560   13 Jun 2027 21:46:49.936            63.376               CapeTown          7922.000
       432   13 Jun 2027 21:48:46.289   13 Jun 2027 21:49:16.127            29.838               CapeTown          2797.000
