uniorb/output/strategy_4/Drop/Drop_KinoSat_110403.txt

KinoSat_110403
-------------------------
    Access    *     Start Time (UTCG)     *     Stop Time (UTCG)  *   Duration (s)        *       Station  *  Data (Mbytes)
         1   01 Jun 2027 04:13:31.568   01 Jun 2027 04:15:45.680           134.112               Magadan1         16764.000
         2   01 Jun 2027 04:16:12.013   01 Jun 2027 04:16:34.983            22.970               Magadan1          2871.250
         3   01 Jun 2027 04:16:55.750   01 Jun 2027 04:17:24.485            28.735              Murmansk2          3591.875
         4   01 Jun 2027 04:17:48.430   01 Jun 2027 04:17:56.904             8.474               Magadan2          1059.250
         5   01 Jun 2027 04:17:58.971   01 Jun 2027 04:18:11.052            12.081                Irkutsk          1510.125
         6   01 Jun 2027 04:18:14.133   01 Jun 2027 04:18:48.844            34.711                Norilsk          4338.875
         7   01 Jun 2027 04:19:18.513   01 Jun 2027 04:19:46.389            27.876                Norilsk          3484.500
         8   01 Jun 2027 04:52:59.484   01 Jun 2027 04:53:48.107            48.623            RioGallegos          6077.875
         9   01 Jun 2027 04:54:49.526   01 Jun 2027 04:55:44.037            54.511            RioGallegos          6813.875
        10   01 Jun 2027 05:28:34.238   01 Jun 2027 05:30:24.224           109.986                Sumatra         13748.250
        11   01 Jun 2027 05:43:01.302   01 Jun 2027 05:44:00.517            59.215                  Delhi          7401.875
        12   01 Jun 2027 05:51:00.498   01 Jun 2027 05:52:22.153            81.655                Irkutsk         10206.875
        13   01 Jun 2027 05:52:51.113   01 Jun 2027 05:53:58.534            67.421              Murmansk2          8427.625
        14   01 Jun 2027 06:32:50.670   01 Jun 2027 06:33:52.443            61.773            RioGallegos          7721.625
        15   01 Jun 2027 07:12:15.835   01 Jun 2027 07:12:54.720            38.885                  Delhi          4860.625
        16   01 Jun 2027 07:14:23.783   01 Jun 2027 07:15:12.744            48.961                  Delhi          6120.125
        17   01 Jun 2027 07:28:12.219   01 Jun 2027 07:28:30.635            18.416                 Moscow          2302.000
        18   01 Jun 2027 07:28:38.571   01 Jun 2027 07:29:19.994            41.423              Murmansk2          5177.875
        19   01 Jun 2027 07:29:28.214   01 Jun 2027 07:30:01.164            32.950                 Moscow          4118.750
        20   01 Jun 2027 07:31:06.625   01 Jun 2027 07:32:10.264            63.639                 Moscow          7954.875
        21   01 Jun 2027 09:04:26.290   01 Jun 2027 09:04:40.260            13.970                 Moscow          1746.250
        22   01 Jun 2027 09:04:49.293   01 Jun 2027 09:05:32.338            43.045                Norilsk          5380.625
        23   01 Jun 2027 09:05:35.002   01 Jun 2027 09:05:58.930            23.928                 Moscow          2991.000
        24   01 Jun 2027 09:06:18.383   01 Jun 2027 09:11:08.554           290.171                Norilsk         36271.375
        25   01 Jun 2027 09:11:59.776   01 Jun 2027 09:12:52.301            52.525              Murmansk2          6565.625
        26   01 Jun 2027 10:14:52.611   01 Jun 2027 10:15:44.897            52.286               CapeTown          6535.750
        27   01 Jun 2027 10:32:45.566   01 Jun 2027 10:35:21.457           155.891                 Moscow         19486.375
        28   01 Jun 2027 10:51:44.817   01 Jun 2027 10:55:39.816           234.999                Anadyr2         29374.875
        29   01 Jun 2027 10:57:35.877   01 Jun 2027 10:57:55.965            20.088                Anadyr2          2511.000
        30   01 Jun 2027 12:29:07.372   01 Jun 2027 12:31:11.259           123.887                Anadyr2         15485.875
        31   01 Jun 2027 14:05:05.014   01 Jun 2027 14:07:16.767           131.753               Magadan2         16469.125
        32   01 Jun 2027 14:07:45.103   01 Jun 2027 14:10:32.548           167.445               Magadan1         20930.625
        33   01 Jun 2027 14:12:48.011   01 Jun 2027 14:14:07.619            79.608               Magadan2          9951.000
        34   01 Jun 2027 16:33:04.023   01 Jun 2027 16:35:07.751           123.728            RioGallegos         15466.000
        35   01 Jun 2027 16:35:22.077   01 Jun 2027 16:39:15.236           233.159            RioGallegos         29144.875
        36   01 Jun 2027 17:21:58.444   01 Jun 2027 17:23:10.964            72.520                Irkutsk          9065.000
        37   01 Jun 2027 17:23:36.478   01 Jun 2027 17:25:44.421           127.943                Novosib         15992.875
        38   01 Jun 2027 17:34:24.268   01 Jun 2027 17:36:14.969           110.701                Sumatra         13837.625
        39   01 Jun 2027 17:38:15.176   01 Jun 2027 17:40:15.480           120.304                Sumatra         15038.000
        40   01 Jun 2027 19:04:17.437   01 Jun 2027 19:05:06.329            48.892                  Delhi          4202.000
        41   02 Jun 2027 04:30:10.643   02 Jun 2027 04:30:16.275             5.632                Irkutsk           704.000
        42   02 Jun 2027 04:30:23.228   02 Jun 2027 04:32:29.389           126.161              Murmansk1         15770.125
        43   02 Jun 2027 05:40:16.059   02 Jun 2027 05:42:03.865           107.806                Sumatra         13475.750
        44   02 Jun 2027 05:42:46.013   02 Jun 2027 05:43:26.068            40.055                Sumatra          5006.875
        45   02 Jun 2027 05:52:40.311   02 Jun 2027 05:52:55.757            15.446                  Delhi          1930.750
        46   02 Jun 2027 05:55:57.833   02 Jun 2027 05:57:41.305           103.472                  Delhi         12934.000
        47   02 Jun 2027 06:03:52.951   02 Jun 2027 06:06:14.751           141.800                Irkutsk         17725.000
        48   02 Jun 2027 06:06:21.599   02 Jun 2027 06:09:38.285           196.686                Norilsk         24585.750
        49   02 Jun 2027 06:09:38.504   02 Jun 2027 06:10:41.055            62.551              Murmansk2          7818.875
        50   02 Jun 2027 06:10:48.776   02 Jun 2027 06:11:17.407            28.631                Norilsk          3578.875
        51   02 Jun 2027 06:44:49.943   02 Jun 2027 06:45:56.595            66.652            RioGallegos          8331.500
        52   02 Jun 2027 06:46:29.321   02 Jun 2027 06:46:56.366            27.045            RioGallegos          3380.625
        53   02 Jun 2027 06:51:20.632   02 Jun 2027 06:51:34.248            13.616            RioGallegos          1702.000
        54   02 Jun 2027 07:17:22.721   02 Jun 2027 07:21:13.821           231.100                Sumatra         28887.500
        55   02 Jun 2027 07:41:51.402   02 Jun 2027 07:42:01.132             9.730                 Moscow          1216.250
        56   02 Jun 2027 07:42:09.562   02 Jun 2027 07:45:20.435           190.873                Norilsk         23859.125
        57   02 Jun 2027 07:45:26.694   02 Jun 2027 07:47:12.469           105.775              Murmansk1         13221.875
        58   02 Jun 2027 07:48:45.913   02 Jun 2027 07:49:05.122            19.209              Murmansk1          2401.125
        59   02 Jun 2027 09:02:53.978   02 Jun 2027 09:06:01.444           187.466                  Delhi         23433.250
        60   02 Jun 2027 09:11:26.813   02 Jun 2027 09:13:07.544           100.731                Novosib         12591.375
        61   02 Jun 2027 09:17:23.899   02 Jun 2027 09:17:43.251            19.352              Murmansk1          2419.000
        62   02 Jun 2027 09:18:41.341   02 Jun 2027 09:21:46.951           185.610                Norilsk         23201.250
        63   02 Jun 2027 09:21:48.886   02 Jun 2027 09:24:53.505           184.619              Murmansk2         23077.375
        64   02 Jun 2027 10:29:46.084   02 Jun 2027 10:31:12.147            86.063               CapeTown         10757.875
        65   02 Jun 2027 10:45:00.179   02 Jun 2027 10:48:12.640           192.461                 Moscow         24057.625
        66   02 Jun 2027 10:48:26.584   02 Jun 2027 10:53:57.416           330.832              Murmansk2         41354.000
        67   02 Jun 2027 10:56:37.522   02 Jun 2027 10:57:11.139            33.617              Murmansk2          4202.125
        68   02 Jun 2027 11:03:28.927   02 Jun 2027 11:07:35.012           246.085                Anadyr2         30760.625
        69   02 Jun 2027 11:07:39.898   02 Jun 2027 11:09:43.297           123.399                Anadyr1         15424.875
        70   02 Jun 2027 12:08:37.504   02 Jun 2027 12:09:12.211            34.707               CapeTown          4338.375
        71   02 Jun 2027 12:25:58.804   02 Jun 2027 12:26:49.484            50.680                 Moscow          6335.000
        72   02 Jun 2027 12:38:41.753   02 Jun 2027 12:40:45.462           123.709                Anadyr1         15463.625
        73   02 Jun 2027 12:43:41.907   02 Jun 2027 12:46:22.314           160.407               Magadan2         20050.875
        74   02 Jun 2027 14:17:00.642   02 Jun 2027 14:19:50.846           170.204               Magadan1         21275.500
        75   02 Jun 2027 16:44:50.780   02 Jun 2027 16:50:44.053           353.273            RioGallegos         44159.125
        76   02 Jun 2027 17:34:21.484   02 Jun 2027 17:37:30.303           188.819                Novosib         23602.375
        77   02 Jun 2027 17:46:09.481   02 Jun 2027 17:48:53.391           163.910                Sumatra         20488.750
        78   02 Jun 2027 19:15:57.730   02 Jun 2027 19:20:00.660           242.930                  Delhi         30366.250
        79   02 Jun 2027 20:43:20.874   02 Jun 2027 20:44:04.562            43.688              Murmansk1          5461.000
        80   02 Jun 2027 20:47:22.255   02 Jun 2027 20:50:17.474           175.219                 Moscow         16914.750
        81   03 Jun 2027 04:42:25.735   03 Jun 2027 04:47:24.805           299.070                Norilsk         37383.750
        82   03 Jun 2027 04:48:43.448   03 Jun 2027 04:50:52.715           129.267              Murmansk2         16158.375
        83   03 Jun 2027 05:17:03.784   03 Jun 2027 05:18:47.327           103.543            RioGallegos         12942.875
        84   03 Jun 2027 05:20:18.163   03 Jun 2027 05:20:50.039            31.876            RioGallegos          3984.500
        85   03 Jun 2027 05:21:21.013   03 Jun 2027 05:21:28.397             7.384            RioGallegos           923.000
        86   03 Jun 2027 05:22:08.358   03 Jun 2027 05:22:21.639            13.281            RioGallegos          1660.125
        87   03 Jun 2027 05:25:56.399   03 Jun 2027 05:26:24.487            28.088            RioGallegos          3511.000
        88   03 Jun 2027 05:52:04.441   03 Jun 2027 05:52:59.405            54.964                Sumatra          6870.500
        89   03 Jun 2027 05:54:59.144   03 Jun 2027 05:56:22.485            83.341                Sumatra         10417.625
        90   03 Jun 2027 06:03:28.127   03 Jun 2027 06:05:08.149           100.022                  Delhi         12502.750
        91   03 Jun 2027 06:05:47.043   03 Jun 2027 06:09:23.220           216.177                Irkutsk         27022.125
        92   03 Jun 2027 06:10:09.434   03 Jun 2027 06:10:32.551            23.117                Irkutsk          2889.625
        93   03 Jun 2027 06:10:38.334   03 Jun 2027 06:12:48.802           130.468                Novosib         16308.500
        94   03 Jun 2027 06:18:05.519   03 Jun 2027 06:18:12.084             6.565                Irkutsk           820.625
        95   03 Jun 2027 06:18:19.004   03 Jun 2027 06:19:45.399            86.395                 Moscow         10799.375
        96   03 Jun 2027 06:19:50.712   03 Jun 2027 06:21:25.549            94.837              Murmansk1         11854.625
        97   03 Jun 2027 06:21:25.549   03 Jun 2027 06:23:22.940           117.391              Murmansk2         14673.875
        98   03 Jun 2027 06:55:52.236   03 Jun 2027 06:59:21.862           209.626            RioGallegos         26203.250
        99   03 Jun 2027 07:30:18.187   03 Jun 2027 07:33:34.648           196.461                Sumatra         24557.625
       100   03 Jun 2027 07:36:07.700   03 Jun 2027 07:38:21.094           133.394                  Delhi         16674.250
       101   03 Jun 2027 07:43:32.869   03 Jun 2027 07:46:53.958           201.089                Novosib         25136.125
       102   03 Jun 2027 07:47:28.716   03 Jun 2027 07:48:08.109            39.393                 Moscow          4924.125
       103   03 Jun 2027 07:48:31.903   03 Jun 2027 07:49:20.030            48.127                Irkutsk          6015.875
       104   03 Jun 2027 07:53:57.697   03 Jun 2027 07:55:36.846            99.149                Novosib         12393.625
       105   03 Jun 2027 07:55:51.726   03 Jun 2027 07:58:31.994           160.268                Norilsk         20033.500
       106   03 Jun 2027 07:58:33.963   03 Jun 2027 07:59:07.783            33.820              Murmansk1          4227.500
       107   03 Jun 2027 08:00:47.077   03 Jun 2027 08:01:04.457            17.380              Murmansk2          2172.500
       108   03 Jun 2027 09:16:25.431   03 Jun 2027 09:18:35.547           130.116                  Delhi         16264.500
       109   03 Jun 2027 09:29:18.777   03 Jun 2027 09:29:59.566            40.789              Murmansk1          5098.625
       110   03 Jun 2027 09:31:10.002   03 Jun 2027 09:36:54.847           344.845              Murmansk1         43105.625
       111   03 Jun 2027 10:36:02.977   03 Jun 2027 10:44:21.660           498.683               CapeTown         62335.375
       112   03 Jun 2027 10:57:18.480   03 Jun 2027 11:07:10.501           592.021                 Moscow         74002.625
       113   03 Jun 2027 11:07:33.004   03 Jun 2027 11:12:52.898           319.894              Murmansk2         39986.750
       114   03 Jun 2027 11:15:17.854   03 Jun 2027 11:19:31.545           253.691                Anadyr1         31711.375
       115   03 Jun 2027 11:20:11.526   03 Jun 2027 11:22:17.997           126.471                Anadyr2         15808.875
       116   03 Jun 2027 12:09:57.923   03 Jun 2027 12:14:55.246           297.323               CapeTown         37165.375
       117   03 Jun 2027 12:51:19.820   03 Jun 2027 12:51:36.250            16.430                Anadyr2          2053.750
       118   03 Jun 2027 12:54:46.530   03 Jun 2027 12:57:41.075           174.545               Magadan1         21818.125
       119   03 Jun 2027 14:28:57.475   03 Jun 2027 14:30:49.534           112.059               Magadan1         14007.375
       120   03 Jun 2027 14:30:49.534   03 Jun 2027 14:31:03.524            13.990               Magadan2          1748.750
       121   03 Jun 2027 14:31:54.029   03 Jun 2027 14:33:26.825            92.796               Magadan2         11599.500
       122   03 Jun 2027 16:11:16.002   03 Jun 2027 16:13:21.088           125.086                Irkutsk         15635.750
       123   03 Jun 2027 16:56:40.815   03 Jun 2027 16:58:05.940            85.125            RioGallegos         10640.625
       124   03 Jun 2027 16:59:18.224   03 Jun 2027 17:00:08.963            50.739            RioGallegos          6342.375
       125   03 Jun 2027 17:44:20.076   03 Jun 2027 17:46:45.297           145.221                Irkutsk         18152.625
       126   03 Jun 2027 17:48:46.723   03 Jun 2027 17:49:19.707            32.984                Novosib          4123.000
       127   03 Jun 2027 17:49:58.180   03 Jun 2027 17:51:59.955           121.775                Novosib         15221.875
       128   03 Jun 2027 19:27:43.663   03 Jun 2027 19:30:04.513           140.850                  Delhi         17606.250
       129   03 Jun 2027 19:32:42.060   03 Jun 2027 19:33:01.835            19.775                  Delhi          2471.875
       130   03 Jun 2027 20:55:06.826   03 Jun 2027 20:56:03.008            56.182              Murmansk1          7022.750
       131   03 Jun 2027 20:58:56.619   03 Jun 2027 21:02:17.762           201.143                 Moscow         25142.875
       132   03 Jun 2027 23:00:02.217   03 Jun 2027 23:01:31.078            88.861               CapeTown         11107.625
       133   04 Jun 2027 03:17:00.906   04 Jun 2027 03:17:38.986            38.080                Norilsk          4760.000
       134   04 Jun 2027 03:18:00.137   04 Jun 2027 03:18:12.257            12.120                Anadyr1          1515.000
       135   04 Jun 2027 03:18:19.770   04 Jun 2027 03:18:33.275            13.505               Magadan1          1688.125
       136   04 Jun 2027 03:18:38.163   04 Jun 2027 03:23:01.209           263.046              Murmansk2         32880.750
       137   04 Jun 2027 03:23:18.821   04 Jun 2027 03:23:46.940            28.119                Norilsk          3514.875
       138   04 Jun 2027 04:54:26.794   04 Jun 2027 04:59:25.172           298.378                Norilsk         37297.250
       139   04 Jun 2027 04:59:34.950   04 Jun 2027 05:02:42.641           187.691              Murmansk2         23461.375
       140   04 Jun 2027 05:29:11.080   04 Jun 2027 05:34:43.486           332.406            RioGallegos         41550.750
       141   04 Jun 2027 05:35:57.570   04 Jun 2027 05:36:38.089            40.519            RioGallegos          5064.875
       142   04 Jun 2027 05:37:24.499   04 Jun 2027 05:37:39.412            14.913            RioGallegos          1864.125
       143   04 Jun 2027 05:38:03.336   04 Jun 2027 05:38:40.788            37.452            RioGallegos          4681.500
       144   04 Jun 2027 06:03:58.718   04 Jun 2027 06:05:46.022           107.304                Sumatra         13413.000
       145   04 Jun 2027 06:14:35.832   04 Jun 2027 06:17:22.521           166.689                  Delhi         20836.125
       146   04 Jun 2027 06:18:02.030   04 Jun 2027 06:22:37.981           275.951                Irkutsk         34493.875
       147   04 Jun 2027 06:30:24.418   04 Jun 2027 06:35:06.481           282.063              Murmansk1         35257.875
       148   04 Jun 2027 06:35:06.481   04 Jun 2027 06:37:33.560           147.079              Murmansk2         18384.875
       149   04 Jun 2027 07:08:46.230   04 Jun 2027 07:11:52.978           186.748            RioGallegos         23343.500
       150   04 Jun 2027 07:43:59.120   04 Jun 2027 07:46:55.717           176.597                Sumatra         22074.625
       151   04 Jun 2027 07:49:55.077   04 Jun 2027 07:51:19.251            84.174                  Delhi         10521.750
       152   04 Jun 2027 07:55:36.175   04 Jun 2027 07:56:22.528            46.353                  Delhi          5794.125
       153   04 Jun 2027 07:58:01.508   04 Jun 2027 08:02:08.693           247.185                Novosib         30898.125
       154   04 Jun 2027 08:06:05.815   04 Jun 2027 08:09:14.123           188.308                 Moscow         23538.500
       155   04 Jun 2027 08:09:26.855   04 Jun 2027 08:13:04.153           217.298              Murmansk2         27162.250
       156   04 Jun 2027 09:32:35.165   04 Jun 2027 09:33:04.385            29.220                 Moscow          3652.500
       157   04 Jun 2027 09:42:41.676   04 Jun 2027 09:47:02.049           260.373                Norilsk         32546.625
       158   04 Jun 2027 09:47:31.068   04 Jun 2027 09:48:56.313            85.245              Murmansk2         10655.625
       159   04 Jun 2027 10:47:27.446   04 Jun 2027 10:56:41.107           553.661               CapeTown         69207.625
       160   04 Jun 2027 11:09:40.805   04 Jun 2027 11:19:36.350           595.545                 Moscow         74443.125
       161   04 Jun 2027 11:19:36.605   04 Jun 2027 11:24:54.273           317.668              Murmansk2         39708.500
       162   04 Jun 2027 11:27:09.868   04 Jun 2027 11:36:12.257           542.389                Anadyr1         67798.625
       163   04 Jun 2027 12:22:00.724   04 Jun 2027 12:27:06.756           306.032               CapeTown         38254.000
       164   04 Jun 2027 12:31:02.932   04 Jun 2027 12:31:39.479            36.547               CapeTown          4568.375
       165   04 Jun 2027 12:52:03.572   04 Jun 2027 12:55:20.908           197.336              Murmansk2         24667.000
       166   04 Jun 2027 13:06:17.131   04 Jun 2027 13:06:48.633            31.502               Magadan1          3937.750
       167   04 Jun 2027 13:06:48.633   04 Jun 2027 13:10:19.035           210.402               Magadan2         26300.250
       168   04 Jun 2027 14:45:27.018   04 Jun 2027 14:46:10.774            43.756               Magadan1          5469.500
       169   04 Jun 2027 16:22:19.736   04 Jun 2027 16:26:01.951           222.215                Irkutsk         27776.875
       170   04 Jun 2027 16:28:07.655   04 Jun 2027 16:28:40.645            32.990                Irkutsk          4123.750
       171   04 Jun 2027 16:38:57.770   04 Jun 2027 16:40:49.194           111.424                Sumatra         13928.000
       172   04 Jun 2027 16:41:33.827   04 Jun 2027 16:42:47.212            73.385                Sumatra          9173.125
       173   04 Jun 2027 17:57:21.599   04 Jun 2027 18:00:47.155           205.556                Novosib         25694.500
       174   04 Jun 2027 21:06:30.274   04 Jun 2027 21:07:21.991            51.717              Murmansk2          6464.625
       175   04 Jun 2027 21:10:38.503   04 Jun 2027 21:16:21.734           343.231                 Moscow         42903.875
       176   04 Jun 2027 21:40:34.775   04 Jun 2027 21:41:23.915            49.140               CapeTown          6142.500
       177   05 Jun 2027 03:29:10.935   05 Jun 2027 03:29:40.567            29.632                Norilsk          3704.000
       178   05 Jun 2027 03:30:31.620   05 Jun 2027 03:40:03.752           572.132              Murmansk1         71516.500
       179   05 Jun 2027 03:40:03.752   05 Jun 2027 03:40:18.655            14.903              Murmansk2          1862.875
       180   05 Jun 2027 04:05:44.137   05 Jun 2027 04:08:12.091           147.954            RioGallegos         18494.250
       181   05 Jun 2027 04:43:56.017   05 Jun 2027 04:45:03.974            67.957                Sumatra          8494.625
       182   05 Jun 2027 05:06:28.048   05 Jun 2027 05:11:25.807           297.759                Norilsk         37219.875
       183   05 Jun 2027 05:11:37.071   05 Jun 2027 05:14:33.259           176.188              Murmansk1         22023.500
       184   05 Jun 2027 05:41:22.026   05 Jun 2027 05:45:41.445           259.419            RioGallegos         32427.375
       185   05 Jun 2027 05:51:02.567   05 Jun 2027 05:51:08.094             5.527            RioGallegos           690.875
       186   05 Jun 2027 06:15:58.604   05 Jun 2027 06:19:00.421           181.817                Sumatra         22727.125
       187   05 Jun 2027 06:25:55.604   05 Jun 2027 06:26:24.928            29.324                  Delhi          3665.500
       188   05 Jun 2027 06:27:14.290   05 Jun 2027 06:29:08.262           113.972                  Delhi         14246.500
       189   05 Jun 2027 06:30:21.134   05 Jun 2027 06:34:46.860           265.726                Irkutsk         33215.750
       190   05 Jun 2027 06:41:28.865   05 Jun 2027 06:42:10.213            41.348                Novosib          5168.500
       191   05 Jun 2027 06:42:27.293   05 Jun 2027 06:47:22.710           295.417                Norilsk         36927.125
       192   05 Jun 2027 06:49:24.308   05 Jun 2027 06:49:29.888             5.580              Murmansk1           697.500
       193   05 Jun 2027 07:21:58.186   05 Jun 2027 07:24:30.853           152.667            RioGallegos         19083.375
       194   05 Jun 2027 08:00:21.109   05 Jun 2027 08:06:27.285           366.176                  Delhi         45772.000
       195   05 Jun 2027 08:08:15.171   05 Jun 2027 08:13:14.773           299.602                Novosib         37450.250
       196   05 Jun 2027 08:18:00.365   05 Jun 2027 08:25:04.189           423.824              Murmansk1         52978.000
       197   05 Jun 2027 09:48:02.089   05 Jun 2027 09:49:40.812            98.723              Murmansk1         12340.375
       198   05 Jun 2027 09:53:59.570   05 Jun 2027 10:00:57.870           418.300              Murmansk2         52287.500
       199   05 Jun 2027 10:59:02.096   05 Jun 2027 11:05:42.049           399.953               CapeTown         49994.125
       200   05 Jun 2027 11:22:07.593   05 Jun 2027 11:26:13.698           246.105                 Moscow         30763.125
       201   05 Jun 2027 11:26:48.968   05 Jun 2027 11:36:14.016           565.048              Murmansk1         70631.000
       202   05 Jun 2027 11:39:04.034   05 Jun 2027 11:41:07.014           122.980                Anadyr2         15372.500
       203   05 Jun 2027 11:41:07.014   05 Jun 2027 11:44:17.776           190.762                Anadyr1         23845.250
       204   05 Jun 2027 12:34:06.289   05 Jun 2027 12:36:17.848           131.559               CapeTown         16444.875
       205   05 Jun 2027 13:04:41.680   05 Jun 2027 13:06:40.573           118.893              Murmansk1         14861.625
       206   05 Jun 2027 13:17:57.594   05 Jun 2027 13:21:33.565           215.971               Magadan2         26996.375
       207   05 Jun 2027 13:22:51.661   05 Jun 2027 13:24:23.990            92.329               Magadan2         11541.125
       208   05 Jun 2027 15:47:42.646   05 Jun 2027 15:49:58.552           135.906            RioGallegos         16988.250
       209   05 Jun 2027 16:33:47.025   05 Jun 2027 16:37:23.737           216.712                Irkutsk         27089.000
       210   05 Jun 2027 16:40:11.794   05 Jun 2027 16:41:42.126            90.332                Irkutsk         11291.500
       211   05 Jun 2027 16:49:13.374   05 Jun 2027 16:51:20.156           126.782                Sumatra         15847.750
       212   05 Jun 2027 18:10:38.086   05 Jun 2027 18:10:55.534            17.448                Novosib          2181.000
       213   05 Jun 2027 18:12:48.241   05 Jun 2027 18:14:56.035           127.794                Novosib         15974.250
       214   05 Jun 2027 18:20:48.300   05 Jun 2027 18:21:15.213            26.913                  Delhi          3364.125
       215   05 Jun 2027 21:18:29.777   05 Jun 2027 21:20:55.168           145.391              Murmansk1         18173.875
       216   05 Jun 2027 21:22:25.131   05 Jun 2027 21:24:35.336           130.205                 Moscow         16275.625
       217   05 Jun 2027 21:31:05.898   05 Jun 2027 21:31:51.408            45.510                 Moscow          5688.750
       218   05 Jun 2027 21:49:02.224   05 Jun 2027 21:50:22.363            80.139               CapeTown         10017.375
       219   05 Jun 2027 21:53:20.649   05 Jun 2027 21:55:01.077           100.428               CapeTown         12553.500
       220   06 Jun 2027 03:42:30.784   06 Jun 2027 03:47:42.675           311.891                Norilsk         38986.375
       221   06 Jun 2027 03:47:59.608   06 Jun 2027 03:51:27.288           207.680              Murmansk2         25960.000
       222   06 Jun 2027 04:54:40.117   06 Jun 2027 04:57:10.620           150.503                Sumatra         18812.875
       223   06 Jun 2027 05:18:29.474   06 Jun 2027 05:23:26.687           297.213                Norilsk         37151.625
       224   06 Jun 2027 05:23:33.998   06 Jun 2027 05:26:24.603           170.605              Murmansk1         21325.625
       225   06 Jun 2027 05:53:36.873   06 Jun 2027 05:56:09.269           152.396            RioGallegos         19049.500
       226   06 Jun 2027 05:57:01.612   06 Jun 2027 05:57:18.799            17.187            RioGallegos          2148.375
       227   06 Jun 2027 06:28:04.106   06 Jun 2027 06:30:46.544           162.438                Sumatra         20304.750
       228   06 Jun 2027 06:40:59.511   06 Jun 2027 06:42:28.944            89.433                  Delhi         11179.125
       229   06 Jun 2027 06:42:44.773   06 Jun 2027 06:46:59.370           254.597                Irkutsk         31824.625
       230   06 Jun 2027 06:52:52.992   06 Jun 2027 06:53:17.790            24.798                Novosib          3099.750
       231   06 Jun 2027 06:54:21.049   06 Jun 2027 06:55:57.907            96.858                Novosib         12107.250
       232   06 Jun 2027 06:56:06.663   06 Jun 2027 06:56:41.232            34.569                 Moscow          4321.125
       233   06 Jun 2027 06:56:47.526   06 Jun 2027 06:59:06.475           138.949                Norilsk         17368.625
       234   06 Jun 2027 06:59:08.904   06 Jun 2027 07:01:26.812           137.908              Murmansk2         17238.500
       235   06 Jun 2027 07:36:11.490   06 Jun 2027 07:37:17.419            65.929            RioGallegos          8241.125
       236   06 Jun 2027 08:12:36.663   06 Jun 2027 08:19:17.813           401.150                  Delhi         50143.750
       237   06 Jun 2027 08:20:42.964   06 Jun 2027 08:25:20.428           277.464                Novosib         34683.000
       238   06 Jun 2027 08:30:03.367   06 Jun 2027 08:30:20.435            17.068                 Moscow          2133.500
       239   06 Jun 2027 08:30:22.658   06 Jun 2027 08:33:24.331           181.673                Norilsk         22709.125
       240   06 Jun 2027 08:33:32.286   06 Jun 2027 08:35:31.559           119.273              Murmansk2         14909.125
       241   06 Jun 2027 08:36:51.399   06 Jun 2027 08:37:04.512            13.113              Murmansk1          1639.125
       242   06 Jun 2027 09:56:36.218   06 Jun 2027 09:57:49.856            73.638                 Moscow          9204.750
       243   06 Jun 2027 10:00:06.544   06 Jun 2027 10:01:29.953            83.409              Murmansk1         10426.125
       244   06 Jun 2027 10:05:03.571   06 Jun 2027 10:12:59.493           475.922              Murmansk2         59490.250
       245   06 Jun 2027 11:12:59.214   06 Jun 2027 11:14:47.009           107.795               CapeTown         13474.375
       246   06 Jun 2027 11:15:27.130   06 Jun 2027 11:16:56.332            89.202               CapeTown         11150.250
       247   06 Jun 2027 11:34:39.504   06 Jun 2027 11:38:33.386           233.882                 Moscow         29235.250
       248   06 Jun 2027 11:38:48.309   06 Jun 2027 11:47:23.156           514.847              Murmansk2         64355.875
       249   06 Jun 2027 11:48:13.529   06 Jun 2027 11:48:30.168            16.639              Murmansk1          2079.875
       250   06 Jun 2027 11:50:59.783   06 Jun 2027 11:53:21.125           141.342                Anadyr1         17667.750
       251   06 Jun 2027 11:54:46.677   06 Jun 2027 11:57:26.321           159.644                Anadyr1         19955.500
       252   06 Jun 2027 12:46:14.764   06 Jun 2027 12:46:53.061            38.297               CapeTown          4787.125
       253   06 Jun 2027 12:47:22.308   06 Jun 2027 12:48:48.574            86.266               CapeTown         10783.250
       254   06 Jun 2027 12:55:58.386   06 Jun 2027 12:56:22.880            24.494               CapeTown          3061.750
       255   06 Jun 2027 13:29:43.602   06 Jun 2027 13:33:34.213           230.611               Magadan1         28826.375
       256   06 Jun 2027 15:58:36.625   06 Jun 2027 16:01:43.791           187.166            RioGallegos         23395.750
       257   06 Jun 2027 16:04:15.336   06 Jun 2027 16:04:41.620            26.284            RioGallegos          3285.500
       258   06 Jun 2027 16:45:37.787   06 Jun 2027 16:48:55.148           197.361                Irkutsk         24670.125
       259   06 Jun 2027 16:51:03.462   06 Jun 2027 16:51:58.793            55.331                Irkutsk          6916.375
       260   06 Jun 2027 17:00:12.916   06 Jun 2027 17:03:02.809           169.893                Sumatra         21236.625
       261   06 Jun 2027 17:04:53.968   06 Jun 2027 17:09:12.784           258.816                Sumatra         32352.000
       262   06 Jun 2027 18:32:16.163   06 Jun 2027 18:32:52.932            36.769                  Delhi          4596.125
       263   06 Jun 2027 18:35:09.511   06 Jun 2027 18:36:49.440            99.929                  Delhi         12491.125
       264   06 Jun 2027 21:32:03.200   06 Jun 2027 21:33:08.044            64.844              Murmansk1          8105.500
       265   06 Jun 2027 21:38:16.533   06 Jun 2027 21:39:43.406            86.873                 Moscow         10859.125
       266   06 Jun 2027 22:00:10.373   06 Jun 2027 22:02:36.460           146.087               CapeTown         18260.875
       267   07 Jun 2027 03:53:25.972   07 Jun 2027 03:53:43.192            17.220               Magadan1          2152.500
       268   07 Jun 2027 03:54:28.771   07 Jun 2027 03:58:40.627           251.856              Murmansk1         31482.000
       269   07 Jun 2027 05:05:50.151   07 Jun 2027 05:08:56.605           186.454                Sumatra         23306.750
       270   07 Jun 2027 05:30:26.208   07 Jun 2027 05:31:54.173            87.965                Novosib         10995.625
       271   07 Jun 2027 05:32:00.989   07 Jun 2027 05:35:27.772           206.783                Norilsk         25847.875
       272   07 Jun 2027 05:35:31.401   07 Jun 2027 05:38:16.692           165.291              Murmansk1         20661.375
       273   07 Jun 2027 06:07:49.849   07 Jun 2027 06:08:07.933            18.084            RioGallegos          2260.500
       274   07 Jun 2027 06:08:33.584   07 Jun 2027 06:09:03.762            30.178            RioGallegos          3772.250
       275   07 Jun 2027 06:09:26.632   07 Jun 2027 06:09:56.436            29.804            RioGallegos          3725.500
       276   07 Jun 2027 06:15:21.412   07 Jun 2027 06:15:49.057            27.645            RioGallegos          3455.625
       277   07 Jun 2027 06:40:15.580   07 Jun 2027 06:42:53.194           157.614                Sumatra         19701.750
       278   07 Jun 2027 06:48:14.706   07 Jun 2027 06:50:04.070           109.364                Sumatra         13670.500
       279   07 Jun 2027 06:55:06.207   07 Jun 2027 06:55:20.461            14.254                Novosib          1781.750
       280   07 Jun 2027 06:55:23.798   07 Jun 2027 06:59:15.771           231.973                Irkutsk         28996.625
       281   07 Jun 2027 06:59:44.070   07 Jun 2027 07:00:15.015            30.945                Novosib          3868.125
       282   07 Jun 2027 07:05:32.539   07 Jun 2027 07:08:52.104           199.565                 Moscow         24945.625
       283   07 Jun 2027 07:09:08.315   07 Jun 2027 07:11:37.176           148.861              Murmansk2         18607.625
       284   07 Jun 2027 07:11:57.658   07 Jun 2027 07:12:28.114            30.456              Murmansk2          3807.000
       285   07 Jun 2027 07:12:58.137   07 Jun 2027 07:13:04.583             6.446              Murmansk2           805.750
       286   07 Jun 2027 07:13:11.769   07 Jun 2027 07:13:24.307            12.538              Murmansk1          1567.250
       287   07 Jun 2027 08:24:59.111   07 Jun 2027 08:29:05.597           246.486                  Delhi         30810.750
       288   07 Jun 2027 08:29:21.771   07 Jun 2027 08:29:42.161            20.390                  Delhi          2548.750
       289   07 Jun 2027 08:29:58.634   07 Jun 2027 08:30:59.247            60.613                  Delhi          7576.625
       290   07 Jun 2027 08:32:25.475   07 Jun 2027 08:32:32.220             6.745                  Delhi           843.125
       291   07 Jun 2027 08:33:41.412   07 Jun 2027 08:37:07.173           205.761                Novosib         25720.125
       292   07 Jun 2027 08:41:49.708   07 Jun 2027 08:45:33.133           223.425              Murmansk1         27928.125
       293   07 Jun 2027 08:45:33.133   07 Jun 2027 08:49:05.108           211.975              Murmansk2         26496.875
       294   07 Jun 2027 10:11:54.535   07 Jun 2027 10:13:59.471           124.936                 Moscow         15617.000
       295   07 Jun 2027 10:16:31.555   07 Jun 2027 10:23:21.390           409.835              Murmansk2         51229.375
       296   07 Jun 2027 10:23:48.243   07 Jun 2027 10:23:56.854             8.611              Murmansk2          1076.375
       297   07 Jun 2027 10:24:47.846   07 Jun 2027 10:25:01.156            13.310              Murmansk2          1663.750
       298   07 Jun 2027 10:29:12.855   07 Jun 2027 10:31:37.707           144.852                Anadyr1         18106.500
       299   07 Jun 2027 11:28:23.642   07 Jun 2027 11:28:24.963             1.321               CapeTown           165.125
       300   07 Jun 2027 11:49:53.140   07 Jun 2027 11:50:58.469            65.329              Murmansk1          8166.125
       301   07 Jun 2027 11:50:58.469   07 Jun 2027 11:58:37.518           459.049              Murmansk2         57381.125
       302   07 Jun 2027 11:58:37.518   07 Jun 2027 11:59:21.589            44.071              Murmansk1          5508.875
       303   07 Jun 2027 12:00:03.245   07 Jun 2027 12:00:22.507            19.262              Murmansk2          2407.750
       304   07 Jun 2027 12:03:49.210   07 Jun 2027 12:04:30.571            41.361                Anadyr1          5170.125
       305   07 Jun 2027 12:05:32.865   07 Jun 2027 12:07:23.482           110.617                Anadyr1         13827.125
       306   07 Jun 2027 12:11:36.365   07 Jun 2027 12:12:08.101            31.736                Anadyr2          3967.000
       307   07 Jun 2027 13:41:33.236   07 Jun 2027 13:45:35.248           242.012               Magadan1         30251.500
       308   07 Jun 2027 16:10:00.542   07 Jun 2027 16:14:42.977           282.435            RioGallegos         35304.375
       309   07 Jun 2027 16:16:19.122   07 Jun 2027 16:17:46.234            87.112            RioGallegos         10889.000
       310   07 Jun 2027 16:59:39.416   07 Jun 2027 17:01:10.240            90.824                Irkutsk         11353.000
       311   07 Jun 2027 17:11:30.856   07 Jun 2027 17:16:18.024           287.168                Sumatra         35896.000
       312   07 Jun 2027 17:17:48.732   07 Jun 2027 17:19:18.567            89.835                Sumatra         11229.375
       313   07 Jun 2027 18:41:36.989   07 Jun 2027 18:44:25.955           168.966                  Delhi         21120.750
       314   07 Jun 2027 18:46:56.291   07 Jun 2027 18:48:55.287           118.996                  Delhi         14874.500
       315   07 Jun 2027 21:45:02.983   07 Jun 2027 21:47:08.092           125.109              Murmansk1         15638.625
       316   07 Jun 2027 22:11:29.667   07 Jun 2027 22:12:38.227            68.560               CapeTown          8570.000
       317   07 Jun 2027 22:17:18.401   07 Jun 2027 22:18:51.756            93.355               CapeTown          2199.001
       318   08 Jun 2027 04:06:43.173   08 Jun 2027 04:07:23.352            40.179                Novosib          5022.375
       319   08 Jun 2027 05:17:14.432   08 Jun 2027 05:18:11.904            57.472                Sumatra          7184.000
       320   08 Jun 2027 05:18:52.367   08 Jun 2027 05:20:28.426            96.059                Sumatra         12007.375
       321   08 Jun 2027 05:42:24.198   08 Jun 2027 05:43:01.782            37.584              Murmansk1          4698.000
       322   08 Jun 2027 05:43:01.782   08 Jun 2027 05:47:00.631           238.849              Murmansk2         29856.125
       323   08 Jun 2027 05:47:00.631   08 Jun 2027 05:47:43.396            42.765              Murmansk1          5345.625
       324   08 Jun 2027 05:49:37.812   08 Jun 2027 05:49:59.893            22.081              Murmansk2          2760.125
       325   08 Jun 2027 06:18:19.708   08 Jun 2027 06:20:40.378           140.670            RioGallegos         17583.750
       326   08 Jun 2027 06:21:05.009   08 Jun 2027 06:22:02.362            57.353            RioGallegos          7169.125
       327   08 Jun 2027 06:52:33.797   08 Jun 2027 06:54:36.808           123.011                Sumatra         15376.375
       328   08 Jun 2027 06:55:34.389   08 Jun 2027 06:56:50.946            76.557                Sumatra          9569.625
       329   08 Jun 2027 06:59:56.171   08 Jun 2027 06:59:58.666             2.495                Sumatra           311.875
       330   08 Jun 2027 07:00:42.408   08 Jun 2027 07:00:42.998             0.590                  Delhi            73.750
       331   08 Jun 2027 07:02:53.858   08 Jun 2027 07:05:20.959           147.101                  Delhi         18387.625
       332   08 Jun 2027 07:07:11.750   08 Jun 2027 07:08:20.029            68.279                Novosib          8534.875
       333   08 Jun 2027 07:08:29.006   08 Jun 2027 07:11:36.424           187.418                Irkutsk         23427.250
       334   08 Jun 2027 07:12:16.083   08 Jun 2027 07:13:29.045            72.962                Norilsk          9120.250
       335   08 Jun 2027 07:18:09.561   08 Jun 2027 07:19:57.948           108.387                Novosib         13548.375
       336   08 Jun 2027 07:20:08.473   08 Jun 2027 07:21:01.370            52.897                 Moscow          6612.125
       337   08 Jun 2027 07:21:01.554   08 Jun 2027 07:22:36.042            94.488              Murmansk2         11811.000
       338   08 Jun 2027 07:22:36.042   08 Jun 2027 07:23:05.554            29.512              Murmansk1          3689.000
       339   08 Jun 2027 07:23:05.554   08 Jun 2027 07:23:56.271            50.717              Murmansk2          6339.625
       340   08 Jun 2027 07:24:48.968   08 Jun 2027 07:25:22.320            33.352              Murmansk2          4169.000
       341   08 Jun 2027 08:37:29.867   08 Jun 2027 08:38:29.348            59.481                  Delhi          7435.125
       342   08 Jun 2027 08:39:50.054   08 Jun 2027 08:40:05.034            14.980                  Delhi          1872.500
       343   08 Jun 2027 08:40:32.722   08 Jun 2027 08:41:33.341            60.619                  Delhi          7577.375
       344   08 Jun 2027 08:45:55.450   08 Jun 2027 08:49:31.933           216.483                Novosib         27060.375
       345   08 Jun 2027 08:49:34.213   08 Jun 2027 08:49:41.915             7.702                Norilsk           962.750
       346   08 Jun 2027 08:53:52.428   08 Jun 2027 08:54:52.504            60.076                Novosib          7509.500
       347   08 Jun 2027 08:54:53.870   08 Jun 2027 09:01:05.928           372.058              Murmansk1         46507.250
       348   08 Jun 2027 10:24:20.440   08 Jun 2027 10:30:11.379           350.939              Murmansk2         43867.375
       349   08 Jun 2027 10:31:11.279   08 Jun 2027 10:34:12.004           180.725                Norilsk         22590.625
       350   08 Jun 2027 10:40:23.764   08 Jun 2027 10:44:00.993           217.229                Anadyr2         27153.625
       351   08 Jun 2027 12:02:17.006   08 Jun 2027 12:03:26.364            69.358              Murmansk1          8669.750
       352   08 Jun 2027 12:03:26.364   08 Jun 2027 12:06:40.283           193.919              Murmansk2         24239.875
       353   08 Jun 2027 12:07:13.852   08 Jun 2027 12:07:54.672            40.820              Murmansk2          5102.500
       354   08 Jun 2027 12:24:09.156   08 Jun 2027 12:24:28.056            18.900                Anadyr2          2362.500
       355   08 Jun 2027 13:53:25.445   08 Jun 2027 13:57:44.443           258.998               Magadan1         32374.750
       356   08 Jun 2027 13:59:34.329   08 Jun 2027 14:00:04.218            29.889               Magadan2          3736.125
       357   08 Jun 2027 14:00:55.836   08 Jun 2027 14:02:21.883            86.047               Magadan2         10755.875
       358   08 Jun 2027 16:21:36.147   08 Jun 2027 16:27:11.214           335.067            RioGallegos         41883.375
       359   08 Jun 2027 16:28:19.561   08 Jun 2027 16:28:20.159             0.598            RioGallegos            74.750
       360   08 Jun 2027 17:12:49.765   08 Jun 2027 17:13:06.164            16.399                Irkutsk          2049.875
       361   08 Jun 2027 17:18:22.834   08 Jun 2027 17:19:42.162            79.328                Irkutsk          9916.000
       362   08 Jun 2027 17:23:00.446   08 Jun 2027 17:24:27.603            87.157                Sumatra         10894.625
       363   08 Jun 2027 17:26:46.880   08 Jun 2027 17:29:13.657           146.777                Sumatra         18347.125
       364   08 Jun 2027 17:29:55.064   08 Jun 2027 17:29:56.474             1.410                Sumatra           176.250
       365   08 Jun 2027 18:44:35.367   08 Jun 2027 18:46:06.810            91.443                Novosib         11430.375
       366   08 Jun 2027 18:52:58.878   08 Jun 2027 18:56:25.746           206.868                  Delhi         25858.500
       367   08 Jun 2027 20:26:06.978   08 Jun 2027 20:26:47.435            40.457                 Moscow          5057.125
       368   08 Jun 2027 21:54:31.106   08 Jun 2027 21:56:13.382           102.276              Murmansk1         12784.500
       369   08 Jun 2027 22:02:26.073   08 Jun 2027 22:03:28.696            62.623                 Moscow          7827.875
       370   08 Jun 2027 22:22:57.291   08 Jun 2027 22:24:09.027            71.736               CapeTown          1261.000
       371   09 Jun 2027 05:28:48.601   09 Jun 2027 05:30:38.765           110.164                Sumatra         13770.500
       372   09 Jun 2027 05:43:11.842   09 Jun 2027 05:44:15.476            63.634                  Delhi          7954.250
       373   09 Jun 2027 05:53:55.829   09 Jun 2027 05:55:03.279            67.450              Murmansk1          8431.250
       374   09 Jun 2027 05:55:03.279   09 Jun 2027 06:02:03.122           419.843              Murmansk2         52480.375
       375   09 Jun 2027 06:40:36.148   09 Jun 2027 06:40:51.034            14.886            RioGallegos          1860.750
       376   09 Jun 2027 07:05:00.267   09 Jun 2027 07:07:17.123           136.856                Sumatra         17107.000
       377   09 Jun 2027 07:07:47.037   09 Jun 2027 07:08:40.235            53.198                Sumatra          6649.750
       378   09 Jun 2027 07:12:07.783   09 Jun 2027 07:14:20.823           133.040                Sumatra         16630.000
       379   09 Jun 2027 07:16:50.353   09 Jun 2027 07:17:05.273            14.920                  Delhi          1865.000
       380   09 Jun 2027 07:19:20.402   09 Jun 2027 07:24:41.481           321.079                Novosib         40134.875
       381   09 Jun 2027 07:30:09.229   09 Jun 2027 07:33:09.457           180.228                 Moscow         22528.500
       382   09 Jun 2027 07:33:10.097   09 Jun 2027 07:35:30.197           140.100                Norilsk         17512.500
       383   09 Jun 2027 07:35:38.365   09 Jun 2027 07:37:20.810           102.445              Murmansk1         12805.625
       384   09 Jun 2027 08:50:11.490   09 Jun 2027 08:53:51.224           219.734                  Delhi         27466.750
       385   09 Jun 2027 08:57:19.025   09 Jun 2027 08:58:06.059            47.034                  Delhi          5879.250
       386   09 Jun 2027 08:58:43.002   09 Jun 2027 09:01:34.226           171.224                Novosib         21403.000
       387   09 Jun 2027 09:05:54.587   09 Jun 2027 09:06:17.413            22.826              Murmansk2          2853.250
       388   09 Jun 2027 09:06:34.303   09 Jun 2027 09:11:19.023           284.720                Norilsk         35590.000
       389   09 Jun 2027 09:11:23.233   09 Jun 2027 09:12:53.055            89.822              Murmansk2         11227.750
       390   09 Jun 2027 09:13:04.885   09 Jun 2027 09:13:06.959             2.074              Murmansk2           259.250
       391   09 Jun 2027 10:36:30.000   09 Jun 2027 10:39:07.192           157.192              Murmansk1         19649.000
       392   09 Jun 2027 10:44:31.663   09 Jun 2027 10:46:20.653           108.990              Murmansk2         13623.750
       393   09 Jun 2027 10:51:59.208   09 Jun 2027 10:58:11.319           372.111                Anadyr1         46513.875
       394   09 Jun 2027 12:14:43.316   09 Jun 2027 12:16:04.439            81.123              Murmansk1         10140.375
       395   09 Jun 2027 12:16:04.439   09 Jun 2027 12:19:52.362           227.923              Murmansk2         28490.375
       396   09 Jun 2027 12:26:53.303   09 Jun 2027 12:28:04.341            71.038                Anadyr1          8879.750
       397   09 Jun 2027 14:05:19.588   09 Jun 2027 14:07:30.980           131.392               Magadan2         16424.000
       398   09 Jun 2027 14:08:00.049   09 Jun 2027 14:10:04.219           124.170               Magadan1         15521.250
       399   09 Jun 2027 14:13:03.547   09 Jun 2027 14:14:22.452            78.905               Magadan2          9863.125
       400   09 Jun 2027 16:33:18.470   09 Jun 2027 16:39:29.403           370.933            RioGallegos         46366.625
       401   09 Jun 2027 17:20:46.636   09 Jun 2027 17:22:13.440            86.804                Irkutsk         10850.500
       402   09 Jun 2027 17:23:25.827   09 Jun 2027 17:23:57.279            31.452                Irkutsk          3931.500
       403   09 Jun 2027 17:24:51.223   09 Jun 2027 17:25:03.091            11.868                Novosib          1483.500
       404   09 Jun 2027 17:34:38.681   09 Jun 2027 17:36:51.785           133.104                Sumatra         16638.000
       405   09 Jun 2027 17:38:28.410   09 Jun 2027 17:38:47.438            19.028                Sumatra          2378.500
       406   09 Jun 2027 17:40:30.730   09 Jun 2027 17:41:03.803            33.073                Sumatra          4134.125
       407   09 Jun 2027 18:56:30.023   09 Jun 2027 18:58:30.407           120.384                Novosib         15048.000
       408   09 Jun 2027 19:04:31.787   09 Jun 2027 19:05:21.458            49.671                  Delhi          6208.875
       409   09 Jun 2027 19:07:37.250   09 Jun 2027 19:08:18.722            41.472                  Delhi          5184.000
       410   09 Jun 2027 19:10:11.686   09 Jun 2027 19:11:18.021            66.335                  Delhi          8291.875
       411   09 Jun 2027 20:34:58.586   09 Jun 2027 20:35:16.112            17.526              Murmansk2          2190.750
       412   09 Jun 2027 20:36:16.523   09 Jun 2027 20:38:32.894           136.371                 Moscow         17046.375
       413   09 Jun 2027 22:06:32.174   09 Jun 2027 22:06:46.025            13.851              Murmansk1          1731.375
       414   09 Jun 2027 22:09:57.625   09 Jun 2027 22:12:18.637           141.012                 Moscow          4645.875
       415   10 Jun 2027 04:30:38.051   10 Jun 2027 04:33:32.848           174.797              Murmansk2         21849.625
       416   10 Jun 2027 05:40:30.514   10 Jun 2027 05:42:18.279           107.765                Sumatra         13470.625
       417   10 Jun 2027 05:43:38.568   10 Jun 2027 05:44:49.816            71.248                Sumatra          8906.000
       418   10 Jun 2027 05:52:53.852   10 Jun 2027 05:53:10.938            17.086                  Delhi          2135.750
       419   10 Jun 2027 06:06:17.932   10 Jun 2027 06:06:29.365            11.433                Irkutsk          1429.125
       420   10 Jun 2027 06:06:35.136   10 Jun 2027 06:11:06.193           271.057                Norilsk         33882.125
       421   10 Jun 2027 06:11:12.789   10 Jun 2027 06:13:57.438           164.649              Murmansk1         20581.125
       422   10 Jun 2027 06:43:24.192   10 Jun 2027 06:46:03.030           158.838            RioGallegos         19854.750
       423   10 Jun 2027 06:46:43.350   10 Jun 2027 06:47:11.258            27.908            RioGallegos          3488.500
       424   10 Jun 2027 07:17:37.923   10 Jun 2027 07:21:28.643           230.720                Sumatra         28840.000
       425   10 Jun 2027 07:24:23.712   10 Jun 2027 07:25:46.760            83.048                  Delhi         10381.000
       426   10 Jun 2027 07:31:32.327   10 Jun 2027 07:34:16.066           163.739                Novosib         20467.375
       427   10 Jun 2027 07:34:41.337   10 Jun 2027 07:37:22.116           160.779                Irkutsk         20097.375
       428   10 Jun 2027 07:37:43.461   10 Jun 2027 07:37:56.026            12.565                Norilsk          1570.625
       429   10 Jun 2027 07:41:53.701   10 Jun 2027 07:42:15.300            21.599                 Moscow          2699.875
       430   10 Jun 2027 07:42:24.506   10 Jun 2027 07:45:36.517           192.011                Norilsk         24001.375
       431   10 Jun 2027 07:45:44.771   10 Jun 2027 07:47:35.170           110.399              Murmansk1         13799.875
       432   10 Jun 2027 07:49:00.754   10 Jun 2027 07:49:19.750            18.996              Murmansk1          2374.500
       433   10 Jun 2027 09:03:09.490   10 Jun 2027 09:06:16.413           186.923                  Delhi         23365.375
       434   10 Jun 2027 09:09:37.982   10 Jun 2027 09:10:32.169            54.187                  Delhi          6773.375
       435   10 Jun 2027 09:11:42.293   10 Jun 2027 09:13:22.448           100.155                Novosib         12519.375
       436   10 Jun 2027 09:17:37.619   10 Jun 2027 09:18:09.790            32.171                Norilsk          4021.375
       437   10 Jun 2027 09:18:55.962   10 Jun 2027 09:23:22.091           266.129                Norilsk         33266.125
       438   10 Jun 2027 09:24:08.111   10 Jun 2027 09:25:08.161            60.050              Murmansk2          7506.250
       439   10 Jun 2027 10:47:50.925   10 Jun 2027 10:48:22.406            31.481                 Moscow          3935.125
       440   10 Jun 2027 10:48:41.377   10 Jun 2027 10:52:07.863           206.486              Murmansk1         25810.750
       441   10 Jun 2027 10:52:40.477   10 Jun 2027 10:53:16.385            35.908              Murmansk1          4488.500
       442   10 Jun 2027 10:56:54.935   10 Jun 2027 10:57:25.875            30.940              Murmansk1          3867.500
       443   10 Jun 2027 10:58:18.531   10 Jun 2027 10:59:27.455            68.924              Murmansk1          8615.500
       444   10 Jun 2027 11:00:22.676   10 Jun 2027 11:01:06.059            43.383              Murmansk1          5422.875
       445   10 Jun 2027 11:03:43.399   10 Jun 2027 11:07:49.655           246.256                Anadyr2         30782.000
       446   10 Jun 2027 11:07:55.091   10 Jun 2027 11:10:21.274           146.183                Anadyr1         18272.875
       447   10 Jun 2027 12:05:59.637   10 Jun 2027 12:06:53.363            53.726               CapeTown          6715.750
       448   10 Jun 2027 12:26:14.574   10 Jun 2027 12:28:40.168           145.594                 Moscow         18199.250
       449   10 Jun 2027 12:28:45.087   10 Jun 2027 12:29:11.400            26.313              Murmansk2          3289.125
       450   10 Jun 2027 12:38:56.899   10 Jun 2027 12:39:56.540            59.641                Anadyr1          7455.125
       451   10 Jun 2027 12:42:27.216   10 Jun 2027 12:43:21.990            54.774                Anadyr2          6846.750
       452   10 Jun 2027 12:43:55.430   10 Jun 2027 12:45:49.641           114.211               Magadan2         14276.375
       453   10 Jun 2027 14:17:15.234   10 Jun 2027 14:19:02.587           107.353               Magadan2         13419.125
       454   10 Jun 2027 14:20:05.747   10 Jun 2027 14:21:40.191            94.444               Magadan1         11805.500
       455   10 Jun 2027 16:45:05.274   10 Jun 2027 16:50:58.370           353.096            RioGallegos         44137.000
       456   10 Jun 2027 17:34:35.539   10 Jun 2027 17:37:44.832           189.293                Novosib         23661.625
       457   10 Jun 2027 17:46:23.976   10 Jun 2027 17:48:05.040           101.064                Sumatra         12633.000
       458   10 Jun 2027 17:49:08.194   10 Jun 2027 17:50:53.638           105.444                Sumatra         13180.500
       459   10 Jun 2027 19:16:12.161   10 Jun 2027 19:17:54.862           102.701                  Delhi         12837.625
       460   10 Jun 2027 19:18:22.287   10 Jun 2027 19:20:15.341           113.054                  Delhi         14131.750
       461   10 Jun 2027 20:47:36.503   10 Jun 2027 20:50:32.452           175.949                 Moscow         21993.625
       462   11 Jun 2027 04:42:40.457   11 Jun 2027 04:47:39.447           298.990                Norilsk         37373.750
       463   11 Jun 2027 04:50:06.556   11 Jun 2027 04:51:07.223            60.667              Murmansk1          7583.375
       464   11 Jun 2027 05:17:18.493   11 Jun 2027 05:19:02.761           104.268            RioGallegos         13033.500
       465   11 Jun 2027 05:20:32.805   11 Jun 2027 05:21:22.030            49.225            RioGallegos          6153.125
       466   11 Jun 2027 05:21:36.081   11 Jun 2027 05:22:22.936            46.855            RioGallegos          5856.875
       467   11 Jun 2027 05:26:11.235   11 Jun 2027 05:26:39.914            28.679            RioGallegos          3584.875
       468   11 Jun 2027 05:52:18.972   11 Jun 2027 05:53:14.891            55.919                Sumatra          6989.875
       469   11 Jun 2027 05:55:13.908   11 Jun 2027 05:56:35.936            82.028                Sumatra         10253.500
       470   11 Jun 2027 06:03:42.014   11 Jun 2027 06:05:23.457           101.443                  Delhi         12680.375
       471   11 Jun 2027 06:06:01.846   11 Jun 2027 06:10:47.213           285.367                Irkutsk         35670.875
       472   11 Jun 2027 06:10:53.058   11 Jun 2027 06:11:24.353            31.295                Novosib          3911.875
       473   11 Jun 2027 06:18:19.996   11 Jun 2027 06:18:26.682             6.686                Irkutsk           835.750
       474   11 Jun 2027 06:18:37.726   11 Jun 2027 06:20:00.446            82.720                 Moscow         10340.000
       475   11 Jun 2027 06:20:00.703   11 Jun 2027 06:23:11.329           190.626              Murmansk1         23828.250
       476   11 Jun 2027 06:23:11.329   11 Jun 2027 06:25:44.469           153.140              Murmansk2         19142.500
       477   11 Jun 2027 06:56:07.475   11 Jun 2027 06:59:36.818           209.343            RioGallegos         26167.875
       478   11 Jun 2027 07:30:33.697   11 Jun 2027 07:33:49.564           195.867                Sumatra         24483.375
       479   11 Jun 2027 07:36:22.355   11 Jun 2027 07:38:36.922           134.567                  Delhi         16820.875
       480   11 Jun 2027 07:43:47.723   11 Jun 2027 07:47:09.789           202.066                Novosib         25258.250
       481   11 Jun 2027 07:47:43.437   11 Jun 2027 07:48:25.710            42.273                 Moscow          5284.125
       482   11 Jun 2027 07:48:46.580   11 Jun 2027 07:49:36.099            49.519                Irkutsk          6189.875
