uniorb/output/strategy_4/Drop/Drop_KinoSat_111606.txt

KinoSat_111606
-------------------------
    Access    *     Start Time (UTCG)     *     Stop Time (UTCG)  *   Duration (s)        *       Station  *  Data (Mbytes)
         1   01 Jun 2027 03:05:17.472   01 Jun 2027 03:05:27.290             9.818                Norilsk           306.813
         2   01 Jun 2027 03:05:38.131   01 Jun 2027 03:05:50.583            12.452              Murmansk2           389.125
         3   01 Jun 2027 03:06:03.095   01 Jun 2027 03:07:33.994            90.899                Novosib          2840.594
         4   01 Jun 2027 03:07:46.605   01 Jun 2027 03:09:22.119            95.514                Novosib          2984.812
         5   01 Jun 2027 03:09:22.474   01 Jun 2027 03:09:35.336            12.862              Murmansk1           401.938
         6   01 Jun 2027 03:09:35.336   01 Jun 2027 03:10:07.893            32.557              Murmansk2          1017.406
         7   01 Jun 2027 03:10:18.679   01 Jun 2027 03:10:30.815            12.136                Norilsk           379.250
         8   01 Jun 2027 03:11:12.425   01 Jun 2027 03:11:59.575            47.150                  Delhi          1473.438
         9   01 Jun 2027 04:44:20.593   01 Jun 2027 04:46:27.377           126.784                Novosib          3962.000
        10   01 Jun 2027 04:46:53.942   01 Jun 2027 04:49:15.883           141.941              Murmansk1          4435.656
        11   01 Jun 2027 05:04:00.604   01 Jun 2027 05:07:00.265           179.661               CapeTown          5614.406
        12   01 Jun 2027 06:07:51.896   01 Jun 2027 06:08:51.840            59.944                Anadyr2          1873.250
        13   01 Jun 2027 06:13:20.622   01 Jun 2027 06:13:38.934            18.312                Anadyr2           572.250
        14   01 Jun 2027 07:45:06.277   01 Jun 2027 07:47:19.574           133.297               Magadan1          4165.531
        15   01 Jun 2027 07:47:19.574   01 Jun 2027 07:47:50.914            31.340               Magadan2           979.375
        16   01 Jun 2027 07:48:31.391   01 Jun 2027 07:49:16.204            44.813               Magadan2          1400.406
        17   01 Jun 2027 09:18:25.550   01 Jun 2027 09:24:19.271           353.721                Anadyr1         11053.781
        18   01 Jun 2027 10:54:20.651   01 Jun 2027 10:55:14.983            54.332               Magadan2          1697.875
        19   01 Jun 2027 10:55:14.983   01 Jun 2027 10:57:45.829           150.846               Magadan1          4713.938
        20   01 Jun 2027 10:58:26.824   01 Jun 2027 10:58:56.372            29.548               Magadan2           923.375
        21   01 Jun 2027 11:00:53.188   01 Jun 2027 11:00:54.347             1.159                Novosib            36.219
        22   01 Jun 2027 11:01:00.274   01 Jun 2027 11:02:52.085           111.811              Murmansk2          3494.094
        23   01 Jun 2027 11:03:28.736   01 Jun 2027 11:03:52.635            23.899              Murmansk2           746.844
        24   01 Jun 2027 11:04:00.794   01 Jun 2027 11:04:23.852            23.058                Norilsk           720.563
        25   01 Jun 2027 11:05:01.546   01 Jun 2027 11:05:41.161            39.615                Norilsk          1237.969
        26   01 Jun 2027 11:36:01.449   01 Jun 2027 11:38:43.938           162.489            RioGallegos          5077.781
        27   01 Jun 2027 11:39:54.905   01 Jun 2027 11:40:31.772            36.867            RioGallegos          1152.094
        28   01 Jun 2027 12:10:31.646   01 Jun 2027 12:14:46.592           254.946                Sumatra          7967.063
        29   01 Jun 2027 12:25:06.488   01 Jun 2027 12:30:00.694           294.206                Irkutsk          9193.937
        30   01 Jun 2027 13:17:38.719   01 Jun 2027 13:21:03.001           204.282            RioGallegos          6383.812
        31   01 Jun 2027 13:57:39.323   01 Jun 2027 13:59:42.878           123.555                  Delhi          3861.094
        32   01 Jun 2027 14:03:03.272   01 Jun 2027 14:03:32.697            29.425                Novosib           919.531
        33   01 Jun 2027 14:05:19.562   01 Jun 2027 14:07:42.348           142.786                Novosib          4462.062
        34   01 Jun 2027 15:39:04.951   01 Jun 2027 15:41:54.852           169.901                 Moscow          5309.406
        35   01 Jun 2027 15:42:34.581   01 Jun 2027 15:43:43.880            69.299              Murmansk2          2165.594
        36   01 Jun 2027 15:47:20.383   01 Jun 2027 15:52:02.114           281.731                Norilsk          8804.094
        37   01 Jun 2027 17:16:58.466   01 Jun 2027 17:17:56.419            57.953                 Moscow          1811.031
        38   01 Jun 2027 17:19:54.617   01 Jun 2027 17:21:54.478           119.861              Murmansk1          3745.656
        39   01 Jun 2027 17:23:22.297   01 Jun 2027 17:24:16.326            54.029              Murmansk2          1688.406
        40   01 Jun 2027 17:33:28.456   01 Jun 2027 17:33:41.020            12.564                Anadyr1           392.625
        41   01 Jun 2027 17:34:26.848   01 Jun 2027 17:34:58.723            31.875                Anadyr2           996.094
        42   01 Jun 2027 18:28:42.289   01 Jun 2027 18:31:22.189           159.900               CapeTown          4996.875
        43   01 Jun 2027 18:59:38.033   01 Jun 2027 19:01:10.012            91.979              Murmansk2          2874.344
        44   01 Jun 2027 19:01:38.372   01 Jun 2027 19:05:33.061           234.689              Murmansk1          7334.031
        45   01 Jun 2027 19:12:14.144   01 Jun 2027 19:13:31.392            77.248               Magadan2          2414.000
        46   01 Jun 2027 20:45:03.960   01 Jun 2027 20:48:14.658           190.698                Anadyr1          5959.313
        47   01 Jun 2027 20:48:32.514   01 Jun 2027 20:51:03.477           150.963               Magadan2          4717.594
        48   01 Jun 2027 20:51:06.272   01 Jun 2027 20:52:46.511           100.239               Magadan1          3132.469
        49   01 Jun 2027 21:41:15.523   01 Jun 2027 21:43:44.289           148.766            RioGallegos          4648.937
        50   01 Jun 2027 22:20:53.506   01 Jun 2027 22:23:00.452           126.946                Anadyr1          3967.063
        51   01 Jun 2027 22:23:00.995   01 Jun 2027 22:25:44.429           163.434                Norilsk          5107.313
        52   01 Jun 2027 22:25:56.014   01 Jun 2027 22:26:30.975            34.961                Norilsk          1092.531
        53   01 Jun 2027 22:27:57.300   01 Jun 2027 22:28:31.587            34.287                Irkutsk          1071.469
        54   01 Jun 2027 22:29:44.657   01 Jun 2027 22:30:23.658            39.001                Irkutsk          1218.781
        55   01 Jun 2027 22:33:26.925   01 Jun 2027 22:34:29.639            62.714                Irkutsk          1959.813
        56   01 Jun 2027 22:42:56.752   01 Jun 2027 22:44:50.420           113.668                Sumatra          3552.125
        57   01 Jun 2027 23:56:10.483   01 Jun 2027 23:56:37.103            26.620                Anadyr1           831.875
        58   01 Jun 2027 23:57:12.936   01 Jun 2027 23:57:18.375             5.439                Anadyr1           169.969
        59   01 Jun 2027 23:57:44.025   01 Jun 2027 23:58:41.047            57.022                Anadyr1          1781.938
        60   01 Jun 2027 23:59:24.786   02 Jun 2027 00:00:58.589            93.803               Magadan1          2931.344
        61   02 Jun 2027 00:01:33.392   02 Jun 2027 00:01:43.159             9.767               Magadan1           305.219
        62   02 Jun 2027 00:02:20.647   02 Jun 2027 00:02:36.580            15.933               Magadan1           497.906
        63   02 Jun 2027 00:02:42.743   02 Jun 2027 00:03:56.101            73.358                Irkutsk          2292.438
        64   02 Jun 2027 00:04:24.354   02 Jun 2027 00:05:38.980            74.626                Novosib          2332.062
        65   02 Jun 2027 00:13:24.687   02 Jun 2027 00:14:36.871            72.184                  Delhi          2255.750
        66   02 Jun 2027 00:14:50.763   02 Jun 2027 00:15:07.194            16.431                  Delhi           513.469
        67   02 Jun 2027 00:50:48.052   02 Jun 2027 00:51:59.201            71.149            RioGallegos          2223.406
        68   02 Jun 2027 01:30:18.163   02 Jun 2027 01:31:15.232            57.069                Anadyr1          1783.406
        69   02 Jun 2027 01:31:44.332   02 Jun 2027 01:31:56.495            12.163                Anadyr2           380.094
        70   02 Jun 2027 01:32:09.071   02 Jun 2027 01:32:28.592            19.521                Anadyr2           610.031
        71   02 Jun 2027 01:32:50.490   02 Jun 2027 01:32:52.755             2.265                Anadyr1            70.781
        72   02 Jun 2027 01:33:04.800   02 Jun 2027 01:33:12.322             7.522                Anadyr2           235.063
        73   02 Jun 2027 01:34:48.030   02 Jun 2027 01:36:46.677           118.647                Norilsk          3707.719
        74   02 Jun 2027 01:37:42.511   02 Jun 2027 01:39:07.956            85.445              Murmansk2          2670.156
        75   02 Jun 2027 01:39:39.532   02 Jun 2027 01:40:39.464            59.932                Irkutsk          1872.875
        76   02 Jun 2027 01:41:21.307   02 Jun 2027 01:41:46.504            25.197              Murmansk1           787.406
        77   02 Jun 2027 01:42:20.614   02 Jun 2027 01:42:28.930             8.316              Murmansk1           259.875
        78   02 Jun 2027 01:45:56.289   02 Jun 2027 01:48:29.867           153.578                  Delhi          4799.312
        79   02 Jun 2027 02:27:51.420   02 Jun 2027 02:29:06.625            75.205            RioGallegos          2350.156
        80   02 Jun 2027 02:32:15.822   02 Jun 2027 02:32:39.469            23.647            RioGallegos           738.969
        81   02 Jun 2027 03:19:10.690   02 Jun 2027 03:19:57.485            46.795              Murmansk2          1462.344
        82   02 Jun 2027 03:20:02.190   02 Jun 2027 03:20:26.187            23.997              Murmansk2           749.906
        83   02 Jun 2027 03:20:33.233   02 Jun 2027 03:21:29.641            56.408                Irkutsk          1762.750
        84   02 Jun 2027 03:22:00.407   02 Jun 2027 03:23:44.882           104.475              Murmansk1          3264.844
        85   02 Jun 2027 03:24:56.182   02 Jun 2027 03:25:34.766            38.584                Novosib          1205.750
        86   02 Jun 2027 03:44:52.101   02 Jun 2027 03:45:07.430            15.329               CapeTown           479.031
        87   02 Jun 2027 03:49:49.688   02 Jun 2027 03:50:23.453            33.765               CapeTown          1055.156
        88   02 Jun 2027 04:37:24.794   02 Jun 2027 04:39:50.097           145.303                Anadyr1          4540.719
        89   02 Jun 2027 04:40:07.761   02 Jun 2027 04:40:48.081            40.320                Anadyr2          1260.000
        90   02 Jun 2027 04:55:47.995   02 Jun 2027 04:56:18.678            30.683                Novosib           958.844
        91   02 Jun 2027 05:00:21.478   02 Jun 2027 05:02:15.918           114.440                 Moscow          3576.250
        92   02 Jun 2027 05:03:32.060   02 Jun 2027 05:03:49.208            17.148                 Moscow           535.875
        93   02 Jun 2027 05:16:00.266   02 Jun 2027 05:16:41.335            41.069               CapeTown          1283.406
        94   02 Jun 2027 05:20:56.310   02 Jun 2027 05:21:40.223            43.913               CapeTown          1372.281
        95   02 Jun 2027 06:12:46.303   02 Jun 2027 06:14:51.001           124.698                Anadyr1          3896.812
        96   02 Jun 2027 06:15:01.100   02 Jun 2027 06:16:28.071            86.971               Magadan1          2717.844
        97   02 Jun 2027 06:19:07.565   02 Jun 2027 06:22:24.976           197.411                Anadyr2          6169.094
        98   02 Jun 2027 07:57:46.854   02 Jun 2027 07:59:46.488           119.634                Anadyr1          3738.562
        99   02 Jun 2027 08:05:09.419   02 Jun 2027 08:05:16.038             6.619                 Moscow           206.844
       100   02 Jun 2027 09:30:21.443   02 Jun 2027 09:30:54.204            32.761               Magadan1          1023.781
       101   02 Jun 2027 09:30:54.204   02 Jun 2027 09:31:12.177            17.973               Magadan2           561.656
       102   02 Jun 2027 09:31:12.177   02 Jun 2027 09:31:28.338            16.161               Magadan1           505.031
       103   02 Jun 2027 09:31:33.507   02 Jun 2027 09:31:46.754            13.247                Anadyr1           413.969
       104   02 Jun 2027 09:32:08.098   02 Jun 2027 09:35:23.629           195.531               Magadan2          6110.344
       105   02 Jun 2027 09:35:28.312   02 Jun 2027 09:35:45.697            17.385                Anadyr2           543.281
       106   02 Jun 2027 09:36:19.152   02 Jun 2027 09:36:56.802            37.650               Magadan1          1176.563
       107   02 Jun 2027 10:11:55.096   02 Jun 2027 10:13:02.911            67.815            RioGallegos          2119.219
       108   02 Jun 2027 10:48:31.640   02 Jun 2027 10:50:18.702           107.062                Sumatra          3345.688
       109   02 Jun 2027 11:07:08.480   02 Jun 2027 11:07:25.257            16.777                Irkutsk           524.281
       110   02 Jun 2027 11:08:15.006   02 Jun 2027 11:08:59.356            44.350                Irkutsk          1385.938
       111   02 Jun 2027 11:09:04.705   02 Jun 2027 11:09:55.135            50.430                Norilsk          1575.938
       112   02 Jun 2027 11:10:02.351   02 Jun 2027 11:10:07.104             4.753                Norilsk           148.531
       113   02 Jun 2027 11:10:25.451   02 Jun 2027 11:10:26.134             0.683                Norilsk            21.344
       114   02 Jun 2027 11:10:26.173   02 Jun 2027 11:11:07.389            41.216                Novosib          1288.000
       115   02 Jun 2027 11:11:17.348   02 Jun 2027 11:11:55.518            38.170                Novosib          1192.813
       116   02 Jun 2027 11:12:01.697   02 Jun 2027 11:12:13.640            11.943                Novosib           373.219
       117   02 Jun 2027 11:12:23.824   02 Jun 2027 11:12:33.531             9.707                Norilsk           303.344
       118   02 Jun 2027 11:12:53.478   02 Jun 2027 11:13:16.822            23.344                Novosib           729.500
       119   02 Jun 2027 11:48:19.581   02 Jun 2027 11:49:03.112            43.531            RioGallegos          1360.344
       120   02 Jun 2027 11:50:39.413   02 Jun 2027 11:51:44.201            64.788            RioGallegos          2024.625
       121   02 Jun 2027 12:30:24.485   02 Jun 2027 12:30:55.703            31.218                Sumatra           975.562
       122   02 Jun 2027 12:37:34.043   02 Jun 2027 12:39:54.916           140.873                Irkutsk          4402.281
       123   02 Jun 2027 12:41:20.639   02 Jun 2027 12:42:03.939            43.300                Norilsk          1353.125
       124   02 Jun 2027 12:47:05.572   02 Jun 2027 12:48:05.359            59.787                Irkutsk          1868.344
       125   02 Jun 2027 14:07:21.912   02 Jun 2027 14:08:15.244            53.332                  Delhi          1666.625
       126   02 Jun 2027 14:11:29.316   02 Jun 2027 14:12:25.603            56.287                  Delhi          1758.969
       127   02 Jun 2027 14:15:35.046   02 Jun 2027 14:20:39.637           304.591                Novosib          9518.469
       128   02 Jun 2027 15:51:09.260   02 Jun 2027 15:54:21.663           192.403                 Moscow          6012.594
       129   02 Jun 2027 15:54:40.459   02 Jun 2027 15:55:40.489            60.030              Murmansk1          1875.937
       130   02 Jun 2027 15:55:50.263   02 Jun 2027 15:56:04.448            14.185              Murmansk1           443.281
       131   02 Jun 2027 16:00:12.315   02 Jun 2027 16:04:11.763           239.448                Norilsk          7482.750
       132   02 Jun 2027 17:29:34.877   02 Jun 2027 17:29:49.437            14.560                 Moscow           455.000
       133   02 Jun 2027 17:30:54.403   02 Jun 2027 17:31:33.859            39.456                 Moscow          1233.000
       134   02 Jun 2027 17:32:15.834   02 Jun 2027 17:33:53.160            97.326              Murmansk1          3041.437
       135   02 Jun 2027 17:35:19.934   02 Jun 2027 17:35:54.498            34.564              Murmansk2          1080.125
       136   02 Jun 2027 17:36:25.086   02 Jun 2027 17:36:55.285            30.199              Murmansk2           943.719
       137   02 Jun 2027 17:45:25.633   02 Jun 2027 17:46:47.882            82.249                Anadyr2          2570.281
       138   02 Jun 2027 18:40:53.669   02 Jun 2027 18:42:34.296           100.627               CapeTown          3144.594
       139   02 Jun 2027 18:44:52.114   02 Jun 2027 18:45:16.856            24.742               CapeTown           773.188
       140   02 Jun 2027 19:12:23.411   02 Jun 2027 19:17:33.925           310.514              Murmansk1          9703.562
       141   02 Jun 2027 19:24:03.531   02 Jun 2027 19:25:08.939            65.408               Magadan2          2044.000
       142   02 Jun 2027 19:32:04.227   02 Jun 2027 19:32:33.754            29.527               Magadan2           922.719
       143   02 Jun 2027 20:57:05.533   02 Jun 2027 21:00:03.683           178.150                Anadyr2          5567.188
       144   02 Jun 2027 21:00:03.683   02 Jun 2027 21:00:10.080             6.397                Anadyr1           199.906
       145   02 Jun 2027 21:00:16.062   02 Jun 2027 21:00:25.833             9.771                Anadyr1           305.344
       146   02 Jun 2027 21:00:32.163   02 Jun 2027 21:02:29.023           116.860               Magadan1          3651.875
       147   02 Jun 2027 21:03:20.080   02 Jun 2027 21:03:35.718            15.638               Magadan1           488.687
       148   02 Jun 2027 21:03:39.442   02 Jun 2027 21:03:51.651            12.209               Magadan2           381.531
       149   02 Jun 2027 21:04:08.068   02 Jun 2027 21:04:28.709            20.641               Magadan1           645.031
       150   02 Jun 2027 21:04:28.709   02 Jun 2027 21:04:40.477            11.768               Magadan2           367.750
       151   02 Jun 2027 21:06:24.912   02 Jun 2027 21:06:41.137            16.225               Magadan1           507.031
       152   02 Jun 2027 21:07:24.944   02 Jun 2027 21:07:25.844             0.900               Magadan1            28.125
       153   02 Jun 2027 21:07:31.374   02 Jun 2027 21:08:02.911            31.537               Magadan1           985.531
       154   02 Jun 2027 21:52:35.655   02 Jun 2027 21:55:27.443           171.788            RioGallegos          5368.375
       155   02 Jun 2027 21:57:39.045   02 Jun 2027 21:57:55.714            16.669            RioGallegos           520.906
       156   02 Jun 2027 21:58:34.815   02 Jun 2027 21:58:44.278             9.463            RioGallegos           295.719
       157   02 Jun 2027 22:32:52.734   02 Jun 2027 22:34:49.526           116.792                Anadyr1          3649.750
       158   02 Jun 2027 22:34:59.041   02 Jun 2027 22:35:04.339             5.298                Norilsk           165.562
       159   02 Jun 2027 22:35:20.301   02 Jun 2027 22:36:44.050            83.749               Magadan1          2617.156
       160   02 Jun 2027 22:36:50.250   02 Jun 2027 22:37:23.648            33.398               Magadan1          1043.687
       161   02 Jun 2027 22:38:02.028   02 Jun 2027 22:38:15.140            13.112                Norilsk           409.750
       162   02 Jun 2027 22:39:40.098   02 Jun 2027 22:40:29.591            49.493                Irkutsk          1546.656
       163   02 Jun 2027 22:41:43.756   02 Jun 2027 22:42:17.136            33.380                Irkutsk          1043.125
       164   02 Jun 2027 22:54:10.539   02 Jun 2027 22:55:38.555            88.016                Sumatra          2750.500
       165   02 Jun 2027 22:58:31.217   02 Jun 2027 22:59:04.287            33.070                Sumatra          1033.438
       166   02 Jun 2027 23:00:06.643   02 Jun 2027 23:00:39.172            32.529                Sumatra          1016.531
       167   03 Jun 2027 00:08:02.860   03 Jun 2027 00:10:41.103           158.243                Anadyr2          4945.094
       168   03 Jun 2027 00:10:49.312   03 Jun 2027 00:12:32.592           103.280                Norilsk          3227.500
       169   03 Jun 2027 00:13:01.486   03 Jun 2027 00:13:45.348            43.862               Magadan2          1370.687
       170   03 Jun 2027 00:14:42.842   03 Jun 2027 00:15:30.215            47.373                Irkutsk          1480.406
       171   03 Jun 2027 00:15:59.531   03 Jun 2027 00:16:35.111            35.580                Novosib          1111.875
       172   03 Jun 2027 00:18:11.359   03 Jun 2027 00:19:31.480            80.121                Novosib          2503.781
       173   03 Jun 2027 00:24:34.638   03 Jun 2027 00:26:24.797           110.159                  Delhi          3442.469
       174   03 Jun 2027 01:10:54.776   03 Jun 2027 01:10:57.833             3.057            RioGallegos            95.531
       175   03 Jun 2027 01:11:31.177   03 Jun 2027 01:12:05.699            34.522            RioGallegos          1078.813
       176   03 Jun 2027 01:42:15.299   03 Jun 2027 01:42:43.754            28.455                Anadyr2           889.219
       177   03 Jun 2027 01:43:14.144   03 Jun 2027 01:44:11.207            57.063                Anadyr2          1783.219
       178   03 Jun 2027 01:46:34.366   03 Jun 2027 01:47:19.040            44.674                Anadyr1          1396.063
       179   03 Jun 2027 01:47:21.259   03 Jun 2027 01:48:43.535            82.276                Norilsk          2571.125
       180   03 Jun 2027 01:49:31.552   03 Jun 2027 01:51:09.623            98.071              Murmansk2          3064.719
       181   03 Jun 2027 01:51:12.602   03 Jun 2027 01:51:56.168            43.566              Murmansk1          1361.437
       182   03 Jun 2027 01:54:03.324   03 Jun 2027 01:54:20.682            17.358                Novosib           542.438
       183   03 Jun 2027 01:57:51.702   03 Jun 2027 01:58:03.638            11.936                Novosib           373.000
       184   03 Jun 2027 01:58:12.639   03 Jun 2027 02:00:22.613           129.974                  Delhi          4061.688
       185   03 Jun 2027 02:40:13.527   03 Jun 2027 02:41:52.503            98.976            RioGallegos          3093.000
       186   03 Jun 2027 02:42:39.071   03 Jun 2027 02:43:59.648            80.577            RioGallegos          2518.031
       187   03 Jun 2027 03:31:56.262   03 Jun 2027 03:32:18.959            22.697                Norilsk           709.281
       188   03 Jun 2027 03:32:32.902   03 Jun 2027 03:33:04.062            31.160                Norilsk           973.750
       189   03 Jun 2027 03:33:40.046   03 Jun 2027 03:34:18.330            38.284              Murmansk1          1196.375
       190   03 Jun 2027 03:34:19.553   03 Jun 2027 03:35:15.973            56.420                Novosib          1763.125
       191   03 Jun 2027 03:35:17.256   03 Jun 2027 03:35:17.732             0.476                Norilsk            14.875
       192   03 Jun 2027 03:35:32.919   03 Jun 2027 03:35:49.788            16.869              Murmansk2           527.156
       193   03 Jun 2027 03:36:16.219   03 Jun 2027 03:37:52.884            96.665                Novosib          3020.781
       194   03 Jun 2027 03:40:37.745   03 Jun 2027 03:41:46.313            68.568                  Delhi          2142.750
       195   03 Jun 2027 04:49:16.146   03 Jun 2027 04:50:02.609            46.463                Anadyr1          1451.969
       196   03 Jun 2027 05:08:24.916   03 Jun 2027 05:09:15.694            50.778                Novosib          1586.812
       197   03 Jun 2027 05:09:34.121   03 Jun 2027 05:09:55.282            21.161                 Moscow           661.281
       198   03 Jun 2027 05:09:58.831   03 Jun 2027 05:10:38.151            39.320                 Moscow          1228.750
       199   03 Jun 2027 05:12:47.515   03 Jun 2027 05:12:59.508            11.993                 Moscow           374.781
       200   03 Jun 2027 05:13:15.044   03 Jun 2027 05:13:44.609            29.565                 Moscow           923.906
       201   03 Jun 2027 05:28:05.034   03 Jun 2027 05:28:46.064            41.030               CapeTown          1282.187
       202   03 Jun 2027 05:30:09.237   03 Jun 2027 05:30:23.714            14.477               CapeTown           452.406
       203   03 Jun 2027 05:31:08.288   03 Jun 2027 05:31:25.670            17.382               CapeTown           543.187
       204   03 Jun 2027 05:33:45.791   03 Jun 2027 05:33:52.034             6.243               CapeTown           195.094
       205   03 Jun 2027 06:30:36.210   03 Jun 2027 06:30:58.451            22.241                Anadyr2           695.031
       206   03 Jun 2027 06:30:58.451   03 Jun 2027 06:31:50.467            52.016                Anadyr1          1625.500
       207   03 Jun 2027 06:31:56.302   03 Jun 2027 06:32:32.816            36.514                Anadyr2          1141.062
       208   03 Jun 2027 06:32:32.816   03 Jun 2027 06:32:40.431             7.615                Anadyr1           237.969
       209   03 Jun 2027 06:32:43.694   03 Jun 2027 06:32:53.265             9.571               Magadan2           299.094
       210   03 Jun 2027 06:32:53.265   03 Jun 2027 06:33:28.406            35.141               Magadan1          1098.156
       211   03 Jun 2027 06:37:02.435   03 Jun 2027 06:37:17.973            15.538               Magadan1           485.562
       212   03 Jun 2027 08:06:02.288   03 Jun 2027 08:06:49.128            46.840                Anadyr1          1463.750
       213   03 Jun 2027 08:07:26.619   03 Jun 2027 08:07:27.288             0.669               Magadan2            20.906
       214   03 Jun 2027 08:07:38.049   03 Jun 2027 08:07:57.771            19.722                Anadyr2           616.312
       215   03 Jun 2027 08:08:28.331   03 Jun 2027 08:08:47.384            19.053               Magadan1           595.406
       216   03 Jun 2027 08:08:51.246   03 Jun 2027 08:10:51.949           120.703                Anadyr1          3771.969
       217   03 Jun 2027 09:42:48.140   03 Jun 2027 09:42:57.630             9.490               Magadan2           296.563
       218   03 Jun 2027 09:43:14.084   03 Jun 2027 09:43:30.307            16.223               Magadan1           506.969
       219   03 Jun 2027 09:44:15.727   03 Jun 2027 09:44:32.825            17.098               Magadan1           534.313
       220   03 Jun 2027 09:44:56.667   03 Jun 2027 09:45:38.573            41.906                Irkutsk          1309.563
       221   03 Jun 2027 09:45:59.496   03 Jun 2027 09:47:24.580            85.084               Magadan2          2658.875
       222   03 Jun 2027 09:47:57.565   03 Jun 2027 09:48:25.653            28.088               Magadan2           877.750
       223   03 Jun 2027 09:48:29.413   03 Jun 2027 09:48:33.866             4.453               Magadan2           139.156
       224   03 Jun 2027 09:48:42.028   03 Jun 2027 09:48:46.755             4.727                Irkutsk           147.719
       225   03 Jun 2027 09:51:46.030   03 Jun 2027 09:51:55.698             9.668              Murmansk1           302.125
       226   03 Jun 2027 10:23:48.440   03 Jun 2027 10:24:37.149            48.709            RioGallegos          1522.156
       227   03 Jun 2027 10:28:45.557   03 Jun 2027 10:28:51.525             5.968            RioGallegos           186.500
       228   03 Jun 2027 10:30:25.568   03 Jun 2027 10:30:29.674             4.106            RioGallegos           128.312
       229   03 Jun 2027 10:35:15.994   03 Jun 2027 10:35:41.070            25.076            RioGallegos           783.625
       230   03 Jun 2027 10:59:52.660   03 Jun 2027 11:00:19.593            26.933                Sumatra           841.656
       231   03 Jun 2027 11:05:01.364   03 Jun 2027 11:05:13.368            12.004                Sumatra           375.125
       232   03 Jun 2027 11:20:16.876   03 Jun 2027 11:20:42.122            25.246                Irkutsk           788.938
       233   03 Jun 2027 11:20:47.087   03 Jun 2027 11:20:57.084             9.997                Norilsk           312.406
       234   03 Jun 2027 11:21:15.329   03 Jun 2027 11:21:45.082            29.753                Irkutsk           929.781
       235   03 Jun 2027 11:22:04.441   03 Jun 2027 11:22:26.652            22.211                Norilsk           694.094
       236   03 Jun 2027 11:22:43.710   03 Jun 2027 11:22:58.554            14.844                Irkutsk           463.875
       237   03 Jun 2027 11:23:00.093   03 Jun 2027 11:24:00.117            60.024                Irkutsk          1875.750
       238   03 Jun 2027 11:24:04.304   03 Jun 2027 11:24:08.203             3.899                Norilsk           121.844
       239   03 Jun 2027 11:24:22.754   03 Jun 2027 11:24:39.444            16.690                Norilsk           521.563
       240   03 Jun 2027 11:24:55.496   03 Jun 2027 11:26:07.384            71.888                Novosib          2246.500
       241   03 Jun 2027 12:00:42.299   03 Jun 2027 12:00:55.750            13.451            RioGallegos           420.344
       242   03 Jun 2027 12:34:58.648   03 Jun 2027 12:35:43.905            45.257                Sumatra          1414.281
       243   03 Jun 2027 12:37:12.413   03 Jun 2027 12:39:41.797           149.384                Sumatra          4668.250
       244   03 Jun 2027 12:50:07.387   03 Jun 2027 12:50:34.415            27.028                Irkutsk           844.625
       245   03 Jun 2027 12:50:37.000   03 Jun 2027 12:50:58.706            21.706                Novosib           678.312
       246   03 Jun 2027 12:53:56.863   03 Jun 2027 12:54:18.288            21.425                Norilsk           669.531
       247   03 Jun 2027 14:19:50.608   03 Jun 2027 14:23:08.276           197.668                  Delhi          6177.125
       248   03 Jun 2027 14:23:57.082   03 Jun 2027 14:25:01.721            64.639                  Delhi          2019.969
       249   03 Jun 2027 14:28:12.822   03 Jun 2027 14:30:40.762           147.940                Novosib          4623.125
       250   03 Jun 2027 14:31:54.996   03 Jun 2027 14:32:48.856            53.860                Norilsk          1683.125
       251   03 Jun 2027 16:03:16.648   03 Jun 2027 16:05:13.007           116.359                 Moscow          3636.219
       252   03 Jun 2027 16:06:24.985   03 Jun 2027 16:06:53.582            28.597                 Moscow           893.656
       253   03 Jun 2027 16:07:35.393   03 Jun 2027 16:08:35.736            60.343              Murmansk1          1885.719
       254   03 Jun 2027 16:13:13.296   03 Jun 2027 16:14:19.291            65.995                Norilsk          2062.344
       255   03 Jun 2027 16:16:00.803   03 Jun 2027 16:16:59.004            58.201                Norilsk          1818.781
       256   03 Jun 2027 16:22:56.467   03 Jun 2027 16:23:14.424            17.957                Anadyr1           561.156
       257   03 Jun 2027 16:24:43.373   03 Jun 2027 16:25:17.181            33.808                Anadyr2          1056.500
       258   03 Jun 2027 17:16:52.690   03 Jun 2027 17:18:30.548            97.858               CapeTown          3058.062
       259   03 Jun 2027 17:43:01.066   03 Jun 2027 17:44:08.359            67.293                 Moscow          2102.906
       260   03 Jun 2027 17:44:39.349   03 Jun 2027 17:45:54.318            74.969              Murmansk2          2342.781
       261   03 Jun 2027 17:46:11.931   03 Jun 2027 17:47:06.022            54.091                 Moscow          1690.344
       262   03 Jun 2027 17:49:36.129   03 Jun 2027 17:49:43.585             7.456              Murmansk1           233.000
       263   03 Jun 2027 17:52:59.015   03 Jun 2027 17:53:14.208            15.193              Murmansk1           474.781
       264   03 Jun 2027 17:53:40.243   03 Jun 2027 17:54:25.039            44.796              Murmansk2          1399.875
       265   03 Jun 2027 17:58:17.031   03 Jun 2027 17:58:36.305            19.274                Anadyr2           602.312
       266   03 Jun 2027 18:53:08.777   03 Jun 2027 18:54:37.046            88.269               CapeTown          2758.406
       267   03 Jun 2027 18:56:41.377   03 Jun 2027 18:57:45.432            64.055               CapeTown          2001.719
       268   03 Jun 2027 19:25:14.556   03 Jun 2027 19:29:49.499           274.943              Murmansk1          8591.969
       269   03 Jun 2027 19:29:52.160   03 Jun 2027 19:30:46.193            54.033              Murmansk2          1688.531
       270   03 Jun 2027 19:35:55.675   03 Jun 2027 19:37:08.543            72.868               Magadan2          2277.125
       271   03 Jun 2027 21:09:06.972   03 Jun 2027 21:12:50.367           223.395                Anadyr1          6981.094
       272   03 Jun 2027 21:12:56.972   03 Jun 2027 21:14:18.811            81.839                Anadyr2          2557.469
       273   03 Jun 2027 21:14:30.568   03 Jun 2027 21:15:43.408            72.840               Magadan2          2276.250
       274   03 Jun 2027 21:15:56.041   03 Jun 2027 21:16:08.045            12.004               Magadan2           375.125
       275   03 Jun 2027 21:16:16.815   03 Jun 2027 21:16:31.377            14.562               Magadan1           455.062
       276   03 Jun 2027 21:17:53.480   03 Jun 2027 21:18:27.017            33.537               Magadan1          1048.031
       277   03 Jun 2027 22:04:09.596   03 Jun 2027 22:06:31.741           142.145            RioGallegos          4442.031
       278   03 Jun 2027 22:09:23.153   03 Jun 2027 22:09:32.575             9.422            RioGallegos           294.438
       279   03 Jun 2027 22:09:59.601   03 Jun 2027 22:10:38.042            38.441            RioGallegos          1201.281
       280   03 Jun 2027 22:44:51.393   03 Jun 2027 22:46:22.415            91.022                Anadyr1          2844.437
       281   03 Jun 2027 22:46:49.624   03 Jun 2027 22:47:01.932            12.308                Anadyr1           384.625
       282   03 Jun 2027 22:47:02.273   03 Jun 2027 22:48:34.254            91.981                Norilsk          2874.406
       283   03 Jun 2027 22:48:48.330   03 Jun 2027 22:49:34.796            46.466               Magadan2          1452.062
       284   03 Jun 2027 22:50:43.115   03 Jun 2027 22:51:09.621            26.506               Magadan1           828.312
       285   03 Jun 2027 22:51:27.395   03 Jun 2027 22:52:28.741            61.346                Irkutsk          1917.063
       286   03 Jun 2027 23:05:37.475   03 Jun 2027 23:08:34.853           177.378                Sumatra          5543.063
       287   04 Jun 2027 00:19:53.990   04 Jun 2027 00:21:46.524           112.534                Anadyr1          3516.687
       288   04 Jun 2027 00:22:14.325   04 Jun 2027 00:22:30.540            16.215                Anadyr1           506.719
       289   04 Jun 2027 00:22:49.976   04 Jun 2027 00:22:58.908             8.932                Anadyr2           279.125
       290   04 Jun 2027 00:23:28.878   04 Jun 2027 00:24:51.478            82.600                Norilsk          2581.250
       291   04 Jun 2027 00:25:39.448   04 Jun 2027 00:26:24.352            44.904               Magadan1          1403.250
       292   04 Jun 2027 00:26:43.884   04 Jun 2027 00:28:31.324           107.440                Irkutsk          3357.500
       293   04 Jun 2027 00:29:46.822   04 Jun 2027 00:31:31.083           104.261                Novosib          3258.156
       294   04 Jun 2027 00:40:15.536   04 Jun 2027 00:41:39.012            83.476                  Delhi          2608.625
       295   04 Jun 2027 01:17:03.980   04 Jun 2027 01:17:09.655             5.675            RioGallegos           177.344
       296   04 Jun 2027 01:17:25.399   04 Jun 2027 01:17:40.934            15.535            RioGallegos           485.469
       297   04 Jun 2027 01:19:54.317   04 Jun 2027 01:19:57.226             2.909            RioGallegos            90.906
       298   04 Jun 2027 01:20:42.731   04 Jun 2027 01:21:32.546            49.815            RioGallegos          1556.719
       299   04 Jun 2027 01:54:12.855   04 Jun 2027 01:54:56.296            43.441                Anadyr1          1357.531
       300   04 Jun 2027 01:55:01.545   04 Jun 2027 01:55:14.917            13.372                Anadyr1           417.875
       301   04 Jun 2027 01:56:37.755   04 Jun 2027 01:56:41.505             3.750                Anadyr2           117.188
       302   04 Jun 2027 01:57:53.598   04 Jun 2027 01:58:35.718            42.120                Anadyr1          1316.250
       303   04 Jun 2027 01:58:52.197   04 Jun 2027 02:00:16.664            84.467                Norilsk          2639.594
       304   04 Jun 2027 02:01:24.478   04 Jun 2027 02:02:44.550            80.072              Murmansk1          2502.250
       305   04 Jun 2027 02:02:49.302   04 Jun 2027 02:02:59.524            10.222                Novosib           319.437
       306   04 Jun 2027 02:03:04.212   04 Jun 2027 02:04:05.039            60.827                Irkutsk          1900.844
       307   04 Jun 2027 02:08:35.203   04 Jun 2027 02:08:47.940            12.737                Novosib           398.031
       308   04 Jun 2027 02:09:48.377   04 Jun 2027 02:10:21.097            32.720                Irkutsk          1022.500
       309   04 Jun 2027 02:11:51.846   04 Jun 2027 02:12:12.580            20.734                  Delhi           647.937
       310   04 Jun 2027 02:15:48.460   04 Jun 2027 02:16:17.211            28.751                  Delhi           898.469
       311   04 Jun 2027 02:52:45.182   04 Jun 2027 02:54:45.514           120.332            RioGallegos          3760.375
       312   04 Jun 2027 02:55:28.591   04 Jun 2027 02:56:36.949            68.358            RioGallegos          2136.187
       313   04 Jun 2027 03:43:42.981   04 Jun 2027 03:44:18.955            35.974                Norilsk          1124.187
       314   04 Jun 2027 03:44:25.362   04 Jun 2027 03:44:52.491            27.129                Norilsk           847.781
       315   04 Jun 2027 03:45:37.822   04 Jun 2027 03:47:11.080            93.258                Norilsk          2914.313
       316   04 Jun 2027 03:47:20.063   04 Jun 2027 03:48:16.356            56.293              Murmansk1          1759.156
       317   04 Jun 2027 03:48:20.661   04 Jun 2027 03:48:30.145             9.484              Murmansk1           296.375
       318   04 Jun 2027 03:48:54.393   04 Jun 2027 03:49:36.162            41.769                 Moscow          1305.281
       319   04 Jun 2027 03:51:28.984   04 Jun 2027 03:52:14.681            45.697                 Moscow          1428.031
       320   04 Jun 2027 05:21:20.381   04 Jun 2027 05:22:00.018            39.637                 Moscow          1238.656
       321   04 Jun 2027 05:22:01.614   04 Jun 2027 05:22:41.195            39.581                 Moscow          1236.906
       322   04 Jun 2027 05:22:55.281   04 Jun 2027 05:23:48.663            53.382                 Moscow          1668.188
       323   04 Jun 2027 05:40:15.134   04 Jun 2027 05:41:02.723            47.589               CapeTown          1487.156
       324   04 Jun 2027 05:45:31.471   04 Jun 2027 05:45:53.992            22.521               CapeTown           703.781
       325   04 Jun 2027 06:42:45.622   04 Jun 2027 06:43:15.690            30.068                Anadyr1           939.625
       326   04 Jun 2027 06:43:15.694   04 Jun 2027 06:43:21.532             5.838               Magadan1           182.437
       327   04 Jun 2027 06:43:31.860   04 Jun 2027 06:43:33.636             1.776               Magadan1            55.500
       328   04 Jun 2027 06:43:33.636   04 Jun 2027 06:44:02.908            29.272               Magadan2           914.750
       329   04 Jun 2027 06:44:14.987   04 Jun 2027 06:45:15.205            60.218               Magadan2          1881.813
       330   04 Jun 2027 06:45:16.978   04 Jun 2027 06:45:28.603            11.625                Anadyr2           363.281
       331   04 Jun 2027 06:45:31.614   04 Jun 2027 06:46:02.331            30.717               Magadan1           959.906
       332   04 Jun 2027 06:48:24.549   04 Jun 2027 06:48:49.660            25.111                Anadyr1           784.719
       333   04 Jun 2027 08:15:13.095   04 Jun 2027 08:15:31.332            18.237                Anadyr2           569.906
       334   04 Jun 2027 08:19:21.540   04 Jun 2027 08:19:54.681            33.141                Anadyr2          1035.656
       335   04 Jun 2027 08:20:16.099   04 Jun 2027 08:21:04.419            48.320                Anadyr2          1510.000
       336   04 Jun 2027 08:21:35.313   04 Jun 2027 08:22:07.940            32.627               Magadan1          1019.594
       337   04 Jun 2027 08:22:40.560   04 Jun 2027 08:23:48.945            68.385                Anadyr1          2137.031
       338   04 Jun 2027 09:06:32.367   04 Jun 2027 09:06:34.746             2.379            RioGallegos            74.344
       339   04 Jun 2027 09:54:38.129   04 Jun 2027 09:55:31.937            53.808               Magadan1          1681.500
       340   04 Jun 2027 09:55:31.937   04 Jun 2027 09:55:37.554             5.617               Magadan2           175.531
       341   04 Jun 2027 09:56:26.130   04 Jun 2027 09:57:16.163            50.033               Magadan2          1563.531
       342   04 Jun 2027 09:57:37.636   04 Jun 2027 09:59:25.035           107.399               Magadan1          3356.219
       343   04 Jun 2027 10:00:10.363   04 Jun 2027 10:00:39.421            29.058                Irkutsk           908.063
       344   04 Jun 2027 10:01:49.174   04 Jun 2027 10:01:55.411             6.237                Norilsk           194.906
       345   04 Jun 2027 10:35:45.015   04 Jun 2027 10:36:46.667            61.652            RioGallegos          1926.625
       346   04 Jun 2027 10:44:41.683   04 Jun 2027 10:44:48.215             6.532            RioGallegos           204.125
       347   04 Jun 2027 11:11:24.617   04 Jun 2027 11:12:31.198            66.581                Sumatra          2080.656
       348   04 Jun 2027 11:31:06.756   04 Jun 2027 11:31:47.245            40.489                Irkutsk          1265.281
       349   04 Jun 2027 11:32:44.971   04 Jun 2027 11:32:51.010             6.039                Norilsk           188.719
       350   04 Jun 2027 11:33:51.391   04 Jun 2027 11:34:18.993            27.602                Irkutsk           862.563
       351   04 Jun 2027 11:34:27.476   04 Jun 2027 11:34:29.070             1.594                Norilsk            49.812
       352   04 Jun 2027 11:34:39.008   04 Jun 2027 11:35:05.810            26.802                Irkutsk           837.563
       353   04 Jun 2027 11:35:31.074   04 Jun 2027 11:36:05.716            34.642                Norilsk          1082.562
       354   04 Jun 2027 11:36:10.148   04 Jun 2027 11:36:22.139            11.991                Norilsk           374.719
       355   04 Jun 2027 11:36:24.477   04 Jun 2027 11:36:29.760             5.283                Novosib           165.094
       356   04 Jun 2027 11:36:46.957   04 Jun 2027 11:37:55.386            68.429                Norilsk          2138.406
       357   04 Jun 2027 12:13:10.178   04 Jun 2027 12:13:56.034            45.856            RioGallegos          1433.000
       358   04 Jun 2027 12:47:39.128   04 Jun 2027 12:48:35.444            56.316                Sumatra          1759.875
       359   04 Jun 2027 12:57:09.489   04 Jun 2027 12:57:14.256             4.767                  Delhi           148.969
       360   04 Jun 2027 13:01:48.017   04 Jun 2027 13:03:02.783            74.766                Novosib          2336.437
       361   04 Jun 2027 13:04:54.358   04 Jun 2027 13:05:30.326            35.968                Novosib          1124.000
       362   04 Jun 2027 13:06:31.533   04 Jun 2027 13:08:00.790            89.257                Norilsk          2789.281
       363   04 Jun 2027 14:32:29.396   04 Jun 2027 14:34:53.402           144.006                  Delhi          4500.188
       364   04 Jun 2027 14:35:53.958   04 Jun 2027 14:37:25.907            91.949                  Delhi          2873.406
       365   04 Jun 2027 14:41:32.386   04 Jun 2027 14:42:35.074            62.688                Novosib          1959.000
       366   04 Jun 2027 14:44:25.035   04 Jun 2027 14:44:35.396            10.361                Norilsk           323.781
       367   04 Jun 2027 14:44:41.480   04 Jun 2027 14:46:04.020            82.540                Novosib          2579.375
       368   04 Jun 2027 16:15:27.258   04 Jun 2027 16:17:11.653           104.395                 Moscow          3262.344
       369   04 Jun 2027 16:18:24.502   04 Jun 2027 16:19:20.663            56.161                 Moscow          1755.031
       370   04 Jun 2027 16:19:27.800   04 Jun 2027 16:20:07.540            39.740              Murmansk1          1241.875
       371   04 Jun 2027 16:21:35.107   04 Jun 2027 16:21:59.238            24.131              Murmansk1           754.094
       372   04 Jun 2027 16:25:44.710   04 Jun 2027 16:25:47.983             3.273              Murmansk1           102.281
       373   04 Jun 2027 16:25:47.983   04 Jun 2027 16:26:21.852            33.869              Murmansk2          1058.406
       374   04 Jun 2027 16:26:38.679   04 Jun 2027 16:28:19.504           100.825                Norilsk          3150.781
       375   04 Jun 2027 16:35:10.181   04 Jun 2027 16:35:32.393            22.212                Anadyr1           694.125
       376   04 Jun 2027 16:38:45.599   04 Jun 2027 16:39:35.952            50.353                Anadyr2          1573.531
       377   04 Jun 2027 17:28:46.472   04 Jun 2027 17:30:24.548            98.076               CapeTown          3064.875
       378   04 Jun 2027 17:37:10.993   04 Jun 2027 17:38:18.132            67.139               CapeTown          2098.094
       379   04 Jun 2027 17:55:11.476   04 Jun 2027 17:55:25.818            14.342                 Moscow           448.188
       380   04 Jun 2027 17:56:03.224   04 Jun 2027 17:59:25.844           202.620                 Moscow          6331.875
       381   04 Jun 2027 18:12:00.895   04 Jun 2027 18:12:17.587            16.692                Anadyr1           521.625
       382   04 Jun 2027 18:12:48.491   04 Jun 2027 18:12:52.283             3.792                Anadyr1           118.500
       383   04 Jun 2027 18:17:50.283   04 Jun 2027 18:18:03.383            13.100                Anadyr2           409.375
       384   04 Jun 2027 18:20:13.672   04 Jun 2027 18:20:28.392            14.720                Anadyr1           460.000
       385   04 Jun 2027 19:05:28.537   04 Jun 2027 19:06:42.590            74.053               CapeTown          2314.156
       386   04 Jun 2027 19:08:16.961   04 Jun 2027 19:08:34.465            17.504               CapeTown           547.000
       387   04 Jun 2027 19:09:40.815   04 Jun 2027 19:10:25.749            44.934               CapeTown          1404.188
       388   04 Jun 2027 19:38:14.469   04 Jun 2027 19:42:29.096           254.627              Murmansk1          7957.094
       389   04 Jun 2027 19:47:49.874   04 Jun 2027 19:48:53.386            63.512               Magadan1          1984.750
       390   04 Jun 2027 19:49:46.798   04 Jun 2027 19:50:30.178            43.380               Magadan1          1355.625
       391   04 Jun 2027 19:56:01.477   04 Jun 2027 19:56:14.282            12.805               Magadan2           400.156
       392   04 Jun 2027 21:21:08.240   04 Jun 2027 21:24:50.998           222.758                Anadyr1          6961.188
       393   04 Jun 2027 21:25:04.342   04 Jun 2027 21:27:11.847           127.505               Magadan2          3984.531
       394   04 Jun 2027 21:27:11.847   04 Jun 2027 21:28:32.843            80.996               Magadan1          2531.125
       395   04 Jun 2027 21:30:32.928   04 Jun 2027 21:30:41.320             8.392               Magadan1           262.250
       396   04 Jun 2027 21:34:07.692   04 Jun 2027 21:34:13.359             5.667               Magadan2           177.094
       397   04 Jun 2027 21:35:17.026   04 Jun 2027 21:35:20.097             3.071               Magadan1            95.969
       398   04 Jun 2027 21:35:46.875   04 Jun 2027 21:36:19.592            32.717               Magadan1          1022.406
       399   04 Jun 2027 22:15:51.055   04 Jun 2027 22:18:16.209           145.154            RioGallegos          4536.062
       400   04 Jun 2027 22:25:09.234   04 Jun 2027 22:25:14.209             4.975            RioGallegos           155.469
       401   04 Jun 2027 22:56:49.420   04 Jun 2027 22:58:51.619           122.199                Anadyr1          3818.719
       402   04 Jun 2027 22:58:58.036   04 Jun 2027 23:00:21.619            83.583                Norilsk          2611.969
       403   04 Jun 2027 23:00:27.634   04 Jun 2027 23:00:50.068            22.434               Magadan1           701.062
       404   04 Jun 2027 23:00:50.068   04 Jun 2027 23:01:10.081            20.013               Magadan2           625.406
       405   04 Jun 2027 23:01:44.397   04 Jun 2027 23:02:12.510            28.113               Magadan2           878.531
       406   04 Jun 2027 23:03:17.939   04 Jun 2027 23:04:28.901            70.962                Irkutsk          2217.563
       407   04 Jun 2027 23:06:57.325   04 Jun 2027 23:07:53.285            55.960                Novosib          1748.750
       408   04 Jun 2027 23:17:42.463   04 Jun 2027 23:18:39.470            57.007                Sumatra          1781.469
       409   04 Jun 2027 23:19:33.918   04 Jun 2027 23:20:27.017            53.099                Sumatra          1659.344
       410   04 Jun 2027 23:55:26.746   04 Jun 2027 23:55:28.043             1.297            RioGallegos            40.531
       411   04 Jun 2027 23:55:36.397   04 Jun 2027 23:55:41.266             4.869            RioGallegos           152.156
       412   04 Jun 2027 23:58:52.687   04 Jun 2027 23:59:02.375             9.688            RioGallegos           302.750
       413   05 Jun 2027 00:02:36.619   05 Jun 2027 00:02:48.923            12.304            RioGallegos           384.500
       414   05 Jun 2027 00:31:43.819   05 Jun 2027 00:32:44.139            60.320                Anadyr2          1885.000
       415   05 Jun 2027 00:32:44.139   05 Jun 2027 00:33:06.912            22.773                Anadyr1           711.656
       416   05 Jun 2027 00:33:21.204   05 Jun 2027 00:33:47.857            26.653                Anadyr2           832.906
       417   05 Jun 2027 00:33:59.843   05 Jun 2027 00:34:12.155            12.312                Anadyr2           384.750
       418   05 Jun 2027 00:34:53.687   05 Jun 2027 00:36:36.581           102.894                Norilsk          3215.438
       419   05 Jun 2027 00:38:23.527   05 Jun 2027 00:38:26.629             3.102               Magadan1            96.937
       420   05 Jun 2027 00:38:44.161   05 Jun 2027 00:39:19.497            35.336               Magadan1          1104.250
       421   05 Jun 2027 00:39:20.727   05 Jun 2027 00:40:51.521            90.794                Irkutsk          2837.312
       422   05 Jun 2027 00:40:56.650   05 Jun 2027 00:41:05.018             8.368                Novosib           261.500
       423   05 Jun 2027 00:44:42.116   05 Jun 2027 00:44:59.539            17.423                Novosib           544.469
       424   05 Jun 2027 00:45:21.739   05 Jun 2027 00:45:44.935            23.196                Novosib           724.875
       425   05 Jun 2027 00:47:07.332   05 Jun 2027 00:48:58.176           110.844                  Delhi          3463.875
       426   05 Jun 2027 00:54:17.477   05 Jun 2027 00:56:24.501           127.024                  Delhi          3969.500
       427   05 Jun 2027 02:05:24.615   05 Jun 2027 02:06:11.081            46.466                Anadyr2          1452.063
       428   05 Jun 2027 02:07:11.241   05 Jun 2027 02:07:17.621             6.380                Anadyr2           199.375
       429   05 Jun 2027 02:07:58.087   05 Jun 2027 02:08:21.427            23.340                Anadyr1           729.375
       430   05 Jun 2027 02:10:44.067   05 Jun 2027 02:11:08.143            24.076                Anadyr2           752.375
       431   05 Jun 2027 02:11:17.151   05 Jun 2027 02:12:52.340            95.189               Magadan2          2974.656
       432   05 Jun 2027 02:13:19.859   05 Jun 2027 02:14:04.265            44.406              Murmansk2          1387.688
       433   05 Jun 2027 02:14:20.803   05 Jun 2027 02:14:45.298            24.495              Murmansk1           765.469
       434   05 Jun 2027 02:14:57.001   05 Jun 2027 02:15:31.934            34.933                Novosib          1091.656
       435   05 Jun 2027 02:15:56.253   05 Jun 2027 02:17:16.594            80.341                Irkutsk          2510.656
       436   05 Jun 2027 02:27:17.380   05 Jun 2027 02:27:54.503            37.123                  Delhi          1160.094
       437   05 Jun 2027 02:32:30.194   05 Jun 2027 02:33:38.788            68.594                  Delhi          2143.562
       438   05 Jun 2027 03:06:40.321   05 Jun 2027 03:07:21.864            41.543            RioGallegos          1298.219
       439   05 Jun 2027 03:57:32.392   05 Jun 2027 03:59:07.389            94.997              Murmansk2          2968.656
       440   05 Jun 2027 03:59:07.389   05 Jun 2027 04:00:49.416           102.027              Murmansk1          3188.344
       441   05 Jun 2027 04:03:02.559   05 Jun 2027 04:04:10.874            68.315                 Moscow          2134.844
       442   05 Jun 2027 05:13:58.724   05 Jun 2027 05:15:17.662            78.938                Anadyr2          2466.812
       443   05 Jun 2027 05:19:41.496   05 Jun 2027 05:19:58.226            16.730                Anadyr2           522.813
       444   05 Jun 2027 05:20:09.651   05 Jun 2027 05:20:23.501            13.850                Anadyr1           432.813
       445   05 Jun 2027 05:24:01.261   05 Jun 2027 05:24:20.466            19.205                Anadyr1           600.156
       446   05 Jun 2027 05:33:28.582   05 Jun 2027 05:34:01.840            33.258                 Moscow          1039.313
       447   05 Jun 2027 05:34:08.652   05 Jun 2027 05:34:45.348            36.696                 Moscow          1146.750
       448   05 Jun 2027 05:35:53.472   05 Jun 2027 05:36:01.504             8.032                 Moscow           251.000
       449   05 Jun 2027 05:37:50.183   05 Jun 2027 05:37:52.877             2.694                 Moscow            84.188
       450   05 Jun 2027 05:38:06.660   05 Jun 2027 05:38:16.638             9.978                 Moscow           311.812
       451   05 Jun 2027 05:38:50.937   05 Jun 2027 05:39:42.491            51.554                 Moscow          1611.063
       452   05 Jun 2027 05:52:31.010   05 Jun 2027 05:53:01.286            30.276               CapeTown           946.125
       453   05 Jun 2027 05:53:15.384   05 Jun 2027 05:54:08.540            53.156               CapeTown          1661.125
       454   05 Jun 2027 06:55:24.665   05 Jun 2027 06:55:34.377             9.712               Magadan2           303.500
       455   05 Jun 2027 06:55:47.709   05 Jun 2027 06:55:56.945             9.236               Magadan1           288.625
       456   05 Jun 2027 06:55:59.709   05 Jun 2027 06:57:12.670            72.961                Anadyr2          2280.031
       457   05 Jun 2027 06:57:34.764   05 Jun 2027 06:58:30.222            55.458               Magadan1          1733.063
       458   05 Jun 2027 07:01:00.868   05 Jun 2027 07:01:23.762            22.894               Magadan1           715.438
       459   05 Jun 2027 08:31:14.349   05 Jun 2027 08:32:59.247           104.898                Anadyr1          3278.063
       460   05 Jun 2027 08:33:06.291   05 Jun 2027 08:33:36.899            30.608               Magadan2           956.500
       461   05 Jun 2027 08:33:44.267   05 Jun 2027 08:34:23.910            39.643                Anadyr1          1238.844
       462   05 Jun 2027 08:35:04.103   05 Jun 2027 08:35:31.487            27.384               Magadan1           855.750
       463   05 Jun 2027 08:37:09.085   05 Jun 2027 08:37:18.174             9.089                Anadyr1           284.031
       464   05 Jun 2027 09:13:32.470   05 Jun 2027 09:13:32.971             0.501            RioGallegos            15.656
       465   05 Jun 2027 09:15:53.994   05 Jun 2027 09:16:07.165            13.171            RioGallegos           411.594
       466   05 Jun 2027 09:18:38.062   05 Jun 2027 09:19:36.072            58.010            RioGallegos          1812.813
       467   05 Jun 2027 10:06:24.478   05 Jun 2027 10:07:33.173            68.695               Magadan2          2146.719
       468   05 Jun 2027 10:08:04.962   05 Jun 2027 10:08:29.925            24.963               Magadan1           780.094
       469   05 Jun 2027 10:08:29.925   05 Jun 2027 10:08:39.458             9.533               Magadan2           297.906
       470   05 Jun 2027 10:09:03.016   05 Jun 2027 10:09:12.135             9.119               Magadan2           284.969
       471   05 Jun 2027 10:10:01.382   05 Jun 2027 10:10:20.366            18.984                Irkutsk           593.250
       472   05 Jun 2027 10:10:30.884   05 Jun 2027 10:11:01.230            30.346                Irkutsk           948.313
       473   05 Jun 2027 10:11:24.911   05 Jun 2027 10:12:37.479            72.568               Magadan1          2267.750
       474   05 Jun 2027 10:13:46.937   05 Jun 2027 10:13:51.588             4.651                Norilsk           145.344
       475   05 Jun 2027 10:47:44.875   05 Jun 2027 10:48:20.256            35.381            RioGallegos          1105.656
       476   05 Jun 2027 10:48:48.135   05 Jun 2027 10:48:54.893             6.758            RioGallegos           211.187
       477   05 Jun 2027 10:49:16.802   05 Jun 2027 10:50:12.557            55.755            RioGallegos          1742.344
       478   05 Jun 2027 11:23:04.890   05 Jun 2027 11:23:39.278            34.388                Sumatra          1074.625
       479   05 Jun 2027 11:24:44.013   05 Jun 2027 11:24:49.588             5.575                Sumatra           174.219
       480   05 Jun 2027 11:43:22.113   05 Jun 2027 11:43:37.864            15.751                Novosib           492.219
       481   05 Jun 2027 11:44:03.549   05 Jun 2027 11:44:08.753             5.204                Novosib           162.625
       482   05 Jun 2027 11:44:12.709   05 Jun 2027 11:44:14.370             1.661                Norilsk            51.906
