uniorb/output/strategy_4/Drop/Drop_KinoSat_110108.txt

KinoSat_110108
-------------------------
    Access    *     Start Time (UTCG)     *     Stop Time (UTCG)  *   Duration (s)        *       Station  *  Data (Mbytes)
         1   01 Jun 2027 03:39:57.736   01 Jun 2027 03:41:25.341            87.605                Irkutsk         10950.625
         2   01 Jun 2027 03:42:23.669   01 Jun 2027 03:42:56.816            33.147              Murmansk1          4143.375
         3   01 Jun 2027 03:42:59.399   01 Jun 2027 03:43:28.368            28.969                Novosib          3621.125
         4   01 Jun 2027 03:43:49.619   01 Jun 2027 03:45:59.288           129.669                Norilsk         16208.625
         5   01 Jun 2027 04:22:21.053   01 Jun 2027 04:23:17.898            56.845            RioGallegos          7105.625
         6   01 Jun 2027 04:54:47.662   01 Jun 2027 04:56:38.620           110.958                Sumatra         13869.750
         7   01 Jun 2027 05:08:56.955   01 Jun 2027 05:09:25.057            28.102                  Delhi          3512.750
         8   01 Jun 2027 05:18:02.939   01 Jun 2027 05:18:19.524            16.585                Irkutsk          2073.125
         9   01 Jun 2027 05:18:28.314   01 Jun 2027 05:19:33.625            65.311                Novosib          8163.875
        10   01 Jun 2027 05:20:00.592   01 Jun 2027 05:20:09.635             9.043              Murmansk2          1130.375
        11   01 Jun 2027 05:20:35.854   01 Jun 2027 05:21:32.171            56.317                Norilsk          7039.625
        12   01 Jun 2027 06:39:47.453   01 Jun 2027 06:43:19.087           211.634                  Delhi         26454.250
        13   01 Jun 2027 06:54:27.682   01 Jun 2027 06:55:10.553            42.871                Novosib          5358.875
        14   01 Jun 2027 06:55:19.550   01 Jun 2027 06:56:21.743            62.193              Murmansk1          7774.125
        15   01 Jun 2027 09:39:15.242   01 Jun 2027 09:40:03.232            47.990               CapeTown          5998.750
        16   01 Jun 2027 10:17:01.466   01 Jun 2027 10:17:14.365            12.899                Anadyr1          1612.375
        17   01 Jun 2027 11:55:35.712   01 Jun 2027 11:58:56.704           200.992               Magadan2         25124.000
        18   01 Jun 2027 13:31:01.049   01 Jun 2027 13:31:18.638            17.589               Magadan1          2198.625
        19   01 Jun 2027 13:32:41.401   01 Jun 2027 13:34:17.486            96.085               Magadan2         12010.625
        20   01 Jun 2027 15:12:27.680   01 Jun 2027 15:15:47.277           199.597                Irkutsk         24949.625
        21   01 Jun 2027 15:26:42.519   01 Jun 2027 15:31:57.124           314.605                Sumatra         39325.625
        22   01 Jun 2027 16:54:57.825   01 Jun 2027 17:03:01.891           484.066                  Delhi         39798.250
        23   02 Jun 2027 05:07:16.902   02 Jun 2027 05:08:12.591            55.689                Sumatra          6961.125
        24   02 Jun 2027 05:09:07.795   02 Jun 2027 05:11:01.454           113.659                Sumatra         14207.375
        25   02 Jun 2027 05:32:27.902   02 Jun 2027 05:35:18.695           170.793                 Moscow         21349.125
        26   02 Jun 2027 05:35:35.980   02 Jun 2027 05:39:27.860           231.880              Murmansk1         28985.000
        27   02 Jun 2027 06:58:00.428   02 Jun 2027 07:01:15.635           195.207                  Delhi         24400.875
        28   02 Jun 2027 07:01:34.355   02 Jun 2027 07:03:21.376           107.021                Novosib         13377.625
        29   02 Jun 2027 07:08:00.999   02 Jun 2027 07:08:38.241            37.242                 Moscow          4655.250
        30   02 Jun 2027 07:08:53.311   02 Jun 2027 07:09:00.574             7.263                Norilsk           907.875
        31   02 Jun 2027 07:09:37.711   02 Jun 2027 07:11:43.496           125.785                 Moscow         15723.125
        32   02 Jun 2027 07:12:03.743   02 Jun 2027 07:15:14.763           191.020              Murmansk2         23877.500
        33   02 Jun 2027 08:16:23.781   02 Jun 2027 08:20:16.418           232.637               CapeTown         29079.625
        34   02 Jun 2027 08:38:00.170   02 Jun 2027 08:39:13.546            73.376                 Moscow          9172.000
        35   02 Jun 2027 08:41:36.681   02 Jun 2027 08:42:58.219            81.538              Murmansk1         10192.250
        36   02 Jun 2027 08:42:58.219   02 Jun 2027 08:44:03.130            64.911              Murmansk2          8113.875
        37   02 Jun 2027 08:44:28.026   02 Jun 2027 08:45:24.478            56.452                 Moscow          7056.500
        38   02 Jun 2027 08:46:19.786   02 Jun 2027 08:47:48.182            88.396              Murmansk1         11049.500
        39   02 Jun 2027 08:47:48.182   02 Jun 2027 08:51:12.534           204.352              Murmansk2         25544.000
        40   02 Jun 2027 08:54:01.110   02 Jun 2027 08:55:58.902           117.792                Anadyr1         14724.000
        41   02 Jun 2027 10:38:22.396   02 Jun 2027 10:38:34.418            12.022                Anadyr1          1502.750
        42   02 Jun 2027 10:39:38.332   02 Jun 2027 10:40:01.938            23.606                Anadyr2          2950.750
        43   02 Jun 2027 12:07:25.550   02 Jun 2027 12:09:28.764           123.214               Magadan1         15401.750
        44   02 Jun 2027 12:11:44.731   02 Jun 2027 12:11:50.516             5.785               Magadan1           723.125
        45   02 Jun 2027 12:16:13.150   02 Jun 2027 12:16:56.820            43.670               Magadan1          5458.750
        46   02 Jun 2027 13:43:02.009   02 Jun 2027 13:43:14.803            12.794               Magadan2          1599.250
        47   02 Jun 2027 13:45:06.261   02 Jun 2027 13:46:21.425            75.164               Magadan1          9395.500
        48   02 Jun 2027 13:54:57.965   02 Jun 2027 13:55:57.265            59.300               Magadan2          7412.500
        49   02 Jun 2027 14:38:12.695   02 Jun 2027 14:38:19.200             6.505            RioGallegos           813.125
        50   02 Jun 2027 15:24:28.666   02 Jun 2027 15:28:17.081           228.415                Irkutsk         28551.875
        51   02 Jun 2027 15:39:04.473   02 Jun 2027 15:43:00.589           236.116                Sumatra         29514.500
        52   02 Jun 2027 17:00:52.871   02 Jun 2027 17:03:45.928           173.057                Novosib         21632.125
        53   02 Jun 2027 17:07:39.225   02 Jun 2027 17:13:18.577           339.352                  Delhi         42419.000
        54   02 Jun 2027 20:12:04.107   02 Jun 2027 20:13:26.090            81.983                 Moscow         10247.875
        55   02 Jun 2027 20:18:02.950   02 Jun 2027 20:20:51.203           168.253                 Moscow          7733.500
        56   03 Jun 2027 04:08:21.021   03 Jun 2027 04:08:48.371            27.350                Norilsk          3418.750
        57   03 Jun 2027 05:19:58.677   03 Jun 2027 05:22:16.762           138.085                Sumatra         17260.625
        58   03 Jun 2027 05:26:30.360   03 Jun 2027 05:27:04.137            33.777                  Delhi          4222.125
        59   03 Jun 2027 05:34:04.012   03 Jun 2027 05:36:04.549           120.537                  Delhi         15067.125
        60   03 Jun 2027 05:44:10.893   03 Jun 2027 05:47:25.734           194.841                 Moscow         24355.125
        61   03 Jun 2027 05:47:28.314   03 Jun 2027 05:51:26.963           238.649              Murmansk1         29831.125
        62   03 Jun 2027 07:11:05.372   03 Jun 2027 07:12:03.953            58.581                 Moscow          7322.625
        63   03 Jun 2027 07:15:04.408   03 Jun 2027 07:15:32.487            28.079                Novosib          3509.875
        64   03 Jun 2027 07:20:04.801   03 Jun 2027 07:20:31.801            27.000              Murmansk2          3375.000
        65   03 Jun 2027 07:22:09.487   03 Jun 2027 07:23:46.198            96.711                 Moscow         12088.875
        66   03 Jun 2027 07:23:54.647   03 Jun 2027 07:27:16.063           201.416              Murmansk2         25177.000
        67   03 Jun 2027 08:27:00.201   03 Jun 2027 08:33:57.614           417.413               CapeTown         52176.625
        68   03 Jun 2027 08:49:57.845   03 Jun 2027 08:50:16.154            18.309                 Moscow          2288.625
        69   03 Jun 2027 08:53:38.370   03 Jun 2027 08:56:56.331           197.961              Murmansk1         24745.125
        70   03 Jun 2027 08:57:16.905   03 Jun 2027 08:59:29.657           132.752                 Moscow         16594.000
        71   03 Jun 2027 08:59:49.855   03 Jun 2027 09:03:14.166           204.311              Murmansk1         25538.875
        72   03 Jun 2027 09:05:47.004   03 Jun 2027 09:12:39.910           412.906                Anadyr2         51613.250
        73   03 Jun 2027 10:44:00.106   03 Jun 2027 10:45:52.046           111.940                Anadyr1         13992.500
        74   03 Jun 2027 12:19:21.621   03 Jun 2027 12:20:48.297            86.676               Magadan2         10834.500
        75   03 Jun 2027 12:24:25.372   03 Jun 2027 12:24:27.448             2.076               Magadan2           259.500
        76   03 Jun 2027 12:26:55.000   03 Jun 2027 12:28:33.139            98.139               Magadan2         12267.375
        77   03 Jun 2027 13:58:22.856   03 Jun 2027 13:59:48.931            86.075               Magadan2         10759.375
        78   03 Jun 2027 14:50:29.380   03 Jun 2027 14:51:31.823            62.443            RioGallegos          7805.375
        79   03 Jun 2027 15:34:45.557   03 Jun 2027 15:36:53.088           127.531                Irkutsk         15941.375
        80   03 Jun 2027 15:44:16.317   03 Jun 2027 15:46:01.759           105.442                Irkutsk         13180.250
        81   03 Jun 2027 15:51:19.078   03 Jun 2027 15:54:20.817           181.739                Sumatra         22717.375
        82   03 Jun 2027 17:10:32.743   03 Jun 2027 17:13:04.300           151.557                Novosib         18944.625
        83   03 Jun 2027 17:18:15.224   03 Jun 2027 17:24:25.212           369.988                  Delhi         46248.500
        84   03 Jun 2027 20:24:01.598   03 Jun 2027 20:25:04.045            62.447                 Moscow          7805.875
        85   03 Jun 2027 22:04:17.194   03 Jun 2027 22:05:00.914            43.720                 Moscow          2847.125
        86   04 Jun 2027 05:33:02.341   04 Jun 2027 05:33:06.206             3.865                Sumatra           483.125
        87   04 Jun 2027 05:38:30.502   04 Jun 2027 05:40:33.784           123.282                  Delhi         15410.250
        88   04 Jun 2027 05:41:42.634   04 Jun 2027 05:43:35.855           113.221                  Delhi         14152.625
        89   04 Jun 2027 05:56:27.644   04 Jun 2027 05:57:58.072            90.428                Novosib         11303.500
        90   04 Jun 2027 05:58:27.712   04 Jun 2027 05:59:32.055            64.343                 Moscow          8042.875
        91   04 Jun 2027 05:59:59.876   04 Jun 2027 06:03:26.464           206.588              Murmansk2         25823.500
        92   04 Jun 2027 07:22:59.762   04 Jun 2027 07:23:27.901            28.139                 Moscow          3517.375
        93   04 Jun 2027 07:31:57.457   04 Jun 2027 07:32:28.446            30.989              Murmansk2          3873.625
        94   04 Jun 2027 07:34:09.517   04 Jun 2027 07:35:48.392            98.875                 Moscow         12359.375
        95   04 Jun 2027 07:35:52.875   04 Jun 2027 07:39:17.511           204.636              Murmansk2         25579.500
        96   04 Jun 2027 08:38:13.261   04 Jun 2027 08:46:59.758           526.497               CapeTown         65812.125
        97   04 Jun 2027 09:02:07.856   04 Jun 2027 09:02:21.186            13.330                 Moscow          1666.250
        98   04 Jun 2027 09:05:39.985   04 Jun 2027 09:08:32.029           172.044              Murmansk1         21505.500
        99   04 Jun 2027 09:09:39.637   04 Jun 2027 09:09:58.913            19.276                 Moscow          2409.500
       100   04 Jun 2027 09:10:23.163   04 Jun 2027 09:11:53.064            89.901              Murmansk2         11237.625
       101   04 Jun 2027 09:11:53.064   04 Jun 2027 09:14:14.784           141.720              Murmansk1         17715.000
       102   04 Jun 2027 09:15:12.595   04 Jun 2027 09:15:15.700             3.105              Murmansk2           388.125
       103   04 Jun 2027 09:17:37.065   04 Jun 2027 09:26:07.382           510.317                Anadyr2         63789.625
       104   04 Jun 2027 10:15:33.485   04 Jun 2027 10:20:02.148           268.663               CapeTown         33582.875
       105   04 Jun 2027 12:31:18.827   04 Jun 2027 12:32:23.806            64.979               Magadan1          8122.375
       106   04 Jun 2027 12:36:46.536   04 Jun 2027 12:40:09.937           203.401               Magadan2         25425.125
       107   04 Jun 2027 12:40:26.948   04 Jun 2027 12:41:44.390            77.442               Magadan2          9680.250
       108   04 Jun 2027 15:00:36.422   04 Jun 2027 15:04:28.437           232.015            RioGallegos         29001.875
       109   04 Jun 2027 16:00:21.683   04 Jun 2027 16:04:20.869           239.186                Sumatra         29898.250
       110   04 Jun 2027 17:22:43.313   04 Jun 2027 17:23:29.570            46.257                Novosib          5782.125
       111   04 Jun 2027 17:25:19.828   04 Jun 2027 17:27:30.120           130.292                Novosib         16286.500
       112   04 Jun 2027 17:30:02.627   04 Jun 2027 17:32:32.516           149.889                  Delhi         18736.125
       113   04 Jun 2027 17:35:40.793   04 Jun 2027 17:35:49.395             8.602                  Delhi          1075.250
       114   04 Jun 2027 19:07:44.715   04 Jun 2027 19:08:42.886            58.171                  Delhi          7271.375
       115   04 Jun 2027 19:13:27.965   04 Jun 2027 19:15:18.012           110.047                  Delhi         13755.875
       116   04 Jun 2027 20:36:00.108   04 Jun 2027 20:36:48.129            48.021                 Moscow          6002.625
       117   04 Jun 2027 20:38:21.993   04 Jun 2027 20:39:00.404            38.411                 Moscow          3604.875
       118   05 Jun 2027 04:32:53.213   05 Jun 2027 04:34:16.653            83.440              Murmansk1         10430.000
       119   05 Jun 2027 05:47:37.891   05 Jun 2027 05:48:01.718            23.827                Sumatra          2978.375
       120   05 Jun 2027 05:50:36.050   05 Jun 2027 05:52:50.974           134.924                  Delhi         16865.500
       121   05 Jun 2027 05:55:56.659   05 Jun 2027 05:58:24.505           147.846                  Delhi         18480.750
       122   05 Jun 2027 06:08:24.953   05 Jun 2027 06:11:37.753           192.800                 Moscow         24100.000
       123   05 Jun 2027 06:11:47.008   05 Jun 2027 06:15:26.320           219.312              Murmansk2         27414.000
       124   05 Jun 2027 07:34:56.898   05 Jun 2027 07:36:30.704            93.806                 Moscow         11725.750
       125   05 Jun 2027 07:44:56.009   05 Jun 2027 07:47:50.041           174.032                 Moscow         21754.000
       126   05 Jun 2027 07:47:52.199   05 Jun 2027 07:51:19.063           206.864              Murmansk1         25858.000
       127   05 Jun 2027 08:49:41.263   05 Jun 2027 08:59:44.662           603.399               CapeTown         75424.875
       128   05 Jun 2027 09:14:25.709   05 Jun 2027 09:14:44.564            18.855                 Moscow          2356.875
       129   05 Jun 2027 09:17:41.497   05 Jun 2027 09:18:54.596            73.099              Murmansk2          9137.375
       130   05 Jun 2027 09:18:54.596   05 Jun 2027 09:21:35.697           161.101              Murmansk1         20137.625
       131   05 Jun 2027 09:22:24.861   05 Jun 2027 09:26:04.836           219.975              Murmansk1         27496.875
       132   05 Jun 2027 09:27:14.193   05 Jun 2027 09:27:17.097             2.904              Murmansk2           363.000
       133   05 Jun 2027 09:29:29.874   05 Jun 2027 09:36:48.140           438.266                Anadyr2         54783.250
       134   05 Jun 2027 11:05:15.195   05 Jun 2027 11:05:17.711             2.516                Anadyr2           314.500
       135   05 Jun 2027 12:43:16.954   05 Jun 2027 12:44:06.887            49.933               Magadan2          6241.625
       136   05 Jun 2027 12:45:49.928   05 Jun 2027 12:47:54.920           124.992               Magadan2         15624.000
       137   05 Jun 2027 12:47:54.920   05 Jun 2027 12:48:14.530            19.610               Magadan1          2451.250
       138   05 Jun 2027 12:49:30.210   05 Jun 2027 12:50:19.656            49.446               Magadan2          6180.750
       139   05 Jun 2027 14:19:06.778   05 Jun 2027 14:19:09.168             2.390               Magadan1           298.750
       140   05 Jun 2027 14:20:03.223   05 Jun 2027 14:20:06.634             3.411               Magadan1           426.375
       141   05 Jun 2027 14:23:21.821   05 Jun 2027 14:23:50.295            28.474               Magadan2          3559.250
       142   05 Jun 2027 14:27:09.524   05 Jun 2027 14:28:42.924            93.400               Magadan2         11675.000
       143   05 Jun 2027 15:10:53.708   05 Jun 2027 15:13:24.359           150.651            RioGallegos         18831.375
       144   05 Jun 2027 15:58:37.957   05 Jun 2027 15:59:52.454            74.497                Irkutsk          9312.125
       145   05 Jun 2027 16:01:28.510   05 Jun 2027 16:03:41.105           132.595                Irkutsk         16574.375
       146   05 Jun 2027 16:12:20.458   05 Jun 2027 16:15:01.228           160.770                Sumatra         20096.250
       147   05 Jun 2027 17:37:10.204   05 Jun 2027 17:39:25.091           134.887                Novosib         16860.875
       148   05 Jun 2027 17:41:54.372   05 Jun 2027 17:45:46.082           231.710                  Delhi         28963.750
       149   05 Jun 2027 20:44:44.420   05 Jun 2027 20:45:26.189            41.769              Murmansk1          5221.125
       150   05 Jun 2027 20:47:59.493   05 Jun 2027 20:48:36.258            36.765                 Moscow          4595.625
       151   05 Jun 2027 20:51:09.830   05 Jun 2027 20:52:52.885           103.055                 Moscow         12881.875
       152   06 Jun 2027 03:08:51.894   06 Jun 2027 03:13:55.119           303.225              Murmansk1         37903.125
       153   06 Jun 2027 04:18:21.943   06 Jun 2027 04:20:33.091           131.148                Sumatra         16393.500
       154   06 Jun 2027 04:25:59.450   06 Jun 2027 04:28:01.765           122.315                Sumatra         15289.375
       155   06 Jun 2027 04:43:38.603   06 Jun 2027 04:44:04.062            25.459                Novosib          3182.375
       156   06 Jun 2027 04:44:49.125   06 Jun 2027 04:45:14.448            25.323              Murmansk2          3165.375
       157   06 Jun 2027 04:45:22.761   06 Jun 2027 04:46:14.085            51.324                Norilsk          6415.500
       158   06 Jun 2027 04:46:24.729   06 Jun 2027 04:46:53.827            29.098                 Moscow          3637.250
       159   06 Jun 2027 04:47:22.187   06 Jun 2027 04:51:51.069           268.882              Murmansk1         33610.250
       160   06 Jun 2027 06:02:47.294   06 Jun 2027 06:15:02.356           735.062                  Delhi         91882.750
       161   06 Jun 2027 06:15:03.696   06 Jun 2027 06:16:00.168            56.472                 Moscow          7059.000
       162   06 Jun 2027 06:20:38.282   06 Jun 2027 06:21:06.990            28.708              Murmansk1          3588.500
       163   06 Jun 2027 06:21:09.166   06 Jun 2027 06:21:46.518            37.352                Novosib          4669.000
       164   06 Jun 2027 06:22:07.521   06 Jun 2027 06:23:42.902            95.381                 Moscow         11922.625
       165   06 Jun 2027 06:24:35.652   06 Jun 2027 06:27:26.497           170.845              Murmansk2         21355.625
       166   06 Jun 2027 07:46:56.849   06 Jun 2027 07:47:23.190            26.341                 Moscow          3292.625
       167   06 Jun 2027 07:51:25.960   06 Jun 2027 07:52:59.740            93.780                 Moscow         11722.500
       168   06 Jun 2027 07:55:32.763   06 Jun 2027 07:59:51.092           258.329                 Moscow         32291.125
       169   06 Jun 2027 08:00:05.230   06 Jun 2027 08:03:20.703           195.473              Murmansk2         24434.125
       170   06 Jun 2027 09:03:43.744   06 Jun 2027 09:12:18.383           514.639               CapeTown         64329.875
       171   06 Jun 2027 09:29:42.852   06 Jun 2027 09:31:14.889            92.037              Murmansk1         11504.625
       172   06 Jun 2027 09:31:33.062   06 Jun 2027 09:32:29.687            56.625                 Moscow          7078.125
       173   06 Jun 2027 09:34:26.525   06 Jun 2027 09:38:25.034           238.509              Murmansk2         29813.625
       174   06 Jun 2027 09:39:15.848   06 Jun 2027 09:39:18.299             2.451              Murmansk1           306.375
       175   06 Jun 2027 09:41:24.639   06 Jun 2027 09:43:53.371           148.732                Anadyr2         18591.500
       176   06 Jun 2027 12:55:15.846   06 Jun 2027 13:01:55.973           400.127               Magadan1         50015.875
       177   06 Jun 2027 14:51:38.395   06 Jun 2027 14:52:21.663            43.268                Sumatra          5408.500
       178   06 Jun 2027 15:22:48.837   06 Jun 2027 15:24:35.392           106.555            RioGallegos         13319.375
       179   06 Jun 2027 15:31:26.218   06 Jun 2027 15:32:20.589            54.371            RioGallegos          6796.375
       180   06 Jun 2027 16:13:40.293   06 Jun 2027 16:15:34.569           114.276                Irkutsk         14284.500
       181   06 Jun 2027 16:24:24.843   06 Jun 2027 16:26:09.610           104.767                Sumatra         13095.875
       182   06 Jun 2027 16:27:26.940   06 Jun 2027 16:29:18.014           111.074                Sumatra         13884.250
       183   06 Jun 2027 17:49:40.630   06 Jun 2027 17:51:21.477           100.847                Novosib         12605.875
       184   06 Jun 2027 17:53:49.891   06 Jun 2027 17:56:23.262           153.371                  Delhi         19171.375
       185   06 Jun 2027 19:31:16.712   06 Jun 2027 19:31:18.407             1.695                  Delhi           211.875
       186   06 Jun 2027 20:59:59.646   06 Jun 2027 21:00:27.302            27.656                 Moscow          3457.000
       187   06 Jun 2027 21:01:30.328   06 Jun 2027 21:03:16.106           105.778                 Moscow         13222.250
       188   06 Jun 2027 21:27:06.053   06 Jun 2027 21:29:05.365           119.312               CapeTown         14914.000
       189   07 Jun 2027 02:57:13.573   07 Jun 2027 02:58:53.216            99.643                Sumatra          3496.500
       190   07 Jun 2027 03:20:39.228   07 Jun 2027 03:23:00.369           141.141              Murmansk1         17642.625
       191   07 Jun 2027 04:30:29.206   07 Jun 2027 04:31:49.749            80.543                Sumatra         10067.875
       192   07 Jun 2027 04:33:23.297   07 Jun 2027 04:35:13.529           110.232                Sumatra         13779.000
       193   07 Jun 2027 04:56:37.019   07 Jun 2027 04:57:17.466            40.447              Murmansk2          5055.875
       194   07 Jun 2027 04:57:40.755   07 Jun 2027 04:58:20.479            39.724                Novosib          4965.500
       195   07 Jun 2027 04:58:24.408   07 Jun 2027 04:59:06.434            42.026                 Moscow          5253.250
       196   07 Jun 2027 04:59:16.796   07 Jun 2027 05:03:48.213           271.417              Murmansk1         33927.125
       197   07 Jun 2027 06:22:31.008   07 Jun 2027 06:26:49.316           258.308                  Delhi         32288.500
       198   07 Jun 2027 06:26:58.998   07 Jun 2027 06:27:37.073            38.075                 Moscow          4759.375
       199   07 Jun 2027 06:32:23.857   07 Jun 2027 06:35:47.534           203.677                 Moscow         25459.625
       200   07 Jun 2027 06:36:16.173   07 Jun 2027 06:39:26.958           190.785              Murmansk2         23848.125
       201   07 Jun 2027 08:02:16.726   07 Jun 2027 08:03:09.543            52.817                 Moscow          6602.125
       202   07 Jun 2027 08:07:36.291   07 Jun 2027 08:11:51.488           255.197                 Moscow         31899.625
       203   07 Jun 2027 08:11:52.560   07 Jun 2027 08:15:22.401           209.841              Murmansk2         26230.125
       204   07 Jun 2027 09:17:18.502   07 Jun 2027 09:24:43.676           445.174               CapeTown         55646.750
       205   07 Jun 2027 09:42:06.390   07 Jun 2027 09:42:30.011            23.621              Murmansk1          2952.625
       206   07 Jun 2027 09:42:30.011   07 Jun 2027 09:42:44.790            14.779              Murmansk2          1847.375
       207   07 Jun 2027 09:43:08.920   07 Jun 2027 09:45:57.899           168.979                 Moscow         21122.375
       208   07 Jun 2027 09:46:28.120   07 Jun 2027 09:50:25.185           237.065              Murmansk1         29633.125
       209   07 Jun 2027 09:51:17.531   07 Jun 2027 09:51:19.261             1.730              Murmansk2           216.250
       210   07 Jun 2027 09:53:20.851   07 Jun 2027 10:00:29.674           428.823                Anadyr1         53602.875
       211   07 Jun 2027 13:07:15.390   07 Jun 2027 13:12:07.498           292.108               Magadan1         36513.500
       212   07 Jun 2027 13:14:17.947   07 Jun 2027 13:16:49.927           151.980               Magadan2         18997.500
       213   07 Jun 2027 15:02:43.503   07 Jun 2027 15:05:34.695           171.192                Sumatra         21399.000
       214   07 Jun 2027 15:11:12.685   07 Jun 2027 15:11:24.479            11.794                Sumatra          1474.250
       215   07 Jun 2027 16:26:08.212   07 Jun 2027 16:27:29.839            81.627                Irkutsk         10203.375
       216   07 Jun 2027 16:36:35.099   07 Jun 2027 16:37:17.493            42.394                Sumatra          5299.250
       217   07 Jun 2027 16:37:50.192   07 Jun 2027 16:39:35.789           105.597                  Delhi         13199.625
       218   07 Jun 2027 17:58:29.013   07 Jun 2027 17:58:54.972            25.959                Novosib          3244.875
       219   07 Jun 2027 18:00:05.824   07 Jun 2027 18:01:46.278           100.454                Novosib         12556.750
       220   07 Jun 2027 18:05:48.861   07 Jun 2027 18:07:35.270           106.409                  Delhi         13301.125
       221   07 Jun 2027 18:13:18.834   07 Jun 2027 18:15:24.902           126.068                  Delhi         15758.500
       222   07 Jun 2027 19:40:06.123   07 Jun 2027 19:42:03.176           117.053                 Moscow         14631.625
       223   07 Jun 2027 21:36:33.796   07 Jun 2027 21:37:31.170            57.374               CapeTown          7171.750
       224   07 Jun 2027 21:39:06.195   07 Jun 2027 21:40:52.139           105.944               CapeTown         12597.750
       225   08 Jun 2027 03:32:38.574   08 Jun 2027 03:34:20.100           101.526              Murmansk1         12690.750
       226   08 Jun 2027 04:42:42.624   08 Jun 2027 04:43:18.449            35.825                Sumatra          4478.125
       227   08 Jun 2027 04:44:40.648   08 Jun 2027 04:47:07.832           147.184                Sumatra         18398.000
       228   08 Jun 2027 05:07:18.220   08 Jun 2027 05:07:28.356            10.136                 Moscow          1267.000
       229   08 Jun 2027 05:08:25.377   08 Jun 2027 05:08:56.174            30.797              Murmansk1          3849.625
       230   08 Jun 2027 05:09:09.449   08 Jun 2027 05:10:20.730            71.281                Novosib          8910.125
       231   08 Jun 2027 05:10:29.921   08 Jun 2027 05:11:16.911            46.990                 Moscow          5873.750
       232   08 Jun 2027 05:12:03.589   08 Jun 2027 05:15:45.916           222.327              Murmansk1         27790.875
       233   08 Jun 2027 06:34:29.309   08 Jun 2027 06:36:18.744           109.435                  Delhi         13679.375
       234   08 Jun 2027 06:36:39.334   08 Jun 2027 06:39:55.143           195.809                Novosib         24476.125
       235   08 Jun 2027 06:44:45.885   08 Jun 2027 06:45:17.534            31.649              Murmansk2          3956.125
       236   08 Jun 2027 06:45:19.811   08 Jun 2027 06:47:51.675           151.864                 Moscow         18983.000
       237   08 Jun 2027 06:48:12.287   08 Jun 2027 06:51:27.684           195.397              Murmansk2         24424.625
       238   08 Jun 2027 08:14:16.980   08 Jun 2027 08:15:45.402            88.422                 Moscow         11052.750
       239   08 Jun 2027 08:17:48.248   08 Jun 2027 08:17:58.528            10.280              Murmansk1          1285.000
       240   08 Jun 2027 08:19:00.222   08 Jun 2027 08:23:51.145           290.923                 Moscow         36365.375
       241   08 Jun 2027 08:24:00.213   08 Jun 2027 08:27:24.133           203.920              Murmansk2         25490.000
       242   08 Jun 2027 08:31:14.007   08 Jun 2027 08:34:33.609           199.602                Anadyr2         24950.250
       243   08 Jun 2027 09:30:18.493   08 Jun 2027 09:37:02.060           403.567               CapeTown         50445.875
       244   08 Jun 2027 09:55:10.202   08 Jun 2027 09:56:18.536            68.334                 Moscow          8541.750
       245   08 Jun 2027 10:09:24.947   08 Jun 2027 10:10:19.038            54.091                Anadyr2          6761.375
       246   08 Jun 2027 10:12:13.807   08 Jun 2027 10:14:51.206           157.399                Anadyr1         19674.875
       247   08 Jun 2027 11:50:12.525   08 Jun 2027 11:53:21.498           188.973               Magadan2         23621.625
       248   08 Jun 2027 13:26:36.461   08 Jun 2027 13:29:08.732           152.271               Magadan1         19033.875
       249   08 Jun 2027 15:13:43.223   08 Jun 2027 15:21:41.926           478.703                Sumatra         59837.875
       250   08 Jun 2027 16:38:51.106   08 Jun 2027 16:41:21.127           150.021                Novosib         18752.625
       251   08 Jun 2027 16:48:37.380   08 Jun 2027 16:52:37.971           240.591                  Delhi         30073.875
       252   08 Jun 2027 21:48:02.303   08 Jun 2027 21:49:01.740            59.437               CapeTown          7429.625
       253   09 Jun 2027 03:19:28.292   09 Jun 2027 03:20:43.828            75.536                Sumatra           643.250
       254   09 Jun 2027 04:55:03.161   09 Jun 2027 04:56:53.148           109.987                Sumatra         13748.375
       255   09 Jun 2027 05:09:09.515   09 Jun 2027 05:12:11.137           181.622                  Delhi         22702.750
       256   09 Jun 2027 05:20:25.480   09 Jun 2027 05:21:00.903            35.423              Murmansk1          4427.875
       257   09 Jun 2027 05:21:08.352   09 Jun 2027 05:22:26.089            77.737                Norilsk          9717.125
       258   09 Jun 2027 05:22:33.290   09 Jun 2027 05:23:25.912            52.622                 Moscow          6577.750
       259   09 Jun 2027 05:23:58.065   09 Jun 2027 05:27:44.128           226.063              Murmansk2         28257.875
       260   09 Jun 2027 06:46:24.113   09 Jun 2027 06:48:13.216           109.103                  Delhi         13637.875
       261   09 Jun 2027 06:48:38.513   09 Jun 2027 06:51:40.433           181.920                Novosib         22740.000
       262   09 Jun 2027 06:51:48.376   09 Jun 2027 06:52:14.892            26.516                 Moscow          3314.500
       263   09 Jun 2027 06:56:31.140   09 Jun 2027 06:57:06.592            35.452              Murmansk2          4431.500
       264   09 Jun 2027 06:57:34.681   09 Jun 2027 06:59:55.346           140.665                 Moscow         17583.125
       265   09 Jun 2027 07:00:07.733   09 Jun 2027 07:03:28.625           200.892              Murmansk2         25111.500
       266   09 Jun 2027 08:26:16.478   09 Jun 2027 08:27:45.038            88.560                 Moscow         11070.000
       267   09 Jun 2027 08:29:49.982   09 Jun 2027 08:33:15.508           205.526              Murmansk1         25690.750
       268   09 Jun 2027 08:33:30.686   09 Jun 2027 08:35:49.972           139.286                 Moscow         17410.750
       269   09 Jun 2027 08:36:02.690   09 Jun 2027 08:39:25.861           203.171              Murmansk2         25396.375
       270   09 Jun 2027 08:42:36.746   09 Jun 2027 08:42:56.781            20.035                Anadyr2          2504.375
       271   09 Jun 2027 12:02:02.726   09 Jun 2027 12:03:04.833            62.107               Magadan1          7763.375
       272   09 Jun 2027 13:31:16.045   09 Jun 2027 13:31:33.278            17.233               Magadan1          2154.125
       273   09 Jun 2027 13:32:56.496   09 Jun 2027 13:36:04.295           187.799               Magadan2         23474.875
       274   09 Jun 2027 13:42:51.141   09 Jun 2027 13:44:10.385            79.244               Magadan1          9905.500
       275   09 Jun 2027 15:12:42.463   09 Jun 2027 15:16:12.929           210.466                Irkutsk         26308.250
       276   09 Jun 2027 15:26:58.043   09 Jun 2027 15:32:10.782           312.739                Sumatra         39092.375
       277   09 Jun 2027 16:55:12.190   09 Jun 2027 17:03:13.601           481.411                  Delhi         60176.375
       278   09 Jun 2027 20:05:33.522   09 Jun 2027 20:08:02.594           149.072                 Moscow         18634.000
       279   09 Jun 2027 22:02:47.175   09 Jun 2027 22:04:40.823           113.648               CapeTown          1764.625
       280   10 Jun 2027 05:07:32.619   10 Jun 2027 05:08:26.939            54.320                Sumatra          6790.000
       281   10 Jun 2027 05:09:22.697   10 Jun 2027 05:11:16.442           113.745                Sumatra         14218.125
       282   10 Jun 2027 05:32:31.506   10 Jun 2027 05:33:05.995            34.489              Murmansk1          4311.125
       283   10 Jun 2027 05:33:09.399   10 Jun 2027 05:33:54.072            44.673                Norilsk          5584.125
       284   10 Jun 2027 05:33:56.102   10 Jun 2027 05:35:33.808            97.706                 Moscow         12213.250
       285   10 Jun 2027 05:35:51.411   10 Jun 2027 05:39:42.811           231.400              Murmansk2         28925.000
       286   10 Jun 2027 06:58:15.069   10 Jun 2027 07:00:12.972           117.903                  Delhi         14737.875
       287   10 Jun 2027 07:01:21.191   10 Jun 2027 07:03:27.449           126.258                Novosib         15782.250
       288   10 Jun 2027 07:09:07.975   10 Jun 2027 07:09:16.014             8.039                Norilsk          1004.875
       289   10 Jun 2027 07:09:54.670   10 Jun 2027 07:11:58.534           123.864                 Moscow         15483.000
       290   10 Jun 2027 07:12:02.491   10 Jun 2027 07:15:29.771           207.280              Murmansk1         25910.000
       291   10 Jun 2027 08:16:36.051   10 Jun 2027 08:20:34.490           238.439               CapeTown         29804.875
       292   10 Jun 2027 08:38:15.122   10 Jun 2027 08:39:27.305            72.183                 Moscow          9022.875
       293   10 Jun 2027 08:41:51.707   10 Jun 2027 08:44:02.948           131.241              Murmansk1         16405.125
       294   10 Jun 2027 08:44:42.672   10 Jun 2027 08:47:47.840           185.168                 Moscow         23146.000
       295   10 Jun 2027 08:48:02.904   10 Jun 2027 08:51:27.559           204.655              Murmansk1         25581.875
       296   10 Jun 2027 08:54:15.697   10 Jun 2027 09:00:28.673           372.976                Anadyr1         46622.000
       297   10 Jun 2027 12:07:40.423   10 Jun 2027 12:09:42.655           122.232               Magadan1         15279.000
       298   10 Jun 2027 13:43:17.015   10 Jun 2027 13:43:29.461            12.446               Magadan1          1555.750
       299   10 Jun 2027 13:45:21.299   10 Jun 2027 13:46:36.460            75.161               Magadan1          9395.125
       300   10 Jun 2027 13:52:13.239   10 Jun 2027 13:52:28.031            14.792               Magadan2          1849.000
       301   10 Jun 2027 14:38:18.456   10 Jun 2027 14:38:42.994            24.538            RioGallegos          3067.250
       302   10 Jun 2027 15:23:58.634   10 Jun 2027 15:27:20.073           201.439                Irkutsk         25179.875
       303   10 Jun 2027 15:27:49.186   10 Jun 2027 15:28:31.583            42.397                Irkutsk          5299.625
       304   10 Jun 2027 15:32:19.691   10 Jun 2027 15:32:36.027            16.336                Irkutsk          2042.000
       305   10 Jun 2027 15:39:19.828   10 Jun 2027 15:43:14.615           234.787                Sumatra         29348.375
       306   10 Jun 2027 17:04:00.562   10 Jun 2027 17:06:46.623           166.061                Novosib         20757.625
       307   10 Jun 2027 17:07:54.949   10 Jun 2027 17:13:32.241           337.292                  Delhi         42161.500
       308   10 Jun 2027 20:12:19.017   10 Jun 2027 20:13:40.414            81.397                 Moscow         10174.625
       309   10 Jun 2027 20:18:18.330   10 Jun 2027 20:21:06.721           168.391                 Moscow         12778.375
       310   11 Jun 2027 04:08:39.007   11 Jun 2027 04:09:03.214            24.207                Norilsk          3025.875
       311   11 Jun 2027 05:20:14.725   11 Jun 2027 05:22:30.307           135.582                Sumatra         16947.750
       312   11 Jun 2027 05:26:45.292   11 Jun 2027 05:27:38.822            53.530                  Delhi          6691.250
       313   11 Jun 2027 05:34:19.074   11 Jun 2027 05:36:19.565           120.491                  Delhi         15061.375
       314   11 Jun 2027 05:44:25.098   11 Jun 2027 05:47:40.839           195.741                 Moscow         24467.625
       315   11 Jun 2027 05:47:43.706   11 Jun 2027 05:51:41.924           238.218              Murmansk2         29777.250
       316   11 Jun 2027 07:11:20.212   11 Jun 2027 07:12:18.492            58.280                 Moscow          7285.000
       317   11 Jun 2027 07:15:18.947   11 Jun 2027 07:15:46.639            27.692                Novosib          3461.500
       318   11 Jun 2027 07:20:19.418   11 Jun 2027 07:20:49.019            29.601              Murmansk1          3700.125
       319   11 Jun 2027 07:22:27.389   11 Jun 2027 07:24:01.230            93.841                 Moscow         11730.125
       320   11 Jun 2027 07:24:09.647   11 Jun 2027 07:27:31.075           201.428              Murmansk1         25178.500
       321   11 Jun 2027 08:27:13.941   11 Jun 2027 08:34:14.168           420.227               CapeTown         52528.375
       322   11 Jun 2027 08:50:20.633   11 Jun 2027 08:50:30.839            10.206                 Moscow          1275.750
       323   11 Jun 2027 08:53:53.395   11 Jun 2027 08:55:08.396            75.001              Murmansk2          9375.125
       324   11 Jun 2027 08:55:08.396   11 Jun 2027 08:57:11.231           122.835              Murmansk1         15354.375
       325   11 Jun 2027 08:57:32.315   11 Jun 2027 08:59:44.569           132.254                 Moscow         16531.750
       326   11 Jun 2027 09:00:04.598   11 Jun 2027 09:03:29.191           204.593              Murmansk1         25574.125
       327   11 Jun 2027 09:06:01.710   11 Jun 2027 09:13:00.074           418.364                Anadyr1         52295.500
       328   11 Jun 2027 10:43:28.629   11 Jun 2027 10:44:15.553            46.924                Anadyr2          5865.500
       329   11 Jun 2027 12:19:36.523   11 Jun 2027 12:21:02.567            86.044               Magadan1         10755.500
       330   11 Jun 2027 12:24:40.846   11 Jun 2027 12:24:42.115             1.269               Magadan1           158.625
       331   11 Jun 2027 12:25:30.153   11 Jun 2027 12:29:08.736           218.583               Magadan2         27322.875
       332   11 Jun 2027 14:50:45.353   11 Jun 2027 14:51:58.100            72.747            RioGallegos          9093.375
       333   11 Jun 2027 15:35:00.419   11 Jun 2027 15:37:08.536           128.117                Irkutsk         16014.625
       334   11 Jun 2027 15:48:43.338   11 Jun 2027 15:51:34.292           170.954                Sumatra         21369.250
       335   11 Jun 2027 17:10:47.659   11 Jun 2027 17:13:19.646           151.987                Novosib         18998.375
       336   11 Jun 2027 17:15:51.590   11 Jun 2027 17:16:54.094            62.504                Novosib          7813.000
       337   11 Jun 2027 17:18:29.885   11 Jun 2027 17:24:39.299           369.414                  Delhi         46176.750
       338   11 Jun 2027 20:24:16.533   11 Jun 2027 20:25:18.482            61.949                 Moscow          7743.625
       339   11 Jun 2027 20:30:47.815   11 Jun 2027 20:31:57.552            69.737                 Moscow          8717.125
       340   11 Jun 2027 22:00:09.509   11 Jun 2027 22:01:12.642            63.133                 Moscow          1837.000
       341   12 Jun 2027 05:33:19.061   12 Jun 2027 05:33:20.150             1.089                Sumatra           136.125
       342   12 Jun 2027 05:38:45.545   12 Jun 2027 05:40:47.912           122.367                  Delhi         15295.875
       343   12 Jun 2027 05:41:57.610   12 Jun 2027 05:43:50.445           112.835                  Delhi         14104.375
       344   12 Jun 2027 05:56:31.228   12 Jun 2027 05:58:12.978           101.750                Novosib         12718.750
       345   12 Jun 2027 05:58:43.294   12 Jun 2027 05:59:47.149            63.855                 Moscow          7981.875
       346   12 Jun 2027 06:00:14.615   12 Jun 2027 06:03:41.434           206.819              Murmansk2         25852.375
       347   12 Jun 2027 07:23:14.659   12 Jun 2027 07:23:42.246            27.587                 Moscow          3448.375
       348   12 Jun 2027 07:32:18.507   12 Jun 2027 07:32:45.562            27.055              Murmansk2          3381.875
       349   12 Jun 2027 07:33:36.884   12 Jun 2027 07:35:49.882           132.998                Norilsk         16624.750
       350   12 Jun 2027 07:36:07.465   12 Jun 2027 07:39:32.527           205.062              Murmansk2         25632.750
       351   12 Jun 2027 08:38:27.434   12 Jun 2027 08:47:15.833           528.399               CapeTown         66049.875
       352   12 Jun 2027 09:02:22.589   12 Jun 2027 09:02:35.863            13.274                 Moscow          1659.250
       353   12 Jun 2027 09:05:55.009   12 Jun 2027 09:08:46.562           171.553              Murmansk2         21444.125
       354   12 Jun 2027 09:10:38.020   12 Jun 2027 09:14:29.345           231.325              Murmansk1         28915.625
       355   12 Jun 2027 09:15:27.326   12 Jun 2027 09:15:30.724             3.398              Murmansk2           424.750
       356   12 Jun 2027 09:17:51.847   12 Jun 2027 09:26:23.229           511.382                Anadyr1         63922.750
       357   12 Jun 2027 10:15:48.434   12 Jun 2027 10:20:17.225           268.791               CapeTown         33598.875
       358   12 Jun 2027 12:31:33.753   12 Jun 2027 12:32:38.217            64.464               Magadan2          8058.000
       359   12 Jun 2027 12:37:00.969   12 Jun 2027 12:41:06.710           245.741               Magadan1         30717.625
       360   12 Jun 2027 14:59:21.851   12 Jun 2027 15:00:51.981            90.130            RioGallegos         11266.250
       361   12 Jun 2027 15:03:43.302   12 Jun 2027 15:04:42.918            59.616            RioGallegos          7452.000
       362   12 Jun 2027 15:46:55.922   12 Jun 2027 15:48:34.396            98.474                Irkutsk         12309.250
       363   12 Jun 2027 15:52:04.526   12 Jun 2027 15:52:59.303            54.777                Irkutsk          6847.125
       364   12 Jun 2027 15:56:27.893   12 Jun 2027 15:57:46.128            78.235                Irkutsk          9779.375
       365   12 Jun 2027 16:00:36.582   12 Jun 2027 16:04:34.084           237.502                Sumatra         29687.750
       366   12 Jun 2027 17:23:04.383   12 Jun 2027 17:23:44.025            39.642                Novosib          4955.250
       367   12 Jun 2027 17:30:17.390   12 Jun 2027 17:36:03.702           346.312                  Delhi         43289.000
       368   12 Jun 2027 20:35:34.515   12 Jun 2027 20:36:36.673            62.158              Murmansk1          7769.750
       369   12 Jun 2027 20:38:37.842   12 Jun 2027 20:39:15.621            37.779                 Moscow          4722.375
       370   12 Jun 2027 20:41:11.508   12 Jun 2027 20:43:06.299           114.791                 Moscow          2978.875
       371   13 Jun 2027 04:33:08.957   13 Jun 2027 04:34:33.764            84.807              Murmansk2         10600.875
       372   13 Jun 2027 05:48:11.087   13 Jun 2027 05:48:36.391            25.304                Sumatra          3163.000
       373   13 Jun 2027 05:50:51.209   13 Jun 2027 05:53:06.020           134.811                  Delhi         16851.375
       374   13 Jun 2027 05:55:39.438   13 Jun 2027 05:56:12.234            32.796                  Delhi          4099.500
       375   13 Jun 2027 05:58:39.440   13 Jun 2027 05:59:23.747            44.307                  Delhi          5538.375
       376   13 Jun 2027 06:08:39.573   13 Jun 2027 06:11:52.838           193.265                 Moscow         24158.125
       377   13 Jun 2027 06:12:01.745   13 Jun 2027 06:15:41.299           219.554              Murmansk2         27444.250
       378   13 Jun 2027 07:35:11.852   13 Jun 2027 07:36:46.341            94.489                 Moscow         11811.125
       379   13 Jun 2027 07:45:13.473   13 Jun 2027 07:45:21.224             7.751                Norilsk           968.875
       380   13 Jun 2027 07:45:37.158   13 Jun 2027 07:48:05.054           147.896                 Moscow         18487.000
       381   13 Jun 2027 07:48:08.780   13 Jun 2027 07:51:34.082           205.302              Murmansk2         25662.750
       382   13 Jun 2027 08:49:55.673   13 Jun 2027 09:00:00.457           604.784               CapeTown         75598.000
       383   13 Jun 2027 09:14:40.379   13 Jun 2027 09:14:58.611            18.232                 Moscow          2279.000
       384   13 Jun 2027 09:17:56.521   13 Jun 2027 09:19:11.076            74.555              Murmansk1          9319.375
       385   13 Jun 2027 09:19:11.076   13 Jun 2027 09:21:52.767           161.691              Murmansk2         20211.375
       386   13 Jun 2027 09:22:39.718   13 Jun 2027 09:26:19.409           219.691              Murmansk1         27461.375
       387   13 Jun 2027 09:27:28.928   13 Jun 2027 09:27:32.118             3.190              Murmansk2           398.750
       388   13 Jun 2027 09:29:44.709   13 Jun 2027 09:37:51.292           486.583                Anadyr2         60822.875
       389   13 Jun 2027 12:42:42.965   13 Jun 2027 12:44:07.330            84.365                Anadyr2         10545.625
       390   13 Jun 2027 12:44:07.903   13 Jun 2027 12:46:05.262           117.359               Magadan2         14669.875
       391   13 Jun 2027 12:48:04.600   13 Jun 2027 12:49:45.514           100.914               Magadan2         12614.250
       392   13 Jun 2027 14:19:21.806   13 Jun 2027 14:20:18.286            56.480               Magadan2          7060.000
       393   13 Jun 2027 14:28:57.956   13 Jun 2027 14:29:49.574            51.618               Magadan2          6452.250
       394   13 Jun 2027 15:11:08.563   13 Jun 2027 15:13:38.111           149.548            RioGallegos         18693.500
       395   13 Jun 2027 15:58:52.886   13 Jun 2027 16:00:06.831            73.945                Irkutsk          9243.125
       396   13 Jun 2027 16:01:43.782   13 Jun 2027 16:03:55.795           132.013                Irkutsk         16501.625
       397   13 Jun 2027 16:12:35.476   13 Jun 2027 16:15:15.058           159.582                Sumatra         19947.750
       398   13 Jun 2027 17:35:09.860   13 Jun 2027 17:37:25.930           136.070                Novosib         17008.750
       399   13 Jun 2027 17:42:09.222   13 Jun 2027 17:45:03.348           174.126                  Delhi         21765.750
       400   13 Jun 2027 19:19:00.139   13 Jun 2027 19:20:19.225            79.086                  Delhi          9885.750
       401   13 Jun 2027 20:44:59.433   13 Jun 2027 20:45:00.041             0.608              Murmansk2            76.000
       402   13 Jun 2027 20:45:41.293   13 Jun 2027 20:45:51.456            10.163              Murmansk2          1270.375
       403   13 Jun 2027 20:48:14.469   13 Jun 2027 20:48:50.818            36.349                 Moscow          4543.625
       404   13 Jun 2027 20:51:24.979   13 Jun 2027 20:53:07.651           102.672                 Moscow         12834.000
