uniorb/output/strategy_4/Drop/Drop_KinoSat_110603.txt

KinoSat_110603
-------------------------
    Access    *     Start Time (UTCG)     *     Stop Time (UTCG)  *   Duration (s)        *       Station  *  Data (Mbytes)
         1   01 Jun 2027 04:05:15.332   01 Jun 2027 04:09:25.399           250.067                Anadyr1          7814.594
         2   01 Jun 2027 04:47:35.529   01 Jun 2027 04:48:08.595            33.066            RioGallegos          1033.313
         3   01 Jun 2027 04:48:39.386   01 Jun 2027 04:48:55.349            15.963            RioGallegos           498.844
         4   01 Jun 2027 04:49:41.547   01 Jun 2027 04:50:43.042            61.495            RioGallegos          1921.719
         5   01 Jun 2027 04:51:55.693   01 Jun 2027 04:52:59.484            63.791            RioGallegos          1993.469
         6   01 Jun 2027 05:39:31.668   01 Jun 2027 05:39:40.690             9.022               Magadan2           281.937
         7   01 Jun 2027 05:40:10.397   01 Jun 2027 05:40:57.331            46.934                Irkutsk          1466.687
         8   01 Jun 2027 05:41:11.655   01 Jun 2027 05:42:48.371            96.716                Novosib          3022.375
         9   01 Jun 2027 05:43:00.149   01 Jun 2027 05:44:42.113           101.964               Magadan1          3186.375
        10   01 Jun 2027 05:44:42.122   01 Jun 2027 05:45:15.502            33.380                Irkutsk          1043.125
        11   01 Jun 2027 05:45:24.412   01 Jun 2027 05:46:36.279            71.867              Murmansk1          2245.844
        12   01 Jun 2027 05:46:39.872   01 Jun 2027 05:47:03.203            23.331                Norilsk           729.094
        13   01 Jun 2027 05:47:19.520   01 Jun 2027 05:47:48.434            28.914                Norilsk           903.562
        14   01 Jun 2027 05:48:41.870   01 Jun 2027 05:49:10.108            28.238              Murmansk1           882.437
        15   01 Jun 2027 05:49:13.451   01 Jun 2027 05:49:18.758             5.307                Norilsk           165.844
        16   01 Jun 2027 05:49:30.982   01 Jun 2027 05:49:58.312            27.330                Norilsk           854.062
        17   01 Jun 2027 05:51:07.191   01 Jun 2027 05:51:29.643            22.452              Murmansk1           701.625
        18   01 Jun 2027 05:51:46.143   01 Jun 2027 05:52:08.355            22.212              Murmansk1           694.125
        19   01 Jun 2027 06:19:58.616   01 Jun 2027 06:21:41.716           103.100            RioGallegos          3221.875
        20   01 Jun 2027 06:22:43.244   01 Jun 2027 06:23:15.965            32.721            RioGallegos          1022.531
        21   01 Jun 2027 06:25:02.150   01 Jun 2027 06:25:14.404            12.254            RioGallegos           382.937
        22   01 Jun 2027 06:28:32.990   01 Jun 2027 06:29:34.625            61.635            RioGallegos          1926.094
        23   01 Jun 2027 06:55:10.372   01 Jun 2027 06:56:43.757            93.385                Sumatra          2918.281
        24   01 Jun 2027 06:58:48.102   01 Jun 2027 06:59:19.172            31.070                Sumatra           970.938
        25   01 Jun 2027 07:07:16.422   01 Jun 2027 07:09:56.812           160.390                  Delhi          5012.187
        26   01 Jun 2027 07:10:18.966   01 Jun 2027 07:10:55.587            36.621                  Delhi          1144.406
        27   01 Jun 2027 07:17:00.654   01 Jun 2027 07:18:12.662            72.008                Irkutsk          2250.250
        28   01 Jun 2027 07:18:36.567   01 Jun 2027 07:18:51.370            14.803                Norilsk           462.594
        29   01 Jun 2027 07:18:52.902   01 Jun 2027 07:19:38.456            45.554                Irkutsk          1423.563
        30   01 Jun 2027 07:19:41.213   01 Jun 2027 07:21:03.425            82.212              Murmansk2          2569.125
        31   01 Jun 2027 07:21:03.425   01 Jun 2027 07:23:09.211           125.786              Murmansk1          3930.813
        32   01 Jun 2027 07:23:14.526   01 Jun 2027 07:23:32.897            18.371              Murmansk1           574.094
        33   01 Jun 2027 07:58:17.577   01 Jun 2027 07:58:35.837            18.260            RioGallegos           570.625
        34   01 Jun 2027 07:59:24.122   01 Jun 2027 08:00:12.878            48.756            RioGallegos          1523.625
        35   01 Jun 2027 08:32:33.123   01 Jun 2027 08:34:27.289           114.166                Sumatra          3567.688
        36   01 Jun 2027 08:39:06.211   01 Jun 2027 08:41:53.963           167.752                  Delhi          5242.250
        37   01 Jun 2027 08:56:06.465   01 Jun 2027 08:56:35.050            28.585                Novosib           893.281
        38   01 Jun 2027 08:56:53.882   01 Jun 2027 08:58:27.707            93.825                Novosib          2932.031
        39   01 Jun 2027 08:58:37.952   01 Jun 2027 08:59:43.464            65.512                 Moscow          2047.250
        40   01 Jun 2027 10:19:11.990   01 Jun 2027 10:20:40.798            88.808                  Delhi          2775.250
        41   01 Jun 2027 10:28:30.191   01 Jun 2027 10:30:44.744           134.553              Murmansk1          4204.781
        42   01 Jun 2027 10:30:51.402   01 Jun 2027 10:31:46.272            54.870              Murmansk1          1714.688
        43   01 Jun 2027 10:31:58.460   01 Jun 2027 10:32:45.566            47.106                 Moscow          1472.063
        44   01 Jun 2027 10:33:01.056   01 Jun 2027 10:36:04.965           183.909                Norilsk          5747.156
        45   01 Jun 2027 12:04:14.908   01 Jun 2027 12:04:52.717            37.809                 Moscow          1181.531
        46   01 Jun 2027 12:08:50.753   01 Jun 2027 12:09:22.444            31.691              Murmansk1           990.344
        47   01 Jun 2027 12:10:05.071   01 Jun 2027 12:10:30.784            25.713              Murmansk1           803.531
        48   01 Jun 2027 12:11:31.100   01 Jun 2027 12:11:50.337            19.237              Murmansk1           601.156
        49   01 Jun 2027 12:12:49.512   01 Jun 2027 12:13:36.911            47.399              Murmansk1          1481.219
        50   01 Jun 2027 12:18:23.616   01 Jun 2027 12:25:58.495           454.879                Anadyr2         14214.969
        51   01 Jun 2027 13:57:29.194   01 Jun 2027 13:57:56.989            27.795                Anadyr1           868.594
        52   01 Jun 2027 13:58:20.076   01 Jun 2027 14:02:05.950           225.874               Magadan1          7058.562
        53   01 Jun 2027 15:31:57.679   01 Jun 2027 15:33:43.137           105.458               Magadan2          3295.563
        54   01 Jun 2027 15:35:42.779   01 Jun 2027 15:37:34.493           111.714               Magadan2          3491.063
        55   01 Jun 2027 15:38:00.632   01 Jun 2027 15:38:57.429            56.797               Magadan1          1774.906
        56   01 Jun 2027 17:07:39.046   01 Jun 2027 17:08:50.931            71.885               Magadan1          2246.406
        57   01 Jun 2027 17:09:24.515   01 Jun 2027 17:12:35.565           191.050                Norilsk          5970.313
        58   01 Jun 2027 17:59:45.852   01 Jun 2027 18:01:43.886           118.034            RioGallegos          3688.563
        59   01 Jun 2027 18:03:09.762   01 Jun 2027 18:03:42.889            33.127            RioGallegos          1035.219
        60   01 Jun 2027 18:08:05.780   01 Jun 2027 18:10:16.630           130.850            RioGallegos          4089.063
        61   01 Jun 2027 18:47:14.345   01 Jun 2027 18:47:36.963            22.618                Norilsk           706.812
        62   01 Jun 2027 18:47:42.759   01 Jun 2027 18:48:34.467            51.708                Norilsk          1615.875
        63   01 Jun 2027 18:49:08.102   01 Jun 2027 18:55:02.783           354.681                Novosib         11083.781
        64   01 Jun 2027 19:03:54.600   01 Jun 2027 19:05:13.065            78.465                Sumatra          2452.031
        65   01 Jun 2027 19:10:33.037   01 Jun 2027 19:11:02.306            29.269                Sumatra           914.656
        66   01 Jun 2027 19:11:43.643   01 Jun 2027 19:12:19.173            35.530                Sumatra          1110.313
        67   01 Jun 2027 20:25:02.029   01 Jun 2027 20:25:37.227            35.198                Novosib          1099.938
        68   01 Jun 2027 20:27:20.832   01 Jun 2027 20:27:31.807            10.975                Novosib           342.969
        69   01 Jun 2027 20:27:52.192   01 Jun 2027 20:28:40.028            47.836                Novosib          1494.875
        70   01 Jun 2027 20:30:09.194   01 Jun 2027 20:30:38.250            29.056                Novosib           908.000
        71   01 Jun 2027 20:30:51.505   01 Jun 2027 20:32:42.741           111.236                  Delhi          3476.125
        72   01 Jun 2027 20:34:45.279   01 Jun 2027 20:37:00.463           135.184                  Delhi          4224.500
        73   01 Jun 2027 21:57:30.866   01 Jun 2027 22:03:00.827           329.961              Murmansk2         10311.281
        74   01 Jun 2027 22:03:02.389   01 Jun 2027 22:09:25.120           382.731                 Moscow         11960.344
        75   01 Jun 2027 23:37:24.092   01 Jun 2027 23:38:21.048            56.956                 Moscow          1779.875
        76   01 Jun 2027 23:42:16.230   01 Jun 2027 23:42:33.213            16.983                 Moscow           530.719
        77   01 Jun 2027 23:48:25.172   01 Jun 2027 23:49:08.025            42.853                 Moscow          1339.156
        78   02 Jun 2027 00:00:51.498   02 Jun 2027 00:02:29.534            98.036               CapeTown          3063.625
        79   02 Jun 2027 00:03:24.556   02 Jun 2027 00:04:48.514            83.958               CapeTown          2623.687
        80   02 Jun 2027 00:12:40.074   02 Jun 2027 00:13:06.179            26.105               CapeTown           815.781
        81   02 Jun 2027 01:09:15.190   02 Jun 2027 01:11:38.091           142.901              Murmansk1          4465.656
        82   02 Jun 2027 01:13:38.577   02 Jun 2027 01:13:45.380             6.803              Murmansk2           212.594
        83   02 Jun 2027 01:15:44.388   02 Jun 2027 01:15:50.394             6.006              Murmansk2           187.687
        84   02 Jun 2027 01:16:56.398   02 Jun 2027 01:17:39.869            43.471              Murmansk1          1358.469
        85   02 Jun 2027 01:21:14.136   02 Jun 2027 01:21:50.132            35.996                 Moscow          1124.875
        86   02 Jun 2027 01:24:48.842   02 Jun 2027 01:24:51.719             2.877                 Moscow            89.906
        87   02 Jun 2027 01:38:56.461   02 Jun 2027 01:40:10.654            74.193               CapeTown          2318.531
        88   02 Jun 2027 01:46:34.842   02 Jun 2027 01:46:54.059            19.217               CapeTown           600.531
        89   02 Jun 2027 02:33:04.413   02 Jun 2027 02:35:25.298           140.885               Magadan2          4402.656
        90   02 Jun 2027 02:35:25.756   02 Jun 2027 02:36:03.046            37.290               Magadan1          1165.313
        91   02 Jun 2027 02:37:35.198   02 Jun 2027 02:38:29.373            54.175               Magadan1          1692.969
        92   02 Jun 2027 02:41:19.629   02 Jun 2027 02:41:34.242            14.613                Norilsk           456.656
        93   02 Jun 2027 02:42:17.605   02 Jun 2027 02:42:50.067            32.462                Norilsk          1014.438
        94   02 Jun 2027 02:45:06.170   02 Jun 2027 02:45:34.091            27.921              Murmansk2           872.531
        95   02 Jun 2027 02:45:34.091   02 Jun 2027 02:46:08.102            34.011              Murmansk1          1062.844
        96   02 Jun 2027 02:48:57.386   02 Jun 2027 02:49:12.518            15.132                 Moscow           472.875
        97   02 Jun 2027 02:49:41.258   02 Jun 2027 02:50:24.163            42.905                 Moscow          1340.781
        98   02 Jun 2027 02:54:57.181   02 Jun 2027 02:55:03.467             6.286                 Moscow           196.437
        99   02 Jun 2027 02:57:10.060   02 Jun 2027 02:57:42.063            32.003                 Moscow          1000.094
       100   02 Jun 2027 03:26:12.993   02 Jun 2027 03:27:23.635            70.642            RioGallegos          2207.563
       101   02 Jun 2027 03:27:43.460   02 Jun 2027 03:27:57.084            13.624            RioGallegos           425.750
       102   02 Jun 2027 03:28:34.166   02 Jun 2027 03:28:54.354            20.188            RioGallegos           630.875
       103   02 Jun 2027 03:29:20.781   02 Jun 2027 03:30:40.302            79.521            RioGallegos          2485.031
       104   02 Jun 2027 04:13:49.031   02 Jun 2027 04:14:29.900            40.869               Magadan1          1277.156
       105   02 Jun 2027 04:14:40.806   02 Jun 2027 04:15:26.660            45.854               Magadan2          1432.938
       106   02 Jun 2027 04:15:27.750   02 Jun 2027 04:15:37.772            10.022                Anadyr2           313.187
       107   02 Jun 2027 04:15:46.279   02 Jun 2027 04:18:32.273           165.994                Anadyr2          5187.313
       108   02 Jun 2027 04:18:48.177   02 Jun 2027 04:19:24.581            36.404               Magadan1          1137.625
       109   02 Jun 2027 04:20:10.026   02 Jun 2027 04:20:33.088            23.062                Irkutsk           720.688
       110   02 Jun 2027 04:57:11.005   02 Jun 2027 05:02:03.896           292.891            RioGallegos          9152.844
       111   02 Jun 2027 05:03:15.401   02 Jun 2027 05:03:26.301            10.900            RioGallegos           340.625
       112   02 Jun 2027 05:52:12.744   02 Jun 2027 05:52:43.136            30.392                Irkutsk           949.750
       113   02 Jun 2027 05:53:28.898   02 Jun 2027 05:54:25.114            56.216                Irkutsk          1756.750
       114   02 Jun 2027 05:54:25.123   02 Jun 2027 05:56:16.010           110.887               Magadan1          3465.219
       115   02 Jun 2027 05:56:16.010   02 Jun 2027 05:56:27.955            11.945               Magadan2           373.281
       116   02 Jun 2027 05:56:41.486   02 Jun 2027 05:57:19.736            38.250                Irkutsk          1195.312
       117   02 Jun 2027 05:58:03.040   02 Jun 2027 05:58:20.963            17.923                Novosib           560.094
       118   02 Jun 2027 07:09:59.542   02 Jun 2027 07:11:27.850            88.308                Sumatra          2759.625
       119   02 Jun 2027 07:29:01.037   02 Jun 2027 07:30:17.069            76.032                Irkutsk          2376.000
       120   02 Jun 2027 07:31:29.045   02 Jun 2027 07:32:36.471            67.426                Novosib          2107.062
       121   02 Jun 2027 07:33:07.804   02 Jun 2027 07:33:09.134             1.330                Irkutsk            41.562
       122   02 Jun 2027 07:34:07.284   02 Jun 2027 07:34:51.679            44.395                Novosib          1387.344
       123   02 Jun 2027 09:08:36.941   02 Jun 2027 09:09:21.194            44.253                Novosib          1382.906
       124   02 Jun 2027 10:32:02.667   02 Jun 2027 10:34:12.393           129.726                  Delhi          4053.937
       125   02 Jun 2027 10:41:21.087   02 Jun 2027 10:41:26.123             5.036                Novosib           157.375
       126   02 Jun 2027 10:46:06.666   02 Jun 2027 10:47:04.165            57.499                Norilsk          1796.844
       127   02 Jun 2027 12:15:41.619   02 Jun 2027 12:16:03.418            21.799              Murmansk1           681.219
       128   02 Jun 2027 12:16:46.484   02 Jun 2027 12:19:02.176           135.692              Murmansk2          4240.375
       129   02 Jun 2027 12:19:20.694   02 Jun 2027 12:20:14.732            54.038              Murmansk1          1688.688
       130   02 Jun 2027 12:30:13.481   02 Jun 2027 12:36:04.708           351.227                Anadyr1         10975.844
       131   02 Jun 2027 13:54:50.512   02 Jun 2027 13:55:18.283            27.771              Murmansk1           867.844
       132   02 Jun 2027 13:56:57.444   02 Jun 2027 13:57:33.054            35.610              Murmansk2          1112.813
       133   02 Jun 2027 14:05:35.680   02 Jun 2027 14:07:33.146           117.466                Anadyr2          3670.812
       134   02 Jun 2027 14:08:13.872   02 Jun 2027 14:09:29.350            75.478                Anadyr2          2358.687
       135   02 Jun 2027 14:09:35.358   02 Jun 2027 14:15:27.532           352.174               Magadan1         11005.438
       136   02 Jun 2027 15:43:54.791   02 Jun 2027 15:46:06.870           132.079               Magadan2          4127.469
       137   02 Jun 2027 15:46:24.488   02 Jun 2027 15:47:44.704            80.216               Magadan2          2506.750
       138   02 Jun 2027 15:49:15.623   02 Jun 2027 15:50:31.713            76.090               Magadan2          2377.812
       139   02 Jun 2027 15:51:15.350   02 Jun 2027 15:52:33.704            78.354               Magadan2          2448.563
       140   02 Jun 2027 17:21:18.772   02 Jun 2027 17:22:32.979            74.207               Magadan2          2318.969
       141   02 Jun 2027 17:23:16.842   02 Jun 2027 17:23:50.711            33.869                Norilsk          1058.406
       142   02 Jun 2027 17:24:41.392   02 Jun 2027 17:25:21.313            39.921                Norilsk          1247.531
       143   02 Jun 2027 17:25:54.937   02 Jun 2027 17:30:38.240           283.303                Irkutsk          8853.219
       144   02 Jun 2027 18:55:13.958   02 Jun 2027 18:56:02.430            48.472                Norilsk          1514.750
       145   02 Jun 2027 19:00:13.571   02 Jun 2027 19:01:22.114            68.543                Irkutsk          2141.969
       146   02 Jun 2027 19:01:31.651   02 Jun 2027 19:08:03.915           392.264                Novosib         12258.250
       147   02 Jun 2027 19:14:57.935   02 Jun 2027 19:16:02.999            65.064                Sumatra          2033.250
       148   02 Jun 2027 20:36:49.351   02 Jun 2027 20:37:34.457            45.106                Novosib          1409.562
       149   02 Jun 2027 20:39:06.845   02 Jun 2027 20:39:25.107            18.262                Novosib           570.687
       150   02 Jun 2027 20:39:39.969   02 Jun 2027 20:40:34.581            54.612                Novosib          1706.625
       151   02 Jun 2027 20:42:38.723   02 Jun 2027 20:45:07.740           149.017                  Delhi          4656.781
       152   02 Jun 2027 20:53:52.377   02 Jun 2027 20:54:55.326            62.949                  Delhi          1967.156
       153   02 Jun 2027 22:09:29.052   02 Jun 2027 22:14:58.275           329.223              Murmansk2         10288.219
       154   02 Jun 2027 22:15:01.389   02 Jun 2027 22:21:21.517           380.128                 Moscow         11879.000
       155   02 Jun 2027 22:42:27.185   02 Jun 2027 22:45:57.723           210.538               CapeTown          6579.313
       156   03 Jun 2027 00:15:12.954   03 Jun 2027 00:15:43.985            31.031               CapeTown           969.719
       157   03 Jun 2027 01:13:19.312   03 Jun 2027 01:13:25.525             6.213               Magadan2           194.156
       158   03 Jun 2027 01:15:49.173   03 Jun 2027 01:16:04.833            15.660               Magadan1           489.375
       159   03 Jun 2027 01:16:04.833   03 Jun 2027 01:16:10.342             5.509               Magadan2           172.156
       160   03 Jun 2027 01:16:30.042   03 Jun 2027 01:17:05.778            35.736               Magadan2          1116.750
       161   03 Jun 2027 01:21:16.578   03 Jun 2027 01:22:22.038            65.460              Murmansk1          2045.625
       162   03 Jun 2027 01:23:31.819   03 Jun 2027 01:23:52.216            20.397              Murmansk2           637.406
       163   03 Jun 2027 01:24:33.461   03 Jun 2027 01:25:21.377            47.916                 Moscow          1497.375
       164   03 Jun 2027 01:29:22.958   03 Jun 2027 01:29:40.660            17.702                 Moscow           553.187
       165   03 Jun 2027 01:32:56.058   03 Jun 2027 01:33:21.987            25.929                 Moscow           810.281
       166   03 Jun 2027 01:34:15.070   03 Jun 2027 01:34:17.856             2.786                 Moscow            87.063
       167   03 Jun 2027 01:34:48.082   03 Jun 2027 01:35:30.400            42.318                 Moscow          1322.437
       168   03 Jun 2027 01:49:54.157   03 Jun 2027 01:50:38.148            43.991               CapeTown          1374.719
       169   03 Jun 2027 01:58:09.681   03 Jun 2027 01:58:17.382             7.701               CapeTown           240.656
       170   03 Jun 2027 02:44:57.717   03 Jun 2027 02:48:06.254           188.537               Magadan1          5891.781
       171   03 Jun 2027 02:51:30.814   03 Jun 2027 02:51:56.005            25.191               Magadan1           787.219
       172   03 Jun 2027 02:53:35.320   03 Jun 2027 02:53:44.869             9.549                Norilsk           298.406
       173   03 Jun 2027 02:54:48.194   03 Jun 2027 02:55:22.623            34.429                Norilsk          1075.906
       174   03 Jun 2027 02:57:05.620   03 Jun 2027 02:57:50.999            45.379              Murmansk2          1418.094
       175   03 Jun 2027 02:57:55.739   03 Jun 2027 02:59:03.732            67.993              Murmansk1          2124.781
       176   03 Jun 2027 03:37:16.317   03 Jun 2027 03:40:45.370           209.053            RioGallegos          6532.906
       177   03 Jun 2027 03:43:10.493   03 Jun 2027 03:43:39.055            28.562            RioGallegos           892.562
       178   03 Jun 2027 04:26:10.573   03 Jun 2027 04:26:32.210            21.637               Magadan2           676.156
       179   03 Jun 2027 04:26:32.210   03 Jun 2027 04:26:38.381             6.171               Magadan1           192.844
       180   03 Jun 2027 04:26:44.218   03 Jun 2027 04:28:09.158            84.940               Magadan1          2654.375
       181   03 Jun 2027 04:28:23.244   03 Jun 2027 04:29:33.675            70.431               Magadan2          2200.969
       182   03 Jun 2027 04:29:33.675   03 Jun 2027 04:30:39.992            66.317               Magadan1          2072.406
       183   03 Jun 2027 04:31:03.761   03 Jun 2027 04:31:59.584            55.823               Magadan1          1744.469
       184   03 Jun 2027 04:31:59.584   03 Jun 2027 04:32:10.348            10.764               Magadan2           336.375
       185   03 Jun 2027 04:32:36.010   03 Jun 2027 04:32:45.477             9.467                Irkutsk           295.844
       186   03 Jun 2027 04:33:07.168   03 Jun 2027 04:33:26.148            18.980                Novosib           593.125
       187   03 Jun 2027 04:37:11.133   03 Jun 2027 04:37:36.997            25.864              Murmansk1           808.250
       188   03 Jun 2027 05:08:53.176   03 Jun 2027 05:15:00.599           367.423            RioGallegos         11481.969
       189   03 Jun 2027 05:48:44.426   03 Jun 2027 05:50:58.331           133.905                Sumatra          4184.531
       190   03 Jun 2027 06:04:56.203   03 Jun 2027 06:09:23.220           267.017                Irkutsk          8344.281
       191   03 Jun 2027 07:41:56.638   03 Jun 2027 07:42:12.430            15.792              Murmansk1           493.500
       192   03 Jun 2027 07:42:30.247   03 Jun 2027 07:42:32.082             1.835                Novosib            57.344
       193   03 Jun 2027 07:42:57.889   03 Jun 2027 07:43:32.869            34.980                Novosib          1093.125
       194   03 Jun 2027 07:43:45.686   03 Jun 2027 07:44:14.800            29.114                 Moscow           909.812
       195   03 Jun 2027 07:45:50.070   03 Jun 2027 07:46:00.428            10.358                Norilsk           323.687
       196   03 Jun 2027 07:47:08.649   03 Jun 2027 07:47:09.326             0.677              Murmansk1            21.156
       197   03 Jun 2027 07:47:31.596   03 Jun 2027 07:47:52.861            21.265              Murmansk1           664.531
       198   03 Jun 2027 08:24:00.950   03 Jun 2027 08:24:48.493            47.543            RioGallegos          1485.719
       199   03 Jun 2027 08:30:44.733   03 Jun 2027 08:30:50.954             6.221            RioGallegos           194.406
       200   03 Jun 2027 08:59:59.891   03 Jun 2027 09:01:28.914            89.023                Sumatra          2781.969
       201   03 Jun 2027 09:18:57.973   03 Jun 2027 09:19:07.278             9.305                Novosib           290.781
       202   03 Jun 2027 09:20:41.787   03 Jun 2027 09:20:49.285             7.498                Novosib           234.312
       203   03 Jun 2027 09:21:06.925   03 Jun 2027 09:21:07.598             0.673                Norilsk            21.031
       204   03 Jun 2027 10:59:05.923   03 Jun 2027 10:59:16.747            10.824                Norilsk           338.250
       205   03 Jun 2027 12:27:57.344   03 Jun 2027 12:29:28.810            91.466              Murmansk1          2858.313
       206   03 Jun 2027 12:30:16.998   03 Jun 2027 12:30:51.808            34.810              Murmansk2          1087.812
       207   03 Jun 2027 12:31:01.647   03 Jun 2027 12:31:22.359            20.712              Murmansk2           647.250
       208   03 Jun 2027 12:31:42.969   03 Jun 2027 12:32:08.324            25.355              Murmansk2           792.344
       209   03 Jun 2027 12:32:52.970   03 Jun 2027 12:33:24.122            31.152              Murmansk2           973.500
       210   03 Jun 2027 12:33:57.030   03 Jun 2027 12:34:05.248             8.218              Murmansk2           256.813
       211   03 Jun 2027 12:35:34.437   03 Jun 2027 12:36:14.379            39.942              Murmansk1          1248.188
       212   03 Jun 2027 12:36:52.482   03 Jun 2027 12:37:44.305            51.823              Murmansk1          1619.469
       213   03 Jun 2027 12:42:06.133   03 Jun 2027 12:47:48.495           342.362                Anadyr1         10698.812
       214   03 Jun 2027 12:48:40.216   03 Jun 2027 12:51:19.820           159.604                Anadyr2          4987.625
       215   03 Jun 2027 14:17:35.923   03 Jun 2027 14:18:21.714            45.791                Anadyr1          1430.969
       216   03 Jun 2027 14:20:15.540   03 Jun 2027 14:20:59.622            44.082                Anadyr1          1377.563
       217   03 Jun 2027 14:21:09.261   03 Jun 2027 14:28:05.872           416.611               Magadan2         13019.094
       218   03 Jun 2027 15:55:52.829   03 Jun 2027 15:57:18.837            86.008               Magadan1          2687.750
       219   03 Jun 2027 15:59:46.827   03 Jun 2027 16:00:54.892            68.065               Magadan1          2127.031
       220   03 Jun 2027 17:29:21.291   03 Jun 2027 17:30:19.826            58.535                Anadyr2          1829.219
       221   03 Jun 2027 17:31:39.496   03 Jun 2027 17:32:03.796            24.300                Norilsk           759.375
       222   03 Jun 2027 17:32:50.137   03 Jun 2027 17:34:54.386           124.249               Magadan2          3882.781
       223   03 Jun 2027 17:35:18.256   03 Jun 2027 17:35:49.001            30.745                Norilsk           960.781
       224   03 Jun 2027 17:37:03.065   03 Jun 2027 17:38:17.574            74.509                Norilsk          2328.406
       225   03 Jun 2027 17:39:12.591   03 Jun 2027 17:43:56.540           283.949                Irkutsk          8873.406
       226   03 Jun 2027 17:53:19.557   03 Jun 2027 17:58:19.437           299.880                Sumatra          9371.250
       227   03 Jun 2027 19:12:14.584   03 Jun 2027 19:20:08.887           474.303                Novosib         14821.969
       228   03 Jun 2027 20:46:52.243   03 Jun 2027 20:47:05.246            13.003              Murmansk1           406.344
       229   03 Jun 2027 20:48:06.597   03 Jun 2027 20:49:51.465           104.868              Murmansk1          3277.125
       230   03 Jun 2027 21:05:30.181   03 Jun 2027 21:05:54.740            24.559                  Delhi           767.469
       231   03 Jun 2027 22:21:28.069   03 Jun 2027 22:23:00.542            92.473              Murmansk2          2889.781
       232   03 Jun 2027 22:23:05.503   03 Jun 2027 22:27:21.718           256.215              Murmansk1          8006.719
       233   03 Jun 2027 22:27:54.844   03 Jun 2027 22:31:42.861           228.017                 Moscow          7125.531
       234   03 Jun 2027 22:52:49.057   03 Jun 2027 22:59:10.413           381.356               CapeTown         11917.375
       235   04 Jun 2027 01:33:17.827   04 Jun 2027 01:34:01.480            43.653              Murmansk2          1364.156
       236   04 Jun 2027 01:35:24.470   04 Jun 2027 01:36:29.362            64.892              Murmansk1          2027.875
       237   04 Jun 2027 01:36:37.356   04 Jun 2027 01:37:18.766            41.410                 Moscow          1294.062
       238   04 Jun 2027 01:39:17.870   04 Jun 2027 01:40:54.626            96.756                 Moscow          3023.625
       239   04 Jun 2027 02:06:01.066   04 Jun 2027 02:06:25.458            24.392               CapeTown           762.250
       240   04 Jun 2027 02:09:48.301   04 Jun 2027 02:10:13.515            25.214               CapeTown           787.938
       241   04 Jun 2027 02:56:53.272   04 Jun 2027 02:59:19.054           145.782               Magadan2          4555.688
       242   04 Jun 2027 02:59:25.825   04 Jun 2027 03:00:08.152            42.327               Magadan1          1322.719
       243   04 Jun 2027 03:01:09.888   04 Jun 2027 03:02:25.262            75.374               Magadan2          2355.438
       244   04 Jun 2027 03:03:22.063   04 Jun 2027 03:07:02.140           220.077                Anadyr2          6877.406
       245   04 Jun 2027 03:07:02.140   04 Jun 2027 03:08:01.678            59.538                Anadyr1          1860.562
       246   04 Jun 2027 04:38:17.940   04 Jun 2027 04:39:11.505            53.565                Irkutsk          1673.906
       247   04 Jun 2027 04:39:54.195   04 Jun 2027 04:40:37.536            43.341                Irkutsk          1354.406
       248   04 Jun 2027 04:40:38.291   04 Jun 2027 04:41:04.621            26.330                Novosib           822.813
       249   04 Jun 2027 04:41:11.726   04 Jun 2027 04:44:32.809           201.083                Irkutsk          6283.844
       250   04 Jun 2027 04:44:35.127   04 Jun 2027 04:44:55.926            20.799                Irkutsk           649.969
       251   04 Jun 2027 06:15:33.037   04 Jun 2027 06:15:35.017             1.980               Magadan2            61.875
       252   04 Jun 2027 06:15:35.017   04 Jun 2027 06:16:18.812            43.795               Magadan1          1368.594
       253   04 Jun 2027 06:16:29.285   04 Jun 2027 06:16:30.007             0.722               Magadan1            22.562
       254   04 Jun 2027 06:16:41.092   04 Jun 2027 06:16:42.479             1.387               Magadan1            43.344
       255   04 Jun 2027 06:16:42.479   04 Jun 2027 06:17:06.273            23.794               Magadan2           743.563
       256   04 Jun 2027 06:17:27.539   04 Jun 2027 06:18:27.033            59.494               Magadan2          1859.187
       257   04 Jun 2027 06:18:30.659   04 Jun 2027 06:18:33.219             2.560               Magadan1            80.000
       258   04 Jun 2027 06:19:17.851   04 Jun 2027 06:19:38.246            20.395               Magadan1           637.344
       259   04 Jun 2027 06:21:26.986   04 Jun 2027 06:22:07.953            40.967                Norilsk          1280.219
       260   04 Jun 2027 07:51:10.448   04 Jun 2027 07:51:18.248             7.800                Irkutsk           243.750
       261   04 Jun 2027 07:53:51.971   04 Jun 2027 07:54:08.354            16.383                Novosib           511.969
       262   04 Jun 2027 07:54:13.716   04 Jun 2027 07:54:31.301            17.585              Murmansk1           549.531
       263   04 Jun 2027 07:54:35.194   04 Jun 2027 07:55:36.236            61.042                Novosib          1907.563
       264   04 Jun 2027 07:55:52.562   04 Jun 2027 07:56:58.476            65.914                Irkutsk          2059.813
       265   04 Jun 2027 07:58:01.508   04 Jun 2027 07:58:04.037             2.529                Novosib            79.031
       266   04 Jun 2027 07:59:07.005   04 Jun 2027 07:59:29.774            22.769                 Moscow           711.531
       267   04 Jun 2027 08:37:20.553   04 Jun 2027 08:38:33.903            73.350            RioGallegos          2292.188
       268   04 Jun 2027 09:33:17.383   04 Jun 2027 09:33:29.606            12.223                Novosib           381.969
       269   04 Jun 2027 11:11:15.497   04 Jun 2027 11:11:18.052             2.555                Norilsk            79.844
       270   04 Jun 2027 12:37:13.464   04 Jun 2027 12:38:18.432            64.968                 Moscow          2030.250
       271   04 Jun 2027 12:39:09.702   04 Jun 2027 12:41:24.617           134.915                 Moscow          4216.094
       272   04 Jun 2027 12:41:32.258   04 Jun 2027 12:41:39.303             7.045              Murmansk1           220.156
       273   04 Jun 2027 12:42:18.289   04 Jun 2027 12:42:39.071            20.782              Murmansk1           649.437
       274   04 Jun 2027 12:42:55.566   04 Jun 2027 12:43:01.493             5.927              Murmansk1           185.219
       275   04 Jun 2027 12:43:24.060   04 Jun 2027 12:44:02.680            38.620              Murmansk1          1206.875
       276   04 Jun 2027 12:44:54.333   04 Jun 2027 12:45:15.558            21.225              Murmansk1           663.281
       277   04 Jun 2027 12:49:59.517   04 Jun 2027 12:50:35.628            36.111              Murmansk2          1128.469
       278   04 Jun 2027 12:54:00.767   04 Jun 2027 12:56:21.507           140.740                Anadyr1          4398.125
       279   04 Jun 2027 12:57:39.061   04 Jun 2027 12:59:47.458           128.397                Anadyr2          4012.406
       280   04 Jun 2027 13:01:03.128   04 Jun 2027 13:03:32.085           148.957                Anadyr2          4654.906
       281   04 Jun 2027 14:29:36.480   04 Jun 2027 14:31:10.192            93.712                Anadyr2          2928.500
       282   04 Jun 2027 14:32:51.461   04 Jun 2027 14:39:07.472           376.011               Magadan2         11750.344
       283   04 Jun 2027 14:40:35.659   04 Jun 2027 14:41:16.536            40.877               Magadan1          1277.406
       284   04 Jun 2027 16:07:51.635   04 Jun 2027 16:09:22.666            91.031               Magadan2          2844.719
       285   04 Jun 2027 16:09:54.771   04 Jun 2027 16:11:49.124           114.353               Magadan1          3573.531
       286   04 Jun 2027 17:02:17.319   04 Jun 2027 17:06:33.881           256.562            RioGallegos          8017.562
       287   04 Jun 2027 17:44:15.045   04 Jun 2027 17:44:56.490            41.445                Norilsk          1295.156
       288   04 Jun 2027 17:48:38.328   04 Jun 2027 17:55:39.561           421.233                Irkutsk         13163.531
       289   04 Jun 2027 18:03:52.909   04 Jun 2027 18:11:39.419           466.510                Sumatra         14578.437
       290   04 Jun 2027 19:26:40.411   04 Jun 2027 19:30:05.801           205.390                Novosib          6418.438
       291   04 Jun 2027 19:34:48.526   04 Jun 2027 19:38:21.531           213.005                  Delhi          6656.406
       292   04 Jun 2027 20:58:24.294   04 Jun 2027 21:03:02.537           278.243              Murmansk1          8695.094
       293   04 Jun 2027 22:35:54.120   04 Jun 2027 22:39:42.873           228.753              Murmansk2          7148.531
       294   04 Jun 2027 22:40:37.999   04 Jun 2027 22:40:51.794            13.795                 Moscow           431.094
       295   04 Jun 2027 22:41:04.540   04 Jun 2027 22:45:37.367           272.827                 Moscow          8525.844
       296   04 Jun 2027 23:03:45.186   04 Jun 2027 23:11:51.948           486.762               CapeTown         15211.312
       297   05 Jun 2027 03:10:32.690   05 Jun 2027 03:10:39.391             6.701               Magadan2           209.406
       298   05 Jun 2027 03:13:05.364   05 Jun 2027 03:13:34.550            29.186                Anadyr2           912.063
       299   05 Jun 2027 03:14:37.376   05 Jun 2027 03:14:44.866             7.490               Magadan2           234.062
       300   05 Jun 2027 03:15:48.196   05 Jun 2027 03:20:30.560           282.364                Anadyr1          8823.875
       301   05 Jun 2027 03:20:30.560   05 Jun 2027 03:21:54.654            84.094                Anadyr2          2627.937
       302   05 Jun 2027 04:51:37.491   05 Jun 2027 04:56:05.917           268.426                Irkutsk          8388.313
       303   05 Jun 2027 06:28:30.644   05 Jun 2027 06:28:41.178            10.534               Magadan1           329.188
       304   05 Jun 2027 06:28:44.345   05 Jun 2027 06:29:14.804            30.459               Magadan1           951.844
       305   05 Jun 2027 06:30:17.889   05 Jun 2027 06:30:24.021             6.132               Magadan1           191.625
       306   05 Jun 2027 06:33:15.885   05 Jun 2027 06:33:24.647             8.762                Norilsk           273.812
       307   05 Jun 2027 08:02:21.473   05 Jun 2027 08:02:44.746            23.273                Novosib           727.281
       308   05 Jun 2027 08:06:14.759   05 Jun 2027 08:06:22.654             7.895              Murmansk2           246.719
       309   05 Jun 2027 08:06:32.291   05 Jun 2027 08:07:20.158            47.867                Irkutsk          1495.844
       310   05 Jun 2027 08:07:58.231   05 Jun 2027 08:08:50.138            51.907                Irkutsk          1622.094
       311   05 Jun 2027 08:09:06.137   05 Jun 2027 08:09:10.116             3.979                Novosib           124.344
       312   05 Jun 2027 08:09:23.886   05 Jun 2027 08:09:56.662            32.776                Novosib          1024.250
       313   05 Jun 2027 08:11:40.681   05 Jun 2027 08:11:42.287             1.606                 Moscow            50.187
       314   05 Jun 2027 09:33:11.884   05 Jun 2027 09:33:58.693            46.809                  Delhi          1462.781
       315   05 Jun 2027 09:45:00.881   05 Jun 2027 09:45:33.094            32.213                Novosib          1006.656
       316   05 Jun 2027 11:25:39.837   05 Jun 2027 11:25:43.831             3.994                Norilsk           124.812
       317   05 Jun 2027 12:49:46.872   05 Jun 2027 12:50:57.759            70.887                 Moscow          2215.219
       318   05 Jun 2027 12:52:35.036   05 Jun 2027 12:53:30.357            55.321              Murmansk1          1728.781
       319   05 Jun 2027 12:53:30.357   05 Jun 2027 12:54:19.386            49.029              Murmansk2          1532.156
       320   05 Jun 2027 12:54:26.305   05 Jun 2027 12:54:36.414            10.109              Murmansk2           315.906
       321   05 Jun 2027 12:55:25.761   05 Jun 2027 12:55:33.661             7.900              Murmansk1           246.875
       322   05 Jun 2027 12:55:57.771   05 Jun 2027 12:56:55.835            58.064              Murmansk1          1814.500
       323   05 Jun 2027 13:06:25.324   05 Jun 2027 13:07:56.664            91.340                Anadyr1          2854.375
       324   05 Jun 2027 13:09:40.160   05 Jun 2027 13:10:11.124            30.964                Anadyr1           967.625
       325   05 Jun 2027 13:14:06.843   05 Jun 2027 13:14:38.324            31.481                Anadyr1           983.781
       326   05 Jun 2027 14:01:15.505   05 Jun 2027 14:02:12.470            56.965               CapeTown          1780.156
       327   05 Jun 2027 14:10:14.111   05 Jun 2027 14:10:59.858            45.747               CapeTown          1429.594
       328   05 Jun 2027 14:32:33.605   05 Jun 2027 14:34:43.098           129.493              Murmansk2          4046.656
       329   05 Jun 2027 14:41:37.283   05 Jun 2027 14:43:52.374           135.091                Anadyr1          4221.594
       330   05 Jun 2027 14:44:13.881   05 Jun 2027 14:44:36.074            22.193                Anadyr1           693.531
       331   05 Jun 2027 14:44:38.560   05 Jun 2027 14:53:57.859           559.299               Magadan2         17478.094
       332   05 Jun 2027 16:19:51.095   05 Jun 2027 16:22:00.282           129.187               Magadan2          4037.094
       333   05 Jun 2027 17:13:23.453   05 Jun 2027 17:19:58.590           395.137            RioGallegos         12348.031
       334   05 Jun 2027 17:57:10.379   05 Jun 2027 17:57:58.618            48.239                Norilsk          1507.469
       335   05 Jun 2027 18:00:17.735   05 Jun 2027 18:08:02.978           465.243                Irkutsk         14538.844
       336   05 Jun 2027 18:14:58.411   05 Jun 2027 18:23:26.228           507.817                Sumatra         15869.281
       337   05 Jun 2027 19:39:45.879   05 Jun 2027 19:39:50.385             4.506                Novosib           140.812
       338   05 Jun 2027 19:45:14.694   05 Jun 2027 19:52:09.047           414.353                  Delhi         12948.531
       339   05 Jun 2027 21:10:09.001   05 Jun 2027 21:15:58.907           349.906              Murmansk1         10934.563
       340   05 Jun 2027 22:48:51.519   05 Jun 2027 22:50:46.298           114.779              Murmansk2          3586.844
       341   05 Jun 2027 22:53:58.216   05 Jun 2027 22:54:26.693            28.477                 Moscow           889.906
       342   05 Jun 2027 23:16:45.056   05 Jun 2027 23:22:35.788           350.732               CapeTown         10960.375
       343   06 Jun 2027 01:57:58.822   06 Jun 2027 01:58:01.176             2.354              Murmansk1            73.562
       344   06 Jun 2027 02:00:46.599   06 Jun 2027 02:01:40.215            53.616                 Moscow          1675.500
       345   06 Jun 2027 02:05:28.708   06 Jun 2027 02:05:57.037            28.329                 Moscow           885.281
       346   06 Jun 2027 02:29:29.107   06 Jun 2027 02:30:14.347            45.240               CapeTown          1413.750
       347   06 Jun 2027 02:31:07.263   06 Jun 2027 02:31:24.962            17.699               CapeTown           553.094
       348   06 Jun 2027 02:31:42.969   06 Jun 2027 02:31:44.613             1.644               CapeTown            51.375
       349   06 Jun 2027 03:20:56.935   06 Jun 2027 03:22:19.778            82.843               Magadan1          2588.844
       350   06 Jun 2027 03:27:30.934   06 Jun 2027 03:28:19.960            49.026                Anadyr1          1532.063
       351   06 Jun 2027 03:28:24.968   06 Jun 2027 03:30:05.342           100.374               Magadan1          3136.687
       352   06 Jun 2027 03:30:25.006   06 Jun 2027 03:31:40.569            75.563               Magadan2          2361.344
       353   06 Jun 2027 03:31:40.569   06 Jun 2027 03:33:46.618           126.049               Magadan1          3939.031
       354   06 Jun 2027 04:16:18.980   06 Jun 2027 04:17:31.877            72.897            RioGallegos          2278.031
       355   06 Jun 2027 05:01:36.058   06 Jun 2027 05:01:52.222            16.164                Irkutsk           505.125
       356   06 Jun 2027 05:03:17.265   06 Jun 2027 05:03:46.374            29.109                Irkutsk           909.656
       357   06 Jun 2027 05:03:56.056   06 Jun 2027 05:06:01.264           125.208                Irkutsk          3912.750
       358   06 Jun 2027 05:07:42.372   06 Jun 2027 05:08:53.279            70.907                Irkutsk          2215.844
       359   06 Jun 2027 06:45:53.161   06 Jun 2027 06:46:01.563             8.402                Novosib           262.563
       360   06 Jun 2027 06:47:42.566   06 Jun 2027 06:47:52.311             9.745              Murmansk2           304.531
       361   06 Jun 2027 06:48:25.683   06 Jun 2027 06:49:16.298            50.615              Murmansk2          1581.719
       362   06 Jun 2027 08:18:37.342   06 Jun 2027 08:18:49.031            11.689              Murmansk1           365.281
       363   06 Jun 2027 08:18:53.761   06 Jun 2027 08:19:00.619             6.858              Murmansk1           214.313
       364   06 Jun 2027 08:20:03.095   06 Jun 2027 08:20:23.326            20.231                Irkutsk           632.219
       365   06 Jun 2027 08:20:55.279   06 Jun 2027 08:21:00.976             5.697                Novosib           178.031
       366   06 Jun 2027 08:23:45.793   06 Jun 2027 08:23:52.680             6.887                 Moscow           215.219
       367   06 Jun 2027 09:44:29.696   06 Jun 2027 09:46:13.812           104.116                  Delhi          3253.625
       368   06 Jun 2027 09:53:47.859   06 Jun 2027 09:53:49.627             1.768              Murmansk2            55.250
       369   06 Jun 2027 09:53:52.390   06 Jun 2027 09:54:28.203            35.813              Murmansk2          1119.156
       370   06 Jun 2027 09:57:11.494   06 Jun 2027 09:57:44.829            33.335                Norilsk          1041.719
       371   06 Jun 2027 13:02:26.698   06 Jun 2027 13:03:20.482            53.784                 Moscow          1680.750
       372   06 Jun 2027 13:04:25.842   06 Jun 2027 13:05:08.510            42.668                 Moscow          1333.375
       373   06 Jun 2027 13:05:27.337   06 Jun 2027 13:07:02.169            94.832              Murmansk1          2963.500
       374   06 Jun 2027 13:07:02.169   06 Jun 2027 13:07:15.270            13.101              Murmansk2           409.406
       375   06 Jun 2027 13:08:57.443   06 Jun 2027 13:09:13.505            16.062              Murmansk1           501.938
       376   06 Jun 2027 13:09:28.274   06 Jun 2027 13:09:50.532            22.258              Murmansk1           695.563
       377   06 Jun 2027 13:18:54.561   06 Jun 2027 13:19:40.737            46.176                Anadyr2          1443.000
       378   06 Jun 2027 13:21:41.375   06 Jun 2027 13:23:23.205           101.830                Anadyr1          3182.187
       379   06 Jun 2027 13:24:28.738   06 Jun 2027 13:25:55.167            86.429                Anadyr2          2700.906
       380   06 Jun 2027 14:21:46.962   06 Jun 2027 14:22:18.516            31.554               CapeTown           986.062
       381   06 Jun 2027 14:45:22.094   06 Jun 2027 14:47:08.788           106.694              Murmansk1          3334.187
       382   06 Jun 2027 14:47:21.792   06 Jun 2027 14:48:47.118            85.326              Murmansk2          2666.438
       383   06 Jun 2027 14:53:38.284   06 Jun 2027 14:54:49.678            71.394                Anadyr2          2231.063
       384   06 Jun 2027 14:56:28.954   06 Jun 2027 14:59:54.814           205.860               Magadan1          6433.125
       385   06 Jun 2027 14:59:58.043   06 Jun 2027 15:02:17.395           139.352               Magadan2          4354.750
       386   06 Jun 2027 15:02:47.790   06 Jun 2027 15:06:33.253           225.463               Magadan1          7045.719
       387   06 Jun 2027 16:31:51.107   06 Jun 2027 16:32:41.364            50.257               Magadan2          1570.531
       388   06 Jun 2027 17:24:51.253   06 Jun 2027 17:32:07.528           436.275            RioGallegos         13633.594
       389   06 Jun 2027 18:09:37.417   06 Jun 2027 18:11:23.395           105.978                Norilsk          3311.813
       390   06 Jun 2027 18:12:02.571   06 Jun 2027 18:13:18.088            75.517                Irkutsk          2359.906
       391   06 Jun 2027 18:15:14.504   06 Jun 2027 18:18:07.413           172.909                Irkutsk          5403.406
       392   06 Jun 2027 18:27:01.461   06 Jun 2027 18:27:30.558            29.097                Sumatra           909.281
       393   06 Jun 2027 18:29:29.878   06 Jun 2027 18:33:36.552           246.674                Sumatra          7708.563
       394   06 Jun 2027 19:47:38.433   06 Jun 2027 19:49:08.873            90.440                Novosib          2826.250
       395   06 Jun 2027 19:49:43.075   06 Jun 2027 19:50:33.877            50.802                Novosib          1587.563
       396   06 Jun 2027 19:56:23.528   06 Jun 2027 20:05:11.906           528.378                  Delhi         16511.812
       397   06 Jun 2027 21:21:59.276   06 Jun 2027 21:23:00.475            61.199              Murmansk1          1912.469
       398   06 Jun 2027 21:23:23.400   06 Jun 2027 21:28:47.640           324.240              Murmansk2         10132.500
       399   06 Jun 2027 23:07:51.741   06 Jun 2027 23:09:34.983           103.242                 Moscow          3226.312
       400   06 Jun 2027 23:26:18.372   06 Jun 2027 23:26:51.371            32.999               CapeTown          1031.219
       401   06 Jun 2027 23:29:01.025   06 Jun 2027 23:33:24.556           263.531               CapeTown          8235.344
       402   07 Jun 2027 01:01:07.964   07 Jun 2027 01:02:09.955            61.991               CapeTown          1937.219
       403   07 Jun 2027 01:57:51.922   07 Jun 2027 01:59:37.207           105.285               Magadan1          3290.156
       404   07 Jun 2027 02:00:44.456   07 Jun 2027 02:01:00.615            16.159               Magadan1           504.969
       405   07 Jun 2027 02:06:39.576   07 Jun 2027 02:07:11.768            32.192               Magadan1          1006.000
       406   07 Jun 2027 02:09:20.463   07 Jun 2027 02:10:28.616            68.153              Murmansk2          2129.781
       407   07 Jun 2027 02:10:56.788   07 Jun 2027 02:11:14.503            17.715              Murmansk1           553.594
       408   07 Jun 2027 02:11:31.433   07 Jun 2027 02:11:32.782             1.349              Murmansk1            42.156
       409   07 Jun 2027 02:12:07.741   07 Jun 2027 02:12:13.479             5.738              Murmansk2           179.313
       410   07 Jun 2027 02:12:52.004   07 Jun 2027 02:13:43.052            51.048                 Moscow          1595.250
       411   07 Jun 2027 02:17:34.653   07 Jun 2027 02:18:00.210            25.557                 Moscow           798.656
       412   07 Jun 2027 02:22:26.600   07 Jun 2027 02:22:31.275             4.675                 Moscow           146.094
       413   07 Jun 2027 03:34:20.594   07 Jun 2027 03:36:12.267           111.673               Magadan2          3489.781
       414   07 Jun 2027 03:39:36.192   07 Jun 2027 03:40:27.611            51.419               Magadan1          1606.844
       415   07 Jun 2027 03:40:31.656   07 Jun 2027 03:40:32.123             0.467               Magadan1            14.594
       416   07 Jun 2027 03:40:33.044   07 Jun 2027 03:41:03.586            30.542               Magadan1           954.438
       417   07 Jun 2027 03:41:30.168   07 Jun 2027 03:45:49.712           259.544                Anadyr1          8110.750
       418   07 Jun 2027 04:26:10.315   07 Jun 2027 04:29:21.098           190.783            RioGallegos          5961.969
       419   07 Jun 2027 05:12:32.680   07 Jun 2027 05:12:48.122            15.442                Irkutsk           482.562
       420   07 Jun 2027 05:15:55.610   07 Jun 2027 05:17:37.597           101.987                Irkutsk          3187.094
       421   07 Jun 2027 05:18:28.398   07 Jun 2027 05:18:55.789            27.391                Irkutsk           855.969
       422   07 Jun 2027 05:19:59.733   07 Jun 2027 05:20:27.132            27.399               Magadan1           856.219
       423   07 Jun 2027 05:20:55.270   07 Jun 2027 05:21:19.372            24.102                Irkutsk           753.187
       424   07 Jun 2027 06:55:51.844   07 Jun 2027 06:56:18.942            27.098                Novosib           846.812
       425   07 Jun 2027 06:57:17.040   07 Jun 2027 06:57:18.215             1.175                Norilsk            36.719
       426   07 Jun 2027 06:57:52.852   07 Jun 2027 06:58:10.327            17.475                Norilsk           546.094
       427   07 Jun 2027 06:59:37.410   07 Jun 2027 06:59:48.291            10.881              Murmansk1           340.031
       428   07 Jun 2027 08:11:39.585   07 Jun 2027 08:12:00.145            20.560                Sumatra           642.500
       429   07 Jun 2027 08:14:20.323   07 Jun 2027 08:14:36.803            16.480                Sumatra           515.000
       430   07 Jun 2027 08:29:51.726   07 Jun 2027 08:30:28.796            37.070                Novosib          1158.437
       431   07 Jun 2027 08:30:40.931   07 Jun 2027 08:30:46.772             5.841              Murmansk2           182.531
       432   07 Jun 2027 08:31:01.314   07 Jun 2027 08:31:44.721            43.407                Irkutsk          1356.469
       433   07 Jun 2027 08:32:10.490   07 Jun 2027 08:32:24.343            13.853                Irkutsk           432.906
       434   07 Jun 2027 08:33:16.900   07 Jun 2027 08:33:21.575             4.675                Norilsk           146.094
       435   07 Jun 2027 08:35:18.897   07 Jun 2027 08:36:07.483            48.586              Murmansk2          1518.312
       436   07 Jun 2027 09:55:22.716   07 Jun 2027 09:56:28.111            65.395                  Delhi          2043.594
       437   07 Jun 2027 09:58:01.495   07 Jun 2027 09:59:25.895            84.400                  Delhi          2637.500
       438   07 Jun 2027 10:05:49.445   07 Jun 2027 10:06:28.911            39.466              Murmansk1          1233.312
       439   07 Jun 2027 10:06:44.923   07 Jun 2027 10:07:07.067            22.144              Murmansk1           692.000
       440   07 Jun 2027 10:09:20.555   07 Jun 2027 10:09:33.739            13.184                Novosib           412.000
       441   07 Jun 2027 13:15:14.803   07 Jun 2027 13:16:16.814            62.011                 Moscow          1937.844
       442   07 Jun 2027 13:16:25.727   07 Jun 2027 13:17:01.992            36.265                 Moscow          1133.281
       443   07 Jun 2027 13:17:22.778   07 Jun 2027 13:17:33.664            10.886              Murmansk2           340.188
       444   07 Jun 2027 13:18:01.168   07 Jun 2027 13:18:20.731            19.563              Murmansk2           611.344
       445   07 Jun 2027 13:19:29.044   07 Jun 2027 13:19:58.229            29.185              Murmansk2           912.031
       446   07 Jun 2027 13:31:29.656   07 Jun 2027 13:32:06.236            36.580                Anadyr1          1143.125
       447   07 Jun 2027 13:33:15.337   07 Jun 2027 13:35:18.894           123.557                Anadyr2          3861.156
       448   07 Jun 2027 14:25:44.901   07 Jun 2027 14:26:57.452            72.551               CapeTown          2267.219
       449   07 Jun 2027 14:30:01.379   07 Jun 2027 14:30:33.172            31.793               CapeTown           993.531
       450   07 Jun 2027 14:35:36.481   07 Jun 2027 14:35:46.263             9.782               CapeTown           305.687
       451   07 Jun 2027 14:58:18.077   07 Jun 2027 15:02:38.255           260.178              Murmansk2          8130.562
       452   07 Jun 2027 15:05:39.425   07 Jun 2027 15:06:49.464            70.039                Anadyr1          2188.719
       453   07 Jun 2027 15:08:21.726   07 Jun 2027 15:10:58.730           157.004               Magadan1          4906.375
       454   07 Jun 2027 15:11:54.407   07 Jun 2027 15:16:21.654           267.247               Magadan2          8351.469
       455   07 Jun 2027 15:16:21.654   07 Jun 2027 15:17:51.804            90.150               Magadan1          2817.188
       456   07 Jun 2027 16:43:51.588   07 Jun 2027 16:44:07.555            15.967               Magadan2           498.969
       457   07 Jun 2027 16:46:28.197   07 Jun 2027 16:47:07.920            39.723               Magadan2          1241.344
       458   07 Jun 2027 16:48:16.004   07 Jun 2027 16:49:57.549           101.545               Magadan2          3173.281
       459   07 Jun 2027 17:36:28.943   07 Jun 2027 17:37:38.401            69.458            RioGallegos          2170.562
       460   07 Jun 2027 17:38:06.977   07 Jun 2027 17:42:58.067           291.090            RioGallegos          9096.563
       461   07 Jun 2027 18:19:28.021   07 Jun 2027 18:23:49.166           261.145                Norilsk          8160.781
       462   07 Jun 2027 18:24:49.008   07 Jun 2027 18:25:50.938            61.930                Irkutsk          1935.313
       463   07 Jun 2027 18:27:16.812   07 Jun 2027 18:27:28.974            12.162                Irkutsk           380.063
       464   07 Jun 2027 18:37:51.929   07 Jun 2027 18:41:31.470           219.541                Sumatra          6860.656
       465   07 Jun 2027 18:42:26.928   07 Jun 2027 18:42:51.879            24.951                Sumatra           779.719
       466   07 Jun 2027 18:43:18.546   07 Jun 2027 18:44:34.667            76.121                Sumatra          2378.781
       467   07 Jun 2027 20:00:56.449   07 Jun 2027 20:03:11.661           135.212                Novosib          4225.375
       468   07 Jun 2027 20:09:04.501   07 Jun 2027 20:14:58.068           353.567                  Delhi         11048.969
       469   07 Jun 2027 21:33:52.781   07 Jun 2027 21:41:31.070           458.289              Murmansk2         14321.531
       470   07 Jun 2027 23:12:58.535   07 Jun 2027 23:13:22.883            24.348                 Moscow           760.875
       471   07 Jun 2027 23:14:15.489   07 Jun 2027 23:15:01.422            45.933                 Moscow          1435.406
       472   07 Jun 2027 23:18:36.836   07 Jun 2027 23:19:04.774            27.938              Murmansk1           873.062
       473   07 Jun 2027 23:21:39.550   07 Jun 2027 23:21:49.161             9.611                 Moscow           300.344
       474   07 Jun 2027 23:37:47.917   07 Jun 2027 23:39:11.900            83.983               CapeTown          2624.469
       475   07 Jun 2027 23:41:10.816   07 Jun 2027 23:43:18.875           128.059               CapeTown          4001.844
       476   07 Jun 2027 23:43:34.206   07 Jun 2027 23:44:31.756            57.550               CapeTown          1798.437
       477   08 Jun 2027 00:49:50.129   08 Jun 2027 00:51:14.657            84.528                 Moscow          2641.500
       478   08 Jun 2027 01:12:50.323   08 Jun 2027 01:13:55.669            65.346               CapeTown          2042.063
       479   08 Jun 2027 01:17:50.007   08 Jun 2027 01:18:41.083            51.076               CapeTown          1596.125
       480   08 Jun 2027 02:09:32.674   08 Jun 2027 02:09:49.369            16.695                Anadyr1           521.719
       481   08 Jun 2027 02:10:40.727   08 Jun 2027 02:12:24.239           103.512               Magadan1          3234.750
       482   08 Jun 2027 02:12:55.342   08 Jun 2027 02:13:10.600            15.258               Magadan2           476.812
