uniorb/output/strategy_4/Drop/Drop_KinoSat_110703.txt

KinoSat_110703
-------------------------
    Access    *     Start Time (UTCG)     *     Stop Time (UTCG)  *   Duration (s)        *       Station  *  Data (Mbytes)
         1   01 Jun 2027 04:00:26.507   01 Jun 2027 04:00:48.752            22.245                Irkutsk           695.156
         2   01 Jun 2027 04:01:05.015   01 Jun 2027 04:02:21.362            76.347               Magadan2          2385.844
         3   01 Jun 2027 04:02:56.660   01 Jun 2027 04:05:15.332           138.672                Anadyr2          4333.500
         4   01 Jun 2027 05:34:44.484   01 Jun 2027 05:35:37.692            53.208               Magadan1          1662.750
         5   01 Jun 2027 05:35:56.655   01 Jun 2027 05:39:36.777           220.122                Irkutsk          6878.812
         6   01 Jun 2027 05:39:40.690   01 Jun 2027 05:40:07.460            26.770               Magadan1           836.563
         7   01 Jun 2027 05:40:23.503   01 Jun 2027 05:40:53.399            29.896               Magadan2           934.250
         8   01 Jun 2027 05:40:56.792   01 Jun 2027 05:41:56.550            59.758              Murmansk1          1867.438
         9   01 Jun 2027 05:42:50.103   01 Jun 2027 05:43:26.673            36.570              Murmansk1          1142.813
        10   01 Jun 2027 05:43:32.300   01 Jun 2027 05:44:32.866            60.566              Murmansk1          1892.687
        11   01 Jun 2027 05:50:10.677   01 Jun 2027 05:50:21.343            10.666              Murmansk1           333.312
        12   01 Jun 2027 06:15:51.541   01 Jun 2027 06:17:17.195            85.654            RioGallegos          2676.687
        13   01 Jun 2027 06:18:00.012   01 Jun 2027 06:18:56.028            56.016            RioGallegos          1750.500
        14   01 Jun 2027 06:19:53.912   01 Jun 2027 06:19:58.616             4.704            RioGallegos           147.000
        15   01 Jun 2027 06:21:41.716   01 Jun 2027 06:22:10.829            29.113            RioGallegos           909.781
        16   01 Jun 2027 06:24:13.987   01 Jun 2027 06:24:47.892            33.905            RioGallegos          1059.531
        17   01 Jun 2027 06:52:14.485   01 Jun 2027 06:52:48.758            34.273                Sumatra          1071.031
        18   01 Jun 2027 06:53:43.673   01 Jun 2027 06:54:48.924            65.251                Sumatra          2039.094
        19   01 Jun 2027 06:57:48.090   01 Jun 2027 06:58:48.102            60.012                Sumatra          1875.375
        20   01 Jun 2027 06:59:19.172   01 Jun 2027 06:59:56.637            37.465                Sumatra          1170.781
        21   01 Jun 2027 07:12:22.200   01 Jun 2027 07:12:47.818            25.618                Norilsk           800.563
        22   01 Jun 2027 07:12:56.290   01 Jun 2027 07:14:21.725            85.435                Novosib          2669.844
        23   01 Jun 2027 07:14:24.515   01 Jun 2027 07:15:04.808            40.293                Norilsk          1259.156
        24   01 Jun 2027 07:15:14.136   01 Jun 2027 07:17:00.654           106.518                Irkutsk          3328.687
        25   01 Jun 2027 07:17:01.543   01 Jun 2027 07:18:24.426            82.883                Novosib          2590.094
        26   01 Jun 2027 07:19:03.454   01 Jun 2027 07:19:16.664            13.210              Murmansk2           412.812
        27   01 Jun 2027 07:52:28.482   01 Jun 2027 07:53:44.669            76.187            RioGallegos          2380.844
        28   01 Jun 2027 07:54:36.940   01 Jun 2027 07:55:04.575            27.635            RioGallegos           863.594
        29   01 Jun 2027 08:26:47.284   01 Jun 2027 08:28:09.811            82.527                Sumatra          2578.969
        30   01 Jun 2027 08:30:44.069   01 Jun 2027 08:31:55.555            71.486                Sumatra          2233.938
        31   01 Jun 2027 08:35:27.239   01 Jun 2027 08:37:37.371           130.132                  Delhi          4066.625
        32   01 Jun 2027 08:49:40.990   01 Jun 2027 08:50:16.553            35.563                Irkutsk          1111.344
        33   01 Jun 2027 08:50:27.123   01 Jun 2027 08:51:48.997            81.874              Murmansk2          2558.562
        34   01 Jun 2027 08:51:50.590   01 Jun 2027 08:52:39.807            49.217                Norilsk          1538.031
        35   01 Jun 2027 08:55:01.824   01 Jun 2027 08:55:23.025            21.201                 Moscow           662.531
        36   01 Jun 2027 10:11:32.344   01 Jun 2027 10:12:04.429            32.085                  Delhi          1002.656
        37   01 Jun 2027 10:12:59.590   01 Jun 2027 10:15:02.890           123.300                  Delhi          3853.125
        38   01 Jun 2027 10:25:47.226   01 Jun 2027 10:25:59.849            12.623              Murmansk2           394.469
        39   01 Jun 2027 10:26:04.866   01 Jun 2027 10:26:45.366            40.500                 Moscow          1265.625
        40   01 Jun 2027 10:26:55.775   01 Jun 2027 10:27:51.597            55.822              Murmansk2          1744.438
        41   01 Jun 2027 10:28:03.485   01 Jun 2027 10:28:28.612            25.127                Norilsk           785.219
        42   01 Jun 2027 10:28:30.191   01 Jun 2027 10:29:24.192            54.001              Murmansk2          1687.531
        43   01 Jun 2027 10:29:25.814   01 Jun 2027 10:29:28.749             2.935                 Moscow            91.719
        44   01 Jun 2027 10:31:41.511   01 Jun 2027 10:31:48.572             7.061                Norilsk           220.656
        45   01 Jun 2027 12:15:32.425   01 Jun 2027 12:18:23.094           170.669                Anadyr2          5333.406
        46   01 Jun 2027 13:52:40.025   01 Jun 2027 13:53:35.807            55.782                Anadyr1          1743.188
        47   01 Jun 2027 13:54:40.957   01 Jun 2027 13:55:40.878            59.921                Anadyr1          1872.531
        48   01 Jun 2027 13:55:48.460   01 Jun 2027 13:56:09.596            21.136                Anadyr1           660.500
        49   01 Jun 2027 13:58:51.116   01 Jun 2027 13:59:48.434            57.318                Anadyr1          1791.187
        50   01 Jun 2027 15:21:53.691   01 Jun 2027 15:22:35.140            41.449              Murmansk1          1295.281
        51   01 Jun 2027 15:25:09.862   01 Jun 2027 15:26:03.344            53.482                Anadyr1          1671.312
        52   01 Jun 2027 15:26:33.544   01 Jun 2027 15:27:30.468            56.924                Anadyr2          1778.875
        53   01 Jun 2027 15:28:01.745   01 Jun 2027 15:31:47.009           225.264               Magadan2          7039.500
        54   01 Jun 2027 15:31:47.009   01 Jun 2027 15:33:43.137           116.128               Magadan1          3629.000
        55   01 Jun 2027 15:34:51.962   01 Jun 2027 15:35:42.779            50.817               Magadan1          1588.031
        56   01 Jun 2027 17:03:22.803   01 Jun 2027 17:03:47.660            24.857               Magadan1           776.781
        57   01 Jun 2027 17:05:55.012   01 Jun 2027 17:06:32.086            37.074               Magadan2          1158.563
        58   01 Jun 2027 17:10:02.387   01 Jun 2027 17:10:07.083             4.696               Magadan1           146.750
        59   01 Jun 2027 17:10:58.633   01 Jun 2027 17:11:26.644            28.011               Magadan1           875.344
        60   01 Jun 2027 17:11:47.372   01 Jun 2027 17:11:55.497             8.125               Magadan1           253.906
        61   01 Jun 2027 17:12:05.273   01 Jun 2027 17:12:52.719            47.446               Magadan1          1482.687
        62   01 Jun 2027 17:56:26.467   01 Jun 2027 17:59:45.852           199.385            RioGallegos          6230.781
        63   01 Jun 2027 18:01:43.886   01 Jun 2027 18:03:09.762            85.876            RioGallegos          2683.625
        64   01 Jun 2027 18:39:00.912   01 Jun 2027 18:40:34.587            93.675                Norilsk          2927.344
        65   01 Jun 2027 18:41:37.961   01 Jun 2027 18:42:25.336            47.375                Norilsk          1480.469
        66   01 Jun 2027 18:44:30.632   01 Jun 2027 18:46:25.028           114.396                Irkutsk          3574.875
        67   01 Jun 2027 18:47:14.780   01 Jun 2027 18:47:21.626             6.846                Irkutsk           213.937
        68   01 Jun 2027 18:51:51.884   01 Jun 2027 18:53:00.853            68.969                Irkutsk          2155.281
        69   01 Jun 2027 18:58:50.700   01 Jun 2027 19:01:01.833           131.133                Sumatra          4097.906
        70   01 Jun 2027 19:01:32.312   01 Jun 2027 19:03:54.600           142.288                Sumatra          4446.500
        71   01 Jun 2027 20:19:11.151   01 Jun 2027 20:20:11.342            60.191                Novosib          1880.969
        72   01 Jun 2027 20:27:20.832   01 Jun 2027 20:27:24.706             3.874                Novosib           121.063
        73   01 Jun 2027 20:27:31.807   01 Jun 2027 20:27:52.192            20.385                Novosib           637.031
        74   01 Jun 2027 20:28:00.815   01 Jun 2027 20:30:51.505           170.690                  Delhi          5334.062
        75   01 Jun 2027 20:32:18.198   01 Jun 2027 20:32:42.741            24.543                  Delhi           766.969
        76   01 Jun 2027 20:34:45.279   01 Jun 2027 20:36:36.603           111.324                  Delhi          3478.875
        77   01 Jun 2027 21:53:31.947   01 Jun 2027 21:59:40.407           368.460              Murmansk1         11514.375
        78   01 Jun 2027 23:25:09.137   01 Jun 2027 23:25:37.573            28.436               Magadan1           888.625
        79   01 Jun 2027 23:26:51.162   01 Jun 2027 23:27:31.146            39.984               Magadan2          1249.500
        80   01 Jun 2027 23:28:12.746   01 Jun 2027 23:28:22.967            10.221               Magadan2           319.406
        81   01 Jun 2027 23:29:00.063   01 Jun 2027 23:30:28.616            88.553              Murmansk2          2767.281
        82   01 Jun 2027 23:30:32.577   01 Jun 2027 23:32:27.106           114.529              Murmansk1          3579.031
        83   01 Jun 2027 23:32:36.307   01 Jun 2027 23:34:34.460           118.153                 Moscow          3692.281
        84   01 Jun 2027 23:38:21.048   01 Jun 2027 23:39:06.034            44.986                 Moscow          1405.812
        85   01 Jun 2027 23:57:54.723   01 Jun 2027 23:59:11.480            76.757               CapeTown          2398.656
        86   02 Jun 2027 00:00:02.006   02 Jun 2027 00:00:51.498            49.492               CapeTown          1546.625
        87   02 Jun 2027 00:02:29.534   02 Jun 2027 00:02:46.770            17.236               CapeTown           538.625
        88   02 Jun 2027 00:03:24.556   02 Jun 2027 00:04:48.514            83.958               CapeTown          2623.687
        89   02 Jun 2027 01:04:05.899   02 Jun 2027 01:04:08.550             2.651               Magadan1            82.844
        90   02 Jun 2027 01:04:20.711   02 Jun 2027 01:04:27.391             6.680               Magadan1           208.750
        91   02 Jun 2027 01:04:56.647   02 Jun 2027 01:07:23.358           146.711              Murmansk2          4584.719
        92   02 Jun 2027 01:07:43.776   02 Jun 2027 01:08:05.736            21.960                Novosib           686.250
        93   02 Jun 2027 01:08:33.163   02 Jun 2027 01:08:48.943            15.780                 Moscow           493.125
        94   02 Jun 2027 01:12:19.160   02 Jun 2027 01:12:30.047            10.887                 Moscow           340.219
        95   02 Jun 2027 01:15:43.439   02 Jun 2027 01:16:49.110            65.671                 Moscow          2052.219
        96   02 Jun 2027 01:32:08.029   02 Jun 2027 01:33:51.303           103.274               CapeTown          3227.312
        97   02 Jun 2027 02:28:54.663   02 Jun 2027 02:29:38.713            44.050                Anadyr2          1376.562
        98   02 Jun 2027 02:29:41.522   02 Jun 2027 02:31:20.824            99.302               Magadan1          3103.187
        99   02 Jun 2027 02:31:42.975   02 Jun 2027 02:32:11.693            28.718               Magadan2           897.438
       100   02 Jun 2027 02:35:04.348   02 Jun 2027 02:35:25.298            20.950               Magadan1           654.688
       101   02 Jun 2027 02:37:30.473   02 Jun 2027 02:37:37.968             7.495                Norilsk           234.219
       102   02 Jun 2027 02:39:19.819   02 Jun 2027 02:40:06.572            46.753                Norilsk          1461.031
       103   02 Jun 2027 02:40:52.141   02 Jun 2027 02:41:25.957            33.816              Murmansk2          1056.750
       104   02 Jun 2027 02:43:13.972   02 Jun 2027 02:43:23.210             9.238              Murmansk1           288.687
       105   02 Jun 2027 02:44:23.041   02 Jun 2027 02:45:27.630            64.589                 Moscow          2018.406
       106   02 Jun 2027 02:47:12.688   02 Jun 2027 02:48:24.274            71.586                 Moscow          2237.062
       107   02 Jun 2027 04:11:27.226   02 Jun 2027 04:12:33.430            66.204                Irkutsk          2068.875
       108   02 Jun 2027 04:12:56.703   02 Jun 2027 04:14:57.702           120.999                Anadyr2          3781.219
       109   02 Jun 2027 04:15:07.579   02 Jun 2027 04:15:26.660            19.081               Magadan2           596.281
       110   02 Jun 2027 04:15:27.750   02 Jun 2027 04:15:37.772            10.022                Anadyr1           313.187
       111   02 Jun 2027 04:16:12.923   02 Jun 2027 04:17:19.052            66.129               Magadan2          2066.531
       112   02 Jun 2027 04:54:14.936   02 Jun 2027 04:56:18.549           123.613            RioGallegos          3862.906
       113   02 Jun 2027 05:48:38.770   02 Jun 2027 05:48:56.459            17.689                Irkutsk           552.781
       114   02 Jun 2027 05:49:12.550   02 Jun 2027 05:49:39.583            27.033               Magadan1           844.781
       115   02 Jun 2027 05:50:02.458   02 Jun 2027 05:52:47.694           165.236               Magadan1          5163.625
       116   02 Jun 2027 07:03:40.250   02 Jun 2027 07:05:24.967           104.717                Sumatra          3272.406
       117   02 Jun 2027 07:25:46.774   02 Jun 2027 07:27:40.510           113.736                Irkutsk          3554.250
       118   02 Jun 2027 07:27:50.255   02 Jun 2027 07:29:01.037            70.782                Irkutsk          2211.938
       119   02 Jun 2027 08:43:23.267   02 Jun 2027 08:43:33.727            10.460                Sumatra           326.875
       120   02 Jun 2027 09:03:31.403   02 Jun 2027 09:03:58.360            26.957                Irkutsk           842.406
       121   02 Jun 2027 09:04:15.418   02 Jun 2027 09:04:18.543             3.125                Novosib            97.656
       122   02 Jun 2027 10:24:04.357   02 Jun 2027 10:26:36.492           152.135                  Delhi          4754.219
       123   02 Jun 2027 10:37:42.644   02 Jun 2027 10:38:00.539            17.895              Murmansk1           559.219
       124   02 Jun 2027 10:40:42.575   02 Jun 2027 10:41:14.454            31.879                Norilsk           996.219
       125   02 Jun 2027 12:10:51.310   02 Jun 2027 12:13:28.449           157.139              Murmansk2          4910.594
       126   02 Jun 2027 12:13:51.723   02 Jun 2027 12:15:15.290            83.567              Murmansk1          2611.469
       127   02 Jun 2027 12:26:49.326   02 Jun 2027 12:30:13.481           204.155                Anadyr1          6379.844
       128   02 Jun 2027 12:30:54.552   02 Jun 2027 12:31:47.150            52.598                Anadyr2          1643.687
       129   02 Jun 2027 13:48:50.013   02 Jun 2027 13:49:51.151            61.138              Murmansk1          1910.563
       130   02 Jun 2027 13:50:24.603   02 Jun 2027 13:50:56.405            31.802              Murmansk1           993.813
       131   02 Jun 2027 13:52:35.438   02 Jun 2027 13:52:53.749            18.311              Murmansk1           572.219
       132   02 Jun 2027 13:53:50.914   02 Jun 2027 13:54:04.674            13.760              Murmansk1           430.000
       133   02 Jun 2027 13:55:18.283   02 Jun 2027 13:55:25.785             7.502              Murmansk1           234.437
       134   02 Jun 2027 13:56:49.162   02 Jun 2027 13:57:33.054            43.892              Murmansk2          1371.625
       135   02 Jun 2027 14:01:24.117   02 Jun 2027 14:03:11.980           107.863                Anadyr2          3370.719
       136   02 Jun 2027 14:03:13.599   02 Jun 2027 14:04:41.084            87.485                Anadyr1          2733.906
       137   02 Jun 2027 15:29:41.649   02 Jun 2027 15:31:35.842           114.193              Murmansk2          3568.531
       138   02 Jun 2027 15:32:27.729   02 Jun 2027 15:32:43.304            15.575              Murmansk1           486.719
       139   02 Jun 2027 15:33:01.639   02 Jun 2027 15:33:39.091            37.452              Murmansk1          1170.375
       140   02 Jun 2027 15:37:11.007   02 Jun 2027 15:39:26.022           135.015                Anadyr1          4219.219
       141   02 Jun 2027 15:39:54.257   02 Jun 2027 15:43:54.791           240.534               Magadan2          7516.688
       142   02 Jun 2027 15:48:11.349   02 Jun 2027 15:49:15.623            64.274               Magadan2          2008.563
       143   02 Jun 2027 17:15:23.237   02 Jun 2027 17:17:31.083           127.846               Magadan2          3995.187
       144   02 Jun 2027 17:19:02.467   02 Jun 2027 17:19:40.577            38.110               Magadan2          1190.937
       145   02 Jun 2027 17:24:45.841   02 Jun 2027 17:26:25.663            99.822               Magadan2          3119.437
       146   02 Jun 2027 18:08:03.168   02 Jun 2027 18:08:43.558            40.390            RioGallegos          1262.187
       147   02 Jun 2027 18:09:47.858   02 Jun 2027 18:11:36.607           108.749            RioGallegos          3398.406
       148   02 Jun 2027 18:12:38.541   02 Jun 2027 18:14:34.987           116.446            RioGallegos          3638.938
       149   02 Jun 2027 18:51:46.268   02 Jun 2027 18:55:13.958           207.690                Norilsk          6490.313
       150   02 Jun 2027 18:55:24.209   02 Jun 2027 18:56:16.411            52.202                Irkutsk          1631.313
       151   02 Jun 2027 18:57:05.794   02 Jun 2027 18:58:26.834            81.040                Irkutsk          2532.500
       152   02 Jun 2027 19:09:26.852   02 Jun 2027 19:11:01.010            94.158                Sumatra          2942.437
       153   02 Jun 2027 19:12:57.538   02 Jun 2027 19:14:02.306            64.768                Sumatra          2024.000
       154   02 Jun 2027 19:14:57.935   02 Jun 2027 19:16:02.999            65.064                Sumatra          2033.250
       155   02 Jun 2027 20:30:43.855   02 Jun 2027 20:32:15.070            91.215                Irkutsk          2850.469
       156   02 Jun 2027 20:32:40.050   02 Jun 2027 20:33:04.929            24.879                Novosib           777.469
       157   02 Jun 2027 20:39:24.484   02 Jun 2027 20:42:38.723           194.239                  Delhi          6069.969
       158   02 Jun 2027 20:45:07.740   02 Jun 2027 20:46:34.439            86.699                  Delhi          2709.344
       159   02 Jun 2027 22:05:25.133   02 Jun 2027 22:11:11.484           346.351              Murmansk1         10823.469
       160   02 Jun 2027 22:12:01.072   02 Jun 2027 22:13:57.680           116.608                 Moscow          3644.000
       161   02 Jun 2027 23:41:00.928   02 Jun 2027 23:41:34.384            33.456              Murmansk1          1045.500
       162   02 Jun 2027 23:42:24.560   02 Jun 2027 23:42:45.912            21.352              Murmansk2           667.250
       163   02 Jun 2027 23:43:04.919   02 Jun 2027 23:44:27.683            82.764              Murmansk2          2586.375
       164   02 Jun 2027 23:44:30.851   02 Jun 2027 23:44:37.875             7.024                 Moscow           219.500
       165   02 Jun 2027 23:46:30.223   02 Jun 2027 23:47:54.424            84.201                 Moscow          2631.281
       166   02 Jun 2027 23:49:01.694   02 Jun 2027 23:50:12.328            70.634                 Moscow          2207.313
       167   03 Jun 2027 00:09:23.314   03 Jun 2027 00:12:20.340           177.026               CapeTown          5532.063
       168   03 Jun 2027 00:15:33.125   03 Jun 2027 00:15:43.985            10.860               CapeTown           339.375
       169   03 Jun 2027 01:16:58.303   03 Jun 2027 01:19:21.346           143.043              Murmansk1          4470.094
       170   03 Jun 2027 01:24:16.984   03 Jun 2027 01:24:31.220            14.236                 Moscow           444.875
       171   03 Jun 2027 01:25:21.377   03 Jun 2027 01:25:34.858            13.481                 Moscow           421.281
       172   03 Jun 2027 01:29:08.343   03 Jun 2027 01:29:22.958            14.615                 Moscow           456.719
       173   03 Jun 2027 01:44:20.048   03 Jun 2027 01:45:37.878            77.830               CapeTown          2432.187
       174   03 Jun 2027 01:51:46.619   03 Jun 2027 01:52:41.162            54.543               CapeTown          1704.469
       175   03 Jun 2027 02:41:03.127   03 Jun 2027 02:42:00.068            56.941                Anadyr2          1779.406
       176   03 Jun 2027 02:42:00.068   03 Jun 2027 02:42:07.615             7.547                Anadyr1           235.844
       177   03 Jun 2027 02:42:21.640   03 Jun 2027 02:42:48.700            27.060               Magadan1           845.625
       178   03 Jun 2027 02:42:56.282   03 Jun 2027 02:43:45.528            49.246               Magadan2          1538.937
       179   03 Jun 2027 02:46:49.503   03 Jun 2027 02:47:00.143            10.640               Magadan1           332.500
       180   03 Jun 2027 02:47:42.691   03 Jun 2027 02:47:47.261             4.570               Magadan2           142.813
       181   03 Jun 2027 02:49:01.776   03 Jun 2027 02:49:19.061            17.285                Norilsk           540.156
       182   03 Jun 2027 02:49:46.160   03 Jun 2027 02:50:14.249            28.089                Norilsk           877.781
       183   03 Jun 2027 02:52:52.604   03 Jun 2027 02:53:31.992            39.388              Murmansk2          1230.875
       184   03 Jun 2027 02:54:09.282   03 Jun 2027 02:54:50.920            41.638              Murmansk2          1301.188
       185   03 Jun 2027 02:56:05.885   03 Jun 2027 02:56:10.145             4.260              Murmansk2           133.125
       186   03 Jun 2027 02:56:11.705   03 Jun 2027 02:56:14.409             2.704              Murmansk2            84.500
       187   03 Jun 2027 02:56:28.971   03 Jun 2027 02:57:17.731            48.760                 Moscow          1523.750
       188   03 Jun 2027 04:22:19.876   03 Jun 2027 04:23:01.237            41.361                Irkutsk          1292.531
       189   03 Jun 2027 04:24:32.059   03 Jun 2027 04:26:32.210           120.151               Magadan1          3754.719
       190   03 Jun 2027 04:26:57.446   03 Jun 2027 04:27:07.822            10.376                Anadyr2           324.250
       191   03 Jun 2027 05:05:46.306   03 Jun 2027 05:08:53.176           186.870            RioGallegos          5839.688
       192   03 Jun 2027 06:00:31.421   03 Jun 2027 06:00:38.548             7.127               Magadan1           222.719
       193   03 Jun 2027 06:00:39.498   03 Jun 2027 06:01:24.734            45.236                Novosib          1413.625
       194   03 Jun 2027 06:01:39.020   03 Jun 2027 06:03:53.868           134.848                Irkutsk          4214.000
       195   03 Jun 2027 06:05:21.590   03 Jun 2027 06:06:03.110            41.520                Novosib          1297.500
       196   03 Jun 2027 07:35:33.826   03 Jun 2027 07:35:49.748            15.922                Irkutsk           497.562
       197   03 Jun 2027 07:36:55.690   03 Jun 2027 07:37:04.230             8.540                Norilsk           266.875
       198   03 Jun 2027 07:37:24.320   03 Jun 2027 07:37:28.831             4.511                Norilsk           140.969
       199   03 Jun 2027 07:37:43.873   03 Jun 2027 07:37:58.671            14.798              Murmansk1           462.437
       200   03 Jun 2027 07:38:30.041   03 Jun 2027 07:38:44.416            14.375                Norilsk           449.219
       201   03 Jun 2027 07:41:41.998   03 Jun 2027 07:42:30.247            48.249                Novosib          1507.781
       202   03 Jun 2027 08:17:59.553   03 Jun 2027 08:18:21.175            21.622            RioGallegos           675.688
       203   03 Jun 2027 08:20:13.300   03 Jun 2027 08:20:55.084            41.784            RioGallegos          1305.750
       204   03 Jun 2027 08:51:34.237   03 Jun 2027 08:51:54.263            20.026                Sumatra           625.812
       205   03 Jun 2027 08:52:39.041   03 Jun 2027 08:53:20.286            41.245                Sumatra          1288.906
       206   03 Jun 2027 09:13:06.695   03 Jun 2027 09:13:27.337            20.642                Novosib           645.062
       207   03 Jun 2027 09:14:04.022   03 Jun 2027 09:14:15.965            11.943                Irkutsk           373.219
       208   03 Jun 2027 09:14:20.592   03 Jun 2027 09:15:01.793            41.201                Novosib          1287.531
       209   03 Jun 2027 09:15:48.756   03 Jun 2027 09:15:53.619             4.863                Novosib           151.969
       210   03 Jun 2027 09:16:34.534   03 Jun 2027 09:16:53.799            19.265                Novosib           602.031
       211   03 Jun 2027 10:36:47.733   03 Jun 2027 10:39:14.769           147.036                  Delhi          4594.875
       212   03 Jun 2027 10:55:43.461   03 Jun 2027 10:55:44.758             1.297                Norilsk            40.531
       213   03 Jun 2027 12:20:50.105   03 Jun 2027 12:20:50.928             0.823                 Moscow            25.719
       214   03 Jun 2027 12:22:54.300   03 Jun 2027 12:23:41.151            46.851                 Moscow          1464.094
       215   03 Jun 2027 12:23:44.729   03 Jun 2027 12:26:09.645           144.916              Murmansk2          4528.625
       216   03 Jun 2027 12:27:16.742   03 Jun 2027 12:28:09.486            52.744              Murmansk2          1648.250
       217   03 Jun 2027 12:28:37.766   03 Jun 2027 12:28:59.349            21.583              Murmansk1           674.469
       218   03 Jun 2027 12:31:06.586   03 Jun 2027 12:31:22.359            15.773              Murmansk2           492.906
       219   03 Jun 2027 12:32:08.324   03 Jun 2027 12:32:52.970            44.646              Murmansk1          1395.187
       220   03 Jun 2027 12:38:26.378   03 Jun 2027 12:44:48.508           382.130                Anadyr2         11941.563
       221   03 Jun 2027 14:08:58.329   03 Jun 2027 14:09:29.386            31.057              Murmansk1           970.531
       222   03 Jun 2027 14:10:40.082   03 Jun 2027 14:10:41.560             1.478              Murmansk2            46.188
       223   03 Jun 2027 14:11:04.343   03 Jun 2027 14:11:14.348            10.005              Murmansk1           312.656
       224   03 Jun 2027 14:13:22.879   03 Jun 2027 14:15:33.170           130.291                Anadyr2          4071.594
       225   03 Jun 2027 14:16:41.974   03 Jun 2027 14:18:02.140            80.166                Anadyr2          2505.187
       226   03 Jun 2027 15:42:49.001   03 Jun 2027 15:44:39.282           110.281              Murmansk2          3446.281
       227   03 Jun 2027 15:49:12.254   03 Jun 2027 15:51:19.907           127.653                Anadyr2          3989.156
       228   03 Jun 2027 15:51:48.636   03 Jun 2027 15:55:52.829           244.193               Magadan2          7631.031
       229   03 Jun 2027 15:57:18.837   03 Jun 2027 15:57:30.486            11.649               Magadan2           364.031
       230   03 Jun 2027 15:59:56.513   03 Jun 2027 16:00:11.495            14.982               Magadan1           468.187
       231   03 Jun 2027 16:00:54.892   03 Jun 2027 16:01:19.485            24.593               Magadan1           768.531
       232   03 Jun 2027 17:25:06.992   03 Jun 2027 17:25:26.043            19.051                Anadyr2           595.344
       233   03 Jun 2027 17:25:48.968   03 Jun 2027 17:26:27.831            38.863                Anadyr2          1214.469
       234   03 Jun 2027 17:27:24.093   03 Jun 2027 17:29:22.232           118.139               Magadan2          3691.844
       235   03 Jun 2027 17:30:40.740   03 Jun 2027 17:31:00.766            20.026                Norilsk           625.812
       236   03 Jun 2027 18:19:46.196   03 Jun 2027 18:22:32.412           166.216            RioGallegos          5194.250
       237   03 Jun 2027 18:22:40.884   03 Jun 2027 18:25:58.421           197.537            RioGallegos          6173.031
       238   03 Jun 2027 19:02:59.397   03 Jun 2027 19:04:05.975            66.578                Norilsk          2080.563
       239   03 Jun 2027 19:04:47.623   03 Jun 2027 19:07:00.797           133.174                Norilsk          4161.687
       240   03 Jun 2027 19:07:15.312   03 Jun 2027 19:08:07.605            52.293                Irkutsk          1634.156
       241   03 Jun 2027 19:09:12.373   03 Jun 2027 19:10:09.429            57.056                Irkutsk          1783.000
       242   03 Jun 2027 19:10:14.919   03 Jun 2027 19:13:01.729           166.810                Novosib          5212.812
       243   03 Jun 2027 19:22:33.528   03 Jun 2027 19:23:24.084            50.556                Sumatra          1579.875
       244   03 Jun 2027 19:25:21.059   03 Jun 2027 19:26:24.429            63.370                Sumatra          1980.312
       245   03 Jun 2027 20:45:04.057   03 Jun 2027 20:46:24.205            80.148                Novosib          2504.625
       246   03 Jun 2027 20:50:58.538   03 Jun 2027 20:54:05.305           186.767                  Delhi          5836.469
       247   03 Jun 2027 20:56:13.884   03 Jun 2027 20:57:35.537            81.653                  Delhi          2551.656
       248   03 Jun 2027 22:17:20.533   03 Jun 2027 22:19:53.697           153.164              Murmansk1          4786.375
       249   03 Jun 2027 22:20:34.519   03 Jun 2027 22:21:28.069            53.550              Murmansk2          1673.437
       250   03 Jun 2027 22:22:39.469   03 Jun 2027 22:27:54.844           315.375                 Moscow          9855.469
       251   03 Jun 2027 23:53:02.043   03 Jun 2027 23:54:15.607            73.564              Murmansk1          2298.875
       252   03 Jun 2027 23:56:26.895   03 Jun 2027 23:57:16.928            50.033                 Moscow          1563.531
       253   03 Jun 2027 23:57:44.960   03 Jun 2027 23:58:41.224            56.264                 Moscow          1758.250
       254   04 Jun 2027 00:03:45.268   04 Jun 2027 00:04:45.617            60.349                 Moscow          1885.906
       255   04 Jun 2027 00:20:58.606   04 Jun 2027 00:21:29.125            30.519               CapeTown           953.719
       256   04 Jun 2027 00:21:51.318   04 Jun 2027 00:22:26.626            35.308               CapeTown          1103.375
       257   04 Jun 2027 00:22:57.442   04 Jun 2027 00:24:30.921            93.479               CapeTown          2921.219
       258   04 Jun 2027 01:23:20.134   04 Jun 2027 01:23:29.880             9.746               Magadan2           304.563
       259   04 Jun 2027 01:24:48.992   04 Jun 2027 01:24:50.556             1.564               Magadan1            48.875
       260   04 Jun 2027 01:24:52.242   04 Jun 2027 01:25:04.090            11.848               Magadan2           370.250
       261   04 Jun 2027 01:27:17.006   04 Jun 2027 01:27:40.167            23.161               Magadan2           723.781
       262   04 Jun 2027 01:28:59.906   04 Jun 2027 01:30:23.565            83.659              Murmansk1          2614.344
       263   04 Jun 2027 01:32:13.201   04 Jun 2027 01:33:03.453            50.252                 Moscow          1570.375
       264   04 Jun 2027 01:33:04.488   04 Jun 2027 01:33:17.827            13.339              Murmansk2           416.844
       265   04 Jun 2027 01:34:58.583   04 Jun 2027 01:34:58.957             0.374                Novosib            11.687
       266   04 Jun 2027 01:36:02.243   04 Jun 2027 01:36:24.385            22.142                 Moscow           691.938
       267   04 Jun 2027 01:37:18.766   04 Jun 2027 01:38:13.881            55.115                 Moscow          1722.344
       268   04 Jun 2027 01:56:38.033   04 Jun 2027 01:57:29.558            51.525               CapeTown          1610.156
       269   04 Jun 2027 02:06:01.066   04 Jun 2027 02:06:25.458            24.392               CapeTown           762.250
       270   04 Jun 2027 02:53:00.929   04 Jun 2027 02:56:24.176           203.247               Magadan1          6351.469
       271   04 Jun 2027 03:00:08.152   04 Jun 2027 03:01:09.888            61.736               Magadan2          1929.250
       272   04 Jun 2027 03:01:09.888   04 Jun 2027 03:01:15.592             5.704               Magadan1           178.250
       273   04 Jun 2027 03:01:33.525   04 Jun 2027 03:03:22.063           108.538                Anadyr2          3391.813
       274   04 Jun 2027 03:03:22.063   04 Jun 2027 03:05:04.087           102.024                Anadyr1          3188.250
       275   04 Jun 2027 03:47:26.565   04 Jun 2027 03:47:46.022            19.457            RioGallegos           608.031
       276   04 Jun 2027 04:37:11.133   04 Jun 2027 04:38:20.296            69.163               Magadan1          2161.344
       277   04 Jun 2027 04:39:00.346   04 Jun 2027 04:40:00.864            60.518                Norilsk          1891.187
       278   04 Jun 2027 04:40:01.772   04 Jun 2027 04:40:02.279             0.507                Irkutsk            15.844
       279   04 Jun 2027 04:40:25.050   04 Jun 2027 04:41:30.350            65.300              Murmansk1          2040.625
       280   04 Jun 2027 06:05:01.010   04 Jun 2027 06:05:51.117            50.107                Irkutsk          1565.844
       281   04 Jun 2027 06:11:34.522   04 Jun 2027 06:11:39.664             5.142               Magadan1           160.688
       282   04 Jun 2027 06:11:54.249   04 Jun 2027 06:12:34.700            40.451                Norilsk          1264.094
       283   04 Jun 2027 06:12:40.857   04 Jun 2027 06:12:46.159             5.302               Magadan1           165.687
       284   04 Jun 2027 06:12:46.159   04 Jun 2027 06:13:09.513            23.354               Magadan2           729.812
       285   04 Jun 2027 06:14:17.858   04 Jun 2027 06:14:42.198            24.340               Magadan1           760.625
       286   04 Jun 2027 06:15:33.037   04 Jun 2027 06:16:18.812            45.775               Magadan2          1430.469
       287   04 Jun 2027 06:16:29.285   04 Jun 2027 06:16:30.007             0.722               Magadan1            22.562
       288   04 Jun 2027 06:23:55.047   04 Jun 2027 06:23:56.059             1.012              Murmansk2            31.625
       289   04 Jun 2027 07:48:53.557   04 Jun 2027 07:50:05.218            71.661                Irkutsk          2239.406
       290   04 Jun 2027 07:50:18.454   04 Jun 2027 07:50:52.205            33.751                Irkutsk          1054.719
       291   04 Jun 2027 07:51:02.689   04 Jun 2027 07:51:29.094            26.405              Murmansk2           825.156
       292   04 Jun 2027 07:52:42.603   04 Jun 2027 07:52:42.797             0.194                Novosib             6.062
       293   04 Jun 2027 07:53:41.842   04 Jun 2027 07:54:08.354            26.512                Novosib           828.500
       294   04 Jun 2027 08:29:59.116   04 Jun 2027 08:30:43.767            44.651            RioGallegos          1395.344
       295   04 Jun 2027 08:33:08.587   04 Jun 2027 08:33:13.967             5.380            RioGallegos           168.125
       296   04 Jun 2027 08:33:59.524   04 Jun 2027 08:34:15.883            16.359            RioGallegos           511.219
       297   04 Jun 2027 09:04:13.765   04 Jun 2027 09:06:25.162           131.397                Sumatra          4106.156
       298   04 Jun 2027 09:25:05.305   04 Jun 2027 09:25:34.134            28.829                Novosib           900.906
       299   04 Jun 2027 09:26:20.899   04 Jun 2027 09:27:13.335            52.436                Novosib          1638.625
       300   04 Jun 2027 09:28:16.134   04 Jun 2027 09:28:44.473            28.339                Norilsk           885.594
       301   04 Jun 2027 10:49:48.685   04 Jun 2027 10:52:12.780           144.095                  Delhi          4502.969
       302   04 Jun 2027 11:08:44.523   04 Jun 2027 11:09:07.151            22.628                Norilsk           707.125
       303   04 Jun 2027 12:31:46.961   04 Jun 2027 12:32:30.334            43.373                 Moscow          1355.406
       304   04 Jun 2027 12:33:28.087   04 Jun 2027 12:33:34.431             6.344                 Moscow           198.250
       305   04 Jun 2027 12:34:41.717   04 Jun 2027 12:35:09.999            28.282                 Moscow           883.812
       306   04 Jun 2027 12:35:12.750   04 Jun 2027 12:36:46.514            93.764              Murmansk1          2930.125
       307   04 Jun 2027 12:37:00.333   04 Jun 2027 12:38:48.683           108.350              Murmansk2          3385.938
       308   04 Jun 2027 12:39:41.173   04 Jun 2027 12:40:08.376            27.203              Murmansk2           850.094
       309   04 Jun 2027 12:50:11.379   04 Jun 2027 12:54:00.767           229.388                Anadyr1          7168.375
       310   04 Jun 2027 12:55:32.317   04 Jun 2027 12:57:39.061           126.744                Anadyr2          3960.750
       311   04 Jun 2027 14:13:45.940   04 Jun 2027 14:15:08.089            82.149              Murmansk2          2567.156
       312   04 Jun 2027 14:25:22.231   04 Jun 2027 14:26:58.975            96.744                Anadyr1          3023.250
       313   04 Jun 2027 14:27:05.543   04 Jun 2027 14:28:42.640            97.097                Anadyr2          3034.281
       314   04 Jun 2027 14:28:56.073   04 Jun 2027 14:29:33.465            37.392                Anadyr2          1168.500
       315   04 Jun 2027 14:30:14.430   04 Jun 2027 14:33:33.107           198.677               Magadan2          6208.656
       316   04 Jun 2027 14:33:33.107   04 Jun 2027 14:33:39.786             6.679               Magadan1           208.719
       317   04 Jun 2027 16:01:13.579   04 Jun 2027 16:03:12.194           118.615                Anadyr1          3706.719
       318   04 Jun 2027 16:03:44.469   04 Jun 2027 16:07:02.365           197.896               Magadan2          6184.250
       319   04 Jun 2027 17:37:07.553   04 Jun 2027 17:38:13.930            66.377                Anadyr2          2074.281
       320   04 Jun 2027 17:39:25.295   04 Jun 2027 17:40:49.626            84.331               Magadan2          2635.344
       321   04 Jun 2027 17:40:52.021   04 Jun 2027 17:41:19.448            27.427                Norilsk           857.094
       322   04 Jun 2027 17:42:41.381   04 Jun 2027 17:43:34.360            52.979                Norilsk          1655.594
       323   04 Jun 2027 18:31:33.507   04 Jun 2027 18:34:34.381           180.874            RioGallegos          5652.313
       324   04 Jun 2027 18:41:00.194   04 Jun 2027 18:41:48.742            48.548            RioGallegos          1517.125
       325   04 Jun 2027 19:13:59.074   04 Jun 2027 19:14:19.069            19.995                Anadyr2           624.844
       326   04 Jun 2027 19:14:59.589   04 Jun 2027 19:16:23.679            84.090                Norilsk          2627.813
       327   04 Jun 2027 19:18:29.913   04 Jun 2027 19:19:16.252            46.339                Norilsk          1448.094
       328   04 Jun 2027 19:19:25.757   04 Jun 2027 19:20:28.259            62.502                Irkutsk          1953.187
       329   04 Jun 2027 19:20:59.313   04 Jun 2027 19:26:40.411           341.098                Novosib         10659.313
       330   04 Jun 2027 19:32:52.255   04 Jun 2027 19:33:51.722            59.467                Sumatra          1858.344
       331   04 Jun 2027 19:35:39.599   04 Jun 2027 19:36:58.778            79.179                Sumatra          2474.344
       332   04 Jun 2027 20:55:42.701   04 Jun 2027 20:56:23.615            40.914                Novosib          1278.562
       333   04 Jun 2027 20:57:10.480   04 Jun 2027 20:57:23.885            13.405                Novosib           418.906
       334   04 Jun 2027 21:00:19.491   04 Jun 2027 21:01:20.714            61.223                Novosib          1913.219
       335   04 Jun 2027 21:02:39.749   04 Jun 2027 21:06:22.304           222.555                  Delhi          6954.844
       336   04 Jun 2027 21:07:50.375   04 Jun 2027 21:08:05.857            15.482                  Delhi           483.813
       337   04 Jun 2027 22:29:17.490   04 Jun 2027 22:31:23.667           126.177              Murmansk1          3943.031
       338   04 Jun 2027 22:32:08.093   04 Jun 2027 22:35:21.056           192.963              Murmansk2          6030.094
       339   04 Jun 2027 22:35:50.230   04 Jun 2027 22:40:37.999           287.769                 Moscow          8992.781
       340   04 Jun 2027 22:40:51.794   04 Jun 2027 22:41:04.540            12.746                 Moscow           398.313
       341   05 Jun 2027 00:08:24.173   05 Jun 2027 00:10:27.186           123.013                 Moscow          3844.156
       342   05 Jun 2027 00:32:39.790   05 Jun 2027 00:34:37.657           117.867               CapeTown          3683.344
       343   05 Jun 2027 00:35:09.716   05 Jun 2027 00:36:28.112            78.396               CapeTown          2449.875
       344   05 Jun 2027 01:32:25.556   05 Jun 2027 01:32:59.592            34.036               Magadan1          1063.625
       345   05 Jun 2027 01:36:06.333   05 Jun 2027 01:36:17.684            11.351               Magadan1           354.719
       346   05 Jun 2027 01:36:53.819   05 Jun 2027 01:37:06.299            12.480               Magadan1           390.000
       347   05 Jun 2027 01:41:01.428   05 Jun 2027 01:42:19.533            78.105              Murmansk1          2440.781
       348   05 Jun 2027 01:43:57.861   05 Jun 2027 01:44:22.620            24.759              Murmansk2           773.719
       349   05 Jun 2027 01:44:28.132   05 Jun 2027 01:47:03.030           154.898                 Moscow          4840.562
       350   05 Jun 2027 02:12:39.458   05 Jun 2027 02:13:37.878            58.420               CapeTown          1825.625
       351   05 Jun 2027 03:05:13.322   05 Jun 2027 03:06:17.831            64.509               Magadan1          2015.906
       352   05 Jun 2027 03:10:01.401   05 Jun 2027 03:10:47.069            45.668               Magadan2          1427.125
       353   05 Jun 2027 03:10:59.287   05 Jun 2027 03:13:05.364           126.077                Anadyr1          3939.906
       354   05 Jun 2027 03:13:10.908   05 Jun 2027 03:15:48.196           157.288                Anadyr1          4915.250
       355   05 Jun 2027 04:48:48.256   05 Jun 2027 04:51:11.237           142.981                Anadyr2          4468.156
       356   05 Jun 2027 04:51:11.237   05 Jun 2027 04:51:29.312            18.075                Anadyr1           564.844
       357   05 Jun 2027 04:51:34.584   05 Jun 2027 04:51:55.557            20.973                Irkutsk           655.406
       358   05 Jun 2027 06:23:52.330   05 Jun 2027 06:24:32.312            39.982                Norilsk          1249.437
       359   05 Jun 2027 06:24:40.423   05 Jun 2027 06:24:42.944             2.521               Magadan1            78.781
       360   05 Jun 2027 06:24:52.244   05 Jun 2027 06:25:11.637            19.393               Magadan1           606.031
       361   05 Jun 2027 06:26:34.492   05 Jun 2027 06:26:45.079            10.587               Magadan1           330.844
       362   05 Jun 2027 06:27:14.331   05 Jun 2027 06:27:46.121            31.790              Murmansk2           993.437
       363   05 Jun 2027 06:27:52.955   05 Jun 2027 06:28:12.068            19.113               Magadan2           597.281
       364   05 Jun 2027 06:33:13.846   05 Jun 2027 06:33:15.885             2.039                Norilsk            63.719
       365   05 Jun 2027 08:00:53.931   05 Jun 2027 08:00:56.695             2.764                Irkutsk            86.375
       366   05 Jun 2027 08:02:22.664   05 Jun 2027 08:02:28.386             5.722                Irkutsk           178.812
       367   05 Jun 2027 08:03:01.264   05 Jun 2027 08:03:08.184             6.920                Irkutsk           216.250
       368   05 Jun 2027 08:03:10.219   05 Jun 2027 08:03:45.137            34.918                 Moscow          1091.187
       369   05 Jun 2027 08:04:14.198   05 Jun 2027 08:04:16.044             1.846                Irkutsk            57.688
       370   05 Jun 2027 08:05:55.222   05 Jun 2027 08:06:14.759            19.537              Murmansk1           610.531
       371   05 Jun 2027 08:42:43.628   05 Jun 2027 08:43:50.688            67.060            RioGallegos          2095.625
       372   05 Jun 2027 09:17:13.028   05 Jun 2027 09:18:04.767            51.739                Sumatra          1616.844
       373   05 Jun 2027 09:19:20.916   05 Jun 2027 09:20:24.149            63.233                Sumatra          1976.031
       374   05 Jun 2027 09:37:40.269   05 Jun 2027 09:37:57.855            17.586                Novosib           549.562
       375   05 Jun 2027 09:38:20.461   05 Jun 2027 09:39:18.010            57.549                Novosib          1798.406
       376   05 Jun 2027 09:39:23.186   05 Jun 2027 09:39:54.378            31.192                Novosib           974.750
       377   05 Jun 2027 09:40:05.587   05 Jun 2027 09:40:39.485            33.898                Norilsk          1059.312
       378   05 Jun 2027 11:03:29.625   05 Jun 2027 11:05:48.340           138.715                  Delhi          4334.844
       379   05 Jun 2027 11:19:20.248   05 Jun 2027 11:19:24.466             4.218                Norilsk           131.812
       380   05 Jun 2027 12:44:05.836   05 Jun 2027 12:44:32.757            26.921                 Moscow           841.281
       381   05 Jun 2027 12:45:32.832   05 Jun 2027 12:46:16.963            44.131                 Moscow          1379.094
       382   05 Jun 2027 12:47:18.997   05 Jun 2027 12:47:43.410            24.413                 Moscow           762.906
       383   05 Jun 2027 12:48:15.750   05 Jun 2027 12:51:10.741           174.991              Murmansk2          5468.469
       384   05 Jun 2027 12:51:29.423   05 Jun 2027 12:52:01.556            32.133              Murmansk2          1004.156
       385   05 Jun 2027 13:02:00.859   05 Jun 2027 13:07:56.664           355.805                Anadyr1         11118.906
       386   05 Jun 2027 14:27:09.636   05 Jun 2027 14:27:37.833            28.197              Murmansk1           881.156
       387   05 Jun 2027 14:28:59.158   05 Jun 2027 14:29:41.677            42.519              Murmansk1          1328.719
       388   05 Jun 2027 14:37:22.066   05 Jun 2027 14:40:43.050           200.984                Anadyr1          6280.750
       389   05 Jun 2027 14:41:25.622   05 Jun 2027 14:47:05.840           340.218               Magadan1         10631.812
       390   05 Jun 2027 16:15:41.472   05 Jun 2027 16:16:44.087            62.615               Magadan2          1956.719
       391   05 Jun 2027 16:16:44.087   05 Jun 2027 16:17:37.547            53.460               Magadan1          1670.625
       392   05 Jun 2027 16:19:05.073   05 Jun 2027 16:19:51.095            46.022               Magadan2          1438.188
       393   05 Jun 2027 16:20:43.558   05 Jun 2027 16:22:00.282            76.724               Magadan2          2397.625
       394   05 Jun 2027 16:24:01.881   05 Jun 2027 16:24:08.182             6.301               Magadan2           196.906
       395   05 Jun 2027 17:49:07.832   05 Jun 2027 17:50:30.481            82.649                Anadyr1          2582.781
       396   05 Jun 2027 17:51:21.250   05 Jun 2027 17:51:46.930            25.680                Anadyr1           802.500
       397   05 Jun 2027 17:51:51.835   05 Jun 2027 17:57:10.379           318.544                Norilsk          9954.500
       398   05 Jun 2027 17:57:49.223   05 Jun 2027 18:00:17.735           148.512                Irkutsk          4641.000
       399   05 Jun 2027 19:27:00.226   05 Jun 2027 19:28:28.937            88.711                Norilsk          2772.219
       400   05 Jun 2027 19:31:32.309   05 Jun 2027 19:32:21.880            49.571                Irkutsk          1549.094
       401   05 Jun 2027 19:32:25.643   05 Jun 2027 19:39:45.879           440.236                Novosib         13757.375
       402   05 Jun 2027 19:47:48.725   05 Jun 2027 19:48:01.749            13.024                Sumatra           407.000
       403   05 Jun 2027 19:54:56.615   05 Jun 2027 19:55:57.017            60.402                Sumatra          1887.562
       404   05 Jun 2027 21:09:39.910   05 Jun 2027 21:10:30.701            50.791                Novosib          1587.219
       405   05 Jun 2027 21:14:26.409   05 Jun 2027 21:16:51.854           145.445                  Delhi          4545.156
       406   05 Jun 2027 21:25:33.145   05 Jun 2027 21:26:40.066            66.921                  Delhi          2091.281
       407   05 Jun 2027 22:41:15.576   05 Jun 2027 22:44:37.569           201.993              Murmansk1          6312.281
       408   05 Jun 2027 22:44:37.569   05 Jun 2027 22:47:34.637           177.068              Murmansk2          5533.375
       409   05 Jun 2027 22:47:53.461   05 Jun 2027 22:52:15.048           261.587                 Moscow          8174.594
       410   05 Jun 2027 23:14:31.676   05 Jun 2027 23:17:29.281           177.605               CapeTown          5550.156
       411   06 Jun 2027 00:44:26.357   06 Jun 2027 00:47:05.727           159.370               CapeTown          4980.312
       412   06 Jun 2027 01:42:53.097   06 Jun 2027 01:43:32.023            38.926               Magadan1          1216.438
       413   06 Jun 2027 01:43:47.017   06 Jun 2027 01:44:20.968            33.951               Magadan2          1060.969
       414   06 Jun 2027 01:47:35.524   06 Jun 2027 01:48:08.999            33.475               Magadan2          1046.094
       415   06 Jun 2027 01:51:52.945   06 Jun 2027 01:51:56.400             3.455               Magadan1           107.969
       416   06 Jun 2027 01:53:02.843   06 Jun 2027 01:53:28.836            25.993              Murmansk2           812.281
       417   06 Jun 2027 01:53:32.266   06 Jun 2027 01:55:07.654            95.388              Murmansk1          2980.875
       418   06 Jun 2027 01:56:19.472   06 Jun 2027 01:56:54.051            34.579                 Moscow          1080.594
       419   06 Jun 2027 01:57:19.733   06 Jun 2027 01:57:33.978            14.245                 Moscow           445.156
       420   06 Jun 2027 02:05:12.194   06 Jun 2027 02:05:26.937            14.743                 Moscow           460.719
       421   06 Jun 2027 02:21:35.971   06 Jun 2027 02:23:47.311           131.340               CapeTown          4104.375
       422   06 Jun 2027 03:16:52.879   06 Jun 2027 03:17:03.369            10.490               Magadan2           327.812
       423   06 Jun 2027 03:20:03.320   06 Jun 2027 03:20:08.711             5.391                Anadyr2           168.469
       424   06 Jun 2027 03:21:28.090   06 Jun 2027 03:22:39.299            71.209                Anadyr2          2225.281
       425   06 Jun 2027 03:22:43.885   06 Jun 2027 03:22:58.233            14.348                Anadyr2           448.375
       426   06 Jun 2027 03:23:26.623   06 Jun 2027 03:24:08.322            41.699               Magadan2          1303.094
       427   06 Jun 2027 03:24:11.206   06 Jun 2027 03:27:02.054           170.848               Magadan2          5339.000
       428   06 Jun 2027 03:27:07.978   06 Jun 2027 03:27:21.120            13.142                Anadyr1           410.687
       429   06 Jun 2027 03:28:11.833   06 Jun 2027 03:28:24.968            13.135               Magadan1           410.469
       430   06 Jun 2027 04:59:47.446   06 Jun 2027 05:01:29.942           102.496               Magadan1          3203.000
       431   06 Jun 2027 05:01:36.058   06 Jun 2027 05:03:46.374           130.316                Irkutsk          4072.375
       432   06 Jun 2027 05:03:56.056   06 Jun 2027 05:04:30.476            34.420                Irkutsk          1075.625
       433   06 Jun 2027 05:04:54.300   06 Jun 2027 05:04:55.045             0.745                Anadyr1            23.281
       434   06 Jun 2027 06:37:16.289   06 Jun 2027 06:38:33.043            76.754               Magadan1          2398.562
       435   06 Jun 2027 06:38:37.805   06 Jun 2027 06:38:47.827            10.022               Magadan1           313.187
       436   06 Jun 2027 06:38:57.067   06 Jun 2027 06:39:42.871            45.804               Magadan1          1431.375
       437   06 Jun 2027 06:47:42.566   06 Jun 2027 06:47:52.311             9.745              Murmansk2           304.531
       438   06 Jun 2027 08:12:53.353   06 Jun 2027 08:13:19.444            26.091                Irkutsk           815.344
       439   06 Jun 2027 08:13:51.479   06 Jun 2027 08:14:18.420            26.941              Murmansk1           841.906
       440   06 Jun 2027 08:14:22.118   06 Jun 2027 08:14:46.146            24.028              Murmansk1           750.875
       441   06 Jun 2027 08:15:09.080   06 Jun 2027 08:15:44.472            35.392                Irkutsk          1106.000
       442   06 Jun 2027 08:16:02.585   06 Jun 2027 08:16:51.737            49.152                Irkutsk          1536.000
       443   06 Jun 2027 08:21:15.238   06 Jun 2027 08:21:17.317             2.079                Norilsk            64.969
       444   06 Jun 2027 08:55:39.608   06 Jun 2027 08:56:58.816            79.208            RioGallegos          2475.250
       445   06 Jun 2027 09:31:11.172   06 Jun 2027 09:32:39.556            88.384                Sumatra          2762.000
       446   06 Jun 2027 09:51:31.789   06 Jun 2027 09:51:43.379            11.590                Novosib           362.188
       447   06 Jun 2027 09:51:56.187   06 Jun 2027 09:51:56.409             0.222                Novosib             6.937
       448   06 Jun 2027 09:52:11.382   06 Jun 2027 09:52:12.724             1.342                Norilsk            41.938
       449   06 Jun 2027 09:52:32.668   06 Jun 2027 09:52:41.946             9.278                Novosib           289.937
       450   06 Jun 2027 09:52:59.897   06 Jun 2027 09:53:40.838            40.941                Novosib          1279.406
       451   06 Jun 2027 11:32:30.790   06 Jun 2027 11:33:11.301            40.511                Norilsk          1265.969
       452   06 Jun 2027 12:56:28.779   06 Jun 2027 12:56:38.160             9.381                 Moscow           293.156
       453   06 Jun 2027 12:57:37.080   06 Jun 2027 12:58:12.224            35.144                 Moscow          1098.250
       454   06 Jun 2027 12:58:26.871   06 Jun 2027 12:59:25.564            58.693                 Moscow          1834.156
       455   06 Jun 2027 12:59:41.776   06 Jun 2027 13:00:09.712            27.936              Murmansk2           873.000
       456   06 Jun 2027 13:00:29.218   06 Jun 2027 13:01:41.689            72.471              Murmansk1          2264.719
       457   06 Jun 2027 13:02:58.078   06 Jun 2027 13:03:18.217            20.139              Murmansk2           629.344
       458   06 Jun 2027 13:03:18.217   06 Jun 2027 13:03:19.579             1.362              Murmansk1            42.562
       459   06 Jun 2027 13:03:21.653   06 Jun 2027 13:04:17.981            56.328              Murmansk1          1760.250
       460   06 Jun 2027 13:13:53.249   06 Jun 2027 13:16:51.041           177.792                Anadyr2          5556.000
       461   06 Jun 2027 13:21:41.375   06 Jun 2027 13:23:02.011            80.636                Anadyr1          2519.875
       462   06 Jun 2027 14:12:44.053   06 Jun 2027 14:13:28.175            44.122               CapeTown          1378.813
       463   06 Jun 2027 14:38:53.220   06 Jun 2027 14:39:11.324            18.104              Murmansk1           565.750
       464   06 Jun 2027 14:39:36.855   06 Jun 2027 14:40:32.490            55.635              Murmansk1          1738.594
       465   06 Jun 2027 14:41:18.135   06 Jun 2027 14:41:41.317            23.182              Murmansk2           724.437
       466   06 Jun 2027 14:49:22.282   06 Jun 2027 14:52:43.150           200.868                Anadyr2          6277.125
       467   06 Jun 2027 14:52:58.157   06 Jun 2027 14:56:28.954           210.797               Magadan1          6587.406
       468   06 Jun 2027 14:56:30.883   06 Jun 2027 14:59:58.043           207.160               Magadan2          6473.750
       469   06 Jun 2027 16:27:39.422   06 Jun 2027 16:29:24.882           105.460               Magadan2          3295.625
       470   06 Jun 2027 16:31:07.799   06 Jun 2027 16:31:51.107            43.308               Magadan2          1353.375
       471   06 Jun 2027 18:01:07.783   06 Jun 2027 18:03:07.485           119.702                Anadyr2          3740.687
       472   06 Jun 2027 18:03:26.574   06 Jun 2027 18:09:37.417           370.843                Norilsk         11588.844
       473   06 Jun 2027 18:10:29.297   06 Jun 2027 18:12:02.571            93.274                Irkutsk          2914.812
       474   06 Jun 2027 18:13:18.088   06 Jun 2027 18:15:14.504           116.416                Irkutsk          3638.000
       475   06 Jun 2027 18:25:20.963   06 Jun 2027 18:27:30.558           129.595                Sumatra          4049.844
       476   06 Jun 2027 18:29:29.878   06 Jun 2027 18:29:51.710            21.832                Sumatra           682.250
       477   06 Jun 2027 19:40:11.067   06 Jun 2027 19:40:26.912            15.845                Norilsk           495.156
       478   06 Jun 2027 19:44:03.141   06 Jun 2027 19:49:08.873           305.732                Novosib          9554.125
       479   06 Jun 2027 19:49:43.075   06 Jun 2027 19:51:09.327            86.252                Novosib          2695.375
       480   06 Jun 2027 21:18:43.581   06 Jun 2027 21:21:27.710           164.129              Murmansk1          5129.031
       481   06 Jun 2027 21:26:17.515   06 Jun 2027 21:27:39.180            81.665                  Delhi          2552.031
       482   06 Jun 2027 21:29:08.342   06 Jun 2027 21:29:26.208            17.866                  Delhi           558.313
