uniorb/output/strategy_4/Drop/Drop_KinoSat_111410.txt

KinoSat_111410
-------------------------
    Access    *     Start Time (UTCG)     *     Stop Time (UTCG)  *   Duration (s)        *       Station  *  Data (Mbytes)
         1   01 Jun 2027 04:14:27.528   01 Jun 2027 04:14:58.743            31.215                Norilsk           975.469
         2   01 Jun 2027 04:15:35.489   01 Jun 2027 04:18:46.545           191.056              Murmansk1          5970.500
         3   01 Jun 2027 04:18:48.136   01 Jun 2027 04:20:48.343           120.207                 Moscow          3756.469
         4   01 Jun 2027 04:34:48.216   01 Jun 2027 04:35:38.764            50.548               CapeTown          1579.625
         5   01 Jun 2027 04:43:02.607   01 Jun 2027 04:43:31.738            29.131               CapeTown           910.344
         6   01 Jun 2027 04:45:02.814   01 Jun 2027 04:45:51.495            48.681               CapeTown          1521.281
         7   01 Jun 2027 05:36:55.582   01 Jun 2027 05:37:17.567            21.985               Magadan2           687.031
         8   01 Jun 2027 05:37:17.567   01 Jun 2027 05:38:08.425            50.858               Magadan1          1589.313
         9   01 Jun 2027 05:38:08.425   01 Jun 2027 05:38:28.502            20.077               Magadan2           627.406
        10   01 Jun 2027 05:38:40.003   01 Jun 2027 05:40:30.946           110.943                Anadyr1          3466.969
        11   01 Jun 2027 05:42:24.408   01 Jun 2027 05:42:45.793            21.385                Anadyr1           668.281
        12   01 Jun 2027 07:14:24.998   01 Jun 2027 07:15:14.136            49.138                Irkutsk          1535.563
        13   01 Jun 2027 07:15:37.272   01 Jun 2027 07:18:30.637           173.365                Anadyr2          5417.656
        14   01 Jun 2027 07:19:03.454   01 Jun 2027 07:19:16.664            13.210              Murmansk1           412.812
        15   01 Jun 2027 07:19:16.664   01 Jun 2027 07:19:41.213            24.549              Murmansk2           767.156
        16   01 Jun 2027 07:19:41.213   01 Jun 2027 07:21:03.425            82.212              Murmansk1          2569.125
        17   01 Jun 2027 07:23:13.804   01 Jun 2027 07:23:17.453             3.649                 Moscow           114.031
        18   01 Jun 2027 08:47:41.067   01 Jun 2027 08:48:51.312            70.245               Magadan2          2195.156
        19   01 Jun 2027 08:49:18.662   01 Jun 2027 08:49:27.502             8.840               Magadan2           276.250
        20   01 Jun 2027 08:49:57.296   01 Jun 2027 08:50:32.661            35.365                Norilsk          1105.156
        21   01 Jun 2027 08:50:37.152   01 Jun 2027 08:51:14.257            37.105               Magadan1          1159.531
        22   01 Jun 2027 08:51:14.257   01 Jun 2027 08:53:14.107           119.850               Magadan2          3745.312
        23   01 Jun 2027 08:53:14.323   01 Jun 2027 08:54:28.016            73.693                Novosib          2302.906
        24   01 Jun 2027 09:29:59.754   01 Jun 2027 09:30:45.553            45.799            RioGallegos          1431.219
        25   01 Jun 2027 10:05:16.499   01 Jun 2027 10:05:25.218             8.719                Sumatra           272.469
        26   01 Jun 2027 10:25:05.697   01 Jun 2027 10:25:43.176            37.479                Novosib          1171.219
        27   01 Jun 2027 10:26:01.202   01 Jun 2027 10:28:12.751           131.549                Irkutsk          4110.906
        28   01 Jun 2027 10:28:24.366   01 Jun 2027 10:29:12.877            48.511                Irkutsk          1515.969
        29   01 Jun 2027 10:29:26.869   01 Jun 2027 10:32:21.443           174.574              Murmansk2          5455.437
        30   01 Jun 2027 11:05:34.421   01 Jun 2027 11:06:51.550            77.129            RioGallegos          2410.281
        31   01 Jun 2027 11:07:22.917   01 Jun 2027 11:07:42.216            19.299            RioGallegos           603.094
        32   01 Jun 2027 11:08:05.027   01 Jun 2027 11:08:58.768            53.741            RioGallegos          1679.406
        33   01 Jun 2027 11:39:53.408   01 Jun 2027 11:40:13.212            19.804                Sumatra           618.875
        34   01 Jun 2027 11:44:02.923   01 Jun 2027 11:44:36.952            34.029                Sumatra          1063.406
        35   01 Jun 2027 11:45:13.375   01 Jun 2027 11:45:14.655             1.280                Sumatra            40.000
        36   01 Jun 2027 11:48:30.985   01 Jun 2027 11:49:59.437            88.452                  Delhi          2764.125
        37   01 Jun 2027 15:12:46.606   01 Jun 2027 15:13:35.793            49.187                 Moscow          1537.094
        38   01 Jun 2027 15:15:52.892   01 Jun 2027 15:16:35.093            42.201              Murmansk1          1318.781
        39   01 Jun 2027 15:17:05.661   01 Jun 2027 15:17:32.379            26.718              Murmansk1           834.938
        40   01 Jun 2027 15:17:45.748   01 Jun 2027 15:21:03.974           198.226                Norilsk          6194.562
        41   01 Jun 2027 15:21:14.541   01 Jun 2027 15:21:54.629            40.088                Norilsk          1252.750
        42   01 Jun 2027 16:32:48.981   01 Jun 2027 16:33:20.695            31.714               CapeTown           991.063
        43   01 Jun 2027 16:49:18.929   01 Jun 2027 16:49:33.803            14.874                 Moscow           464.813
        44   01 Jun 2027 16:49:40.065   01 Jun 2027 16:50:29.866            49.801              Murmansk1          1556.281
        45   01 Jun 2027 16:52:46.385   01 Jun 2027 16:52:53.022             6.637                 Moscow           207.406
        46   01 Jun 2027 16:53:30.383   01 Jun 2027 16:54:15.231            44.848              Murmansk1          1401.500
        47   01 Jun 2027 16:56:00.796   01 Jun 2027 16:56:01.116             0.320              Murmansk2            10.000
        48   01 Jun 2027 16:56:49.527   01 Jun 2027 16:57:29.023            39.496              Murmansk2          1234.250
        49   01 Jun 2027 16:58:22.674   01 Jun 2027 16:58:53.720            31.046              Murmansk2           970.188
        50   01 Jun 2027 16:58:53.720   01 Jun 2027 16:59:25.169            31.449              Murmansk1           982.781
        51   01 Jun 2027 17:02:48.314   01 Jun 2027 17:03:04.671            16.357                Anadyr1           511.156
        52   01 Jun 2027 17:03:30.255   01 Jun 2027 17:03:35.244             4.989                Anadyr1           155.906
        53   01 Jun 2027 17:05:27.946   01 Jun 2027 17:05:45.852            17.906                Anadyr1           559.563
        54   01 Jun 2027 17:06:46.339   01 Jun 2027 17:07:08.417            22.078                Anadyr1           689.937
        55   01 Jun 2027 17:07:38.509   01 Jun 2027 17:07:45.961             7.452                Anadyr1           232.875
        56   01 Jun 2027 17:08:00.822   01 Jun 2027 17:08:01.281             0.459                Anadyr1            14.344
        57   01 Jun 2027 17:08:09.052   01 Jun 2027 17:08:18.562             9.510                Anadyr2           297.187
        58   01 Jun 2027 17:08:54.434   01 Jun 2027 17:09:40.871            46.437                Anadyr2          1451.156
        59   01 Jun 2027 18:04:09.513   01 Jun 2027 18:04:29.904            20.391               CapeTown           637.219
        60   01 Jun 2027 18:05:30.363   01 Jun 2027 18:05:35.739             5.376               CapeTown           168.000
        61   01 Jun 2027 18:06:21.057   01 Jun 2027 18:07:52.051            90.994               CapeTown          2843.563
        62   01 Jun 2027 18:29:52.276   01 Jun 2027 18:32:50.979           178.703              Murmansk2          5584.469
        63   01 Jun 2027 18:34:47.551   01 Jun 2027 18:35:44.709            57.158              Murmansk2          1786.188
        64   01 Jun 2027 18:42:34.084   01 Jun 2027 18:42:54.126            20.042               Magadan2           626.313
        65   01 Jun 2027 18:43:10.068   01 Jun 2027 18:43:56.448            46.380               Magadan1          1449.375
        66   01 Jun 2027 18:47:49.767   01 Jun 2027 18:48:02.197            12.430               Magadan1           388.438
        67   01 Jun 2027 18:48:48.328   01 Jun 2027 18:49:29.771            41.443               Magadan2          1295.094
        68   01 Jun 2027 20:14:10.672   01 Jun 2027 20:16:16.959           126.287                Anadyr1          3946.469
        69   01 Jun 2027 20:16:27.508   01 Jun 2027 20:20:45.778           258.270               Magadan2          8070.938
        70   01 Jun 2027 20:23:25.219   01 Jun 2027 20:24:08.912            43.693               Magadan1          1365.406
        71   01 Jun 2027 21:09:27.628   01 Jun 2027 21:12:11.580           163.952            RioGallegos          5123.500
        72   01 Jun 2027 21:15:49.064   01 Jun 2027 21:16:17.290            28.226            RioGallegos           882.062
        73   01 Jun 2027 21:49:56.350   01 Jun 2027 21:50:23.232            26.882                Anadyr1           840.063
        74   01 Jun 2027 21:52:03.854   01 Jun 2027 21:53:47.200           103.346                Norilsk          3229.563
        75   01 Jun 2027 21:54:10.151   01 Jun 2027 21:54:55.818            45.667                Norilsk          1427.094
        76   01 Jun 2027 21:55:26.762   01 Jun 2027 21:56:15.907            49.145               Magadan2          1535.781
        77   01 Jun 2027 21:56:38.791   01 Jun 2027 21:57:42.161            63.370                Irkutsk          1980.312
        78   01 Jun 2027 22:00:50.241   01 Jun 2027 22:01:29.372            39.131                Irkutsk          1222.844
        79   01 Jun 2027 22:04:50.967   01 Jun 2027 22:05:35.902            44.935                Irkutsk          1404.219
        80   01 Jun 2027 22:10:58.422   01 Jun 2027 22:11:34.434            36.012                Sumatra          1125.375
        81   01 Jun 2027 22:16:18.727   01 Jun 2027 22:17:14.057            55.330                Sumatra          1729.063
        82   01 Jun 2027 22:55:24.927   01 Jun 2027 22:55:52.134            27.207            RioGallegos           850.219
        83   01 Jun 2027 23:25:02.798   01 Jun 2027 23:27:28.164           145.366                Anadyr2          4542.687
        84   01 Jun 2027 23:27:55.197   01 Jun 2027 23:28:06.615            11.418                Norilsk           356.813
        85   01 Jun 2027 23:28:33.257   01 Jun 2027 23:29:20.956            47.699               Magadan2          1490.594
        86   01 Jun 2027 23:29:28.383   01 Jun 2027 23:30:08.790            40.407               Magadan2          1262.719
        87   01 Jun 2027 23:31:47.849   01 Jun 2027 23:32:45.862            58.013                Irkutsk          1812.906
        88   01 Jun 2027 23:33:19.071   01 Jun 2027 23:34:59.681           100.610                Novosib          3144.062
        89   01 Jun 2027 23:38:18.134   01 Jun 2027 23:38:21.914             3.780                Novosib           118.125
        90   01 Jun 2027 23:41:01.705   01 Jun 2027 23:44:06.191           184.486                  Delhi          5765.188
        91   02 Jun 2027 00:31:02.197   02 Jun 2027 00:31:15.956            13.759            RioGallegos           429.969
        92   02 Jun 2027 00:58:56.665   02 Jun 2027 01:00:28.388            91.723                Anadyr1          2866.344
        93   02 Jun 2027 01:01:23.099   02 Jun 2027 01:01:36.334            13.235                Anadyr1           413.594
        94   02 Jun 2027 01:03:55.771   02 Jun 2027 01:04:05.757             9.986                Norilsk           312.062
        95   02 Jun 2027 01:04:18.474   02 Jun 2027 01:04:42.288            23.814                Norilsk           744.187
        96   02 Jun 2027 01:05:12.473   02 Jun 2027 01:05:59.732            47.259                Norilsk          1476.844
        97   02 Jun 2027 01:06:18.032   02 Jun 2027 01:07:12.848            54.816               Magadan1          1713.000
        98   02 Jun 2027 01:07:23.358   02 Jun 2027 01:10:18.961           175.603              Murmansk2          5487.594
        99   02 Jun 2027 01:15:03.160   02 Jun 2027 01:15:24.543            21.383                  Delhi           668.219
       100   02 Jun 2027 01:17:17.762   02 Jun 2027 01:17:25.620             7.858                  Delhi           245.562
       101   02 Jun 2027 01:18:12.798   02 Jun 2027 01:18:38.711            25.913                  Delhi           809.781
       102   02 Jun 2027 01:23:30.736   02 Jun 2027 01:24:05.124            34.388                  Delhi          1074.625
       103   02 Jun 2027 01:57:29.906   02 Jun 2027 01:59:51.113           141.207            RioGallegos          4412.719
       104   02 Jun 2027 02:00:56.773   02 Jun 2027 02:01:41.430            44.657            RioGallegos          1395.531
       105   02 Jun 2027 02:32:13.765   02 Jun 2027 02:32:24.067            10.302                Anadyr1           321.938
       106   02 Jun 2027 02:32:39.097   02 Jun 2027 02:33:26.078            46.981                Anadyr2          1468.156
       107   02 Jun 2027 02:38:02.361   02 Jun 2027 02:38:54.262            51.901               Magadan1          1621.906
       108   02 Jun 2027 02:39:07.515   02 Jun 2027 02:39:57.986            50.471               Magadan2          1577.219
       109   02 Jun 2027 02:42:04.109   02 Jun 2027 02:43:13.972            69.863              Murmansk1          2183.219
       110   02 Jun 2027 02:43:54.284   02 Jun 2027 02:45:03.431            69.147                Novosib          2160.844
       111   02 Jun 2027 02:46:13.256   02 Jun 2027 02:46:29.162            15.906                Irkutsk           497.063
       112   02 Jun 2027 02:46:34.803   02 Jun 2027 02:47:39.395            64.592                Irkutsk          2018.500
       113   02 Jun 2027 02:54:34.776   02 Jun 2027 02:55:07.237            32.461                  Delhi          1014.406
       114   02 Jun 2027 04:27:00.882   02 Jun 2027 04:27:52.013            51.131              Murmansk2          1597.844
       115   02 Jun 2027 04:28:04.736   02 Jun 2027 04:28:54.757            50.021                 Moscow          1563.156
       116   02 Jun 2027 04:28:56.322   02 Jun 2027 04:29:25.467            29.145              Murmansk1           910.781
       117   02 Jun 2027 04:50:47.484   02 Jun 2027 04:50:57.100             9.616               CapeTown           300.500
       118   02 Jun 2027 05:48:53.480   02 Jun 2027 05:49:12.550            19.070               Magadan1           595.938
       119   02 Jun 2027 05:49:19.035   02 Jun 2027 05:51:09.697           110.662                Anadyr2          3458.187
       120   02 Jun 2027 05:52:12.436   02 Jun 2027 05:52:40.774            28.338                Anadyr2           885.563
       121   02 Jun 2027 05:54:17.096   02 Jun 2027 05:54:47.085            29.989                Anadyr2           937.156
       122   02 Jun 2027 07:27:40.510   02 Jun 2027 07:27:50.255             9.745                Irkutsk           304.531
       123   02 Jun 2027 07:27:53.343   02 Jun 2027 07:30:28.144           154.801                Anadyr1          4837.531
       124   02 Jun 2027 09:02:16.750   02 Jun 2027 09:03:14.064            57.314                Irkutsk          1791.062
       125   02 Jun 2027 09:03:17.800   02 Jun 2027 09:05:53.587           155.787               Magadan2          4868.344
       126   02 Jun 2027 10:37:46.737   02 Jun 2027 10:37:47.569             0.832                Novosib            26.000
       127   02 Jun 2027 10:37:52.180   02 Jun 2027 10:38:20.210            28.030                Novosib           875.937
       128   02 Jun 2027 10:38:31.349   02 Jun 2027 10:38:40.224             8.875                Norilsk           277.344
       129   02 Jun 2027 10:38:40.867   02 Jun 2027 10:38:52.189            11.322                Irkutsk           353.813
       130   02 Jun 2027 10:38:59.918   02 Jun 2027 10:39:18.889            18.971                Norilsk           592.844
       131   02 Jun 2027 10:39:36.271   02 Jun 2027 10:40:01.384            25.113                Norilsk           784.781
       132   02 Jun 2027 10:40:15.129   02 Jun 2027 10:40:56.923            41.794                Novosib          1306.063
       133   02 Jun 2027 10:41:05.110   02 Jun 2027 10:41:10.659             5.549                Irkutsk           173.406
       134   02 Jun 2027 10:41:14.454   02 Jun 2027 10:41:43.549            29.095                Norilsk           909.219
       135   02 Jun 2027 10:41:51.113   02 Jun 2027 10:42:06.320            15.207                Irkutsk           475.219
       136   02 Jun 2027 11:17:59.388   02 Jun 2027 11:18:38.228            38.840            RioGallegos          1213.750
       137   02 Jun 2027 11:19:35.686   02 Jun 2027 11:20:10.648            34.962            RioGallegos          1092.562
       138   02 Jun 2027 11:52:13.517   02 Jun 2027 11:53:44.271            90.754                Sumatra          2836.063
       139   02 Jun 2027 12:06:47.930   02 Jun 2027 12:07:42.889            54.959                Novosib          1717.469
       140   02 Jun 2027 12:13:41.217   02 Jun 2027 12:14:10.836            29.619                Norilsk           925.594
       141   02 Jun 2027 12:19:18.206   02 Jun 2027 12:19:22.494             4.288                Norilsk           134.000
       142   02 Jun 2027 12:19:58.448   02 Jun 2027 12:20:28.146            29.698                Norilsk           928.063
       143   02 Jun 2027 13:37:11.902   02 Jun 2027 13:40:16.265           184.363                  Delhi          5761.344
       144   02 Jun 2027 13:41:04.726   02 Jun 2027 13:42:18.527            73.801                  Delhi          2306.281
       145   02 Jun 2027 13:45:37.914   02 Jun 2027 13:45:44.703             6.789                Novosib           212.156
       146   02 Jun 2027 13:47:47.497   02 Jun 2027 13:48:39.908            52.411                Novosib          1637.844
       147   02 Jun 2027 13:49:13.725   02 Jun 2027 13:49:25.870            12.145                Norilsk           379.531
       148   02 Jun 2027 13:50:02.555   02 Jun 2027 13:50:31.204            28.649                Novosib           895.281
       149   02 Jun 2027 13:53:32.350   02 Jun 2027 13:54:24.082            51.732                Norilsk          1616.625
       150   02 Jun 2027 15:20:25.803   02 Jun 2027 15:22:20.930           115.127                 Moscow          3597.719
       151   02 Jun 2027 15:23:56.822   02 Jun 2027 15:27:02.529           185.707              Murmansk2          5803.344
       152   02 Jun 2027 15:30:54.909   02 Jun 2027 15:33:01.685           126.776                Norilsk          3961.750
       153   02 Jun 2027 15:39:48.496   02 Jun 2027 15:40:28.216            39.720                Anadyr1          1241.250
       154   02 Jun 2027 15:40:48.094   02 Jun 2027 15:41:01.889            13.795                Anadyr1           431.094
       155   02 Jun 2027 15:41:08.827   02 Jun 2027 15:41:28.671            19.844                Anadyr1           620.125
       156   02 Jun 2027 15:44:57.232   02 Jun 2027 15:45:00.386             3.154                Anadyr1            98.562
       157   02 Jun 2027 16:37:29.405   02 Jun 2027 16:38:06.067            36.662               CapeTown          1145.688
       158   02 Jun 2027 16:42:04.980   02 Jun 2027 16:42:27.111            22.131               CapeTown           691.594
       159   02 Jun 2027 16:59:46.875   02 Jun 2027 17:00:30.621            43.746                 Moscow          1367.063
       160   02 Jun 2027 17:00:57.820   02 Jun 2027 17:01:14.372            16.552                 Moscow           517.250
       161   02 Jun 2027 17:01:56.037   02 Jun 2027 17:02:45.997            49.960              Murmansk1          1561.250
       162   02 Jun 2027 17:02:58.820   02 Jun 2027 17:03:14.117            15.297              Murmansk1           478.031
       163   02 Jun 2027 17:05:06.454   02 Jun 2027 17:05:32.136            25.682              Murmansk1           802.562
       164   02 Jun 2027 17:10:55.787   02 Jun 2027 17:11:51.680            55.893              Murmansk1          1746.656
       165   02 Jun 2027 17:14:28.144   02 Jun 2027 17:14:44.146            16.002                Anadyr1           500.062
       166   02 Jun 2027 17:15:03.509   02 Jun 2027 17:15:26.075            22.566                Anadyr1           705.187
       167   02 Jun 2027 17:15:54.781   02 Jun 2027 17:16:08.113            13.332                Anadyr1           416.625
       168   02 Jun 2027 17:17:46.083   02 Jun 2027 17:18:31.288            45.205                Anadyr1          1412.656
       169   02 Jun 2027 18:10:21.534   02 Jun 2027 18:10:34.990            13.456               CapeTown           420.500
       170   02 Jun 2027 18:10:55.562   02 Jun 2027 18:11:12.584            17.022               CapeTown           531.938
       171   02 Jun 2027 18:11:35.843   02 Jun 2027 18:11:48.840            12.997               CapeTown           406.156
       172   02 Jun 2027 18:15:07.951   02 Jun 2027 18:15:50.816            42.865               CapeTown          1339.531
       173   02 Jun 2027 18:42:47.138   02 Jun 2027 18:46:47.945           240.807              Murmansk1          7525.219
       174   02 Jun 2027 18:46:47.945   02 Jun 2027 18:46:57.053             9.108              Murmansk2           284.625
       175   02 Jun 2027 18:50:16.079   02 Jun 2027 18:50:29.149            13.070                Anadyr1           408.437
       176   02 Jun 2027 18:52:57.747   02 Jun 2027 18:53:41.000            43.253               Magadan1          1351.656
       177   02 Jun 2027 18:53:52.396   02 Jun 2027 18:54:06.150            13.754               Magadan1           429.812
       178   02 Jun 2027 18:57:16.149   02 Jun 2027 18:58:26.666            70.517               Magadan2          2203.656
       179   02 Jun 2027 20:26:11.919   02 Jun 2027 20:28:18.704           126.785                Anadyr1          3962.031
       180   02 Jun 2027 20:28:20.174   02 Jun 2027 20:30:12.560           112.386                Anadyr2          3512.063
       181   02 Jun 2027 20:30:16.181   02 Jun 2027 20:32:13.802           117.621               Magadan1          3675.656
       182   02 Jun 2027 20:32:59.615   02 Jun 2027 20:33:08.057             8.442               Magadan1           263.812
       183   02 Jun 2027 20:34:26.511   02 Jun 2027 20:34:57.039            30.528               Magadan2           954.000
       184   02 Jun 2027 20:38:47.007   02 Jun 2027 20:38:58.454            11.447               Magadan2           357.719
       185   02 Jun 2027 20:39:35.084   02 Jun 2027 20:40:03.729            28.645               Magadan2           895.156
       186   02 Jun 2027 21:21:05.355   02 Jun 2027 21:23:18.782           133.427            RioGallegos          4169.594
       187   02 Jun 2027 21:25:25.524   02 Jun 2027 21:25:40.535            15.011            RioGallegos           469.094
       188   02 Jun 2027 21:26:10.623   02 Jun 2027 21:26:57.980            47.357            RioGallegos          1479.906
       189   02 Jun 2027 22:01:54.618   02 Jun 2027 22:02:29.975            35.357                Anadyr2          1104.906
       190   02 Jun 2027 22:04:03.192   02 Jun 2027 22:05:48.917           105.725                Norilsk          3303.906
       191   02 Jun 2027 22:06:04.032   02 Jun 2027 22:06:31.470            27.438               Magadan2           857.437
       192   02 Jun 2027 22:07:07.309   02 Jun 2027 22:07:30.386            23.077                Norilsk           721.156
       193   02 Jun 2027 22:08:27.577   02 Jun 2027 22:09:24.589            57.012                Irkutsk          1781.625
       194   02 Jun 2027 22:10:52.264   02 Jun 2027 22:11:50.185            57.921                Irkutsk          1810.031
       195   02 Jun 2027 22:17:25.879   02 Jun 2027 22:17:55.102            29.223                Irkutsk           913.219
       196   02 Jun 2027 22:22:30.034   02 Jun 2027 22:23:47.122            77.088                Sumatra          2409.000
       197   02 Jun 2027 22:24:07.767   02 Jun 2027 22:25:08.987            61.220                Sumatra          1913.125
       198   02 Jun 2027 23:36:53.254   02 Jun 2027 23:36:59.504             6.250                Anadyr1           195.313
       199   02 Jun 2027 23:37:12.643   02 Jun 2027 23:38:12.917            60.274                Anadyr1          1883.563
       200   02 Jun 2027 23:39:29.810   02 Jun 2027 23:39:46.103            16.293                Anadyr1           509.156
       201   02 Jun 2027 23:39:57.269   02 Jun 2027 23:40:40.440            43.171                Norilsk          1349.094
       202   02 Jun 2027 23:40:43.942   02 Jun 2027 23:41:39.284            55.342               Magadan2          1729.437
       203   02 Jun 2027 23:41:47.542   02 Jun 2027 23:41:49.139             1.597                Norilsk            49.906
       204   02 Jun 2027 23:42:16.808   02 Jun 2027 23:42:30.722            13.914               Magadan2           434.813
       205   02 Jun 2027 23:43:26.893   02 Jun 2027 23:43:35.991             9.098                Norilsk           284.312
       206   02 Jun 2027 23:43:36.523   02 Jun 2027 23:44:34.948            58.425               Magadan1          1825.781
       207   02 Jun 2027 23:44:50.243   02 Jun 2027 23:45:36.400            46.157                Novosib          1442.406
       208   02 Jun 2027 23:46:51.640   02 Jun 2027 23:46:59.187             7.547                Novosib           235.844
       209   02 Jun 2027 23:48:53.381   02 Jun 2027 23:49:33.037            39.656                Irkutsk          1239.250
       210   02 Jun 2027 23:52:26.553   02 Jun 2027 23:53:22.299            55.746                  Delhi          1742.062
       211   02 Jun 2027 23:55:20.512   02 Jun 2027 23:56:08.172            47.660                  Delhi          1489.375
       212   02 Jun 2027 23:57:26.975   02 Jun 2027 23:58:44.725            77.750                  Delhi          2429.688
       213   03 Jun 2027 01:10:38.454   03 Jun 2027 01:10:48.214             9.760                Anadyr1           305.000
       214   03 Jun 2027 01:10:49.326   03 Jun 2027 01:11:23.256            33.930                Anadyr2          1060.312
       215   03 Jun 2027 01:11:49.129   03 Jun 2027 01:12:29.730            40.601                Anadyr2          1268.781
       216   03 Jun 2027 01:13:04.420   03 Jun 2027 01:13:25.328            20.908                Anadyr1           653.375
       217   03 Jun 2027 01:15:45.295   03 Jun 2027 01:16:08.022            22.727                Anadyr1           710.219
       218   03 Jun 2027 01:16:22.729   03 Jun 2027 01:18:08.570           105.841               Magadan2          3307.531
       219   03 Jun 2027 01:18:15.728   03 Jun 2027 01:18:32.781            17.053               Magadan1           532.906
       220   03 Jun 2027 01:19:21.346   03 Jun 2027 01:20:33.844            72.498              Murmansk1          2265.562
       221   03 Jun 2027 01:20:33.844   03 Jun 2027 01:20:37.279             3.435              Murmansk2           107.344
       222   03 Jun 2027 01:20:40.417   03 Jun 2027 01:21:17.218            36.801                Novosib          1150.031
       223   03 Jun 2027 01:22:45.202   03 Jun 2027 01:23:13.584            28.382                Irkutsk           886.938
       224   03 Jun 2027 01:24:06.737   03 Jun 2027 01:24:56.592            49.855                Novosib          1557.969
       225   03 Jun 2027 01:31:35.400   03 Jun 2027 01:32:12.724            37.324                  Delhi          1166.375
       226   03 Jun 2027 01:37:37.666   03 Jun 2027 01:38:48.766            71.100                  Delhi          2221.875
       227   03 Jun 2027 02:10:09.423   03 Jun 2027 02:10:45.748            36.325            RioGallegos          1135.156
       228   03 Jun 2027 02:12:07.803   03 Jun 2027 02:12:12.254             4.451            RioGallegos           139.094
       229   03 Jun 2027 02:12:59.833   03 Jun 2027 02:13:10.424            10.591            RioGallegos           330.969
       230   03 Jun 2027 02:43:57.142   03 Jun 2027 02:44:44.625            47.483                Anadyr2          1483.844
       231   03 Jun 2027 02:45:27.482   03 Jun 2027 02:46:48.425            80.943                Anadyr2          2529.469
       232   03 Jun 2027 02:49:31.502   03 Jun 2027 02:49:44.825            13.323               Magadan2           416.344
       233   03 Jun 2027 02:51:30.814   03 Jun 2027 02:51:56.005            25.191               Magadan1           787.219
       234   03 Jun 2027 02:54:02.023   03 Jun 2027 02:54:07.426             5.403               Magadan2           168.844
       235   03 Jun 2027 02:54:09.282   03 Jun 2027 02:54:14.345             5.063              Murmansk1           158.219
       236   03 Jun 2027 02:54:43.279   03 Jun 2027 02:54:48.194             4.915                Norilsk           153.594
       237   03 Jun 2027 02:54:50.920   03 Jun 2027 02:56:05.885            74.965              Murmansk2          2342.656
       238   03 Jun 2027 02:56:10.145   03 Jun 2027 02:56:11.705             1.560              Murmansk2            48.750
       239   03 Jun 2027 02:57:02.259   03 Jun 2027 02:57:35.067            32.808                Novosib          1025.250
       240   03 Jun 2027 02:58:28.465   03 Jun 2027 02:59:07.496            39.031                 Moscow          1219.719
       241   03 Jun 2027 03:00:13.972   03 Jun 2027 03:00:36.664            22.692                Norilsk           709.125
       242   03 Jun 2027 03:00:46.375   03 Jun 2027 03:00:53.862             7.487                Norilsk           233.969
       243   03 Jun 2027 03:01:05.833   03 Jun 2027 03:03:32.323           146.490                 Moscow          4577.813
       244   03 Jun 2027 03:03:33.614   03 Jun 2027 03:04:03.788            30.174                Novosib           942.938
       245   03 Jun 2027 03:04:14.008   03 Jun 2027 03:04:20.172             6.164                Novosib           192.625
       246   03 Jun 2027 03:04:23.617   03 Jun 2027 03:05:26.980            63.363              Murmansk1          1980.094
       247   03 Jun 2027 03:22:26.838   03 Jun 2027 03:23:03.519            36.681               CapeTown          1146.281
       248   03 Jun 2027 04:39:06.600   03 Jun 2027 04:39:56.153            49.553                 Moscow          1548.531
       249   03 Jun 2027 04:40:59.222   03 Jun 2027 04:41:16.115            16.893                 Moscow           527.906
       250   03 Jun 2027 04:41:43.944   03 Jun 2027 04:42:14.227            30.283              Murmansk1           946.344
       251   03 Jun 2027 04:57:26.304   03 Jun 2027 04:58:59.170            92.866               CapeTown          2902.063
       252   03 Jun 2027 05:54:16.961   03 Jun 2027 05:54:41.073            24.112               Magadan1           753.500
       253   03 Jun 2027 06:00:31.421   03 Jun 2027 06:03:59.932           208.511               Magadan2          6515.969
       254   03 Jun 2027 07:37:40.731   03 Jun 2027 07:37:42.462             1.731                Anadyr2            54.094
       255   03 Jun 2027 07:37:46.222   03 Jun 2027 07:38:14.232            28.010                Norilsk           875.313
       256   03 Jun 2027 07:38:29.325   03 Jun 2027 07:39:05.953            36.628                Anadyr2          1144.625
       257   03 Jun 2027 07:39:05.953   03 Jun 2027 07:39:39.067            33.114                Anadyr1          1034.813
       258   03 Jun 2027 07:39:46.492   03 Jun 2027 07:41:03.523            77.031                Anadyr1          2407.219
       259   03 Jun 2027 09:11:36.533   03 Jun 2027 09:12:54.099            77.566               Magadan1          2423.937
       260   03 Jun 2027 09:13:49.343   03 Jun 2027 09:14:19.704            30.361               Magadan1           948.781
       261   03 Jun 2027 09:14:27.307   03 Jun 2027 09:14:42.546            15.239               Magadan2           476.219
       262   03 Jun 2027 09:14:59.439   03 Jun 2027 09:15:22.023            22.584                Norilsk           705.750
       263   03 Jun 2027 09:16:09.430   03 Jun 2027 09:16:43.707            34.277                Irkutsk          1071.156
       264   03 Jun 2027 09:16:56.420   03 Jun 2027 09:17:23.320            26.900                Irkutsk           840.625
       265   03 Jun 2027 09:21:07.598   03 Jun 2027 09:21:36.024            28.426                Norilsk           888.313
       266   03 Jun 2027 09:52:49.005   03 Jun 2027 09:53:57.282            68.277            RioGallegos          2133.656
       267   03 Jun 2027 10:28:19.078   03 Jun 2027 10:28:48.916            29.838                Sumatra           932.438
       268   03 Jun 2027 10:30:20.249   03 Jun 2027 10:31:32.388            72.139                Sumatra          2254.344
       269   03 Jun 2027 10:49:34.863   03 Jun 2027 10:49:38.995             4.132                Novosib           129.125
       270   03 Jun 2027 10:49:42.737   03 Jun 2027 10:50:00.352            17.615                Irkutsk           550.469
       271   03 Jun 2027 10:50:06.117   03 Jun 2027 10:50:06.722             0.605                Irkutsk            18.906
       272   03 Jun 2027 10:50:16.005   03 Jun 2027 10:50:19.936             3.931                Novosib           122.844
       273   03 Jun 2027 10:50:24.317   03 Jun 2027 10:50:57.389            33.072                Irkutsk          1033.500
       274   03 Jun 2027 10:51:37.156   03 Jun 2027 10:52:00.553            23.397                Norilsk           731.156
       275   03 Jun 2027 10:52:23.637   03 Jun 2027 10:52:45.604            21.967                Irkutsk           686.469
       276   03 Jun 2027 10:52:58.403   03 Jun 2027 10:53:02.304             3.901                Norilsk           121.906
       277   03 Jun 2027 10:53:08.541   03 Jun 2027 10:53:33.892            25.351                Novosib           792.219
       278   03 Jun 2027 10:53:43.214   03 Jun 2027 10:53:45.517             2.303                Norilsk            71.969
       279   03 Jun 2027 10:54:00.179   03 Jun 2027 10:54:21.873            21.694                Norilsk           677.938
       280   03 Jun 2027 11:30:29.874   03 Jun 2027 11:31:12.735            42.861            RioGallegos          1339.406
       281   03 Jun 2027 11:34:02.015   03 Jun 2027 11:34:33.571            31.556            RioGallegos           986.125
       282   03 Jun 2027 12:04:42.405   03 Jun 2027 12:05:42.504            60.099                Sumatra          1878.094
       283   03 Jun 2027 12:18:46.497   03 Jun 2027 12:19:52.650            66.153                  Delhi          2067.281
       284   03 Jun 2027 12:20:14.399   03 Jun 2027 12:20:14.428             0.029                Irkutsk             0.906
       285   03 Jun 2027 12:21:58.479   03 Jun 2027 12:23:03.795            65.316                Novosib          2041.125
       286   03 Jun 2027 12:31:08.944   03 Jun 2027 12:31:20.461            11.517                Norilsk           359.906
       287   03 Jun 2027 12:32:43.662   03 Jun 2027 12:33:04.415            20.753                Norilsk           648.531
       288   03 Jun 2027 13:49:56.550   03 Jun 2027 13:52:59.415           182.865                  Delhi          5714.531
       289   03 Jun 2027 13:57:30.147   03 Jun 2027 13:58:15.044            44.897                 Moscow          1403.031
       290   03 Jun 2027 13:59:16.737   03 Jun 2027 13:59:42.604            25.867                Novosib           808.344
       291   03 Jun 2027 13:59:48.847   03 Jun 2027 14:00:53.206            64.359              Murmansk1          2011.219
       292   03 Jun 2027 14:01:04.246   03 Jun 2027 14:01:39.213            34.967              Murmansk2          1092.719
       293   03 Jun 2027 14:01:44.898   03 Jun 2027 14:02:09.785            24.887                Norilsk           777.719
       294   03 Jun 2027 14:03:03.978   03 Jun 2027 14:03:08.559             4.581                Novosib           143.156
       295   03 Jun 2027 14:03:34.647   03 Jun 2027 14:04:09.185            34.538                Norilsk          1079.312
       296   03 Jun 2027 14:05:34.736   03 Jun 2027 14:06:51.490            76.754                Norilsk          2398.562
       297   03 Jun 2027 15:13:57.763   03 Jun 2027 15:15:11.896            74.133               CapeTown          2316.656
       298   03 Jun 2027 15:32:37.911   03 Jun 2027 15:33:14.347            36.436                 Moscow          1138.625
       299   03 Jun 2027 15:33:52.679   03 Jun 2027 15:34:21.166            28.487                 Moscow           890.219
       300   03 Jun 2027 15:36:06.946   03 Jun 2027 15:37:02.547            55.601              Murmansk1          1737.531
       301   03 Jun 2027 15:37:02.547   03 Jun 2027 15:37:22.961            20.414              Murmansk2           637.938
       302   03 Jun 2027 15:39:01.348   03 Jun 2027 15:39:20.142            18.794              Murmansk2           587.313
       303   03 Jun 2027 15:46:58.673   03 Jun 2027 15:47:28.184            29.511              Murmansk1           922.219
       304   03 Jun 2027 15:51:27.406   03 Jun 2027 15:53:11.482           104.076                Anadyr1          3252.375
       305   03 Jun 2027 15:53:22.410   03 Jun 2027 15:53:30.003             7.593                Anadyr1           237.281
       306   03 Jun 2027 15:53:36.785   03 Jun 2027 15:54:37.053            60.268                Anadyr1          1883.375
       307   03 Jun 2027 16:48:40.618   03 Jun 2027 16:48:53.603            12.985               CapeTown           405.781
       308   03 Jun 2027 16:52:53.655   03 Jun 2027 16:53:31.246            37.591               CapeTown          1174.719
       309   03 Jun 2027 17:12:45.985   03 Jun 2027 17:14:07.604            81.619                 Moscow          2550.594
       310   03 Jun 2027 17:14:23.069   03 Jun 2027 17:14:29.739             6.670              Murmansk1           208.438
       311   03 Jun 2027 17:14:59.299   03 Jun 2027 17:15:04.209             4.910              Murmansk2           153.438
       312   03 Jun 2027 17:16:11.926   03 Jun 2027 17:16:28.887            16.961              Murmansk2           530.031
       313   03 Jun 2027 17:17:35.452   03 Jun 2027 17:18:39.707            64.255              Murmansk1          2007.969
       314   03 Jun 2027 17:26:27.280   03 Jun 2027 17:27:44.985            77.705                Anadyr1          2428.281
       315   03 Jun 2027 17:28:19.811   03 Jun 2027 17:28:45.134            25.323                Anadyr1           791.344
       316   03 Jun 2027 17:37:51.771   03 Jun 2027 17:37:54.466             2.695                Anadyr1            84.219
       317   03 Jun 2027 17:38:10.554   03 Jun 2027 17:38:10.602             0.048                Anadyr1             1.500
       318   03 Jun 2027 18:22:43.747   03 Jun 2027 18:23:55.888            72.141               CapeTown          2254.406
       319   03 Jun 2027 18:28:58.526   03 Jun 2027 18:29:20.762            22.236               CapeTown           694.875
       320   03 Jun 2027 18:55:54.219   03 Jun 2027 18:59:18.688           204.469              Murmansk2          6389.656
       321   03 Jun 2027 19:02:17.622   03 Jun 2027 19:04:18.900           121.278                Anadyr2          3789.937
       322   03 Jun 2027 19:06:45.378   03 Jun 2027 19:07:14.010            28.632               Magadan1           894.750
       323   03 Jun 2027 19:07:14.010   03 Jun 2027 19:07:36.208            22.198               Magadan2           693.687
       324   03 Jun 2027 19:14:47.412   03 Jun 2027 19:15:00.523            13.111               Magadan2           409.719
       325   03 Jun 2027 20:38:12.977   03 Jun 2027 20:42:03.545           230.568                Anadyr2          7205.250
       326   03 Jun 2027 20:42:18.313   03 Jun 2027 20:44:24.228           125.915                Norilsk          3934.844
       327   03 Jun 2027 20:44:52.483   03 Jun 2027 20:44:54.940             2.457               Magadan1            76.781
       328   03 Jun 2027 20:46:01.929   03 Jun 2027 20:46:19.006            17.077               Magadan1           533.656
       329   03 Jun 2027 20:49:07.111   03 Jun 2027 20:49:34.762            27.651               Magadan1           864.094
       330   03 Jun 2027 20:51:01.606   03 Jun 2027 20:51:13.896            12.290               Magadan1           384.063
       331   03 Jun 2027 20:52:52.004   03 Jun 2027 20:53:23.418            31.414               Magadan1           981.687
       332   03 Jun 2027 21:32:49.160   03 Jun 2027 21:35:13.903           144.743            RioGallegos          4523.219
       333   03 Jun 2027 21:35:53.981   03 Jun 2027 21:36:07.608            13.627            RioGallegos           425.844
       334   03 Jun 2027 22:13:52.212   03 Jun 2027 22:14:26.753            34.541                Anadyr1          1079.406
       335   03 Jun 2027 22:15:50.533   03 Jun 2027 22:16:10.725            20.192                Anadyr2           631.000
       336   03 Jun 2027 22:16:11.633   03 Jun 2027 22:19:10.817           179.184                Norilsk          5599.500
       337   03 Jun 2027 22:20:19.212   03 Jun 2027 22:21:14.519            55.307                Irkutsk          1728.344
       338   03 Jun 2027 22:22:14.201   03 Jun 2027 22:22:50.212            36.011                Irkutsk          1125.344
       339   03 Jun 2027 22:23:26.928   03 Jun 2027 22:23:57.315            30.387                Novosib           949.594
       340   03 Jun 2027 22:25:27.821   03 Jun 2027 22:25:41.573            13.752                Novosib           429.750
       341   03 Jun 2027 22:34:09.989   03 Jun 2027 22:34:47.064            37.075                Sumatra          1158.594
       342   03 Jun 2027 22:35:59.652   03 Jun 2027 22:36:06.776             7.124                Sumatra           222.625
       343   03 Jun 2027 22:36:30.643   03 Jun 2027 22:37:30.565            59.922                Sumatra          1872.563
       344   03 Jun 2027 23:16:57.609   03 Jun 2027 23:16:58.933             1.324            RioGallegos            41.375
       345   03 Jun 2027 23:48:42.400   03 Jun 2027 23:49:53.087            70.687                Anadyr1          2208.969
       346   03 Jun 2027 23:50:32.373   03 Jun 2027 23:50:59.130            26.757                Anadyr1           836.156
       347   03 Jun 2027 23:51:10.982   03 Jun 2027 23:51:29.615            18.633                Anadyr1           582.281
       348   03 Jun 2027 23:51:59.414   03 Jun 2027 23:52:18.629            19.215                Norilsk           600.469
       349   03 Jun 2027 23:52:29.743   03 Jun 2027 23:52:34.316             4.573                Anadyr2           142.906
       350   03 Jun 2027 23:52:38.547   03 Jun 2027 23:53:10.991            32.444               Magadan2          1013.875
       351   03 Jun 2027 23:53:22.316   03 Jun 2027 23:53:59.948            37.632               Magadan1          1176.000
       352   03 Jun 2027 23:54:27.765   03 Jun 2027 23:55:20.158            52.393               Magadan2          1637.281
       353   03 Jun 2027 23:56:03.471   03 Jun 2027 23:56:59.425            55.954                Novosib          1748.563
       354   03 Jun 2027 23:58:11.516   03 Jun 2027 23:59:36.946            85.430                Novosib          2669.687
       355   04 Jun 2027 00:04:01.501   04 Jun 2027 00:04:52.064            50.563                  Delhi          1580.094
       356   04 Jun 2027 00:06:29.838   04 Jun 2027 00:07:09.426            39.588                  Delhi          1237.125
       357   04 Jun 2027 00:14:39.169   04 Jun 2027 00:14:49.367            10.198                  Delhi           318.688
       358   04 Jun 2027 00:16:06.332   04 Jun 2027 00:16:36.720            30.388                Sumatra           949.625
       359   04 Jun 2027 00:47:37.553   04 Jun 2027 00:47:57.747            20.194            RioGallegos           631.062
       360   04 Jun 2027 00:49:57.429   04 Jun 2027 00:50:32.511            35.082            RioGallegos          1096.313
       361   04 Jun 2027 01:22:19.791   04 Jun 2027 01:23:19.573            59.782                Anadyr1          1868.188
       362   04 Jun 2027 01:23:49.602   04 Jun 2027 01:24:31.071            41.469                Anadyr2          1295.906
       363   04 Jun 2027 01:27:13.056   04 Jun 2027 01:27:32.233            19.177                Anadyr1           599.281
       364   04 Jun 2027 01:27:59.357   04 Jun 2027 01:28:22.335            22.978                Norilsk           718.063
       365   04 Jun 2027 01:28:32.623   04 Jun 2027 01:30:01.288            88.665               Magadan2          2770.781
       366   04 Jun 2027 01:30:23.565   04 Jun 2027 01:31:59.368            95.803              Murmansk1          2993.844
       367   04 Jun 2027 01:32:12.619   04 Jun 2027 01:32:57.395            44.776                Novosib          1399.250
       368   04 Jun 2027 01:33:55.032   04 Jun 2027 01:34:01.480             6.448              Murmansk2           201.500
       369   04 Jun 2027 01:34:58.957   04 Jun 2027 01:35:14.922            15.965                Novosib           498.906
       370   04 Jun 2027 01:36:54.311   04 Jun 2027 01:37:18.766            24.455                 Moscow           764.219
       371   04 Jun 2027 01:39:17.792   04 Jun 2027 01:40:07.995            50.203                  Delhi          1568.844
       372   04 Jun 2027 01:48:04.013   04 Jun 2027 01:48:41.766            37.753                  Delhi          1179.781
       373   04 Jun 2027 02:55:41.442   04 Jun 2027 02:58:20.852           159.410                Anadyr2          4981.563
       374   04 Jun 2027 03:00:59.600   04 Jun 2027 03:01:09.888            10.288               Magadan1           321.500
       375   04 Jun 2027 03:03:53.080   04 Jun 2027 03:04:20.360            27.280               Magadan2           852.500
       376   04 Jun 2027 03:12:40.543   04 Jun 2027 03:13:44.310            63.767                Norilsk          1992.719
       377   04 Jun 2027 03:13:57.750   04 Jun 2027 03:15:08.175            70.425                Norilsk          2200.781
       378   04 Jun 2027 03:15:30.161   04 Jun 2027 03:17:33.519           123.358                Novosib          3854.938
       379   04 Jun 2027 03:17:46.723   04 Jun 2027 03:17:57.630            10.907                Novosib           340.844
       380   04 Jun 2027 03:18:27.757   04 Jun 2027 03:20:12.716           104.959                 Moscow          3279.969
       381   04 Jun 2027 03:34:02.585   04 Jun 2027 03:35:13.072            70.487               CapeTown          2202.719
       382   04 Jun 2027 03:36:35.009   04 Jun 2027 03:36:41.838             6.829               CapeTown           213.406
       383   04 Jun 2027 04:30:06.048   04 Jun 2027 04:31:58.173           112.125                Anadyr1          3503.906
       384   04 Jun 2027 04:31:59.976   04 Jun 2027 04:32:36.641            36.665                Anadyr2          1145.781
       385   04 Jun 2027 04:32:45.077   04 Jun 2027 04:34:18.575            93.498               Magadan1          2921.812
       386   04 Jun 2027 04:35:55.893   04 Jun 2027 04:36:35.017            39.124               Magadan2          1222.625
       387   04 Jun 2027 04:50:53.781   04 Jun 2027 04:51:34.646            40.865                 Moscow          1277.031
       388   04 Jun 2027 04:51:42.625   04 Jun 2027 04:51:44.876             2.251                 Moscow            70.344
       389   04 Jun 2027 04:51:54.909   04 Jun 2027 04:52:03.479             8.570                 Moscow           267.812
       390   04 Jun 2027 04:53:02.026   04 Jun 2027 04:53:32.197            30.171                 Moscow           942.844
       391   04 Jun 2027 05:09:45.005   04 Jun 2027 05:11:16.868            91.863               CapeTown          2870.719
       392   04 Jun 2027 06:06:05.907   04 Jun 2027 06:06:53.544            47.637               Magadan2          1488.656
       393   04 Jun 2027 06:06:53.544   04 Jun 2027 06:07:19.603            26.059               Magadan1           814.344
       394   04 Jun 2027 06:07:35.239   04 Jun 2027 06:08:01.737            26.498                Anadyr2           828.062
       395   04 Jun 2027 06:09:13.997   04 Jun 2027 06:09:31.086            17.089                Anadyr2           534.031
       396   04 Jun 2027 06:12:35.342   04 Jun 2027 06:14:26.959           111.617                Anadyr1          3488.031
       397   04 Jun 2027 06:14:35.233   04 Jun 2027 06:14:42.198             6.965               Magadan2           217.656
       398   04 Jun 2027 06:14:42.198   04 Jun 2027 06:15:33.037            50.839               Magadan1          1588.719
       399   04 Jun 2027 07:48:14.208   04 Jun 2027 07:49:18.270            64.062                Anadyr2          2001.937
       400   04 Jun 2027 07:49:35.977   04 Jun 2027 07:49:42.572             6.595               Magadan1           206.094
       401   04 Jun 2027 07:50:09.401   04 Jun 2027 07:50:46.653            37.252                Anadyr1          1164.125
       402   04 Jun 2027 07:50:48.365   04 Jun 2027 07:51:07.864            19.499                Anadyr1           609.344
       403   04 Jun 2027 07:51:17.332   04 Jun 2027 07:53:03.949           106.617                Anadyr2          3331.781
       404   04 Jun 2027 09:23:20.271   04 Jun 2027 09:23:27.084             6.813               Magadan1           212.906
       405   04 Jun 2027 09:24:54.060   04 Jun 2027 09:26:10.764            76.704                Irkutsk          2397.000
       406   04 Jun 2027 09:26:44.899   04 Jun 2027 09:27:23.246            38.347               Magadan1          1198.344
       407   04 Jun 2027 09:27:45.477   04 Jun 2027 09:28:11.653            26.176                Irkutsk           818.000
       408   04 Jun 2027 09:28:13.731   04 Jun 2027 09:28:15.174             1.443                Irkutsk            45.094
       409   04 Jun 2027 09:28:20.561   04 Jun 2027 09:28:49.641            29.080                Irkutsk           908.750
       410   04 Jun 2027 09:29:31.850   04 Jun 2027 09:30:24.081            52.231                Novosib          1632.219
       411   04 Jun 2027 10:04:50.358   04 Jun 2027 10:05:32.954            42.596            RioGallegos          1331.125
       412   04 Jun 2027 10:40:02.616   04 Jun 2027 10:40:43.778            41.162                Sumatra          1286.313
       413   04 Jun 2027 10:52:12.780   04 Jun 2027 10:52:53.858            41.078                  Delhi          1283.688
       414   04 Jun 2027 11:01:27.632   04 Jun 2027 11:01:38.378            10.746                Novosib           335.813
       415   04 Jun 2027 11:01:52.356   04 Jun 2027 11:02:04.386            12.030                Novosib           375.938
       416   04 Jun 2027 11:02:22.561   04 Jun 2027 11:02:40.350            17.789                Novosib           555.906
       417   04 Jun 2027 11:03:11.516   04 Jun 2027 11:03:35.472            23.956                Irkutsk           748.625
       418   04 Jun 2027 11:03:38.303   04 Jun 2027 11:04:01.059            22.756                Norilsk           711.125
       419   04 Jun 2027 11:04:11.912   04 Jun 2027 11:04:23.921            12.009                Irkutsk           375.281
       420   04 Jun 2027 11:04:27.894   04 Jun 2027 11:04:58.933            31.039                Irkutsk           969.969
       421   04 Jun 2027 11:05:16.045   04 Jun 2027 11:05:16.163             0.118                Norilsk             3.688
       422   04 Jun 2027 11:05:18.352   04 Jun 2027 11:05:30.215            11.863                Norilsk           370.719
       423   04 Jun 2027 11:05:40.018   04 Jun 2027 11:05:40.875             0.857                Novosib            26.781
       424   04 Jun 2027 11:06:11.656   04 Jun 2027 11:06:29.073            17.417                Novosib           544.281
       425   04 Jun 2027 11:43:06.938   04 Jun 2027 11:43:29.246            22.308            RioGallegos           697.125
       426   04 Jun 2027 11:44:19.207   04 Jun 2027 11:44:54.595            35.388            RioGallegos          1105.875
       427   04 Jun 2027 11:45:58.870   04 Jun 2027 11:47:05.175            66.305            RioGallegos          2072.031
       428   04 Jun 2027 12:20:47.511   04 Jun 2027 12:22:05.915            78.404                Sumatra          2450.125
       429   04 Jun 2027 12:31:59.208   04 Jun 2027 12:32:22.724            23.516                Novosib           734.875
       430   04 Jun 2027 12:33:09.520   04 Jun 2027 12:33:32.902            23.382                Irkutsk           730.688
       431   04 Jun 2027 12:34:50.040   04 Jun 2027 12:35:36.718            46.678                Novosib          1458.688
       432   04 Jun 2027 12:37:32.395   04 Jun 2027 12:37:44.253            11.858                Norilsk           370.562
       433   04 Jun 2027 12:43:22.700   04 Jun 2027 12:43:58.290            35.590                Norilsk          1112.188
       434   04 Jun 2027 14:02:59.555   04 Jun 2027 14:04:01.745            62.190                  Delhi          1943.438
       435   04 Jun 2027 14:04:50.128   04 Jun 2027 14:06:56.234           126.106                  Delhi          3940.812
       436   04 Jun 2027 14:09:36.276   04 Jun 2027 14:10:25.271            48.995                 Moscow          1531.094
       437   04 Jun 2027 14:11:29.873   04 Jun 2027 14:11:35.882             6.009                Novosib           187.781
       438   04 Jun 2027 14:11:47.790   04 Jun 2027 14:13:33.178           105.388              Murmansk2          3293.375
       439   04 Jun 2027 14:14:01.243   04 Jun 2027 14:15:47.463           106.220                Novosib          3319.375
       440   04 Jun 2027 14:19:19.273   04 Jun 2027 14:19:23.117             3.844                Norilsk           120.125
       441   04 Jun 2027 15:24:30.221   04 Jun 2027 15:26:38.675           128.454               CapeTown          4014.188
       442   04 Jun 2027 15:44:53.520   04 Jun 2027 15:45:14.262            20.742                 Moscow           648.188
       443   04 Jun 2027 15:47:26.251   04 Jun 2027 15:47:43.918            17.667                 Moscow           552.094
       444   04 Jun 2027 15:48:06.428   04 Jun 2027 15:48:36.711            30.283                 Moscow           946.344
       445   04 Jun 2027 15:49:03.866   04 Jun 2027 15:49:55.094            51.228              Murmansk1          1600.875
       446   04 Jun 2027 15:51:06.421   04 Jun 2027 15:51:21.268            14.847              Murmansk1           463.969
       447   04 Jun 2027 15:51:51.631   04 Jun 2027 15:52:36.551            44.920              Murmansk2          1403.750
       448   04 Jun 2027 16:03:13.523   04 Jun 2027 16:04:22.316            68.793                Anadyr1          2149.781
       449   04 Jun 2027 16:04:34.402   04 Jun 2027 16:04:48.878            14.476                Anadyr2           452.375
       450   04 Jun 2027 16:05:29.863   04 Jun 2027 16:05:31.295             1.432                Anadyr2            44.750
       451   04 Jun 2027 16:06:01.534   04 Jun 2027 16:07:01.587            60.053                Anadyr2          1876.656
       452   04 Jun 2027 16:58:27.435   04 Jun 2027 17:00:24.451           117.016               CapeTown          3656.750
       453   04 Jun 2027 17:26:52.736   04 Jun 2027 17:27:12.656            19.920              Murmansk1           622.500
       454   04 Jun 2027 17:27:18.510   04 Jun 2027 17:27:24.582             6.072              Murmansk2           189.750
       455   04 Jun 2027 17:28:04.943   04 Jun 2027 17:28:24.296            19.353              Murmansk2           604.781
       456   04 Jun 2027 17:29:09.700   04 Jun 2027 17:29:40.381            30.681              Murmansk2           958.781
       457   04 Jun 2027 17:30:37.767   04 Jun 2027 17:31:10.939            33.172              Murmansk2          1036.625
       458   04 Jun 2027 17:31:57.151   04 Jun 2027 17:32:46.040            48.889              Murmansk2          1527.781
       459   04 Jun 2027 17:38:26.990   04 Jun 2027 17:38:29.194             2.204                Anadyr1            68.875
       460   04 Jun 2027 17:39:03.916   04 Jun 2027 17:39:33.779            29.863                Anadyr2           933.219
       461   04 Jun 2027 17:41:18.008   04 Jun 2027 17:41:41.085            23.077                Anadyr2           721.156
       462   04 Jun 2027 17:42:08.481   04 Jun 2027 17:42:52.853            44.372                Anadyr1          1386.625
       463   04 Jun 2027 17:43:09.060   04 Jun 2027 17:44:28.177            79.117               Magadan2          2472.406
       464   04 Jun 2027 19:14:19.239   04 Jun 2027 19:18:16.288           237.049                Anadyr1          7407.781
       465   04 Jun 2027 19:18:36.812   04 Jun 2027 19:20:34.433           117.621               Magadan1          3675.656
       466   04 Jun 2027 19:20:34.433   04 Jun 2027 19:20:49.864            15.431               Magadan2           482.219
       467   04 Jun 2027 20:50:13.802   04 Jun 2027 20:52:22.011           128.209                Anadyr1          4006.531
       468   04 Jun 2027 20:52:30.995   04 Jun 2027 20:56:17.471           226.476               Magadan1          7077.375
       469   04 Jun 2027 20:56:19.683   04 Jun 2027 20:57:29.534            69.851                Norilsk          2182.844
       470   04 Jun 2027 21:03:46.781   04 Jun 2027 21:04:22.460            35.679               Magadan2          1114.969
       471   04 Jun 2027 21:44:37.118   04 Jun 2027 21:46:44.672           127.554            RioGallegos          3986.062
       472   04 Jun 2027 21:47:05.843   04 Jun 2027 21:48:01.647            55.804            RioGallegos          1743.875
       473   04 Jun 2027 22:25:49.046   04 Jun 2027 22:26:28.322            39.276                Anadyr1          1227.375
       474   04 Jun 2027 22:28:03.837   04 Jun 2027 22:28:13.542             9.705                Norilsk           303.281
       475   04 Jun 2027 22:28:34.696   04 Jun 2027 22:30:26.279           111.583               Magadan1          3486.969
       476   04 Jun 2027 22:30:26.279   04 Jun 2027 22:30:51.809            25.530               Magadan2           797.812
       477   04 Jun 2027 22:32:13.065   04 Jun 2027 22:33:07.427            54.362                Irkutsk          1698.813
       478   04 Jun 2027 22:33:58.389   04 Jun 2027 22:34:25.125            26.736                Novosib           835.500
       479   04 Jun 2027 22:34:55.250   04 Jun 2027 22:35:34.272            39.022                Novosib          1219.438
       480   04 Jun 2027 22:35:53.124   04 Jun 2027 22:36:46.644            53.520                Novosib          1672.500
       481   04 Jun 2027 22:45:56.846   04 Jun 2027 22:46:39.020            42.174                Sumatra          1317.937
       482   04 Jun 2027 22:48:35.085   04 Jun 2027 22:49:04.816            29.731                Sumatra           929.094
