uniorb/output/strategy_4/Drop/Drop_KinoSat_111207.txt

KinoSat_111207
-------------------------
    Access    *     Start Time (UTCG)     *     Stop Time (UTCG)  *   Duration (s)        *       Station  *  Data (Mbytes)
         1   01 Jun 2027 03:13:55.010   01 Jun 2027 03:14:10.127            15.117              Murmansk1           472.406
         2   01 Jun 2027 03:14:18.940   01 Jun 2027 03:15:20.513            61.573                Norilsk          1924.156
         3   01 Jun 2027 03:15:21.896   01 Jun 2027 03:15:46.826            24.930                Novosib           779.063
         4   01 Jun 2027 03:15:56.727   01 Jun 2027 03:17:31.578            94.851              Murmansk1          2964.094
         5   01 Jun 2027 03:17:39.148   01 Jun 2027 03:18:00.200            21.052              Murmansk1           657.875
         6   01 Jun 2027 03:33:29.735   01 Jun 2027 03:34:25.529            55.794               CapeTown          1743.563
         7   01 Jun 2027 03:35:28.148   01 Jun 2027 03:36:16.379            48.231               CapeTown          1507.219
         8   01 Jun 2027 04:37:01.722   01 Jun 2027 04:37:57.811            56.089               Magadan1          1752.781
         9   01 Jun 2027 04:37:58.174   01 Jun 2027 04:38:39.359            41.185                Anadyr2          1287.031
        10   01 Jun 2027 04:39:22.195   01 Jun 2027 04:39:52.917            30.722                Anadyr2           960.063
        11   01 Jun 2027 06:14:16.271   01 Jun 2027 06:15:39.793            83.522                Anadyr1          2610.063
        12   01 Jun 2027 06:16:07.617   01 Jun 2027 06:17:23.410            75.793                Anadyr1          2368.531
        13   01 Jun 2027 06:17:48.633   01 Jun 2027 06:18:40.806            52.173               Magadan1          1630.406
        14   01 Jun 2027 06:18:45.797   01 Jun 2027 06:18:47.277             1.480               Magadan2            46.250
        15   01 Jun 2027 07:48:16.008   01 Jun 2027 07:52:50.104           274.096               Magadan1          8565.500
        16   01 Jun 2027 07:52:55.273   01 Jun 2027 07:53:29.721            34.448                Anadyr1          1076.500
        17   01 Jun 2027 07:53:33.474   01 Jun 2027 07:53:55.291            21.817                Irkutsk           681.781
        18   01 Jun 2027 07:54:21.257   01 Jun 2027 07:57:52.237           210.980              Murmansk1          6593.125
        19   01 Jun 2027 07:57:52.237   01 Jun 2027 07:59:02.234            69.997              Murmansk2          2187.406
        20   01 Jun 2027 08:29:59.946   01 Jun 2027 08:30:36.347            36.401            RioGallegos          1137.531
        21   01 Jun 2027 08:30:58.762   01 Jun 2027 08:31:40.508            41.746            RioGallegos          1304.562
        22   01 Jun 2027 08:32:24.513   01 Jun 2027 08:32:25.155             0.642            RioGallegos            20.062
        23   01 Jun 2027 08:32:39.020   01 Jun 2027 08:33:01.250            22.230            RioGallegos           694.687
        24   01 Jun 2027 09:06:18.694   01 Jun 2027 09:06:41.435            22.741                Sumatra           710.656
        25   01 Jun 2027 09:09:20.661   01 Jun 2027 09:10:23.972            63.311                Sumatra          1978.469
        26   01 Jun 2027 09:25:34.290   01 Jun 2027 09:27:36.622           122.332               Magadan2          3822.875
        27   01 Jun 2027 09:28:20.231   01 Jun 2027 09:29:24.013            63.782                Irkutsk          1993.188
        28   01 Jun 2027 09:29:32.520   01 Jun 2027 09:30:10.258            37.738                Novosib          1179.313
        29   01 Jun 2027 09:30:15.449   01 Jun 2027 09:31:02.862            47.413                Norilsk          1481.656
        30   01 Jun 2027 10:05:42.930   01 Jun 2027 10:06:18.959            36.029            RioGallegos          1125.906
        31   01 Jun 2027 10:40:07.399   01 Jun 2027 10:42:17.862           130.463                Sumatra          4076.969
        32   01 Jun 2027 10:49:14.226   01 Jun 2027 10:49:38.135            23.909                  Delhi           747.156
        33   01 Jun 2027 10:50:28.331   01 Jun 2027 10:50:39.610            11.279                  Delhi           352.469
        34   01 Jun 2027 11:02:50.122   01 Jun 2027 11:04:12.775            82.653                Irkutsk          2582.906
        35   01 Jun 2027 11:04:23.852   01 Jun 2027 11:05:01.546            37.694                Norilsk          1177.938
        36   01 Jun 2027 11:05:02.799   01 Jun 2027 11:05:11.760             8.961              Murmansk2           280.031
        37   01 Jun 2027 11:05:20.057   01 Jun 2027 11:08:03.410           163.353              Murmansk1          5104.781
        38   01 Jun 2027 12:24:43.810   01 Jun 2027 12:26:04.453            80.643                  Delhi          2520.094
        39   01 Jun 2027 12:29:15.384   01 Jun 2027 12:29:51.508            36.124                  Delhi          1128.875
        40   01 Jun 2027 12:32:53.846   01 Jun 2027 12:37:58.707           304.861                Novosib          9526.906
        41   01 Jun 2027 12:37:59.596   01 Jun 2027 12:38:17.367            17.771              Murmansk1           555.344
        42   01 Jun 2027 12:39:06.239   01 Jun 2027 12:40:32.948            86.709                Norilsk          2709.656
        43   01 Jun 2027 12:41:54.232   01 Jun 2027 12:42:24.981            30.749                Norilsk           960.906
        44   01 Jun 2027 14:08:37.328   01 Jun 2027 14:10:49.971           132.643                 Moscow          4145.094
        45   01 Jun 2027 14:11:54.134   01 Jun 2027 14:12:31.586            37.452                 Moscow          1170.375
        46   01 Jun 2027 14:13:34.988   01 Jun 2027 14:16:10.050           155.062              Murmansk2          4845.687
        47   01 Jun 2027 14:17:26.046   01 Jun 2027 14:18:36.386            70.340                Norilsk          2198.125
        48   01 Jun 2027 14:21:36.733   01 Jun 2027 14:21:58.437            21.704                Norilsk           678.250
        49   01 Jun 2027 15:22:37.299   01 Jun 2027 15:26:02.646           205.347               CapeTown          6417.094
        50   01 Jun 2027 15:46:52.053   01 Jun 2027 15:47:14.189            22.136                 Moscow           691.750
        51   01 Jun 2027 15:47:29.027   01 Jun 2027 15:48:12.915            43.888                 Moscow          1371.500
        52   01 Jun 2027 15:49:38.609   01 Jun 2027 15:51:09.427            90.818              Murmansk1          2838.063
        53   01 Jun 2027 15:53:38.404   01 Jun 2027 15:54:08.668            30.264              Murmansk1           945.750
        54   01 Jun 2027 16:02:57.329   01 Jun 2027 16:05:28.663           151.334                Anadyr2          4729.187
        55   01 Jun 2027 16:58:18.777   01 Jun 2027 17:00:04.923           106.146               CapeTown          3317.063
        56   01 Jun 2027 17:02:39.412   01 Jun 2027 17:02:46.683             7.271               CapeTown           227.219
        57   01 Jun 2027 17:29:38.787   01 Jun 2027 17:35:06.282           327.495              Murmansk1         10234.219
        58   01 Jun 2027 17:38:38.865   01 Jun 2027 17:39:23.456            44.591                Anadyr1          1393.469
        59   01 Jun 2027 17:41:37.953   01 Jun 2027 17:45:03.172           205.219               Magadan1          6413.094
        60   01 Jun 2027 19:14:34.573   01 Jun 2027 19:16:36.952           122.379                Anadyr1          3824.344
        61   01 Jun 2027 19:16:52.530   01 Jun 2027 19:19:03.728           131.198               Magadan1          4099.938
        62   01 Jun 2027 19:19:03.728   01 Jun 2027 19:19:37.431            33.703               Magadan2          1053.219
        63   01 Jun 2027 19:21:09.514   01 Jun 2027 19:21:33.768            24.254               Magadan1           757.937
        64   01 Jun 2027 20:10:19.156   01 Jun 2027 20:13:06.943           167.787            RioGallegos          5243.344
        65   01 Jun 2027 20:50:22.101   01 Jun 2027 20:51:36.663            74.562                Anadyr1          2330.062
        66   01 Jun 2027 20:51:47.660   01 Jun 2027 20:51:53.823             6.163                Anadyr1           192.594
        67   01 Jun 2027 20:52:16.958   01 Jun 2027 20:52:31.415            14.457                Anadyr1           451.781
        68   01 Jun 2027 20:52:48.825   01 Jun 2027 20:54:20.256            91.431               Magadan2          2857.219
        69   01 Jun 2027 20:54:32.151   01 Jun 2027 20:55:45.190            73.039                Norilsk          2282.469
        70   01 Jun 2027 20:55:57.089   01 Jun 2027 20:56:04.786             7.697                Norilsk           240.531
        71   01 Jun 2027 20:57:16.489   01 Jun 2027 20:58:27.749            71.260                Irkutsk          2226.875
        72   01 Jun 2027 21:00:13.422   01 Jun 2027 21:00:33.100            19.678                Irkutsk           614.938
        73   01 Jun 2027 21:01:56.574   01 Jun 2027 21:02:18.060            21.486                Irkutsk           671.437
        74   01 Jun 2027 21:03:39.175   01 Jun 2027 21:03:52.142            12.967                Irkutsk           405.219
        75   01 Jun 2027 21:12:16.836   01 Jun 2027 21:13:09.989            53.153                Sumatra          1661.031
        76   01 Jun 2027 21:14:28.175   01 Jun 2027 21:16:35.679           127.504                Sumatra          3984.500
        77   01 Jun 2027 22:25:34.200   01 Jun 2027 22:27:15.512           101.312                Anadyr1          3166.000
        78   01 Jun 2027 22:27:59.534   01 Jun 2027 22:28:00.906             1.372                Anadyr1            42.875
        79   01 Jun 2027 22:28:19.067   01 Jun 2027 22:30:21.465           122.398                Norilsk          3824.938
        80   01 Jun 2027 22:30:24.548   01 Jun 2027 22:31:05.465            40.917               Magadan1          1278.656
        81   01 Jun 2027 22:32:12.660   01 Jun 2027 22:33:26.925            74.265                Irkutsk          2320.781
        82   01 Jun 2027 22:33:42.167   01 Jun 2027 22:34:20.368            38.201                Novosib          1193.781
        83   01 Jun 2027 22:42:08.378   01 Jun 2027 22:44:21.684           133.306                  Delhi          4165.812
        84   01 Jun 2027 23:59:35.622   02 Jun 2027 00:00:13.152            37.530                Anadyr1          1172.812
        85   02 Jun 2027 00:01:50.787   02 Jun 2027 00:02:37.392            46.605                Anadyr2          1456.406
        86   02 Jun 2027 00:04:19.385   02 Jun 2027 00:04:36.476            17.091                Norilsk           534.094
        87   02 Jun 2027 00:04:51.648   02 Jun 2027 00:06:20.672            89.024               Magadan2          2782.000
        88   02 Jun 2027 00:06:36.611   02 Jun 2027 00:06:47.619            11.008               Magadan2           344.000
        89   02 Jun 2027 00:07:07.175   02 Jun 2027 00:08:43.465            96.290              Murmansk1          3009.062
        90   02 Jun 2027 00:09:18.262   02 Jun 2027 00:11:23.965           125.703                Novosib          3928.219
        91   02 Jun 2027 00:19:25.926   02 Jun 2027 00:19:58.390            32.464                  Delhi          1014.500
        92   02 Jun 2027 00:57:32.827   02 Jun 2027 00:58:28.292            55.465            RioGallegos          1733.281
        93   02 Jun 2027 01:32:52.755   02 Jun 2027 01:33:39.232            46.477                Anadyr1          1452.406
        94   02 Jun 2027 01:33:56.197   02 Jun 2027 01:34:33.010            36.813                Anadyr1          1150.406
        95   02 Jun 2027 01:34:33.010   02 Jun 2027 01:35:31.663            58.653                Anadyr2          1832.906
        96   02 Jun 2027 01:38:49.690   02 Jun 2027 01:40:11.772            82.082               Magadan2          2565.062
        97   02 Jun 2027 01:42:28.930   02 Jun 2027 01:44:08.416            99.486              Murmansk1          3108.938
        98   02 Jun 2027 01:44:57.252   02 Jun 2027 01:45:37.885            40.633                Novosib          1269.781
        99   02 Jun 2027 01:46:06.547   02 Jun 2027 01:46:10.960             4.413                Novosib           137.906
       100   02 Jun 2027 01:46:20.545   02 Jun 2027 01:46:34.831            14.286                 Moscow           446.437
       101   02 Jun 2027 01:47:13.741   02 Jun 2027 01:47:43.789            30.048                 Moscow           939.000
       102   02 Jun 2027 01:51:00.779   02 Jun 2027 01:51:07.977             7.198                 Moscow           224.938
       103   02 Jun 2027 01:52:03.044   02 Jun 2027 01:52:06.615             3.571                 Moscow           111.594
       104   02 Jun 2027 01:53:46.929   02 Jun 2027 01:53:51.063             4.134                  Delhi           129.187
       105   02 Jun 2027 01:54:45.535   02 Jun 2027 01:55:04.041            18.506                  Delhi           578.313
       106   02 Jun 2027 02:12:59.840   02 Jun 2027 02:14:22.111            82.271               CapeTown          2570.969
       107   02 Jun 2027 03:07:34.777   02 Jun 2027 03:07:47.733            12.956                Anadyr2           404.875
       108   02 Jun 2027 03:10:26.729   02 Jun 2027 03:11:04.252            37.523               Magadan2          1172.594
       109   02 Jun 2027 03:15:48.804   02 Jun 2027 03:15:55.142             6.338               Magadan1           198.062
       110   02 Jun 2027 03:25:44.735   02 Jun 2027 03:26:13.077            28.342              Murmansk2           885.688
       111   02 Jun 2027 03:26:49.801   02 Jun 2027 03:27:22.111            32.310                Norilsk          1009.688
       112   02 Jun 2027 03:27:42.613   02 Jun 2027 03:28:01.094            18.481              Murmansk2           577.531
       113   02 Jun 2027 03:28:35.753   02 Jun 2027 03:31:13.005           157.252              Murmansk1          4914.125
       114   02 Jun 2027 03:31:13.597   02 Jun 2027 03:32:43.849            90.252                 Moscow          2820.375
       115   02 Jun 2027 03:45:32.571   02 Jun 2027 03:47:59.047           146.476               CapeTown          4577.375
       116   02 Jun 2027 04:48:33.218   02 Jun 2027 04:49:51.558            78.340               Magadan2          2448.125
       117   02 Jun 2027 04:49:51.558   02 Jun 2027 04:50:11.043            19.485               Magadan1           608.906
       118   02 Jun 2027 04:50:11.043   02 Jun 2027 04:53:41.781           210.738               Magadan2          6585.563
       119   02 Jun 2027 08:01:17.953   02 Jun 2027 08:01:51.499            33.546               Magadan2          1048.313
       120   02 Jun 2027 08:02:08.986   02 Jun 2027 08:03:36.399            87.413                Anadyr2          2731.656
       121   02 Jun 2027 08:03:42.213   02 Jun 2027 08:05:00.129            77.916               Magadan2          2434.875
       122   02 Jun 2027 08:05:01.521   02 Jun 2027 08:06:22.885            81.364               Magadan2          2542.625
       123   02 Jun 2027 09:38:53.403   02 Jun 2027 09:39:13.435            20.032                Irkutsk           626.000
       124   02 Jun 2027 09:39:36.659   02 Jun 2027 09:39:58.660            22.001              Murmansk1           687.531
       125   02 Jun 2027 09:40:28.072   02 Jun 2027 09:40:36.714             8.642                Irkutsk           270.062
       126   02 Jun 2027 09:40:37.881   02 Jun 2027 09:41:33.605            55.724                Irkutsk          1741.375
       127   02 Jun 2027 09:41:42.126   02 Jun 2027 09:42:12.719            30.593                Novosib           956.031
       128   02 Jun 2027 09:42:16.209   02 Jun 2027 09:42:30.949            14.740                Irkutsk           460.625
       129   02 Jun 2027 10:18:03.844   02 Jun 2027 10:18:42.645            38.801            RioGallegos          1212.531
       130   02 Jun 2027 10:22:09.202   02 Jun 2027 10:22:25.862            16.660            RioGallegos           520.625
       131   02 Jun 2027 10:23:05.408   02 Jun 2027 10:23:22.833            17.425            RioGallegos           544.531
       132   02 Jun 2027 10:52:21.529   02 Jun 2027 10:52:53.274            31.745                Sumatra           992.031
       133   02 Jun 2027 10:57:10.216   02 Jun 2027 10:57:19.011             8.795                Sumatra           274.844
       134   02 Jun 2027 11:00:52.620   02 Jun 2027 11:01:38.295            45.675                  Delhi          1427.344
       135   02 Jun 2027 11:13:01.325   02 Jun 2027 11:13:32.972            31.647                Irkutsk           988.969
       136   02 Jun 2027 11:13:35.156   02 Jun 2027 11:14:18.703            43.547                Irkutsk          1360.844
       137   02 Jun 2027 11:14:55.407   02 Jun 2027 11:15:36.161            40.754                Irkutsk          1273.563
       138   02 Jun 2027 11:16:12.284   02 Jun 2027 11:16:47.279            34.995                Novosib          1093.594
       139   02 Jun 2027 11:17:06.586   02 Jun 2027 11:17:16.736            10.150                Novosib           317.188
       140   02 Jun 2027 11:17:29.011   02 Jun 2027 11:17:40.280            11.269                Irkutsk           352.156
       141   02 Jun 2027 12:37:09.361   02 Jun 2027 12:40:54.710           225.349                  Delhi          7042.156
       142   02 Jun 2027 12:45:29.276   02 Jun 2027 12:45:47.439            18.163                Novosib           567.594
       143   02 Jun 2027 12:46:42.829   02 Jun 2027 12:47:13.003            30.174                Novosib           942.938
       144   02 Jun 2027 12:48:32.021   02 Jun 2027 12:48:44.843            12.822                Novosib           400.688
       145   02 Jun 2027 12:49:15.609   02 Jun 2027 12:49:51.441            35.832                Norilsk          1119.750
       146   02 Jun 2027 12:51:52.271   02 Jun 2027 12:52:03.316            11.045                Norilsk           345.156
       147   02 Jun 2027 14:20:43.503   02 Jun 2027 14:23:54.470           190.967                 Moscow          5967.719
       148   02 Jun 2027 14:24:15.052   02 Jun 2027 14:27:25.911           190.859              Murmansk1          5964.344
       149   02 Jun 2027 14:27:32.150   02 Jun 2027 14:27:50.558            18.408              Murmansk1           575.250
       150   02 Jun 2027 14:30:23.853   02 Jun 2027 14:31:14.973            51.120                Norilsk          1597.500
       151   02 Jun 2027 14:33:36.805   02 Jun 2027 14:34:17.151            40.346                Norilsk          1260.812
       152   02 Jun 2027 14:40:44.444   02 Jun 2027 14:41:12.377            27.933                Anadyr1           872.906
       153   02 Jun 2027 14:42:11.589   02 Jun 2027 14:43:01.161            49.572                Anadyr2          1549.125
       154   02 Jun 2027 15:34:25.785   02 Jun 2027 15:35:28.578            62.793               CapeTown          1962.281
       155   02 Jun 2027 15:59:32.794   02 Jun 2027 15:59:34.290             1.496                 Moscow            46.750
       156   02 Jun 2027 16:02:01.158   02 Jun 2027 16:02:52.974            51.816              Murmansk2          1619.250
       157   02 Jun 2027 16:03:22.835   02 Jun 2027 16:04:06.285            43.450              Murmansk2          1357.813
       158   02 Jun 2027 16:05:39.803   02 Jun 2027 16:07:10.413            90.610              Murmansk1          2831.563
       159   02 Jun 2027 16:14:54.907   02 Jun 2027 16:15:33.306            38.399                Anadyr2          1199.969
       160   02 Jun 2027 16:15:51.034   02 Jun 2027 16:16:53.325            62.291                Anadyr1          1946.594
       161   02 Jun 2027 17:10:32.164   02 Jun 2027 17:11:28.722            56.558               CapeTown          1767.438
       162   02 Jun 2027 17:16:54.324   02 Jun 2027 17:17:51.008            56.684               CapeTown          1771.375
       163   02 Jun 2027 17:42:27.849   02 Jun 2027 17:44:51.488           143.639              Murmansk1          4488.719
       164   02 Jun 2027 17:45:30.381   02 Jun 2027 17:45:39.819             9.438              Murmansk1           294.938
       165   02 Jun 2027 17:47:10.496   02 Jun 2027 17:47:25.856            15.360              Murmansk1           480.000
       166   02 Jun 2027 17:50:40.078   02 Jun 2027 17:51:22.442            42.364                Anadyr1          1323.875
       167   02 Jun 2027 17:52:14.296   02 Jun 2027 17:52:44.722            30.426                Anadyr1           950.812
       168   02 Jun 2027 17:53:28.927   02 Jun 2027 17:55:25.682           116.755               Magadan2          3648.594
       169   02 Jun 2027 18:00:57.370   02 Jun 2027 18:01:45.686            48.316               Magadan2          1509.875
       170   02 Jun 2027 18:02:16.282   02 Jun 2027 18:02:28.807            12.525               Magadan1           391.406
       171   02 Jun 2027 19:26:35.845   02 Jun 2027 19:29:56.115           200.270                Anadyr1          6258.437
       172   02 Jun 2027 19:30:07.724   02 Jun 2027 19:30:21.663            13.939                Anadyr1           435.594
       173   02 Jun 2027 19:30:47.589   02 Jun 2027 19:32:33.754           106.165               Magadan1          3317.656
       174   02 Jun 2027 19:32:33.754   02 Jun 2027 19:33:19.876            46.122               Magadan2          1441.313
       175   02 Jun 2027 20:21:48.846   02 Jun 2027 20:24:53.396           184.550            RioGallegos          5767.187
       176   02 Jun 2027 20:28:10.612   02 Jun 2027 20:28:35.191            24.579            RioGallegos           768.094
       177   02 Jun 2027 21:02:20.757   02 Jun 2027 21:02:55.274            34.517                Anadyr2          1078.656
       178   02 Jun 2027 21:04:29.482   02 Jun 2027 21:07:47.436           197.954                Norilsk          6186.063
       179   02 Jun 2027 21:08:07.736   02 Jun 2027 21:08:16.153             8.417                Norilsk           263.031
       180   02 Jun 2027 21:09:02.090   02 Jun 2027 21:10:14.644            72.554                Irkutsk          2267.313
       181   02 Jun 2027 21:11:54.423   02 Jun 2027 21:12:27.243            32.820                Irkutsk          1025.625
       182   02 Jun 2027 21:23:17.797   02 Jun 2027 21:26:12.634           174.837                Sumatra          5463.656
       183   02 Jun 2027 22:40:20.937   02 Jun 2027 22:40:54.397            33.460                Norilsk          1045.625
       184   02 Jun 2027 22:40:58.246   02 Jun 2027 22:41:20.841            22.595               Magadan2           706.094
       185   02 Jun 2027 22:41:49.599   02 Jun 2027 22:42:13.155            23.556               Magadan1           736.125
       186   02 Jun 2027 22:42:36.399   02 Jun 2027 22:42:54.938            18.539               Magadan2           579.344
       187   02 Jun 2027 22:43:30.937   02 Jun 2027 22:43:50.073            19.136                Norilsk           598.000
       188   02 Jun 2027 22:44:12.909   02 Jun 2027 22:44:22.352             9.443               Magadan2           295.094
       189   02 Jun 2027 22:44:22.352   02 Jun 2027 22:44:44.277            21.925               Magadan1           685.156
       190   02 Jun 2027 22:44:58.109   02 Jun 2027 22:45:44.446            46.337                Novosib          1448.031
       191   02 Jun 2027 22:47:30.932   02 Jun 2027 22:48:34.729            63.797                Irkutsk          1993.656
       192   02 Jun 2027 22:53:19.932   02 Jun 2027 22:56:01.285           161.353                  Delhi          5042.281
       193   03 Jun 2027 00:11:17.921   03 Jun 2027 00:11:32.711            14.790                Anadyr2           462.188
       194   03 Jun 2027 00:12:03.977   03 Jun 2027 00:12:40.367            36.390                Anadyr1          1137.188
       195   03 Jun 2027 00:14:02.050   03 Jun 2027 00:14:06.671             4.621                Anadyr2           144.406
       196   03 Jun 2027 00:14:15.234   03 Jun 2027 00:14:18.610             3.376                Anadyr2           105.500
       197   03 Jun 2027 00:15:49.553   03 Jun 2027 00:16:05.261            15.708                Anadyr1           490.875
       198   03 Jun 2027 00:16:21.243   03 Jun 2027 00:16:38.257            17.014                Norilsk           531.688
       199   03 Jun 2027 00:16:49.410   03 Jun 2027 00:18:31.986           102.576               Magadan2          3205.500
       200   03 Jun 2027 00:18:58.403   03 Jun 2027 00:21:15.163           136.760              Murmansk2          4273.750
       201   03 Jun 2027 00:21:15.163   03 Jun 2027 00:22:34.644            79.481              Murmansk1          2483.781
       202   03 Jun 2027 00:27:28.942   03 Jun 2027 00:29:29.427           120.485                  Delhi          3765.156
       203   03 Jun 2027 01:12:05.699   03 Jun 2027 01:12:32.913            27.214            RioGallegos           850.438
       204   03 Jun 2027 01:14:41.921   03 Jun 2027 01:14:57.418            15.497            RioGallegos           484.281
       205   03 Jun 2027 01:44:35.460   03 Jun 2027 01:44:59.296            23.836                Anadyr1           744.875
       206   03 Jun 2027 01:45:02.690   03 Jun 2027 01:45:11.492             8.802                Anadyr2           275.063
       207   03 Jun 2027 01:45:40.019   03 Jun 2027 01:46:34.366            54.347                Anadyr1          1698.344
       208   03 Jun 2027 01:47:19.040   03 Jun 2027 01:47:27.778             8.738                Anadyr2           273.063
       209   03 Jun 2027 01:47:36.591   03 Jun 2027 01:47:52.832            16.241                Anadyr2           507.531
       210   03 Jun 2027 01:50:20.442   03 Jun 2027 01:51:27.265            66.823               Magadan1          2088.219
       211   03 Jun 2027 01:52:13.960   03 Jun 2027 01:52:34.682            20.722                Norilsk           647.562
       212   03 Jun 2027 01:52:55.255   03 Jun 2027 01:54:05.144            69.889               Magadan2          2184.031
       213   03 Jun 2027 01:54:29.761   03 Jun 2027 01:55:21.215            51.454              Murmansk2          1607.938
       214   03 Jun 2027 01:56:20.011   03 Jun 2027 01:57:11.512            51.501                Novosib          1609.406
       215   03 Jun 2027 01:58:04.363   03 Jun 2027 01:58:20.369            16.006                 Moscow           500.188
       216   03 Jun 2027 02:02:58.413   03 Jun 2027 02:03:05.755             7.342                 Moscow           229.438
       217   03 Jun 2027 02:07:27.374   03 Jun 2027 02:09:37.208           129.834                  Delhi          4057.313
       218   03 Jun 2027 03:19:50.541   03 Jun 2027 03:20:03.649            13.108                Anadyr1           409.625
       219   03 Jun 2027 03:28:14.824   03 Jun 2027 03:28:25.028            10.204                Anadyr2           318.875
       220   03 Jun 2027 03:29:26.501   03 Jun 2027 03:30:00.360            33.859               Magadan1          1058.094
       221   03 Jun 2027 03:39:17.018   03 Jun 2027 03:40:02.923            45.905              Murmansk1          1434.531
       222   03 Jun 2027 05:00:58.762   03 Jun 2027 05:04:30.149           211.387                Anadyr2          6605.844
       223   03 Jun 2027 05:04:30.149   03 Jun 2027 05:04:49.160            19.011                Anadyr1           594.094
       224   03 Jun 2027 05:05:16.988   03 Jun 2027 05:07:12.220           115.232                Anadyr1          3601.000
       225   03 Jun 2027 06:38:10.818   03 Jun 2027 06:38:31.343            20.525               Magadan1           641.406
       226   03 Jun 2027 06:38:31.343   03 Jun 2027 06:38:49.109            17.766               Magadan2           555.187
       227   03 Jun 2027 06:39:02.692   03 Jun 2027 06:39:06.126             3.434               Magadan2           107.312
       228   03 Jun 2027 06:39:13.098   03 Jun 2027 06:40:50.601            97.503               Magadan2          3046.969
       229   03 Jun 2027 08:12:09.971   03 Jun 2027 08:12:14.420             4.449               Magadan2           139.031
       230   03 Jun 2027 08:13:06.682   03 Jun 2027 08:13:19.358            12.676               Magadan1           396.125
       231   03 Jun 2027 08:14:01.240   03 Jun 2027 08:14:44.797            43.557               Magadan2          1361.156
       232   03 Jun 2027 08:15:11.188   03 Jun 2027 08:15:40.142            28.954                Irkutsk           904.813
       233   03 Jun 2027 08:15:49.492   03 Jun 2027 08:17:01.854            72.362               Magadan1          2261.313
       234   03 Jun 2027 08:17:27.619   03 Jun 2027 08:17:54.302            26.683                Irkutsk           833.844
       235   03 Jun 2027 08:17:57.268   03 Jun 2027 08:18:10.829            13.561              Murmansk2           423.781
       236   03 Jun 2027 08:18:16.181   03 Jun 2027 08:18:16.979             0.798               Magadan1            24.937
       237   03 Jun 2027 08:18:30.274   03 Jun 2027 08:18:46.836            16.562                Norilsk           517.562
       238   03 Jun 2027 08:20:52.729   03 Jun 2027 08:21:06.690            13.961              Murmansk2           436.281
       239   03 Jun 2027 08:53:15.380   03 Jun 2027 08:54:22.860            67.480            RioGallegos          2108.750
       240   03 Jun 2027 09:29:03.293   03 Jun 2027 09:30:23.736            80.443                Sumatra          2513.844
       241   03 Jun 2027 09:34:59.527   03 Jun 2027 09:35:08.432             8.905                Sumatra           278.281
       242   03 Jun 2027 09:50:56.316   03 Jun 2027 09:51:30.286            33.970                Novosib          1061.562
       243   03 Jun 2027 09:51:47.901   03 Jun 2027 09:52:23.091            35.190                Irkutsk          1099.688
       244   03 Jun 2027 09:52:42.328   03 Jun 2027 09:53:26.072            43.744                Irkutsk          1367.000
       245   03 Jun 2027 09:53:33.525   03 Jun 2027 09:54:26.061            52.536                Irkutsk          1641.750
       246   03 Jun 2027 10:30:29.674   03 Jun 2027 10:30:44.299            14.625            RioGallegos           457.031
       247   03 Jun 2027 10:34:25.080   03 Jun 2027 10:35:15.994            50.914            RioGallegos          1591.062
       248   03 Jun 2027 11:04:42.912   03 Jun 2027 11:05:01.364            18.452                Sumatra           576.625
       249   03 Jun 2027 11:15:01.567   03 Jun 2027 11:15:22.066            20.499                  Delhi           640.594
       250   03 Jun 2027 11:19:44.979   03 Jun 2027 11:20:20.126            35.147                  Delhi          1098.344
       251   03 Jun 2027 11:26:59.897   03 Jun 2027 11:27:34.118            34.221                Irkutsk          1069.406
       252   03 Jun 2027 11:28:13.605   03 Jun 2027 11:28:19.686             6.081                Novosib           190.031
       253   03 Jun 2027 11:28:41.481   03 Jun 2027 11:29:25.323            43.842                Irkutsk          1370.063
       254   03 Jun 2027 11:29:29.850   03 Jun 2027 11:29:47.122            17.272                Novosib           539.750
       255   03 Jun 2027 11:29:58.802   03 Jun 2027 11:30:22.458            23.656                Norilsk           739.250
       256   03 Jun 2027 12:49:44.042   03 Jun 2027 12:51:12.258            88.216                  Delhi          2756.750
       257   03 Jun 2027 12:52:40.118   03 Jun 2027 12:53:25.859            45.741                  Delhi          1429.406
       258   03 Jun 2027 12:58:11.593   03 Jun 2027 12:59:20.406            68.813                Novosib          2150.406
       259   03 Jun 2027 13:01:16.705   03 Jun 2027 13:02:28.703            71.998                Novosib          2249.938
       260   03 Jun 2027 13:04:05.326   03 Jun 2027 13:04:43.903            38.577                Norilsk          1205.531
       261   03 Jun 2027 14:32:52.829   03 Jun 2027 14:34:42.344           109.515                 Moscow          3422.344
       262   03 Jun 2027 14:36:23.635   03 Jun 2027 14:38:08.008           104.373              Murmansk1          3261.656
       263   03 Jun 2027 14:39:22.153   03 Jun 2027 14:40:07.144            44.991              Murmansk2          1405.969
       264   03 Jun 2027 14:43:38.670   03 Jun 2027 14:45:36.166           117.496                Norilsk          3671.750
       265   03 Jun 2027 14:52:10.377   03 Jun 2027 14:53:07.262            56.885                Anadyr2          1777.656
       266   03 Jun 2027 14:54:26.274   03 Jun 2027 14:55:01.195            34.921                Anadyr1          1091.281
       267   03 Jun 2027 15:46:18.117   03 Jun 2027 15:47:15.330            57.213               CapeTown          1787.906
       268   03 Jun 2027 16:14:26.075   03 Jun 2027 16:15:23.518            57.443              Murmansk1          1795.094
       269   03 Jun 2027 16:15:46.219   03 Jun 2027 16:17:04.096            77.877              Murmansk2          2433.656
       270   03 Jun 2027 16:23:55.904   03 Jun 2027 16:24:22.120            26.216              Murmansk2           819.250
       271   03 Jun 2027 16:26:53.346   03 Jun 2027 16:28:54.406           121.060                Anadyr1          3783.125
       272   03 Jun 2027 16:29:08.194   03 Jun 2027 16:29:13.325             5.131                Anadyr2           160.344
       273   03 Jun 2027 16:31:51.949   03 Jun 2027 16:32:08.897            16.948                Anadyr2           529.625
       274   03 Jun 2027 17:22:49.756   03 Jun 2027 17:24:10.767            81.011               CapeTown          2531.594
       275   03 Jun 2027 17:27:49.645   03 Jun 2027 17:28:14.217            24.572               CapeTown           767.875
       276   03 Jun 2027 17:55:24.565   03 Jun 2027 17:59:10.136           225.571              Murmansk2          7049.094
       277   03 Jun 2027 18:02:41.430   03 Jun 2027 18:03:19.022            37.592                Anadyr1          1174.750
       278   03 Jun 2027 18:03:47.923   03 Jun 2027 18:04:00.767            12.844                Anadyr2           401.375
       279   03 Jun 2027 18:05:22.180   03 Jun 2027 18:06:11.432            49.252               Magadan1          1539.125
       280   03 Jun 2027 18:06:54.705   03 Jun 2027 18:08:13.589            78.884               Magadan1          2465.125
       281   03 Jun 2027 18:14:09.815   03 Jun 2027 18:14:18.470             8.655               Magadan2           270.469
       282   03 Jun 2027 19:38:36.959   03 Jun 2027 19:40:40.289           123.330                Anadyr1          3854.063
       283   03 Jun 2027 19:40:53.544   03 Jun 2027 19:45:25.240           271.696               Magadan2          8490.500
       284   03 Jun 2027 19:49:19.622   03 Jun 2027 19:49:49.621            29.999               Magadan2           937.469
       285   03 Jun 2027 20:33:27.694   03 Jun 2027 20:36:19.189           171.495            RioGallegos          5359.219
       286   03 Jun 2027 20:37:40.372   03 Jun 2027 20:37:56.432            16.060            RioGallegos           501.875
       287   03 Jun 2027 20:38:04.347   03 Jun 2027 20:38:36.795            32.448            RioGallegos          1014.000
       288   03 Jun 2027 20:39:55.195   03 Jun 2027 20:39:55.752             0.557            RioGallegos            17.406
       289   03 Jun 2027 21:14:18.811   03 Jun 2027 21:15:03.431            44.620                Anadyr2          1394.375
       290   03 Jun 2027 21:16:28.809   03 Jun 2027 21:17:18.641            49.832                Norilsk          1557.250
       291   03 Jun 2027 21:17:42.629   03 Jun 2027 21:19:56.562           133.933               Magadan2          4185.406
       292   03 Jun 2027 21:19:58.431   03 Jun 2027 21:20:16.846            18.415                Norilsk           575.469
       293   03 Jun 2027 21:20:51.317   03 Jun 2027 21:22:27.384            96.067                Irkutsk          3002.094
       294   03 Jun 2027 21:30:03.181   03 Jun 2027 21:30:37.650            34.469                Irkutsk          1077.156
       295   03 Jun 2027 21:34:51.008   03 Jun 2027 21:36:37.629           106.621                Sumatra          3331.906
       296   03 Jun 2027 21:38:54.025   03 Jun 2027 21:40:12.285            78.260                Sumatra          2445.625
       297   03 Jun 2027 22:51:39.191   03 Jun 2027 22:51:47.106             7.915                Anadyr2           247.344
       298   03 Jun 2027 22:51:48.964   03 Jun 2027 22:51:50.240             1.276                Anadyr2            39.875
       299   03 Jun 2027 22:51:55.002   03 Jun 2027 22:51:56.564             1.562                Anadyr2            48.813
       300   03 Jun 2027 22:52:22.912   03 Jun 2027 22:52:26.790             3.878                Norilsk           121.188
       301   03 Jun 2027 22:53:00.817   03 Jun 2027 22:54:22.202            81.385               Magadan2          2543.281
       302   03 Jun 2027 22:55:31.680   03 Jun 2027 22:56:02.118            30.438               Magadan1           951.188
       303   03 Jun 2027 22:56:15.615   03 Jun 2027 22:56:50.533            34.918                Irkutsk          1091.188
       304   03 Jun 2027 22:56:52.662   03 Jun 2027 22:57:18.423            25.761                Novosib           805.031
       305   03 Jun 2027 22:58:01.778   03 Jun 2027 22:59:28.030            86.252                Novosib          2695.375
       306   03 Jun 2027 23:03:20.927   03 Jun 2027 23:05:33.537           132.610                Novosib          4144.062
       307   03 Jun 2027 23:10:03.694   03 Jun 2027 23:11:20.016            76.322                  Delhi          2385.062
       308   04 Jun 2027 00:22:59.606   04 Jun 2027 00:23:08.956             9.350                Anadyr2           292.187
       309   04 Jun 2027 00:23:56.326   04 Jun 2027 00:24:09.363            13.037                Anadyr2           407.406
       310   04 Jun 2027 00:25:30.531   04 Jun 2027 00:25:45.050            14.519                Anadyr1           453.719
       311   04 Jun 2027 00:28:22.978   04 Jun 2027 00:28:56.328            33.350                Norilsk          1042.187
       312   04 Jun 2027 00:29:35.661   04 Jun 2027 00:30:35.308            59.647               Magadan1          1863.969
       313   04 Jun 2027 00:30:35.764   04 Jun 2027 00:30:38.768             3.004               Magadan2            93.875
       314   04 Jun 2027 00:30:52.592   04 Jun 2027 00:33:49.781           177.189              Murmansk2          5537.156
       315   04 Jun 2027 00:36:55.924   04 Jun 2027 00:37:50.404            54.480                 Moscow          1702.500
       316   04 Jun 2027 00:38:22.067   04 Jun 2027 00:38:39.202            17.135              Murmansk2           535.469
       317   04 Jun 2027 00:38:52.616   04 Jun 2027 00:39:00.122             7.506                 Moscow           234.562
       318   04 Jun 2027 00:39:11.042   04 Jun 2027 00:40:09.576            58.534                 Moscow          1829.188
       319   04 Jun 2027 01:22:42.617   04 Jun 2027 01:23:07.766            25.149            RioGallegos           785.906
       320   04 Jun 2027 01:23:19.986   04 Jun 2027 01:24:30.100            70.114            RioGallegos          2191.062
       321   04 Jun 2027 01:56:18.978   04 Jun 2027 01:56:40.405            21.427                Anadyr1           669.594
       322   04 Jun 2027 01:56:41.505   04 Jun 2027 01:56:59.632            18.127                Anadyr2           566.469
       323   04 Jun 2027 01:57:40.560   04 Jun 2027 01:57:53.598            13.038                Anadyr2           407.438
       324   04 Jun 2027 01:58:35.718   04 Jun 2027 01:59:01.171            25.453                Anadyr2           795.406
       325   04 Jun 2027 02:01:49.505   04 Jun 2027 02:03:00.837            71.332               Magadan1          2229.125
       326   04 Jun 2027 02:04:13.819   04 Jun 2027 02:04:30.310            16.491                Norilsk           515.344
       327   04 Jun 2027 02:05:29.006   04 Jun 2027 02:06:05.555            36.549               Magadan1          1142.156
       328   04 Jun 2027 02:06:30.897   04 Jun 2027 02:07:22.465            51.568              Murmansk1          1611.500
       329   04 Jun 2027 02:08:21.772   04 Jun 2027 02:08:41.319            19.547              Murmansk1           610.844
       330   04 Jun 2027 02:08:47.940   04 Jun 2027 02:09:29.770            41.830                Novosib          1307.187
       331   04 Jun 2027 02:09:59.525   04 Jun 2027 02:10:42.245            42.720                 Moscow          1335.000
       332   04 Jun 2027 02:15:54.033   04 Jun 2027 02:16:02.249             8.216                Novosib           256.750
       333   04 Jun 2027 02:19:54.425   04 Jun 2027 02:20:38.124            43.699                 Moscow          1365.594
       334   04 Jun 2027 02:34:46.940   04 Jun 2027 02:35:54.439            67.499               CapeTown          2109.344
       335   04 Jun 2027 03:30:34.693   04 Jun 2027 03:30:39.817             5.124                Anadyr2           160.125
       336   04 Jun 2027 03:31:02.173   04 Jun 2027 03:31:51.967            49.794                Anadyr1          1556.062
       337   04 Jun 2027 05:12:51.805   04 Jun 2027 05:13:45.925            54.120               Magadan1          1691.250
       338   04 Jun 2027 05:13:47.323   04 Jun 2027 05:14:13.076            25.753                Anadyr1           804.781
       339   04 Jun 2027 05:15:02.032   04 Jun 2027 05:18:52.606           230.574               Magadan2          7205.437
       340   04 Jun 2027 05:18:55.140   04 Jun 2027 05:19:13.159            18.019                Anadyr1           563.094
       341   04 Jun 2027 06:49:01.981   04 Jun 2027 06:49:20.934            18.953               Magadan2           592.281
       342   04 Jun 2027 06:49:43.323   04 Jun 2027 06:50:25.989            42.666                Anadyr2          1333.313
       343   04 Jun 2027 06:50:38.339   04 Jun 2027 06:50:51.972            13.633               Magadan1           426.031
       344   04 Jun 2027 06:50:54.144   04 Jun 2027 06:51:12.052            17.908                Anadyr1           559.625
       345   04 Jun 2027 06:51:16.414   04 Jun 2027 06:51:42.937            26.523               Magadan1           828.844
       346   04 Jun 2027 06:51:45.338   04 Jun 2027 06:52:20.223            34.885                Anadyr1          1090.156
       347   04 Jun 2027 06:52:48.130   04 Jun 2027 06:52:55.665             7.535               Magadan2           235.469
       348   04 Jun 2027 06:54:10.345   04 Jun 2027 06:54:48.101            37.756                Anadyr1          1179.875
       349   04 Jun 2027 08:24:01.299   04 Jun 2027 08:24:06.401             5.102               Magadan2           159.437
       350   04 Jun 2027 08:25:21.908   04 Jun 2027 08:25:54.870            32.962               Magadan1          1030.062
       351   04 Jun 2027 08:26:13.861   04 Jun 2027 08:26:33.292            19.431               Magadan1           607.219
       352   04 Jun 2027 08:26:41.038   04 Jun 2027 08:26:43.402             2.364               Magadan2            73.875
       353   04 Jun 2027 08:27:15.372   04 Jun 2027 08:27:56.752            41.380                Irkutsk          1293.125
       354   04 Jun 2027 08:28:05.284   04 Jun 2027 08:28:12.710             7.426                Irkutsk           232.063
       355   04 Jun 2027 08:28:20.752   04 Jun 2027 08:28:46.801            26.049                Novosib           814.031
       356   04 Jun 2027 08:29:01.625   04 Jun 2027 08:30:00.843            59.218               Magadan2          1850.563
       357   04 Jun 2027 08:30:31.389   04 Jun 2027 08:30:42.315            10.926                Norilsk           341.438
       358   04 Jun 2027 09:05:13.972   04 Jun 2027 09:06:31.022            77.050            RioGallegos          2407.813
       359   04 Jun 2027 09:40:40.708   04 Jun 2027 09:41:23.751            43.043                Sumatra          1345.094
       360   04 Jun 2027 09:47:00.554   04 Jun 2027 09:47:07.431             6.877                Sumatra           214.906
       361   04 Jun 2027 09:50:52.406   04 Jun 2027 09:52:26.172            93.766                Sumatra          2930.187
       362   04 Jun 2027 10:00:53.603   04 Jun 2027 10:01:15.786            22.183                Irkutsk           693.219
       363   04 Jun 2027 10:01:55.808   04 Jun 2027 10:02:27.497            31.689                Irkutsk           990.281
       364   04 Jun 2027 10:02:46.629   04 Jun 2027 10:03:04.531            17.902                Irkutsk           559.438
       365   04 Jun 2027 10:03:09.016   04 Jun 2027 10:03:32.229            23.213                Novosib           725.406
       366   04 Jun 2027 10:03:58.796   04 Jun 2027 10:04:07.199             8.403                Norilsk           262.594
       367   04 Jun 2027 10:04:09.277   04 Jun 2027 10:04:34.438            25.161                Novosib           786.281
       368   04 Jun 2027 10:04:47.138   04 Jun 2027 10:05:09.579            22.441                Irkutsk           701.281
       369   04 Jun 2027 10:05:21.632   04 Jun 2027 10:06:30.681            69.049                Irkutsk          2157.781
       370   04 Jun 2027 10:44:48.215   04 Jun 2027 10:45:18.943            30.728            RioGallegos           960.250
       371   04 Jun 2027 11:17:26.420   04 Jun 2027 11:18:00.255            33.835                Sumatra          1057.344
       372   04 Jun 2027 11:22:57.043   04 Jun 2027 11:23:43.044            46.001                Sumatra          1437.531
       373   04 Jun 2027 11:38:38.968   04 Jun 2027 11:39:55.126            76.158                Norilsk          2379.938
       374   04 Jun 2027 11:40:13.323   04 Jun 2027 11:40:48.099            34.776                Norilsk          1086.750
       375   04 Jun 2027 11:40:53.061   04 Jun 2027 11:41:39.317            46.256                Norilsk          1445.500
       376   04 Jun 2027 11:41:46.823   04 Jun 2027 11:42:00.594            13.771                Norilsk           430.344
       377   04 Jun 2027 11:42:03.632   04 Jun 2027 11:42:29.546            25.914                Norilsk           809.813
       378   04 Jun 2027 13:02:31.188   04 Jun 2027 13:04:31.146           119.958                  Delhi          3748.688
       379   04 Jun 2027 13:05:20.108   04 Jun 2027 13:05:49.268            29.160                  Delhi           911.250
       380   04 Jun 2027 13:10:39.718   04 Jun 2027 13:11:04.066            24.348                  Delhi           760.875
       381   04 Jun 2027 13:11:26.908   04 Jun 2027 13:12:39.886            72.978                Novosib          2280.563
       382   04 Jun 2027 13:14:16.209   04 Jun 2027 13:15:09.246            53.037                Norilsk          1657.406
       383   04 Jun 2027 13:15:24.339   04 Jun 2027 13:15:35.482            11.143                Novosib           348.219
       384   04 Jun 2027 13:18:01.105   04 Jun 2027 13:18:25.255            24.150                Norilsk           754.687
       385   04 Jun 2027 14:26:01.846   04 Jun 2027 14:26:53.625            51.779               CapeTown          1618.094
       386   04 Jun 2027 14:45:05.480   04 Jun 2027 14:46:42.770            97.290                 Moscow          3040.312
       387   04 Jun 2027 14:48:34.015   04 Jun 2027 14:49:39.441            65.426              Murmansk1          2044.562
       388   04 Jun 2027 14:50:04.192   04 Jun 2027 14:50:11.713             7.521              Murmansk1           235.031
       389   04 Jun 2027 14:57:36.922   04 Jun 2027 14:57:40.828             3.906              Murmansk2           122.062
       390   04 Jun 2027 14:58:14.116   04 Jun 2027 14:58:18.025             3.909              Murmansk1           122.156
       391   04 Jun 2027 14:59:14.829   04 Jun 2027 14:59:37.465            22.636              Murmansk1           707.375
       392   04 Jun 2027 14:59:37.465   04 Jun 2027 14:59:50.176            12.711              Murmansk2           397.219
       393   04 Jun 2027 15:03:50.583   04 Jun 2027 15:05:08.020            77.437                Anadyr2          2419.906
       394   04 Jun 2027 15:06:04.262   04 Jun 2027 15:07:18.294            74.032                Anadyr1          2313.500
       395   04 Jun 2027 15:10:22.089   04 Jun 2027 15:10:33.907            11.818                Anadyr1           369.312
       396   04 Jun 2027 15:58:13.745   04 Jun 2027 15:59:11.918            58.173               CapeTown          1817.906
       397   04 Jun 2027 16:04:12.749   04 Jun 2027 16:04:16.182             3.433               CapeTown           107.281
       398   04 Jun 2027 16:05:11.313   04 Jun 2027 16:05:49.145            37.832               CapeTown          1182.250
       399   04 Jun 2027 16:25:24.003   04 Jun 2027 16:26:12.949            48.946                 Moscow          1529.562
       400   04 Jun 2027 16:26:53.494   04 Jun 2027 16:27:27.520            34.026              Murmansk1          1063.313
       401   04 Jun 2027 16:28:44.256   04 Jun 2027 16:29:38.586            54.330                 Moscow          1697.812
       402   04 Jun 2027 16:31:08.377   04 Jun 2027 16:31:35.189            26.812              Murmansk1           837.875
       403   04 Jun 2027 16:35:20.522   04 Jun 2027 16:35:23.384             2.862              Murmansk1            89.438
       404   04 Jun 2027 16:35:57.358   04 Jun 2027 16:36:58.055            60.697              Murmansk1          1896.781
       405   04 Jun 2027 16:38:52.471   04 Jun 2027 16:39:57.861            65.390                Anadyr1          2043.438
       406   04 Jun 2027 16:40:30.459   04 Jun 2027 16:40:48.367            17.908                Anadyr1           559.625
       407   04 Jun 2027 16:40:55.903   04 Jun 2027 16:41:09.032            13.129                Anadyr1           410.281
       408   04 Jun 2027 16:46:05.013   04 Jun 2027 16:46:32.288            27.275                Anadyr2           852.344
       409   04 Jun 2027 17:35:12.873   04 Jun 2027 17:36:17.912            65.039               CapeTown          2032.469
       410   04 Jun 2027 18:08:36.053   04 Jun 2027 18:11:34.515           178.462              Murmansk1          5576.937
       411   04 Jun 2027 18:14:42.886   04 Jun 2027 18:16:36.292           113.406                Anadyr2          3543.937
       412   04 Jun 2027 18:17:07.685   04 Jun 2027 18:17:37.033            29.348                Anadyr2           917.125
       413   04 Jun 2027 18:18:05.666   04 Jun 2027 18:18:23.069            17.403               Magadan2           543.844
       414   04 Jun 2027 18:18:40.523   04 Jun 2027 18:19:57.271            76.748               Magadan1          2398.375
       415   04 Jun 2027 18:24:49.028   04 Jun 2027 18:24:53.681             4.653               Magadan1           145.406
       416   04 Jun 2027 18:25:46.412   04 Jun 2027 18:26:04.089            17.677               Magadan1           552.406
       417   04 Jun 2027 19:50:37.867   04 Jun 2027 19:52:41.869           124.002                Anadyr1          3875.062
       418   04 Jun 2027 19:52:54.680   04 Jun 2027 19:57:01.091           246.411               Magadan1          7700.344
       419   04 Jun 2027 19:57:01.091   04 Jun 2027 19:57:20.725            19.634               Magadan2           613.562
       420   04 Jun 2027 20:01:46.543   04 Jun 2027 20:01:57.590            11.047               Magadan1           345.219
       421   04 Jun 2027 20:45:12.195   04 Jun 2027 20:48:35.675           203.480            RioGallegos          6358.750
       422   04 Jun 2027 20:54:03.050   04 Jun 2027 20:54:37.145            34.095            RioGallegos          1065.469
       423   04 Jun 2027 21:28:28.826   04 Jun 2027 21:30:44.494           135.668                Norilsk          4239.625
       424   04 Jun 2027 21:31:14.086   04 Jun 2027 21:31:19.762             5.676               Magadan2           177.375
       425   04 Jun 2027 21:31:30.075   04 Jun 2027 21:32:06.218            36.143               Magadan2          1129.469
       426   04 Jun 2027 21:32:43.251   04 Jun 2027 21:33:30.636            47.385                Irkutsk          1480.781
       427   04 Jun 2027 21:34:19.886   04 Jun 2027 21:34:28.564             8.678                Irkutsk           271.187
       428   04 Jun 2027 21:35:08.150   04 Jun 2027 21:36:21.145            72.995                Novosib          2281.094
       429   04 Jun 2027 21:36:58.173   04 Jun 2027 21:37:23.989            25.816                Novosib           806.750
       430   04 Jun 2027 21:37:28.540   04 Jun 2027 21:38:54.812            86.272                Novosib          2696.000
       431   04 Jun 2027 21:48:28.757   04 Jun 2027 21:49:09.631            40.874                Sumatra          1277.313
       432   04 Jun 2027 21:56:46.820   04 Jun 2027 21:58:45.022           118.202                Sumatra          3693.812
       433   04 Jun 2027 23:03:45.513   04 Jun 2027 23:03:55.908            10.395                Anadyr1           324.844
       434   04 Jun 2027 23:04:24.957   04 Jun 2027 23:04:50.422            25.465                Norilsk           795.781
       435   04 Jun 2027 23:05:03.154   04 Jun 2027 23:06:06.715            63.561               Magadan1          1986.281
       436   04 Jun 2027 23:08:16.674   04 Jun 2027 23:09:14.016            57.342                Irkutsk          1791.938
       437   04 Jun 2027 23:09:39.081   04 Jun 2027 23:10:40.085            61.004                Novosib          1906.375
       438   04 Jun 2027 23:15:51.622   04 Jun 2027 23:17:25.406            93.784                Novosib          2930.750
       439   04 Jun 2027 23:17:35.723   04 Jun 2027 23:19:36.844           121.121                  Delhi          3785.031
       440   05 Jun 2027 00:34:40.873   05 Jun 2027 00:35:03.708            22.835                Anadyr2           713.594
       441   05 Jun 2027 00:35:50.274   05 Jun 2027 00:36:08.201            17.927                Anadyr2           560.219
       442   05 Jun 2027 00:37:12.269   05 Jun 2027 00:37:51.621            39.352                Anadyr1          1229.750
       443   05 Jun 2027 00:40:02.773   05 Jun 2027 00:40:20.910            18.137                Anadyr2           566.781
       444   05 Jun 2027 00:40:24.576   05 Jun 2027 00:40:53.896            29.320                Norilsk           916.250
       445   05 Jun 2027 00:41:06.698   05 Jun 2027 00:42:25.974            79.276                Norilsk          2477.375
       446   05 Jun 2027 00:42:34.313   05 Jun 2027 00:42:37.639             3.326               Magadan2           103.938
       447   05 Jun 2027 00:42:48.744   05 Jun 2027 00:44:45.393           116.649              Murmansk1          3645.281
       448   05 Jun 2027 00:45:03.755   05 Jun 2027 00:45:54.406            50.651              Murmansk2          1582.844
       449   05 Jun 2027 00:47:56.493   05 Jun 2027 00:49:38.585           102.092                 Moscow          3190.375
       450   05 Jun 2027 01:02:32.191   05 Jun 2027 01:02:54.887            22.696                  Delhi           709.250
       451   05 Jun 2027 02:08:03.446   05 Jun 2027 02:10:37.022           153.576                Anadyr2          4799.250
       452   05 Jun 2027 02:11:08.143   05 Jun 2027 02:11:18.765            10.622                Anadyr2           331.938
       453   05 Jun 2027 02:13:17.638   05 Jun 2027 02:14:29.844            72.206               Magadan1          2256.437
       454   05 Jun 2027 02:14:32.756   05 Jun 2027 02:14:38.044             5.288               Magadan1           165.250
       455   05 Jun 2027 02:16:20.141   05 Jun 2027 02:16:23.275             3.134                Norilsk            97.938
       456   05 Jun 2027 02:17:05.329   05 Jun 2027 02:18:00.542            55.213               Magadan1          1725.406
       457   05 Jun 2027 02:18:32.261   05 Jun 2027 02:19:27.578            55.317              Murmansk2          1728.656
       458   05 Jun 2027 02:20:32.325   05 Jun 2027 02:21:22.796            50.471                Novosib          1577.219
       459   05 Jun 2027 02:24:49.148   05 Jun 2027 02:25:39.214            50.066                 Moscow          1564.562
       460   05 Jun 2027 02:46:23.788   05 Jun 2027 02:47:02.490            38.702               CapeTown          1209.437
       461   05 Jun 2027 02:49:00.989   05 Jun 2027 02:49:37.304            36.315               CapeTown          1134.844
       462   05 Jun 2027 03:49:57.362   05 Jun 2027 03:53:28.845           211.483                Anadyr1          6608.844
       463   05 Jun 2027 04:04:06.385   05 Jun 2027 04:04:40.860            34.475              Murmansk1          1077.344
       464   05 Jun 2027 04:05:56.031   05 Jun 2027 04:07:23.730            87.699              Murmansk2          2740.594
       465   05 Jun 2027 04:32:40.057   05 Jun 2027 04:33:14.779            34.722               CapeTown          1085.062
       466   05 Jun 2027 05:18:47.110   05 Jun 2027 05:19:41.496            54.386                Anadyr2          1699.562
       467   05 Jun 2027 05:19:58.226   05 Jun 2027 05:20:09.651            11.425                Anadyr2           357.031
       468   05 Jun 2027 05:23:42.893   05 Jun 2027 05:24:01.261            18.368                Anadyr1           574.000
       469   05 Jun 2027 05:24:20.466   05 Jun 2027 05:25:08.787            48.321                Anadyr1          1510.031
       470   05 Jun 2027 05:25:26.471   05 Jun 2027 05:27:14.335           107.864                Anadyr2          3370.750
       471   05 Jun 2027 05:27:14.335   05 Jun 2027 05:30:30.982           196.647                Anadyr1          6145.219
       472   05 Jun 2027 05:30:53.060   05 Jun 2027 05:30:55.106             2.046               Magadan2            63.938
       473   05 Jun 2027 07:01:44.403   05 Jun 2027 07:02:22.841            38.438                Anadyr1          1201.187
       474   05 Jun 2027 07:02:35.091   05 Jun 2027 07:03:37.532            62.441                Anadyr1          1951.281
       475   05 Jun 2027 07:03:47.138   05 Jun 2027 07:04:28.623            41.485                Anadyr1          1296.406
       476   05 Jun 2027 07:04:38.119   05 Jun 2027 07:04:42.054             3.935               Magadan1           122.969
       477   05 Jun 2027 07:05:01.445   05 Jun 2027 07:05:10.583             9.138               Magadan2           285.562
       478   05 Jun 2027 07:05:26.430   05 Jun 2027 07:05:35.387             8.957                Anadyr1           279.906
       479   05 Jun 2027 07:05:36.071   05 Jun 2027 07:06:49.981            73.910               Magadan1          2309.688
       480   05 Jun 2027 08:35:43.068   05 Jun 2027 08:36:05.203            22.135               Magadan1           691.719
       481   05 Jun 2027 08:37:20.921   05 Jun 2027 08:37:51.741            30.820               Magadan1           963.125
       482   05 Jun 2027 08:38:22.452   05 Jun 2027 08:38:29.520             7.068               Magadan1           220.875
