uniorb/output/strategy_4/Drop/Drop_KinoSat_110709.txt

KinoSat_110709
-------------------------
    Access    *     Start Time (UTCG)     *     Stop Time (UTCG)  *   Duration (s)        *       Station  *  Data (Mbytes)
         1   01 Jun 2027 03:01:31.758   01 Jun 2027 03:01:43.860            12.102               Magadan1           378.188
         2   01 Jun 2027 03:02:01.530   01 Jun 2027 03:03:27.938            86.408                Anadyr1          2700.250
         3   01 Jun 2027 03:03:27.938   01 Jun 2027 03:03:51.803            23.865                Anadyr2           745.781
         4   01 Jun 2027 03:04:17.469   01 Jun 2027 03:04:28.931            11.462               Magadan1           358.188
         5   01 Jun 2027 03:04:28.931   01 Jun 2027 03:04:44.483            15.552               Magadan2           486.000
         6   01 Jun 2027 03:04:44.483   01 Jun 2027 03:04:53.043             8.560               Magadan1           267.500
         7   01 Jun 2027 03:05:15.437   01 Jun 2027 03:05:39.257            23.820                Anadyr1           744.375
         8   01 Jun 2027 03:05:39.257   01 Jun 2027 03:06:54.669            75.412                Anadyr2          2356.625
         9   01 Jun 2027 04:38:53.158   01 Jun 2027 04:38:58.187             5.029               Magadan1           157.156
        10   01 Jun 2027 04:39:08.451   01 Jun 2027 04:40:40.623            92.172               Magadan1          2880.375
        11   01 Jun 2027 04:40:59.121   01 Jun 2027 04:42:44.381           105.260               Magadan1          3289.375
        12   01 Jun 2027 04:42:50.717   01 Jun 2027 04:43:14.747            24.030                Norilsk           750.938
        13   01 Jun 2027 04:43:49.106   01 Jun 2027 04:44:20.712            31.606              Murmansk1           987.687
        14   01 Jun 2027 05:19:34.986   01 Jun 2027 05:22:54.240           199.254            RioGallegos          6226.687
        15   01 Jun 2027 06:13:43.715   01 Jun 2027 06:15:17.918            94.203                Irkutsk          2943.844
        16   01 Jun 2027 06:15:24.193   01 Jun 2027 06:16:23.576            59.383                Novosib          1855.719
        17   01 Jun 2027 06:16:30.910   01 Jun 2027 06:16:39.829             8.919                Irkutsk           278.719
        18   01 Jun 2027 06:16:40.330   01 Jun 2027 06:17:37.511            57.181                Norilsk          1786.906
        19   01 Jun 2027 06:17:48.633   01 Jun 2027 06:18:45.797            57.164               Magadan2          1786.375
        20   01 Jun 2027 06:19:07.149   01 Jun 2027 06:21:32.699           145.550                Norilsk          4548.438
        21   01 Jun 2027 06:21:51.031   01 Jun 2027 06:23:02.882            71.851              Murmansk2          2245.344
        22   01 Jun 2027 06:23:02.882   01 Jun 2027 06:24:26.627            83.745              Murmansk1          2617.031
        23   01 Jun 2027 06:54:03.373   01 Jun 2027 06:58:32.763           269.390            RioGallegos          8418.437
        24   01 Jun 2027 07:29:13.928   01 Jun 2027 07:33:00.758           226.830                Sumatra          7088.437
        25   01 Jun 2027 07:42:01.162   01 Jun 2027 07:42:56.365            55.203                  Delhi          1725.094
        26   01 Jun 2027 07:49:57.850   01 Jun 2027 07:50:31.349            33.499                Irkutsk          1046.844
        27   01 Jun 2027 07:50:59.408   01 Jun 2027 07:51:37.967            38.559                Novosib          1204.969
        28   01 Jun 2027 07:52:25.893   01 Jun 2027 07:55:16.510           170.617                Irkutsk          5331.781
        29   01 Jun 2027 07:55:59.877   01 Jun 2027 07:56:22.469            22.592                Novosib           706.000
        30   01 Jun 2027 09:13:10.548   01 Jun 2027 09:14:38.853            88.305                  Delhi          2759.531
        31   01 Jun 2027 09:30:10.759   01 Jun 2027 09:31:25.306            74.547              Murmansk2          2329.594
        32   01 Jun 2027 10:52:21.830   01 Jun 2027 10:55:13.205           171.375                  Delhi          5355.469
        33   01 Jun 2027 10:56:01.463   01 Jun 2027 10:56:07.160             5.697                  Delhi           178.031
        34   01 Jun 2027 10:56:47.591   01 Jun 2027 10:58:30.938           103.347                  Delhi          3229.594
        35   01 Jun 2027 11:03:04.229   01 Jun 2027 11:03:28.736            24.507              Murmansk1           765.844
        36   01 Jun 2027 11:03:28.736   01 Jun 2027 11:05:11.760           103.024              Murmansk2          3219.500
        37   01 Jun 2027 11:05:29.215   01 Jun 2027 11:08:37.825           188.610              Murmansk2          5894.063
        38   01 Jun 2027 11:08:37.825   01 Jun 2027 11:08:55.023            17.198              Murmansk1           537.437
        39   01 Jun 2027 11:09:46.007   01 Jun 2027 11:10:34.992            48.985              Murmansk1          1530.781
        40   01 Jun 2027 11:11:18.058   01 Jun 2027 11:11:22.635             4.577              Murmansk1           143.031
        41   01 Jun 2027 11:11:40.727   01 Jun 2027 11:12:19.149            38.422              Murmansk1          1200.687
        42   01 Jun 2027 12:13:37.941   01 Jun 2027 12:16:09.020           151.079               CapeTown          4721.219
        43   01 Jun 2027 12:19:52.843   01 Jun 2027 12:20:41.498            48.655               CapeTown          1520.469
        44   01 Jun 2027 12:34:08.440   01 Jun 2027 12:34:48.570            40.130                 Moscow          1254.063
        45   01 Jun 2027 12:37:33.334   01 Jun 2027 12:42:46.432           313.098              Murmansk2          9784.312
        46   01 Jun 2027 12:52:27.148   01 Jun 2027 12:56:18.040           230.892                Anadyr1          7215.375
        47   01 Jun 2027 12:57:53.578   01 Jun 2027 12:58:33.682            40.104                Anadyr2          1253.250
        48   01 Jun 2027 14:16:10.050   01 Jun 2027 14:16:15.317             5.267              Murmansk2           164.594
        49   01 Jun 2027 14:17:25.843   01 Jun 2027 14:19:02.861            97.018              Murmansk1          3031.812
        50   01 Jun 2027 14:27:40.277   01 Jun 2027 14:31:14.475           214.198                Anadyr2          6693.688
        51   01 Jun 2027 14:32:19.738   01 Jun 2027 14:35:06.760           167.022               Magadan1          5219.438
        52   01 Jun 2027 14:35:55.107   01 Jun 2027 14:36:18.167            23.060               Magadan2           720.625
        53   01 Jun 2027 16:03:31.951   01 Jun 2027 16:04:52.437            80.486                Anadyr1          2515.187
        54   01 Jun 2027 16:05:28.663   01 Jun 2027 16:06:36.470            67.807                Anadyr1          2118.969
        55   01 Jun 2027 16:07:26.397   01 Jun 2027 16:10:09.622           163.225               Magadan1          5100.781
        56   01 Jun 2027 16:11:18.732   01 Jun 2027 16:12:19.174            60.442               Magadan2          1888.812
        57   01 Jun 2027 16:12:43.009   01 Jun 2027 16:13:00.860            17.851               Magadan2           557.844
        58   01 Jun 2027 16:14:07.702   01 Jun 2027 16:14:30.410            22.708               Magadan2           709.625
        59   01 Jun 2027 17:39:25.743   01 Jun 2027 17:42:36.208           190.465                Anadyr2          5952.031
        60   01 Jun 2027 17:42:44.635   01 Jun 2027 17:45:51.726           187.091                Norilsk          5846.594
        61   01 Jun 2027 18:33:49.545   01 Jun 2027 18:37:26.975           217.430            RioGallegos          6794.687
        62   01 Jun 2027 18:43:16.652   01 Jun 2027 18:44:03.896            47.244            RioGallegos          1476.375
        63   01 Jun 2027 19:17:17.789   01 Jun 2027 19:18:49.516            91.727                Norilsk          2866.469
        64   01 Jun 2027 19:19:37.431   01 Jun 2027 19:19:55.200            17.769               Magadan2           555.281
        65   01 Jun 2027 19:21:25.714   01 Jun 2027 19:22:09.003            43.289                Irkutsk          1352.781
        66   01 Jun 2027 19:23:09.551   01 Jun 2027 19:29:12.807           363.256                Novosib         11351.750
        67   01 Jun 2027 19:36:28.163   01 Jun 2027 19:37:59.957            91.794                Sumatra          2868.563
        68   01 Jun 2027 19:46:35.996   01 Jun 2027 19:46:59.641            23.645                Sumatra           738.906
        69   01 Jun 2027 20:55:57.089   01 Jun 2027 20:56:04.786             7.697                Norilsk           240.531
        70   01 Jun 2027 20:56:08.065   01 Jun 2027 20:56:35.381            27.316                Norilsk           853.625
        71   01 Jun 2027 20:57:06.890   01 Jun 2027 20:57:16.489             9.599                Irkutsk           299.969
        72   01 Jun 2027 20:57:57.474   01 Jun 2027 21:00:45.999           168.525                Novosib          5266.406
        73   01 Jun 2027 21:04:54.875   01 Jun 2027 21:08:43.296           228.421                  Delhi          7138.156
        74   01 Jun 2027 22:29:13.161   01 Jun 2027 22:29:34.505            21.344               Magadan2           667.000
        75   01 Jun 2027 22:29:50.067   01 Jun 2027 22:30:15.325            25.258                Norilsk           789.312
        76   01 Jun 2027 22:31:35.140   01 Jun 2027 22:37:10.267           335.127              Murmansk2         10472.719
        77   01 Jun 2027 22:38:08.888   01 Jun 2027 22:43:34.054           325.166                 Moscow         10161.437
        78   02 Jun 2027 00:08:38.014   02 Jun 2027 00:09:19.071            41.057              Murmansk2          1283.031
        79   02 Jun 2027 00:09:44.817   02 Jun 2027 00:10:46.016            61.199              Murmansk2          1912.469
        80   02 Jun 2027 00:14:35.022   02 Jun 2027 00:14:53.541            18.519                 Moscow           578.719
        81   02 Jun 2027 00:19:09.970   02 Jun 2027 00:20:02.090            52.120                 Moscow          1628.750
        82   02 Jun 2027 00:34:54.888   02 Jun 2027 00:37:29.811           154.923               CapeTown          4841.344
        83   02 Jun 2027 00:38:04.290   02 Jun 2027 00:38:46.284            41.994               CapeTown          1312.312
        84   02 Jun 2027 00:46:07.911   02 Jun 2027 00:46:59.687            51.776               CapeTown          1618.000
        85   02 Jun 2027 01:38:24.996   02 Jun 2027 01:39:00.727            35.731               Magadan2          1116.594
        86   02 Jun 2027 01:43:19.820   02 Jun 2027 01:44:37.855            78.035              Murmansk2          2438.594
        87   02 Jun 2027 01:46:15.125   02 Jun 2027 01:46:41.185            26.060              Murmansk1           814.375
        88   02 Jun 2027 01:46:48.621   02 Jun 2027 01:46:54.599             5.978                 Moscow           186.812
        89   02 Jun 2027 01:47:13.741   02 Jun 2027 01:47:51.328            37.587                 Moscow          1174.594
        90   02 Jun 2027 01:51:07.977   02 Jun 2027 01:51:50.456            42.479                 Moscow          1327.469
        91   02 Jun 2027 01:55:10.510   02 Jun 2027 01:55:39.505            28.995                 Moscow           906.094
        92   02 Jun 2027 02:11:44.126   02 Jun 2027 02:11:54.045             9.919               CapeTown           309.969
        93   02 Jun 2027 02:14:22.111   02 Jun 2027 02:14:57.774            35.663               CapeTown          1114.469
        94   02 Jun 2027 02:18:51.406   02 Jun 2027 02:19:07.396            15.990               CapeTown           499.688
        95   02 Jun 2027 02:20:29.036   02 Jun 2027 02:20:57.994            28.958               CapeTown           904.938
        96   02 Jun 2027 03:07:56.348   02 Jun 2027 03:08:35.208            38.860               Magadan2          1214.375
        97   02 Jun 2027 03:12:46.370   02 Jun 2027 03:20:01.355           434.985                Anadyr2         13593.281
        98   02 Jun 2027 04:49:43.914   02 Jun 2027 04:51:12.421            88.507                Anadyr1          2765.844
        99   02 Jun 2027 04:51:23.757   02 Jun 2027 04:52:58.931            95.174                Anadyr2          2974.188
       100   02 Jun 2027 04:53:01.297   02 Jun 2027 04:53:05.122             3.825               Magadan2           119.531
       101   02 Jun 2027 04:53:17.033   02 Jun 2027 04:53:41.781            24.748               Magadan1           773.375
       102   02 Jun 2027 04:53:43.460   02 Jun 2027 04:54:13.839            30.379                Irkutsk           949.344
       103   02 Jun 2027 04:55:11.070   02 Jun 2027 04:55:21.640            10.570                Anadyr2           330.313
       104   02 Jun 2027 06:27:02.578   02 Jun 2027 06:27:24.695            22.117                Irkutsk           691.156
       105   02 Jun 2027 06:28:52.195   02 Jun 2027 06:30:31.324            99.129               Magadan2          3097.781
       106   02 Jun 2027 06:30:32.799   02 Jun 2027 06:31:24.538            51.739                Irkutsk          1616.844
       107   02 Jun 2027 06:31:56.300   02 Jun 2027 06:32:37.172            40.872                Novosib          1277.250
       108   02 Jun 2027 08:04:37.755   02 Jun 2027 08:05:08.021            30.266              Murmansk1           945.812
       109   02 Jun 2027 08:05:15.450   02 Jun 2027 08:06:14.611            59.161                Irkutsk          1848.781
       110   02 Jun 2027 08:06:39.792   02 Jun 2027 08:06:44.737             4.945                Irkutsk           154.531
       111   02 Jun 2027 08:06:47.336   02 Jun 2027 08:07:12.801            25.465                Novosib           795.781
       112   02 Jun 2027 08:10:38.033   02 Jun 2027 08:10:51.556            13.523                Norilsk           422.594
       113   02 Jun 2027 08:13:22.787   02 Jun 2027 08:14:38.814            76.027              Murmansk1          2375.844
       114   02 Jun 2027 08:45:11.564   02 Jun 2027 08:45:59.985            48.421            RioGallegos          1513.156
       115   02 Jun 2027 08:47:48.645   02 Jun 2027 08:48:10.421            21.776            RioGallegos           680.500
       116   02 Jun 2027 08:48:19.354   02 Jun 2027 08:48:24.770             5.416            RioGallegos           169.250
       117   02 Jun 2027 08:49:08.216   02 Jun 2027 08:49:09.130             0.914            RioGallegos            28.563
       118   02 Jun 2027 08:50:44.842   02 Jun 2027 08:51:55.361            70.519            RioGallegos          2203.719
       119   02 Jun 2027 09:19:46.600   02 Jun 2027 09:20:19.570            32.970                Sumatra          1030.313
       120   02 Jun 2027 09:21:14.549   02 Jun 2027 09:21:57.110            42.561                Sumatra          1330.031
       121   02 Jun 2027 09:39:58.915   02 Jun 2027 09:40:08.191             9.276                Novosib           289.875
       122   02 Jun 2027 09:40:25.470   02 Jun 2027 09:40:47.607            22.137                Norilsk           691.781
       123   02 Jun 2027 09:41:32.982   02 Jun 2027 09:41:42.126             9.144                Novosib           285.750
       124   02 Jun 2027 09:41:43.105   02 Jun 2027 09:42:08.231            25.126                Norilsk           785.187
       125   02 Jun 2027 09:42:10.643   02 Jun 2027 09:42:12.664             2.021                Norilsk            63.156
       126   02 Jun 2027 09:42:24.733   02 Jun 2027 09:42:55.647            30.914                Norilsk           966.063
       127   02 Jun 2027 11:06:21.550   02 Jun 2027 11:08:07.908           106.358                  Delhi          3323.687
       128   02 Jun 2027 11:20:00.772   02 Jun 2027 11:20:04.350             3.578                Norilsk           111.812
       129   02 Jun 2027 12:24:51.927   02 Jun 2027 12:26:46.199           114.272               CapeTown          3571.000
       130   02 Jun 2027 12:31:49.338   02 Jun 2027 12:32:48.188            58.850               CapeTown          1839.063
       131   02 Jun 2027 12:46:28.071   02 Jun 2027 12:46:51.555            23.484                 Moscow           733.875
       132   02 Jun 2027 12:49:47.243   02 Jun 2027 12:52:17.841           150.598              Murmansk1          4706.188
       133   02 Jun 2027 12:53:37.230   02 Jun 2027 12:54:03.612            26.382              Murmansk2           824.438
       134   02 Jun 2027 13:00:00.353   02 Jun 2027 13:00:21.286            20.933              Murmansk2           654.156
       135   02 Jun 2027 13:04:17.286   02 Jun 2027 13:10:27.995           370.709                Anadyr1         11584.656
       136   02 Jun 2027 14:35:00.736   02 Jun 2027 14:35:12.301            11.565              Murmansk1           361.406
       137   02 Jun 2027 14:35:47.380   02 Jun 2027 14:37:01.825            74.445              Murmansk1          2326.406
       138   02 Jun 2027 14:39:40.186   02 Jun 2027 14:40:44.444            64.258                Anadyr2          2008.062
       139   02 Jun 2027 14:41:43.897   02 Jun 2027 14:42:11.589            27.692                Anadyr2           865.375
       140   02 Jun 2027 14:43:01.161   02 Jun 2027 14:44:21.191            80.030                Anadyr2          2500.937
       141   02 Jun 2027 14:45:19.832   02 Jun 2027 14:46:54.601            94.769               Magadan1          2961.531
       142   02 Jun 2027 14:48:12.899   02 Jun 2027 14:49:37.218            84.319               Magadan2          2634.969
       143   02 Jun 2027 16:15:33.306   02 Jun 2027 16:16:53.325            80.019                Anadyr1          2500.594
       144   02 Jun 2027 16:17:59.110   02 Jun 2027 16:19:53.421           114.311               Magadan2          3572.219
       145   02 Jun 2027 16:20:12.908   02 Jun 2027 16:21:23.665            70.757               Magadan1          2211.156
       146   02 Jun 2027 16:23:01.223   02 Jun 2027 16:23:52.393            51.170               Magadan1          1599.063
       147   02 Jun 2027 17:51:25.967   02 Jun 2027 17:52:48.721            82.754                Anadyr2          2586.063
       148   02 Jun 2027 17:53:06.327   02 Jun 2027 17:53:53.977            47.650                Anadyr1          1489.062
       149   02 Jun 2027 17:54:13.445   02 Jun 2027 17:59:38.349           324.904                Norilsk         10153.250
       150   02 Jun 2027 17:59:54.626   02 Jun 2027 18:02:32.558           157.932                Irkutsk          4935.375
       151   02 Jun 2027 19:29:18.505   02 Jun 2027 19:30:46.444            87.939                Norilsk          2748.094
       152   02 Jun 2027 19:34:34.433   02 Jun 2027 19:34:44.765            10.332                Norilsk           322.875
       153   02 Jun 2027 19:34:49.211   02 Jun 2027 19:35:32.141            42.930                Irkutsk          1341.562
       154   02 Jun 2027 19:35:53.955   02 Jun 2027 19:36:42.061            48.106                Irkutsk          1503.312
       155   02 Jun 2027 19:36:50.461   02 Jun 2027 19:42:03.472           313.011                Novosib          9781.594
       156   02 Jun 2027 19:47:01.768   02 Jun 2027 19:48:26.738            84.970                Sumatra          2655.312
       157   02 Jun 2027 19:49:36.345   02 Jun 2027 19:50:11.023            34.678                Sumatra          1083.687
       158   02 Jun 2027 21:11:26.468   02 Jun 2027 21:12:00.715            34.247                Novosib          1070.219
       159   02 Jun 2027 21:13:22.889   02 Jun 2027 21:14:27.569            64.680                Novosib          2021.250
       160   02 Jun 2027 21:16:42.463   02 Jun 2027 21:18:25.615           103.152                  Delhi          3223.500
       161   02 Jun 2027 21:18:39.502   02 Jun 2027 21:19:13.683            34.181                  Delhi          1068.156
       162   02 Jun 2027 21:20:42.747   02 Jun 2027 21:21:08.551            25.804                  Delhi           806.375
       163   02 Jun 2027 22:43:30.937   02 Jun 2027 22:43:50.073            19.136                Norilsk           598.000
       164   02 Jun 2027 22:44:07.464   02 Jun 2027 22:49:55.204           347.740              Murmansk2         10866.875
       165   02 Jun 2027 22:50:12.203   02 Jun 2027 22:54:23.341           251.138                 Moscow          7848.062
       166   02 Jun 2027 23:16:21.809   02 Jun 2027 23:18:19.017           117.208               CapeTown          3662.750
       167   02 Jun 2027 23:19:05.805   02 Jun 2027 23:19:53.185            47.380               CapeTown          1480.625
       168   03 Jun 2027 00:22:40.383   03 Jun 2027 00:22:52.654            12.271                 Moscow           383.469
       169   03 Jun 2027 00:23:33.065   03 Jun 2027 00:24:53.628            80.563                 Moscow          2517.594
       170   03 Jun 2027 00:46:42.458   03 Jun 2027 00:48:31.467           109.009               CapeTown          3406.531
       171   03 Jun 2027 00:53:59.647   03 Jun 2027 00:54:43.280            43.633               CapeTown          1363.531
       172   03 Jun 2027 01:45:06.978   03 Jun 2027 01:45:44.097            37.119               Magadan2          1159.969
       173   03 Jun 2027 01:46:05.647   03 Jun 2027 01:46:08.114             2.467               Magadan2            77.094
       174   03 Jun 2027 01:46:38.484   03 Jun 2027 01:46:52.068            13.584               Magadan1           424.500
       175   03 Jun 2027 01:47:28.532   03 Jun 2027 01:48:22.086            53.554               Magadan1          1673.563
       176   03 Jun 2027 01:55:21.215   03 Jun 2027 01:56:39.587            78.372              Murmansk2          2449.125
       177   03 Jun 2027 01:58:10.573   03 Jun 2027 01:58:19.988             9.415              Murmansk2           294.219
       178   03 Jun 2027 01:58:38.297   03 Jun 2027 01:59:52.194            73.897                 Moscow          2309.281
       179   03 Jun 2027 02:02:58.413   03 Jun 2027 02:03:02.632             4.219                 Moscow           131.844
       180   03 Jun 2027 02:05:29.942   03 Jun 2027 02:07:05.647            95.705                 Moscow          2990.781
       181   03 Jun 2027 02:28:23.838   03 Jun 2027 02:28:24.117             0.279               CapeTown             8.719
       182   03 Jun 2027 02:33:18.722   03 Jun 2027 02:33:26.944             8.222               CapeTown           256.938
       183   03 Jun 2027 03:19:01.845   03 Jun 2027 03:19:21.908            20.063               Magadan2           626.969
       184   03 Jun 2027 03:20:03.649   03 Jun 2027 03:20:33.798            30.149                Anadyr2           942.156
       185   03 Jun 2027 03:23:41.419   03 Jun 2027 03:25:24.798           103.379               Magadan1          3230.594
       186   03 Jun 2027 03:25:31.550   03 Jun 2027 03:27:29.626           118.076                Anadyr2          3689.875
       187   03 Jun 2027 03:27:42.805   03 Jun 2027 03:29:26.161           103.356                Anadyr1          3229.875
       188   03 Jun 2027 03:29:26.161   03 Jun 2027 03:29:52.740            26.579                Anadyr2           830.594
       189   03 Jun 2027 03:30:00.360   03 Jun 2027 03:31:10.752            70.392               Magadan2          2199.750
       190   03 Jun 2027 05:01:47.577   03 Jun 2027 05:01:59.873            12.296               Magadan1           384.250
       191   03 Jun 2027 05:02:07.387   03 Jun 2027 05:02:59.107            51.720               Magadan1          1616.250
       192   03 Jun 2027 05:02:59.107   03 Jun 2027 05:03:09.049             9.942               Magadan2           310.687
       193   03 Jun 2027 05:03:14.458   03 Jun 2027 05:07:10.748           236.290                Anadyr2          7384.063
       194   03 Jun 2027 06:38:10.818   03 Jun 2027 06:38:31.343            20.525               Magadan2           641.406
       195   03 Jun 2027 06:38:49.109   03 Jun 2027 06:39:02.692            13.583               Magadan2           424.469
       196   03 Jun 2027 06:39:06.126   03 Jun 2027 06:39:13.098             6.972               Magadan2           217.875
       197   03 Jun 2027 06:39:13.098   03 Jun 2027 06:39:35.151            22.053               Magadan1           689.156
       198   03 Jun 2027 06:40:50.601   03 Jun 2027 06:40:55.105             4.504               Magadan1           140.750
       199   03 Jun 2027 06:41:05.659   03 Jun 2027 06:41:11.340             5.681               Magadan1           177.531
       200   03 Jun 2027 06:41:11.340   03 Jun 2027 06:41:37.908            26.568               Magadan2           830.250
       201   03 Jun 2027 06:41:55.098   03 Jun 2027 06:42:11.004            15.906               Magadan1           497.063
       202   03 Jun 2027 06:47:13.075   03 Jun 2027 06:47:22.669             9.594                Norilsk           299.813
       203   03 Jun 2027 08:14:37.898   03 Jun 2027 08:15:12.870            34.972                Novosib          1092.875
       204   03 Jun 2027 08:15:47.995   03 Jun 2027 08:16:08.269            20.274              Murmansk2           633.562
       205   03 Jun 2027 08:16:12.240   03 Jun 2027 08:16:22.102             9.862                Irkutsk           308.188
       206   03 Jun 2027 08:16:44.600   03 Jun 2027 08:16:50.396             5.796                Irkutsk           181.125
       207   03 Jun 2027 08:16:50.945   03 Jun 2027 08:17:25.197            34.252                Norilsk          1070.375
       208   03 Jun 2027 08:17:27.619   03 Jun 2027 08:17:54.302            26.683                Irkutsk           833.844
       209   03 Jun 2027 08:18:21.496   03 Jun 2027 08:19:08.838            47.342                Irkutsk          1479.437
       210   03 Jun 2027 08:19:56.698   03 Jun 2027 08:20:00.363             3.665                Novosib           114.531
       211   03 Jun 2027 08:58:10.440   03 Jun 2027 08:59:14.889            64.449            RioGallegos          2014.031
       212   03 Jun 2027 09:01:00.258   03 Jun 2027 09:01:20.948            20.690            RioGallegos           646.562
       213   03 Jun 2027 09:52:04.361   03 Jun 2027 09:52:36.895            32.534                Novosib          1016.688
       214   03 Jun 2027 09:53:50.554   03 Jun 2027 09:53:55.609             5.055                Novosib           157.969
       215   03 Jun 2027 09:54:07.938   03 Jun 2027 09:54:14.653             6.715                Novosib           209.844
       216   03 Jun 2027 09:54:32.179   03 Jun 2027 09:54:34.907             2.728                Norilsk            85.250
       217   03 Jun 2027 09:54:49.346   03 Jun 2027 09:55:04.739            15.393                Norilsk           481.031
       218   03 Jun 2027 11:33:56.439   03 Jun 2027 11:34:19.653            23.214                Norilsk           725.438
       219   03 Jun 2027 12:58:51.857   03 Jun 2027 12:59:55.528            63.671                 Moscow          1989.719
       220   03 Jun 2027 13:00:29.235   03 Jun 2027 13:01:44.145            74.910                 Moscow          2340.937
       221   03 Jun 2027 13:02:03.130   03 Jun 2027 13:03:59.583           116.453              Murmansk2          3639.156
       222   03 Jun 2027 13:05:12.911   03 Jun 2027 13:05:37.061            24.150              Murmansk1           754.687
       223   03 Jun 2027 13:06:58.980   03 Jun 2027 13:07:20.824            21.844              Murmansk2           682.625
       224   03 Jun 2027 13:16:10.134   03 Jun 2027 13:21:18.008           307.874                Anadyr1          9621.063
       225   03 Jun 2027 14:41:18.546   03 Jun 2027 14:41:29.127            10.581              Murmansk1           330.656
       226   03 Jun 2027 14:41:29.127   03 Jun 2027 14:41:53.655            24.528              Murmansk2           766.500
       227   03 Jun 2027 14:43:19.046   03 Jun 2027 14:44:04.444            45.398              Murmansk2          1418.687
       228   03 Jun 2027 14:46:48.150   03 Jun 2027 14:47:13.665            25.515              Murmansk1           797.344
       229   03 Jun 2027 14:51:40.474   03 Jun 2027 14:54:06.287           145.813                Anadyr1          4556.656
       230   03 Jun 2027 14:55:01.195   03 Jun 2027 14:55:17.090            15.895                Anadyr1           496.719
       231   03 Jun 2027 14:55:24.379   03 Jun 2027 15:01:57.461           393.082               Magadan2         12283.812
       232   03 Jun 2027 16:29:57.230   03 Jun 2027 16:31:49.997           112.767               Magadan1          3523.969
       233   03 Jun 2027 16:32:30.895   03 Jun 2027 16:33:26.396            55.501               Magadan1          1734.406
       234   03 Jun 2027 18:03:25.846   03 Jun 2027 18:06:31.988           186.142                Anadyr1          5816.937
       235   03 Jun 2027 18:06:54.705   03 Jun 2027 18:08:58.581           123.876               Magadan2          3871.125
       236   03 Jun 2027 18:09:02.061   03 Jun 2027 18:11:57.292           175.231                Norilsk          5475.969
       237   03 Jun 2027 18:12:48.191   03 Jun 2027 18:14:18.229            90.038                Irkutsk          2813.687
       238   03 Jun 2027 18:17:33.007   03 Jun 2027 18:18:06.022            33.015                Irkutsk          1031.719
       239   03 Jun 2027 18:27:15.401   03 Jun 2027 18:31:53.525           278.124                Sumatra          8691.375
       240   03 Jun 2027 19:41:19.555   03 Jun 2027 19:42:33.838            74.283                Norilsk          2321.344
       241   03 Jun 2027 19:46:17.700   03 Jun 2027 19:49:55.123           217.423                Novosib          6794.469
       242   03 Jun 2027 20:08:17.065   03 Jun 2027 20:08:35.883            18.818                Sumatra           588.063
       243   03 Jun 2027 21:20:53.507   03 Jun 2027 21:24:02.593           189.086              Murmansk2          5908.938
       244   03 Jun 2027 21:28:34.353   03 Jun 2027 21:31:28.921           174.568                  Delhi          5455.250
       245   03 Jun 2027 22:54:35.472   03 Jun 2027 22:54:50.511            15.039                Norilsk           469.969
       246   03 Jun 2027 22:55:32.505   03 Jun 2027 22:57:14.175           101.670              Murmansk2          3177.188
       247   03 Jun 2027 22:57:22.250   03 Jun 2027 23:01:02.782           220.532              Murmansk1          6891.625
       248   03 Jun 2027 23:02:06.532   03 Jun 2027 23:02:17.945            11.413              Murmansk2           356.656
       249   03 Jun 2027 23:02:20.997   03 Jun 2027 23:05:37.832           196.835                 Moscow          6151.094
       250   03 Jun 2027 23:26:48.074   03 Jun 2027 23:29:13.973           145.899               CapeTown          4559.344
       251   03 Jun 2027 23:29:27.456   03 Jun 2027 23:31:22.965           115.509               CapeTown          3609.656
       252   04 Jun 2027 00:34:39.755   04 Jun 2027 00:34:48.999             9.244                 Moscow           288.875
       253   04 Jun 2027 00:42:39.640   04 Jun 2027 00:43:19.025            39.385              Murmansk1          1230.781
       254   04 Jun 2027 00:58:35.087   04 Jun 2027 00:59:42.651            67.564               CapeTown          2111.375
       255   04 Jun 2027 01:02:57.750   04 Jun 2027 01:03:17.789            20.039               CapeTown           626.219
       256   04 Jun 2027 01:05:39.402   04 Jun 2027 01:05:56.392            16.990               CapeTown           530.938
       257   04 Jun 2027 01:55:14.917   04 Jun 2027 01:55:57.287            42.370                Anadyr1          1324.063
       258   04 Jun 2027 01:56:46.254   04 Jun 2027 01:57:36.784            50.530               Magadan1          1579.062
       259   04 Jun 2027 01:58:08.351   04 Jun 2027 01:58:57.383            49.032               Magadan2          1532.250
       260   04 Jun 2027 01:59:21.674   04 Jun 2027 02:00:04.842            43.168               Magadan1          1349.000
       261   04 Jun 2027 02:07:22.465   04 Jun 2027 02:08:36.468            74.003              Murmansk1          2312.594
       262   04 Jun 2027 02:10:05.340   04 Jun 2027 02:10:21.558            16.218              Murmansk1           506.813
       263   04 Jun 2027 02:10:42.245   04 Jun 2027 02:11:53.666            71.421                 Moscow          2231.906
       264   04 Jun 2027 02:16:35.183   04 Jun 2027 02:16:44.240             9.057                 Moscow           283.031
       265   04 Jun 2027 02:17:30.250   04 Jun 2027 02:18:57.683            87.433                 Moscow          2732.281
       266   04 Jun 2027 02:44:36.795   04 Jun 2027 02:45:22.185            45.390               CapeTown          1418.437
       267   04 Jun 2027 03:32:43.094   04 Jun 2027 03:33:09.256            26.162               Magadan1           817.562
       268   04 Jun 2027 03:35:08.609   04 Jun 2027 03:35:13.050             4.441               Magadan2           138.781
       269   04 Jun 2027 03:35:27.771   04 Jun 2027 03:38:30.571           182.800               Magadan2          5712.500
       270   04 Jun 2027 03:38:30.571   04 Jun 2027 03:40:30.361           119.790               Magadan1          3743.437
       271   04 Jun 2027 03:41:00.087   04 Jun 2027 03:43:19.466           139.379               Magadan1          4355.594
       272   04 Jun 2027 03:43:19.466   04 Jun 2027 03:43:48.700            29.234               Magadan2           913.563
       273   04 Jun 2027 03:43:51.004   04 Jun 2027 03:44:00.438             9.434                Anadyr1           294.812
       274   04 Jun 2027 05:13:19.123   04 Jun 2027 05:14:13.076            53.953                Anadyr2          1686.031
       275   04 Jun 2027 05:14:29.331   04 Jun 2027 05:18:35.241           245.910                Irkutsk          7684.688
       276   04 Jun 2027 05:19:00.769   04 Jun 2027 05:19:32.955            32.186               Magadan1          1005.813
       277   04 Jun 2027 05:19:48.740   04 Jun 2027 05:19:52.450             3.710                Novosib           115.937
       278   04 Jun 2027 06:49:52.515   04 Jun 2027 06:50:03.386            10.871               Magadan1           339.719
       279   04 Jun 2027 06:50:38.339   04 Jun 2027 06:50:51.972            13.633               Magadan1           426.031
       280   04 Jun 2027 06:51:04.181   04 Jun 2027 06:51:16.414            12.233               Magadan1           382.281
       281   04 Jun 2027 06:51:29.024   04 Jun 2027 06:51:38.529             9.505                Novosib           297.031
       282   04 Jun 2027 06:51:42.937   04 Jun 2027 06:51:48.884             5.947               Magadan1           185.844
       283   04 Jun 2027 06:52:48.130   04 Jun 2027 06:52:55.665             7.535               Magadan2           235.469
       284   04 Jun 2027 06:52:58.200   04 Jun 2027 06:53:08.219            10.019               Magadan2           313.094
       285   04 Jun 2027 06:53:27.508   04 Jun 2027 06:53:35.788             8.280               Magadan1           258.750
       286   04 Jun 2027 06:56:38.798   04 Jun 2027 06:56:40.530             1.732              Murmansk1            54.125
       287   04 Jun 2027 07:02:03.828   04 Jun 2027 07:02:09.624             5.796              Murmansk1           181.125
       288   04 Jun 2027 07:41:47.286   04 Jun 2027 07:42:22.626            35.340            RioGallegos          1104.375
       289   04 Jun 2027 08:27:59.206   04 Jun 2027 08:28:05.284             6.078                Irkutsk           189.938
       290   04 Jun 2027 08:28:27.873   04 Jun 2027 08:28:54.820            26.947                Norilsk           842.094
       291   04 Jun 2027 08:29:16.234   04 Jun 2027 08:29:43.192            26.958                Norilsk           842.438
       292   04 Jun 2027 08:30:27.475   04 Jun 2027 08:31:02.514            35.039                Irkutsk          1094.969
       293   04 Jun 2027 09:11:32.639   04 Jun 2027 09:12:11.179            38.540            RioGallegos          1204.375
       294   04 Jun 2027 09:12:19.644   04 Jun 2027 09:13:24.095            64.451            RioGallegos          2014.094
       295   04 Jun 2027 09:50:51.798   04 Jun 2027 09:52:14.842            83.044                  Delhi          2595.125
       296   04 Jun 2027 10:03:09.016   04 Jun 2027 10:03:32.229            23.213                Novosib           725.406
       297   04 Jun 2027 10:04:09.277   04 Jun 2027 10:04:34.438            25.161                Novosib           786.281
       298   04 Jun 2027 10:05:08.999   04 Jun 2027 10:05:22.053            13.054                Novosib           407.937
       299   04 Jun 2027 10:05:28.024   04 Jun 2027 10:05:58.051            30.027                Novosib           938.344
       300   04 Jun 2027 10:06:16.010   04 Jun 2027 10:07:10.470            54.460                Novosib          1701.875
       301   04 Jun 2027 12:51:02.607   04 Jun 2027 12:51:34.071            31.464               CapeTown           983.250
       302   04 Jun 2027 12:52:37.046   04 Jun 2027 12:53:25.710            48.664               CapeTown          1520.750
       303   04 Jun 2027 13:12:11.762   04 Jun 2027 13:12:37.388            25.626                 Moscow           800.813
       304   04 Jun 2027 13:14:21.077   04 Jun 2027 13:15:23.615            62.538              Murmansk1          1954.313
       305   04 Jun 2027 13:15:23.615   04 Jun 2027 13:16:00.831            37.216              Murmansk2          1163.000
       306   04 Jun 2027 13:16:12.297   04 Jun 2027 13:17:00.156            47.859              Murmansk1          1495.594
       307   04 Jun 2027 13:17:37.244   04 Jun 2027 13:17:41.718             4.474              Murmansk1           139.813
       308   04 Jun 2027 13:18:28.891   04 Jun 2027 13:19:12.178            43.287              Murmansk1          1352.719
       309   04 Jun 2027 13:19:39.803   04 Jun 2027 13:19:44.893             5.090              Murmansk2           159.063
       310   04 Jun 2027 13:21:47.412   04 Jun 2027 13:22:06.540            19.128              Murmansk2           597.750
       311   04 Jun 2027 13:23:06.070   04 Jun 2027 13:23:17.379            11.309              Murmansk2           353.406
       312   04 Jun 2027 13:23:20.108   04 Jun 2027 13:23:30.460            10.352              Murmansk2           323.500
       313   04 Jun 2027 13:24:07.977   04 Jun 2027 13:24:20.066            12.089              Murmansk2           377.781
       314   04 Jun 2027 13:28:04.912   04 Jun 2027 13:30:27.267           142.355                Anadyr1          4448.594
       315   04 Jun 2027 13:31:10.719   04 Jun 2027 13:32:10.077            59.358                Anadyr2          1854.938
       316   04 Jun 2027 13:33:43.301   04 Jun 2027 13:34:23.571            40.270                Anadyr1          1258.438
       317   04 Jun 2027 13:36:28.841   04 Jun 2027 13:38:00.525            91.684                Anadyr1          2865.125
       318   04 Jun 2027 14:55:53.117   04 Jun 2027 14:57:17.215            84.098              Murmansk2          2628.062
       319   04 Jun 2027 15:03:41.065   04 Jun 2027 15:06:04.262           143.197                Anadyr1          4474.906
       320   04 Jun 2027 15:06:54.808   04 Jun 2027 15:14:12.774           437.966               Magadan1         13686.437
       321   04 Jun 2027 16:41:56.103   04 Jun 2027 16:42:45.309            49.206               Magadan1          1537.688
       322   04 Jun 2027 16:44:16.775   04 Jun 2027 16:45:29.110            72.335               Magadan2          2260.469
       323   04 Jun 2027 17:36:16.134   04 Jun 2027 17:38:43.504           147.370            RioGallegos          4605.313
       324   04 Jun 2027 18:15:25.333   04 Jun 2027 18:16:17.783            52.450                Anadyr2          1639.062
       325   04 Jun 2027 18:16:36.292   04 Jun 2027 18:17:07.685            31.393                Anadyr2           981.031
       326   04 Jun 2027 18:17:38.500   04 Jun 2027 18:21:46.045           247.545                Norilsk          7735.781
       327   04 Jun 2027 18:22:40.992   04 Jun 2027 18:26:07.454           206.462                Irkutsk          6451.937
       328   04 Jun 2027 18:27:21.078   04 Jun 2027 18:28:10.329            49.251                Irkutsk          1539.094
       329   04 Jun 2027 18:37:52.543   04 Jun 2027 18:40:05.630           133.087                Sumatra          4158.969
       330   04 Jun 2027 18:41:55.907   04 Jun 2027 18:43:49.224           113.317                Sumatra          3541.156
       331   04 Jun 2027 19:59:06.437   04 Jun 2027 20:00:46.085            99.648                Novosib          3114.000
       332   04 Jun 2027 20:01:08.390   04 Jun 2027 20:01:48.844            40.454                Novosib          1264.187
       333   04 Jun 2027 20:03:11.820   04 Jun 2027 20:03:34.764            22.944                Novosib           717.000
       334   04 Jun 2027 20:04:07.900   04 Jun 2027 20:04:10.213             2.313                Novosib            72.281
       335   04 Jun 2027 20:08:42.096   04 Jun 2027 20:10:01.483            79.387                  Delhi          2480.844
       336   04 Jun 2027 20:11:22.867   04 Jun 2027 20:12:38.119            75.252                  Delhi          2351.625
       337   04 Jun 2027 21:32:27.209   04 Jun 2027 21:36:09.920           222.711              Murmansk2          6959.719
       338   04 Jun 2027 21:36:19.946   04 Jun 2027 21:37:11.888            51.942              Murmansk1          1623.187
       339   04 Jun 2027 23:04:17.073   04 Jun 2027 23:04:31.063            13.990               Magadan2           437.188
       340   04 Jun 2027 23:04:47.422   04 Jun 2027 23:04:57.057             9.635               Magadan2           301.094
       341   04 Jun 2027 23:06:06.715   04 Jun 2027 23:06:21.149            14.434               Magadan2           451.062
       342   04 Jun 2027 23:06:28.534   04 Jun 2027 23:06:41.553            13.019               Magadan1           406.844
       343   04 Jun 2027 23:06:53.912   04 Jun 2027 23:07:00.919             7.007               Magadan1           218.969
       344   04 Jun 2027 23:07:32.229   04 Jun 2027 23:09:08.006            95.777              Murmansk2          2993.031
       345   04 Jun 2027 23:09:08.423   04 Jun 2027 23:13:39.015           270.592              Murmansk1          8456.000
       346   04 Jun 2027 23:14:20.275   04 Jun 2027 23:15:15.835            55.560                 Moscow          1736.250
       347   04 Jun 2027 23:17:23.805   04 Jun 2027 23:17:40.760            16.955                 Moscow           529.844
       348   04 Jun 2027 23:37:45.658   04 Jun 2027 23:40:00.919           135.261               CapeTown          4226.906
       349   04 Jun 2027 23:43:27.348   04 Jun 2027 23:45:34.299           126.951               CapeTown          3967.219
       350   05 Jun 2027 00:46:34.779   05 Jun 2027 00:46:43.608             8.829              Murmansk2           275.906
       351   05 Jun 2027 00:47:05.530   05 Jun 2027 00:47:45.233            39.703              Murmansk2          1240.719
       352   05 Jun 2027 00:49:56.505   05 Jun 2027 00:50:19.376            22.871                 Moscow           714.719
       353   05 Jun 2027 00:50:32.919   05 Jun 2027 00:50:41.525             8.606                 Moscow           268.938
       354   05 Jun 2027 00:54:10.268   05 Jun 2027 00:55:06.745            56.477                 Moscow          1764.906
       355   05 Jun 2027 01:12:02.997   05 Jun 2027 01:13:00.065            57.068               CapeTown          1783.375
       356   05 Jun 2027 02:07:17.621   05 Jun 2027 02:08:03.446            45.825                Anadyr2          1432.031
       357   05 Jun 2027 02:08:21.427   05 Jun 2027 02:08:32.984            11.557                Anadyr1           361.156
       358   05 Jun 2027 02:08:42.267   05 Jun 2027 02:08:48.957             6.690                Anadyr1           209.063
       359   05 Jun 2027 02:08:50.231   05 Jun 2027 02:11:24.018           153.787               Magadan1          4805.844
       360   05 Jun 2027 02:19:23.543   05 Jun 2027 02:20:18.017            54.474              Murmansk1          1702.312
       361   05 Jun 2027 02:20:18.017   05 Jun 2027 02:21:09.350            51.333              Murmansk2          1604.156
       362   05 Jun 2027 02:21:59.386   05 Jun 2027 02:22:41.114            41.728              Murmansk2          1304.000
       363   05 Jun 2027 02:24:49.148   05 Jun 2027 02:24:50.322             1.174                 Moscow            36.687
       364   05 Jun 2027 02:27:08.746   05 Jun 2027 02:27:17.383             8.637                 Moscow           269.906
       365   05 Jun 2027 02:28:46.018   05 Jun 2027 02:29:39.322            53.304                 Moscow          1665.750
       366   05 Jun 2027 02:49:53.722   05 Jun 2027 02:50:29.732            36.010               CapeTown          1125.313
       367   05 Jun 2027 02:54:12.084   05 Jun 2027 02:55:43.951            91.867               CapeTown          2870.844
       368   05 Jun 2027 03:49:34.513   05 Jun 2027 03:50:13.342            38.829                Anadyr2          1213.406
       369   05 Jun 2027 03:50:23.198   05 Jun 2027 03:53:28.845           185.647                Anadyr2          5801.469
       370   05 Jun 2027 04:33:49.148   05 Jun 2027 04:34:58.523            69.375            RioGallegos          2167.969
       371   05 Jun 2027 05:26:05.394   05 Jun 2027 05:30:08.604           243.210                Irkutsk          7600.312
       372   05 Jun 2027 05:30:11.814   05 Jun 2027 05:31:10.023            58.209                Irkutsk          1819.031
       373   05 Jun 2027 05:31:46.236   05 Jun 2027 05:32:07.242            21.006                Novosib           656.437
       374   05 Jun 2027 07:02:07.870   05 Jun 2027 07:03:05.312            57.442               Magadan1          1795.063
       375   05 Jun 2027 07:03:16.262   05 Jun 2027 07:03:19.707             3.445               Magadan2           107.656
       376   05 Jun 2027 07:03:19.707   05 Jun 2027 07:03:53.485            33.778               Magadan1          1055.563
       377   05 Jun 2027 07:04:51.417   05 Jun 2027 07:05:55.029            63.612              Murmansk2          1987.875
       378   05 Jun 2027 07:06:17.008   05 Jun 2027 07:06:24.460             7.452              Murmansk2           232.875
       379   05 Jun 2027 07:08:34.323   05 Jun 2027 07:08:42.482             8.159              Murmansk1           254.969
       380   05 Jun 2027 07:44:14.542   05 Jun 2027 07:44:57.220            42.678            RioGallegos          1333.688
       381   05 Jun 2027 08:20:03.034   05 Jun 2027 08:20:08.190             5.156                Sumatra           161.125
       382   05 Jun 2027 08:25:44.015   05 Jun 2027 08:26:54.752            70.737                Sumatra          2210.531
       383   05 Jun 2027 08:39:51.562   05 Jun 2027 08:40:10.289            18.727                Irkutsk           585.219
       384   05 Jun 2027 08:40:48.885   05 Jun 2027 08:41:01.781            12.896                Irkutsk           403.000
       385   05 Jun 2027 08:41:55.039   05 Jun 2027 08:42:32.624            37.585                Irkutsk          1174.531
       386   05 Jun 2027 08:42:38.429   05 Jun 2027 08:43:11.166            32.737                Norilsk          1023.031
       387   05 Jun 2027 08:43:55.808   05 Jun 2027 08:44:15.167            19.359                Norilsk           604.969
       388   05 Jun 2027 10:01:45.994   05 Jun 2027 10:04:05.132           139.138                  Delhi          4348.062
       389   05 Jun 2027 10:07:12.677   05 Jun 2027 10:07:51.641            38.964                  Delhi          1217.625
       390   05 Jun 2027 10:15:28.716   05 Jun 2027 10:16:13.695            44.979                Novosib          1405.594
       391   05 Jun 2027 10:17:20.482   05 Jun 2027 10:18:04.792            44.310                Novosib          1384.687
       392   05 Jun 2027 10:19:22.915   05 Jun 2027 10:19:44.320            21.405                Novosib           668.906
       393   05 Jun 2027 11:58:37.415   05 Jun 2027 11:58:38.993             1.578                Norilsk            49.313
       394   05 Jun 2027 13:01:25.603   05 Jun 2027 13:03:15.771           110.168               CapeTown          3442.750
       395   05 Jun 2027 13:07:27.300   05 Jun 2027 13:07:55.694            28.394               CapeTown           887.312
       396   05 Jun 2027 13:09:05.806   05 Jun 2027 13:10:54.653           108.847               CapeTown          3401.469
       397   05 Jun 2027 13:26:41.167   05 Jun 2027 13:26:47.779             6.612              Murmansk2           206.625
       398   05 Jun 2027 13:27:21.945   05 Jun 2027 13:28:47.454            85.509              Murmansk1          2672.156
       399   05 Jun 2027 13:29:37.742   05 Jun 2027 13:29:43.441             5.699              Murmansk1           178.094
       400   05 Jun 2027 13:29:43.441   05 Jun 2027 13:30:05.237            21.796              Murmansk2           681.125
       401   05 Jun 2027 13:31:23.932   05 Jun 2027 13:31:27.749             3.817              Murmansk2           119.281
       402   05 Jun 2027 13:31:49.906   05 Jun 2027 13:32:12.377            22.471              Murmansk1           702.219
       403   05 Jun 2027 13:33:21.756   05 Jun 2027 13:33:48.905            27.149              Murmansk1           848.406
       404   05 Jun 2027 13:35:14.607   05 Jun 2027 13:35:30.510            15.903              Murmansk1           496.969
       405   05 Jun 2027 13:36:03.038   05 Jun 2027 13:36:15.879            12.841              Murmansk2           401.281
       406   05 Jun 2027 13:36:54.408   05 Jun 2027 13:37:08.855            14.447              Murmansk2           451.469
       407   05 Jun 2027 13:40:01.123   05 Jun 2027 13:42:06.654           125.531                Anadyr1          3922.844
       408   05 Jun 2027 13:43:11.989   05 Jun 2027 13:44:43.820            91.831                Anadyr2          2869.719
       409   05 Jun 2027 13:48:01.843   05 Jun 2027 13:48:29.245            27.402                Anadyr1           856.313
       410   05 Jun 2027 13:48:29.245   05 Jun 2027 13:48:44.739            15.494                Anadyr2           484.187
       411   05 Jun 2027 14:45:05.503   05 Jun 2027 14:45:43.281            37.778               CapeTown          1180.562
       412   05 Jun 2027 15:07:38.506   05 Jun 2027 15:08:03.042            24.536              Murmansk2           766.750
       413   05 Jun 2027 15:10:11.462   05 Jun 2027 15:10:31.783            20.321              Murmansk1           635.031
       414   05 Jun 2027 15:11:23.489   05 Jun 2027 15:11:36.702            13.213              Murmansk2           412.906
       415   05 Jun 2027 15:13:07.257   05 Jun 2027 15:13:28.246            20.989              Murmansk1           655.906
       416   05 Jun 2027 15:15:41.899   05 Jun 2027 15:17:06.975            85.076                Anadyr1          2658.625
       417   05 Jun 2027 15:18:05.540   05 Jun 2027 15:18:43.270            37.730                Anadyr2          1179.062
       418   05 Jun 2027 15:18:58.920   05 Jun 2027 15:26:14.243           435.323               Magadan2         13603.844
       419   05 Jun 2027 16:53:55.623   05 Jun 2027 16:54:34.558            38.935               Magadan2          1216.719
       420   05 Jun 2027 16:54:34.558   05 Jun 2027 16:55:25.571            51.013               Magadan1          1594.156
       421   05 Jun 2027 17:01:33.126   05 Jun 2027 17:01:55.597            22.471               Magadan1           702.219
       422   05 Jun 2027 17:02:36.392   05 Jun 2027 17:03:54.883            78.491               Magadan1          2452.844
       423   05 Jun 2027 17:47:24.953   05 Jun 2027 17:50:28.081           183.128            RioGallegos          5722.750
       424   05 Jun 2027 18:29:35.338   05 Jun 2027 18:30:58.307            82.969                Norilsk          2592.781
       425   05 Jun 2027 18:31:33.265   05 Jun 2027 18:32:56.840            83.575                Norilsk          2611.719
       426   05 Jun 2027 18:34:20.917   05 Jun 2027 18:37:59.336           218.419                Irkutsk          6825.594
       427   05 Jun 2027 18:39:42.010   05 Jun 2027 18:40:14.728            32.718                Irkutsk          1022.437
       428   05 Jun 2027 18:48:59.565   05 Jun 2027 18:53:22.439           262.874                Sumatra          8214.812
       429   05 Jun 2027 18:54:16.305   05 Jun 2027 18:55:41.616            85.311                Sumatra          2665.969
       430   05 Jun 2027 20:11:22.374   05 Jun 2027 20:12:50.457            88.083                Novosib          2752.594
       431   05 Jun 2027 20:19:14.423   05 Jun 2027 20:21:38.123           143.700                  Delhi          4490.625
       432   05 Jun 2027 20:25:20.663   05 Jun 2027 20:26:19.348            58.685                  Delhi          1833.906
       433   05 Jun 2027 21:44:12.530   05 Jun 2027 21:50:07.517           354.987              Murmansk1         11093.344
       434   05 Jun 2027 23:17:43.652   05 Jun 2027 23:17:49.483             5.831               Magadan1           182.219
       435   05 Jun 2027 23:18:29.260   05 Jun 2027 23:18:50.564            21.304               Magadan1           665.750
       436   05 Jun 2027 23:19:16.255   05 Jun 2027 23:19:44.034            27.779               Magadan2           868.094
       437   05 Jun 2027 23:20:37.496   05 Jun 2027 23:21:03.867            26.371              Murmansk2           824.094
       438   05 Jun 2027 23:21:11.159   05 Jun 2027 23:23:40.108           148.949              Murmansk1          4654.656
       439   05 Jun 2027 23:24:15.005   05 Jun 2027 23:26:13.792           118.787                 Moscow          3712.094
       440   05 Jun 2027 23:33:51.789   05 Jun 2027 23:34:12.849            21.060                 Moscow           658.125
       441   05 Jun 2027 23:48:58.043   05 Jun 2027 23:50:24.552            86.509               CapeTown          2703.406
       442   05 Jun 2027 23:50:42.918   05 Jun 2027 23:51:38.212            55.294               CapeTown          1727.938
       443   05 Jun 2027 23:53:24.167   05 Jun 2027 23:54:29.536            65.369               CapeTown          2042.781
       444   05 Jun 2027 23:55:22.008   05 Jun 2027 23:56:18.734            56.726               CapeTown          1772.687
       445   06 Jun 2027 00:55:28.153   06 Jun 2027 00:56:46.609            78.456              Murmansk1          2451.750
       446   06 Jun 2027 00:58:40.699   06 Jun 2027 00:59:13.621            32.922                 Moscow          1028.813
       447   06 Jun 2027 00:59:57.356   06 Jun 2027 01:00:10.557            13.201                 Moscow           412.531
       448   06 Jun 2027 01:06:43.130   06 Jun 2027 01:06:50.984             7.854                 Moscow           245.438
       449   06 Jun 2027 01:07:16.532   06 Jun 2027 01:07:32.496            15.964                 Moscow           498.875
       450   06 Jun 2027 01:08:55.943   06 Jun 2027 01:09:47.409            51.466                 Moscow          1608.313
       451   06 Jun 2027 01:22:35.202   06 Jun 2027 01:23:09.665            34.463               CapeTown          1076.969
       452   06 Jun 2027 01:26:44.669   06 Jun 2027 01:27:31.723            47.054               CapeTown          1470.438
       453   06 Jun 2027 02:19:22.318   06 Jun 2027 02:19:48.986            26.668                Anadyr1           833.375
       454   06 Jun 2027 02:19:59.087   06 Jun 2027 02:20:02.557             3.470                Anadyr2           108.438
       455   06 Jun 2027 02:20:10.417   06 Jun 2027 02:21:52.993           102.576               Magadan2          3205.500
       456   06 Jun 2027 02:22:13.732   06 Jun 2027 02:22:40.260            26.528               Magadan2           829.000
       457   06 Jun 2027 02:27:08.196   06 Jun 2027 02:27:13.697             5.501               Magadan2           171.906
       458   06 Jun 2027 02:27:45.012   06 Jun 2027 02:27:47.001             1.989               Magadan1            62.156
       459   06 Jun 2027 02:27:50.501   06 Jun 2027 02:28:10.564            20.063                Norilsk           626.969
       460   06 Jun 2027 02:31:24.432   06 Jun 2027 02:32:58.536            94.104              Murmansk1          2940.750
       461   06 Jun 2027 02:34:03.045   06 Jun 2027 02:34:24.998            21.953              Murmansk2           686.031
       462   06 Jun 2027 02:34:51.594   06 Jun 2027 02:35:15.919            24.325                 Moscow           760.156
       463   06 Jun 2027 02:36:42.062   06 Jun 2027 02:37:24.147            42.085                 Moscow          1315.156
       464   06 Jun 2027 02:42:23.722   06 Jun 2027 02:42:26.208             2.486                 Moscow            77.687
       465   06 Jun 2027 02:43:48.158   06 Jun 2027 02:44:13.988            25.830                 Moscow           807.187
       466   06 Jun 2027 03:03:46.520   06 Jun 2027 03:04:27.585            41.065               CapeTown          1283.281
       467   06 Jun 2027 04:01:46.309   06 Jun 2027 04:02:20.402            34.093                Anadyr1          1065.406
       468   06 Jun 2027 04:02:27.183   06 Jun 2027 04:03:33.561            66.378                Anadyr1          2074.313
       469   06 Jun 2027 04:03:37.445   06 Jun 2027 04:05:02.389            84.944               Magadan2          2654.500
       470   06 Jun 2027 04:05:57.451   06 Jun 2027 04:06:10.720            13.269               Magadan1           414.656
       471   06 Jun 2027 04:07:21.084   06 Jun 2027 04:07:49.581            28.497                Anadyr2           890.531
       472   06 Jun 2027 04:45:13.179   06 Jun 2027 04:46:33.169            79.990            RioGallegos          2499.688
       473   06 Jun 2027 05:38:19.202   06 Jun 2027 05:39:07.621            48.419               Magadan2          1513.094
       474   06 Jun 2027 05:39:07.621   06 Jun 2027 05:39:15.295             7.674               Magadan1           239.813
       475   06 Jun 2027 05:39:28.111   06 Jun 2027 05:43:25.165           237.054               Magadan2          7407.937
       476   06 Jun 2027 07:15:37.990   06 Jun 2027 07:15:45.571             7.581                Norilsk           236.906
       477   06 Jun 2027 07:15:52.833   06 Jun 2027 07:16:14.514            21.681                Norilsk           677.531
       478   06 Jun 2027 07:16:39.276   06 Jun 2027 07:16:48.435             9.159              Murmansk2           286.219
       479   06 Jun 2027 07:18:36.686   06 Jun 2027 07:18:59.947            23.261                Norilsk           726.906
       480   06 Jun 2027 07:19:13.005   06 Jun 2027 07:19:13.102             0.097                Norilsk             3.031
       481   06 Jun 2027 07:23:16.830   06 Jun 2027 07:23:25.249             8.419                Norilsk           263.094
       482   06 Jun 2027 07:26:03.400   06 Jun 2027 07:26:03.843             0.443              Murmansk2            13.844
