uniorb/output/strategy_4/Drop/Drop_KinoSat_111309.txt

KinoSat_111309
-------------------------
    Access    *     Start Time (UTCG)     *     Stop Time (UTCG)  *   Duration (s)        *       Station  *  Data (Mbytes)
         1   01 Jun 2027 04:27:17.176   01 Jun 2027 04:27:39.347            22.171                Norilsk           692.844
         2   01 Jun 2027 04:27:59.436   01 Jun 2027 04:31:08.628           189.192              Murmansk1          5912.250
         3   01 Jun 2027 04:47:54.017   01 Jun 2027 04:48:03.849             9.832               CapeTown           307.250
         4   01 Jun 2027 04:48:32.264   01 Jun 2027 04:48:38.566             6.302               CapeTown           196.938
         5   01 Jun 2027 04:49:00.294   01 Jun 2027 04:49:17.226            16.932               CapeTown           529.125
         6   01 Jun 2027 05:51:06.824   01 Jun 2027 05:56:05.325           298.501                Anadyr2          9328.156
         7   01 Jun 2027 07:27:50.739   01 Jun 2027 07:30:25.988           155.249                Irkutsk          4851.531
         8   01 Jun 2027 07:30:30.051   01 Jun 2027 07:31:41.469            71.418               Magadan2          2231.812
         9   01 Jun 2027 07:31:56.516   01 Jun 2027 07:31:57.091             0.575                Norilsk            17.969
        10   01 Jun 2027 07:32:11.264   01 Jun 2027 07:32:33.763            22.499              Murmansk1           703.094
        11   01 Jun 2027 09:02:13.308   01 Jun 2027 09:03:23.555            70.247               Magadan2          2195.219
        12   01 Jun 2027 09:03:29.223   01 Jun 2027 09:06:39.508           190.285               Magadan1          5946.406
        13   01 Jun 2027 09:06:39.508   01 Jun 2027 09:06:50.610            11.102               Magadan2           346.937
        14   01 Jun 2027 09:08:09.116   01 Jun 2027 09:08:33.134            24.018                Novosib           750.562
        15   01 Jun 2027 10:37:51.737   01 Jun 2027 10:38:40.775            49.038                Irkutsk          1532.437
        16   01 Jun 2027 10:39:40.635   01 Jun 2027 10:42:33.157           172.522                Irkutsk          5391.312
        17   01 Jun 2027 10:42:50.894   01 Jun 2027 10:43:03.845            12.951              Murmansk1           404.719
        18   01 Jun 2027 10:43:25.464   01 Jun 2027 10:43:46.972            21.508              Murmansk1           672.125
        19   01 Jun 2027 10:43:59.035   01 Jun 2027 10:44:57.411            58.376                Novosib          1824.250
        20   01 Jun 2027 10:45:10.108   01 Jun 2027 10:45:58.685            48.577              Murmansk2          1518.031
        21   01 Jun 2027 11:20:29.357   01 Jun 2027 11:20:46.801            17.444            RioGallegos           545.125
        22   01 Jun 2027 11:54:47.082   01 Jun 2027 11:55:10.907            23.825                Sumatra           744.531
        23   01 Jun 2027 12:01:14.220   01 Jun 2027 12:01:48.284            34.064                  Delhi          1064.500
        24   01 Jun 2027 12:04:14.819   01 Jun 2027 12:05:04.665            49.846                  Delhi          1557.687
        25   01 Jun 2027 12:08:28.726   01 Jun 2027 12:09:39.524            70.798                Novosib          2212.437
        26   01 Jun 2027 12:10:11.515   01 Jun 2027 12:11:13.227            61.712                Novosib          1928.500
        27   01 Jun 2027 12:12:31.561   01 Jun 2027 12:12:51.754            20.193                Norilsk           631.031
        28   01 Jun 2027 12:14:48.865   01 Jun 2027 12:15:06.106            17.241                Norilsk           538.781
        29   01 Jun 2027 13:40:27.387   01 Jun 2027 13:41:51.090            83.703                  Delhi          2615.719
        30   01 Jun 2027 13:44:31.974   01 Jun 2027 13:44:45.258            13.284                  Delhi           415.125
        31   01 Jun 2027 13:45:48.988   01 Jun 2027 13:46:17.587            28.599                 Moscow           893.719
        32   01 Jun 2027 13:46:54.627   01 Jun 2027 13:47:55.217            60.590                 Moscow          1893.437
        33   01 Jun 2027 13:48:57.113   01 Jun 2027 13:51:19.250           142.137                Novosib          4441.781
        34   01 Jun 2027 13:51:40.483   01 Jun 2027 13:52:34.885            54.402                Norilsk          1700.062
        35   01 Jun 2027 13:54:19.872   01 Jun 2027 13:54:46.579            26.707                Norilsk           834.594
        36   01 Jun 2027 15:01:38.565   01 Jun 2027 15:03:57.016           138.451               CapeTown          4326.594
        37   01 Jun 2027 15:25:06.568   01 Jun 2027 15:25:23.387            16.819                 Moscow           525.594
        38   01 Jun 2027 15:25:46.272   01 Jun 2027 15:25:51.041             4.769                 Moscow           149.031
        39   01 Jun 2027 15:26:25.406   01 Jun 2027 15:27:04.407            39.001              Murmansk2          1218.781
        40   01 Jun 2027 15:28:43.022   01 Jun 2027 15:29:10.052            27.030              Murmansk1           844.688
        41   01 Jun 2027 15:34:11.178   01 Jun 2027 15:34:36.582            25.404              Murmansk2           793.875
        42   01 Jun 2027 15:37:17.651   01 Jun 2027 15:37:58.732            41.081              Murmansk2          1283.781
        43   01 Jun 2027 15:40:28.657   01 Jun 2027 15:41:47.417            78.760                Anadyr2          2461.250
        44   01 Jun 2027 15:42:56.997   01 Jun 2027 15:43:12.140            15.143                Anadyr1           473.219
        45   01 Jun 2027 15:43:27.432   01 Jun 2027 15:43:35.089             7.657                Anadyr1           239.281
        46   01 Jun 2027 15:43:35.089   01 Jun 2027 15:43:54.702            19.613                Anadyr2           612.906
        47   01 Jun 2027 16:39:34.021   01 Jun 2027 16:40:15.827            41.806               CapeTown          1306.437
        48   01 Jun 2027 17:03:38.474   01 Jun 2027 17:06:59.425           200.951                 Moscow          6279.719
        49   01 Jun 2027 17:08:29.646   01 Jun 2027 17:10:05.042            95.396              Murmansk1          2981.125
        50   01 Jun 2027 17:19:13.749   01 Jun 2027 17:19:28.477            14.728                Anadyr1           460.250
        51   01 Jun 2027 17:20:17.835   01 Jun 2027 17:20:31.223            13.388               Magadan1           418.375
        52   01 Jun 2027 17:21:20.155   01 Jun 2027 17:22:24.731            64.576               Magadan2          2018.000
        53   01 Jun 2027 18:18:26.687   01 Jun 2027 18:19:01.248            34.561               CapeTown          1080.031
        54   01 Jun 2027 18:51:35.768   01 Jun 2027 18:56:46.116           310.348                Anadyr2          9698.375
        55   01 Jun 2027 18:57:12.026   01 Jun 2027 18:57:18.768             6.742               Magadan2           210.687
        56   01 Jun 2027 18:57:24.820   01 Jun 2027 18:57:47.588            22.768               Magadan2           711.500
        57   01 Jun 2027 18:58:33.417   01 Jun 2027 18:59:07.689            34.272               Magadan2          1071.000
        58   01 Jun 2027 19:02:22.392   01 Jun 2027 19:02:50.992            28.600               Magadan2           893.750
        59   01 Jun 2027 19:04:41.349   01 Jun 2027 19:04:53.449            12.100               Magadan1           378.125
        60   01 Jun 2027 20:27:30.070   01 Jun 2027 20:31:14.310           224.240                Anadyr1          7007.500
        61   01 Jun 2027 20:31:16.983   01 Jun 2027 20:33:22.131           125.148               Magadan1          3910.875
        62   01 Jun 2027 20:33:22.131   01 Jun 2027 20:33:42.457            20.326               Magadan2           635.187
        63   01 Jun 2027 20:34:02.774   01 Jun 2027 20:34:53.361            50.587                Norilsk          1580.844
        64   01 Jun 2027 20:40:11.653   01 Jun 2027 20:40:17.470             5.817               Magadan1           181.781
        65   01 Jun 2027 20:42:40.562   01 Jun 2027 20:42:40.651             0.089               Magadan2             2.781
        66   01 Jun 2027 21:21:52.154   01 Jun 2027 21:23:54.349           122.195            RioGallegos          3818.594
        67   01 Jun 2027 21:23:59.149   01 Jun 2027 21:24:34.905            35.756            RioGallegos          1117.375
        68   01 Jun 2027 21:27:39.824   01 Jun 2027 21:28:03.963            24.139            RioGallegos           754.344
        69   01 Jun 2027 21:30:43.797   01 Jun 2027 21:31:19.450            35.653            RioGallegos          1114.156
        70   01 Jun 2027 22:03:04.571   01 Jun 2027 22:04:31.063            86.492                Anadyr2          2702.875
        71   01 Jun 2027 22:05:16.833   01 Jun 2027 22:05:25.157             8.324                Anadyr2           260.125
        72   01 Jun 2027 22:05:51.256   01 Jun 2027 22:06:53.599            62.343               Magadan2          1948.219
        73   01 Jun 2027 22:07:17.447   01 Jun 2027 22:07:40.226            22.779               Magadan1           711.844
        74   01 Jun 2027 22:09:04.918   01 Jun 2027 22:09:07.559             2.641                Norilsk            82.531
        75   01 Jun 2027 22:09:28.759   01 Jun 2027 22:10:30.509            61.750                Irkutsk          1929.688
        76   01 Jun 2027 22:13:07.114   01 Jun 2027 22:13:16.087             8.973                Novosib           280.406
        77   01 Jun 2027 22:13:26.857   01 Jun 2027 22:13:47.374            20.517                Novosib           641.156
        78   01 Jun 2027 22:15:04.981   01 Jun 2027 22:17:04.040           119.059                Novosib          3720.594
        79   01 Jun 2027 22:31:06.775   01 Jun 2027 22:31:30.997            24.222                Sumatra           756.938
        80   01 Jun 2027 22:33:58.350   01 Jun 2027 22:34:14.096            15.746                Sumatra           492.062
        81   01 Jun 2027 23:37:44.360   01 Jun 2027 23:39:32.679           108.319                Anadyr1          3384.969
        82   01 Jun 2027 23:41:18.296   01 Jun 2027 23:41:39.693            21.397                Norilsk           668.656
        83   01 Jun 2027 23:41:56.983   01 Jun 2027 23:43:51.086           114.103               Magadan2          3565.719
        84   01 Jun 2027 23:43:51.086   01 Jun 2027 23:43:59.148             8.062               Magadan1           251.937
        85   01 Jun 2027 23:45:08.999   01 Jun 2027 23:45:32.016            23.017               Magadan1           719.281
        86   01 Jun 2027 23:45:45.233   01 Jun 2027 23:46:27.925            42.692                Novosib          1334.125
        87   01 Jun 2027 23:47:00.390   01 Jun 2027 23:47:15.124            14.734                Irkutsk           460.438
        88   01 Jun 2027 23:47:49.969   01 Jun 2027 23:48:22.577            32.608                Novosib          1019.000
        89   01 Jun 2027 23:51:00.807   01 Jun 2027 23:51:08.597             7.790                Novosib           243.437
        90   01 Jun 2027 23:52:57.759   01 Jun 2027 23:53:19.449            21.690                  Delhi           677.813
        91   01 Jun 2027 23:53:42.663   01 Jun 2027 23:54:35.105            52.442                  Delhi          1638.812
        92   01 Jun 2027 23:57:16.907   01 Jun 2027 23:59:19.542           122.635                  Delhi          3832.344
        93   02 Jun 2027 00:43:07.442   02 Jun 2027 00:43:14.746             7.304            RioGallegos           228.250
        94   02 Jun 2027 01:11:14.209   02 Jun 2027 01:11:34.822            20.613                Anadyr1           644.156
        95   02 Jun 2027 01:11:58.737   02 Jun 2027 01:12:11.600            12.863                Anadyr2           401.969
        96   02 Jun 2027 01:12:11.600   02 Jun 2027 01:12:47.884            36.284                Anadyr1          1133.875
        97   02 Jun 2027 01:13:21.917   02 Jun 2027 01:13:45.792            23.875                Anadyr1           746.094
        98   02 Jun 2027 01:14:21.160   02 Jun 2027 01:14:28.503             7.343                Anadyr2           229.469
        99   02 Jun 2027 01:16:12.216   02 Jun 2027 01:16:18.844             6.628                Anadyr1           207.125
       100   02 Jun 2027 01:16:43.513   02 Jun 2027 01:17:17.846            34.333                Anadyr2          1072.906
       101   02 Jun 2027 01:17:20.677   02 Jun 2027 01:18:39.665            78.988               Magadan2          2468.375
       102   02 Jun 2027 01:19:11.628   02 Jun 2027 01:19:57.555            45.927               Magadan1          1435.219
       103   02 Jun 2027 01:21:05.797   02 Jun 2027 01:23:12.696           126.899                Novosib          3965.594
       104   02 Jun 2027 01:27:07.682   02 Jun 2027 01:27:13.971             6.289                 Moscow           196.531
       105   02 Jun 2027 01:27:21.234   02 Jun 2027 01:28:20.771            59.537                 Moscow          1860.531
       106   02 Jun 2027 01:37:02.229   02 Jun 2027 01:37:09.315             7.086                  Delhi           221.437
       107   02 Jun 2027 01:39:27.658   02 Jun 2027 01:39:44.405            16.747                  Delhi           523.344
       108   02 Jun 2027 02:44:40.973   02 Jun 2027 02:45:25.955            44.982                Anadyr2          1405.687
       109   02 Jun 2027 02:45:56.798   02 Jun 2027 02:48:18.799           142.001                Anadyr2          4437.531
       110   02 Jun 2027 02:48:57.955   02 Jun 2027 02:49:16.646            18.691                Anadyr1           584.094
       111   02 Jun 2027 02:49:38.440   02 Jun 2027 02:50:56.059            77.619               Magadan2          2425.594
       112   02 Jun 2027 02:55:25.053   02 Jun 2027 02:56:03.851            38.798              Murmansk1          1212.437
       113   02 Jun 2027 02:56:36.478   02 Jun 2027 02:56:50.670            14.192              Murmansk2           443.500
       114   02 Jun 2027 02:57:24.391   02 Jun 2027 02:57:49.535            25.144              Murmansk1           785.750
       115   02 Jun 2027 02:58:05.554   02 Jun 2027 02:59:06.926            61.372                Novosib          1917.875
       116   02 Jun 2027 03:01:08.822   02 Jun 2027 03:01:46.473            37.651                Norilsk          1176.594
       117   02 Jun 2027 03:02:01.732   02 Jun 2027 03:03:02.802            61.070              Murmansk1          1908.438
       118   02 Jun 2027 03:03:02.802   02 Jun 2027 03:03:12.605             9.803              Murmansk2           306.344
       119   02 Jun 2027 03:03:12.671   02 Jun 2027 03:03:29.098            16.427                Novosib           513.344
       120   02 Jun 2027 03:03:37.542   02 Jun 2027 03:04:11.552            34.010                 Moscow          1062.813
       121   02 Jun 2027 03:04:12.926   02 Jun 2027 03:04:49.105            36.179                Novosib          1130.594
       122   02 Jun 2027 03:04:51.186   02 Jun 2027 03:05:10.586            19.400                Norilsk           606.250
       123   02 Jun 2027 03:05:28.201   02 Jun 2027 03:06:16.259            48.058              Murmansk2          1501.813
       124   02 Jun 2027 03:06:23.726   02 Jun 2027 03:06:40.545            16.819                Novosib           525.594
       125   02 Jun 2027 03:06:51.704   02 Jun 2027 03:07:06.069            14.365              Murmansk2           448.906
       126   02 Jun 2027 03:07:18.081   02 Jun 2027 03:07:36.341            18.260              Murmansk1           570.625
       127   02 Jun 2027 03:08:18.606   02 Jun 2027 03:09:35.242            76.636                 Moscow          2394.875
       128   02 Jun 2027 03:22:58.344   02 Jun 2027 03:26:21.562           203.218               CapeTown          6350.563
       129   02 Jun 2027 04:19:19.080   02 Jun 2027 04:24:32.864           313.784                Anadyr2          9805.750
       130   02 Jun 2027 04:26:24.481   02 Jun 2027 04:27:03.759            39.278                Anadyr2          1227.437
       131   02 Jun 2027 04:27:14.575   02 Jun 2027 04:28:24.477            69.902               Magadan2          2184.437
       132   02 Jun 2027 04:28:24.477   02 Jun 2027 04:29:00.083            35.606               Magadan1          1112.688
       133   02 Jun 2027 04:30:14.760   02 Jun 2027 04:30:33.722            18.962                Anadyr1           592.562
       134   02 Jun 2027 04:38:30.177   02 Jun 2027 04:38:38.254             8.077              Murmansk2           252.406
       135   02 Jun 2027 04:39:00.543   02 Jun 2027 04:39:17.829            17.286              Murmansk2           540.187
       136   02 Jun 2027 06:01:31.012   02 Jun 2027 06:02:01.667            30.655               Magadan2           957.969
       137   02 Jun 2027 06:02:14.906   02 Jun 2027 06:02:43.058            28.152                Anadyr1           879.750
       138   02 Jun 2027 06:03:43.818   02 Jun 2027 06:06:10.679           146.861                Anadyr2          4589.406
       139   02 Jun 2027 07:37:47.973   02 Jun 2027 07:39:59.324           131.351               Magadan1          4104.719
       140   02 Jun 2027 07:40:23.590   02 Jun 2027 07:40:57.853            34.263               Magadan2          1070.719
       141   02 Jun 2027 07:41:40.195   02 Jun 2027 07:42:40.232            60.037                Irkutsk          1876.156
       142   02 Jun 2027 07:42:54.733   02 Jun 2027 07:43:26.913            32.180                Anadyr2          1005.625
       143   02 Jun 2027 08:19:17.724   02 Jun 2027 08:19:22.596             4.872            RioGallegos           152.250
       144   02 Jun 2027 09:14:13.387   02 Jun 2027 09:16:50.380           156.993               Magadan2          4906.031
       145   02 Jun 2027 09:16:50.380   02 Jun 2027 09:17:52.822            62.442               Magadan1          1951.313
       146   02 Jun 2027 09:18:28.742   02 Jun 2027 09:18:38.379             9.637                Irkutsk           301.156
       147   02 Jun 2027 09:19:18.761   02 Jun 2027 09:19:28.222             9.461                Irkutsk           295.656
       148   02 Jun 2027 09:54:12.372   02 Jun 2027 09:55:37.817            85.445            RioGallegos          2670.156
       149   02 Jun 2027 10:29:07.945   02 Jun 2027 10:29:49.981            42.036                Sumatra          1313.625
       150   02 Jun 2027 10:32:08.729   02 Jun 2027 10:32:34.204            25.475                Sumatra           796.094
       151   02 Jun 2027 10:40:28.786   02 Jun 2027 10:41:49.856            81.070                  Delhi          2533.438
       152   02 Jun 2027 10:49:19.177   02 Jun 2027 10:49:56.944            37.767                Irkutsk          1180.219
       153   02 Jun 2027 10:51:06.629   02 Jun 2027 10:51:13.014             6.385                Novosib           199.531
       154   02 Jun 2027 10:51:13.590   02 Jun 2027 10:51:51.597            38.007                Novosib          1187.719
       155   02 Jun 2027 10:52:28.156   02 Jun 2027 10:53:03.193            35.037                Novosib          1094.906
       156   02 Jun 2027 10:53:10.808   02 Jun 2027 10:53:34.375            23.567                Novosib           736.469
       157   02 Jun 2027 10:53:47.381   02 Jun 2027 10:55:01.782            74.401                Novosib          2325.031
       158   02 Jun 2027 10:55:07.465   02 Jun 2027 10:56:13.917            66.452                Novosib          2076.625
       159   02 Jun 2027 11:35:08.576   02 Jun 2027 11:35:22.483            13.907            RioGallegos           434.594
       160   02 Jun 2027 11:37:30.839   02 Jun 2027 11:37:59.578            28.739            RioGallegos           898.094
       161   02 Jun 2027 12:07:53.864   02 Jun 2027 12:09:12.903            79.039                Sumatra          2469.969
       162   02 Jun 2027 12:20:45.600   02 Jun 2027 12:21:41.978            56.378                Novosib          1761.813
       163   02 Jun 2027 12:23:10.785   02 Jun 2027 12:23:36.949            26.164                Novosib           817.625
       164   02 Jun 2027 12:24:10.673   02 Jun 2027 12:25:09.496            58.823                Novosib          1838.219
       165   02 Jun 2027 13:54:30.288   02 Jun 2027 13:57:14.524           164.236                  Delhi          5132.375
       166   02 Jun 2027 13:58:58.040   02 Jun 2027 14:00:30.951            92.911                 Moscow          2903.469
       167   02 Jun 2027 14:01:04.599   02 Jun 2027 14:02:29.638            85.039              Murmansk1          2657.469
       168   02 Jun 2027 14:02:49.825   02 Jun 2027 14:03:19.361            29.536              Murmansk1           923.000
       169   02 Jun 2027 14:04:17.775   02 Jun 2027 14:05:57.761            99.986                Norilsk          3124.562
       170   02 Jun 2027 15:12:53.509   02 Jun 2027 15:14:06.933            73.424               CapeTown          2294.500
       171   02 Jun 2027 15:14:29.691   02 Jun 2027 15:15:37.409            67.718               CapeTown          2116.188
       172   02 Jun 2027 15:34:32.345   02 Jun 2027 15:35:14.114            41.769                 Moscow          1305.281
       173   02 Jun 2027 15:37:51.283   02 Jun 2027 15:39:41.965           110.682              Murmansk1          3458.812
       174   02 Jun 2027 15:52:19.319   02 Jun 2027 15:54:21.282           121.963                Anadyr1          3811.344
       175   02 Jun 2027 15:55:21.210   02 Jun 2027 15:55:28.519             7.309                Anadyr1           228.406
       176   02 Jun 2027 15:55:40.011   02 Jun 2027 15:55:50.404            10.393                Anadyr1           324.781
       177   02 Jun 2027 16:47:05.127   02 Jun 2027 16:47:23.661            18.534               CapeTown           579.188
       178   02 Jun 2027 16:50:17.509   02 Jun 2027 16:50:25.959             8.450               CapeTown           264.063
       179   02 Jun 2027 16:51:43.470   02 Jun 2027 16:51:56.893            13.423               CapeTown           419.469
       180   02 Jun 2027 16:55:02.927   02 Jun 2027 16:55:25.304            22.377               CapeTown           699.281
       181   02 Jun 2027 17:16:46.629   02 Jun 2027 17:17:36.446            49.817              Murmansk1          1556.781
       182   02 Jun 2027 17:18:26.173   02 Jun 2027 17:20:31.654           125.481              Murmansk1          3921.281
       183   02 Jun 2027 17:25:28.050   02 Jun 2027 17:25:47.503            19.453              Murmansk1           607.906
       184   02 Jun 2027 17:27:43.602   02 Jun 2027 17:28:46.821            63.219                Anadyr2          1975.594
       185   02 Jun 2027 17:28:46.821   02 Jun 2027 17:28:56.794             9.973                Anadyr1           311.656
       186   02 Jun 2027 17:31:37.715   02 Jun 2027 17:33:43.936           126.221               Magadan1          3944.406
       187   02 Jun 2027 17:33:51.532   02 Jun 2027 17:34:35.850            44.318               Magadan2          1384.937
       188   02 Jun 2027 19:03:37.357   02 Jun 2027 19:07:45.692           248.335                Anadyr2          7760.469
       189   02 Jun 2027 19:08:15.585   02 Jun 2027 19:09:38.624            83.039               Magadan2          2594.969
       190   02 Jun 2027 19:13:49.770   02 Jun 2027 19:14:23.977            34.207               Magadan1          1068.969
       191   02 Jun 2027 20:39:30.504   02 Jun 2027 20:43:13.778           223.274                Anadyr2          6977.312
       192   02 Jun 2027 20:43:23.920   02 Jun 2027 20:43:52.854            28.934                Norilsk           904.187
       193   02 Jun 2027 20:44:11.075   02 Jun 2027 20:45:18.442            67.367               Magadan1          2105.219
       194   02 Jun 2027 20:45:39.877   02 Jun 2027 20:45:48.819             8.942               Magadan1           279.438
       195   02 Jun 2027 20:46:04.652   02 Jun 2027 20:46:57.486            52.834                Norilsk          1651.062
       196   02 Jun 2027 20:47:53.624   02 Jun 2027 20:48:58.248            64.624                Irkutsk          2019.500
       197   02 Jun 2027 20:49:34.785   02 Jun 2027 20:50:18.459            43.674                Irkutsk          1364.812
       198   02 Jun 2027 20:51:19.656   02 Jun 2027 20:52:59.255            99.599                Irkutsk          3112.469
       199   02 Jun 2027 21:33:54.587   02 Jun 2027 21:34:30.936            36.349            RioGallegos          1135.906
       200   02 Jun 2027 22:15:00.374   02 Jun 2027 22:15:28.377            28.003                Anadyr1           875.094
       201   02 Jun 2027 22:15:44.115   02 Jun 2027 22:17:23.923            99.808                Anadyr1          3119.000
       202   02 Jun 2027 22:17:38.897   02 Jun 2027 22:18:14.569            35.672                Norilsk          1114.750
       203   02 Jun 2027 22:18:37.305   02 Jun 2027 22:19:11.796            34.491               Magadan2          1077.844
       204   02 Jun 2027 22:21:24.569   02 Jun 2027 22:22:27.957            63.388                Irkutsk          1980.875
       205   02 Jun 2027 22:22:40.012   02 Jun 2027 22:23:10.178            30.166                Novosib           942.688
       206   02 Jun 2027 22:25:12.128   02 Jun 2027 22:25:26.775            14.647                Novosib           457.719
       207   02 Jun 2027 22:25:45.428   02 Jun 2027 22:26:45.813            60.385                Novosib          1887.031
       208   02 Jun 2027 22:35:05.541   02 Jun 2027 22:35:41.120            35.579                Sumatra          1111.844
       209   02 Jun 2027 22:43:31.293   02 Jun 2027 22:43:49.256            17.963                Sumatra           561.344
       210   02 Jun 2027 22:43:52.987   02 Jun 2027 22:44:39.026            46.039                Sumatra          1438.719
       211   02 Jun 2027 23:49:30.709   02 Jun 2027 23:50:04.367            33.658                Anadyr1          1051.812
       212   02 Jun 2027 23:50:34.277   02 Jun 2027 23:51:32.126            57.849                Anadyr1          1807.781
       213   02 Jun 2027 23:52:11.104   02 Jun 2027 23:52:27.266            16.162                Anadyr1           505.062
       214   02 Jun 2027 23:53:20.439   02 Jun 2027 23:53:39.990            19.551                Norilsk           610.969
       215   02 Jun 2027 23:53:58.689   02 Jun 2027 23:55:43.630           104.941               Magadan1          3279.406
       216   02 Jun 2027 23:57:14.245   02 Jun 2027 23:58:16.488            62.243                Novosib          1945.094
       217   02 Jun 2027 23:58:30.131   02 Jun 2027 23:59:35.975            65.844                Novosib          2057.625
       218   03 Jun 2027 00:04:45.734   03 Jun 2027 00:05:40.394            54.660                  Delhi          1708.125
       219   03 Jun 2027 00:06:47.092   03 Jun 2027 00:07:07.836            20.744                  Delhi           648.250
       220   03 Jun 2027 00:07:18.312   03 Jun 2027 00:07:29.668            11.356                  Delhi           354.875
       221   03 Jun 2027 00:11:39.088   03 Jun 2027 00:12:33.070            53.982                  Delhi          1686.938
       222   03 Jun 2027 00:49:22.837   03 Jun 2027 00:49:41.028            18.191            RioGallegos           568.469
       223   03 Jun 2027 00:51:29.379   03 Jun 2027 00:52:33.446            64.067            RioGallegos          2002.094
       224   03 Jun 2027 01:22:55.234   03 Jun 2027 01:22:59.440             4.206                Anadyr1           131.437
       225   03 Jun 2027 01:24:07.680   03 Jun 2027 01:24:47.553            39.873                Anadyr1          1246.031
       226   03 Jun 2027 01:25:09.767   03 Jun 2027 01:25:46.443            36.676                Anadyr2          1146.125
       227   03 Jun 2027 01:28:26.146   03 Jun 2027 01:28:38.546            12.400                Anadyr1           387.500
       228   03 Jun 2027 01:29:06.309   03 Jun 2027 01:30:20.366            74.057               Magadan1          2314.281
       229   03 Jun 2027 01:30:29.253   03 Jun 2027 01:31:14.319            45.066               Magadan2          1408.312
       230   03 Jun 2027 01:31:36.055   03 Jun 2027 01:31:57.910            21.855              Murmansk2           682.969
       231   03 Jun 2027 01:33:00.566   03 Jun 2027 01:34:12.712            72.146              Murmansk2          2254.563
       232   03 Jun 2027 01:34:38.182   03 Jun 2027 01:35:24.286            46.104                Novosib          1440.750
       233   03 Jun 2027 01:36:09.239   03 Jun 2027 01:36:39.095            29.856                 Moscow           933.000
       234   03 Jun 2027 01:42:25.240   03 Jun 2027 01:42:38.184            12.944                 Moscow           404.500
       235   03 Jun 2027 01:44:37.373   03 Jun 2027 01:44:49.823            12.450                  Delhi           389.062
       236   03 Jun 2027 01:46:06.279   03 Jun 2027 01:46:33.687            27.408                  Delhi           856.500
       237   03 Jun 2027 01:51:33.867   03 Jun 2027 01:51:36.062             2.195                  Delhi            68.594
       238   03 Jun 2027 02:04:23.760   03 Jun 2027 02:05:11.839            48.079               CapeTown          1502.469
       239   03 Jun 2027 02:07:47.459   03 Jun 2027 02:08:14.536            27.077               CapeTown           846.156
       240   03 Jun 2027 02:56:27.662   03 Jun 2027 02:57:22.610            54.948                Anadyr2          1717.125
       241   03 Jun 2027 02:57:48.023   03 Jun 2027 02:58:44.540            56.517                Anadyr1          1766.156
       242   03 Jun 2027 02:59:07.815   03 Jun 2027 02:59:37.186            29.371                Anadyr2           917.844
       243   03 Jun 2027 03:00:39.283   03 Jun 2027 03:00:42.089             2.806                Anadyr1            87.687
       244   03 Jun 2027 03:00:56.612   03 Jun 2027 03:01:18.210            21.598                Anadyr1           674.938
       245   03 Jun 2027 03:15:05.536   03 Jun 2027 03:16:06.497            60.961                Norilsk          1905.031
       246   03 Jun 2027 03:16:38.670   03 Jun 2027 03:18:12.388            93.718                 Moscow          2928.688
       247   03 Jun 2027 03:18:43.373   03 Jun 2027 03:19:55.662            72.289                 Moscow          2259.031
       248   03 Jun 2027 03:34:46.163   03 Jun 2027 03:38:16.691           210.528               CapeTown          6579.000
       249   03 Jun 2027 04:31:18.170   03 Jun 2027 04:35:07.658           229.488                Anadyr1          7171.500
       250   03 Jun 2027 04:35:15.001   03 Jun 2027 04:35:52.639            37.638               Magadan2          1176.187
       251   03 Jun 2027 04:35:52.639   03 Jun 2027 04:36:13.174            20.535               Magadan1           641.719
       252   03 Jun 2027 04:36:51.084   03 Jun 2027 04:37:39.733            48.649               Magadan1          1520.281
       253   03 Jun 2027 04:37:59.981   03 Jun 2027 04:38:10.921            10.940               Magadan2           341.875
       254   03 Jun 2027 04:38:25.939   03 Jun 2027 04:39:48.568            82.629                Anadyr2          2582.156
       255   03 Jun 2027 04:39:56.423   03 Jun 2027 04:41:03.555            67.132               Magadan1          2097.875
       256   03 Jun 2027 06:12:39.878   03 Jun 2027 06:12:58.830            18.952                Anadyr2           592.250
       257   03 Jun 2027 06:13:09.148   03 Jun 2027 06:13:13.675             4.527               Magadan2           141.469
       258   03 Jun 2027 06:13:36.229   03 Jun 2027 06:13:40.446             4.217                Anadyr2           131.781
       259   03 Jun 2027 06:13:49.222   03 Jun 2027 06:14:03.395            14.173               Magadan1           442.906
       260   03 Jun 2027 06:14:06.813   03 Jun 2027 06:14:14.698             7.885               Magadan2           246.406
       261   03 Jun 2027 06:14:23.199   03 Jun 2027 06:14:39.321            16.122               Magadan2           503.813
       262   03 Jun 2027 06:14:44.864   03 Jun 2027 06:15:30.476            45.612                Anadyr1          1425.375
       263   03 Jun 2027 06:15:30.476   03 Jun 2027 06:16:23.240            52.764                Anadyr2          1648.875
       264   03 Jun 2027 06:16:36.758   03 Jun 2027 06:16:57.906            21.148               Magadan1           660.875
       265   03 Jun 2027 06:16:57.906   03 Jun 2027 06:17:53.117            55.211               Magadan2          1725.344
       266   03 Jun 2027 07:46:42.711   03 Jun 2027 07:47:11.190            28.479               Magadan2           889.969
       267   03 Jun 2027 07:47:19.541   03 Jun 2027 07:47:57.328            37.787               Magadan2          1180.844
       268   03 Jun 2027 07:48:17.124   03 Jun 2027 07:48:23.225             6.101                Anadyr1           190.656
       269   03 Jun 2027 07:48:41.676   03 Jun 2027 07:48:57.092            15.416                Anadyr1           481.750
       270   03 Jun 2027 07:48:57.092   03 Jun 2027 07:49:26.687            29.595                Anadyr2           924.844
       271   03 Jun 2027 07:49:45.274   03 Jun 2027 07:49:51.930             6.656               Magadan2           208.000
       272   03 Jun 2027 07:50:21.259   03 Jun 2027 07:50:22.625             1.366               Magadan2            42.687
       273   03 Jun 2027 07:50:22.625   03 Jun 2027 07:50:48.633            26.008               Magadan1           812.750
       274   03 Jun 2027 07:51:59.629   03 Jun 2027 07:52:12.457            12.828               Magadan1           400.875
       275   03 Jun 2027 07:52:37.137   03 Jun 2027 07:52:49.290            12.153                Anadyr2           379.781
       276   03 Jun 2027 07:52:55.595   03 Jun 2027 07:53:11.830            16.235               Magadan2           507.344
       277   03 Jun 2027 07:53:14.339   03 Jun 2027 07:54:08.343            54.004               Magadan1          1687.625
       278   03 Jun 2027 07:54:58.384   03 Jun 2027 07:55:16.343            17.959                Anadyr1           561.219
       279   03 Jun 2027 08:31:00.268   03 Jun 2027 08:31:45.226            44.958            RioGallegos          1404.938
       280   03 Jun 2027 08:34:58.425   03 Jun 2027 08:35:27.444            29.019            RioGallegos           906.844
       281   03 Jun 2027 09:10:26.726   03 Jun 2027 09:10:50.152            23.426                Sumatra           732.063
       282   03 Jun 2027 09:24:18.639   03 Jun 2027 09:24:56.434            37.795               Magadan1          1181.094
       283   03 Jun 2027 09:26:12.839   03 Jun 2027 09:27:12.975            60.136               Magadan1          1879.250
       284   03 Jun 2027 09:27:33.325   03 Jun 2027 09:27:39.973             6.648                Irkutsk           207.750
       285   03 Jun 2027 09:27:49.706   03 Jun 2027 09:28:25.017            35.311                Irkutsk          1103.469
       286   03 Jun 2027 09:28:33.403   03 Jun 2027 09:29:25.156            51.753                Irkutsk          1617.281
       287   03 Jun 2027 09:29:34.846   03 Jun 2027 09:30:41.630            66.784                Irkutsk          2087.000
       288   03 Jun 2027 09:31:03.294   03 Jun 2027 09:31:36.043            32.749                Novosib          1023.406
       289   03 Jun 2027 10:06:21.165   03 Jun 2027 10:07:01.705            40.540            RioGallegos          1266.875
       290   03 Jun 2027 10:41:04.553   03 Jun 2027 10:41:30.430            25.877                Sumatra           808.656
       291   03 Jun 2027 10:43:46.779   03 Jun 2027 10:44:03.569            16.790                Sumatra           524.688
       292   03 Jun 2027 10:45:28.839   03 Jun 2027 10:45:31.353             2.514                Sumatra            78.563
       293   03 Jun 2027 10:47:46.837   03 Jun 2027 10:49:47.189           120.352                Sumatra          3761.000
       294   03 Jun 2027 11:03:14.270   03 Jun 2027 11:03:40.184            25.914                Novosib           809.813
       295   03 Jun 2027 11:04:40.701   03 Jun 2027 11:04:57.195            16.494                Novosib           515.438
       296   03 Jun 2027 11:05:05.668   03 Jun 2027 11:05:08.106             2.438                Irkutsk            76.187
       297   03 Jun 2027 11:05:14.309   03 Jun 2027 11:05:15.077             0.768                Novosib            24.000
       298   03 Jun 2027 11:05:16.250   03 Jun 2027 11:05:22.027             5.777                Norilsk           180.531
       299   03 Jun 2027 11:05:43.106   03 Jun 2027 11:06:20.396            37.290                Norilsk          1165.313
       300   03 Jun 2027 11:06:29.086   03 Jun 2027 11:07:01.225            32.139                Novosib          1004.344
       301   03 Jun 2027 11:07:10.099   03 Jun 2027 11:08:21.540            71.441                Novosib          2232.531
       302   03 Jun 2027 11:49:30.060   03 Jun 2027 11:50:14.776            44.716            RioGallegos          1397.375
       303   03 Jun 2027 12:27:38.045   03 Jun 2027 12:28:24.705            46.660                  Delhi          1458.125
       304   03 Jun 2027 12:33:06.364   03 Jun 2027 12:33:43.870            37.506                Novosib          1172.063
       305   03 Jun 2027 12:35:07.108   03 Jun 2027 12:35:41.032            33.924                Novosib          1060.125
       306   03 Jun 2027 12:35:48.483   03 Jun 2027 12:37:15.953            87.470                Novosib          2733.437
       307   03 Jun 2027 12:47:35.121   03 Jun 2027 12:47:35.830             0.709              Murmansk1            22.156
       308   03 Jun 2027 12:47:51.630   03 Jun 2027 12:48:00.633             9.003                Norilsk           281.344
       309   03 Jun 2027 14:09:41.115   03 Jun 2027 14:13:30.617           229.502                 Moscow          7171.938
       310   03 Jun 2027 14:13:57.209   03 Jun 2027 14:16:27.788           150.579              Murmansk2          4705.594
       311   03 Jun 2027 14:18:07.534   03 Jun 2027 14:18:59.978            52.444                Norilsk          1638.875
       312   03 Jun 2027 14:20:54.060   03 Jun 2027 14:21:48.869            54.809                Norilsk          1712.781
       313   03 Jun 2027 15:24:22.638   03 Jun 2027 15:27:23.243           180.605               CapeTown          5643.906
       314   03 Jun 2027 15:50:07.399   03 Jun 2027 15:50:26.940            19.541              Murmansk2           610.656
       315   03 Jun 2027 15:50:45.275   03 Jun 2027 15:51:35.580            50.305              Murmansk2          1572.031
       316   03 Jun 2027 16:04:12.603   03 Jun 2027 16:05:46.705            94.102                Anadyr1          2940.687
       317   03 Jun 2027 16:06:03.597   03 Jun 2027 16:06:18.010            14.413                Anadyr2           450.406
       318   03 Jun 2027 16:06:55.274   03 Jun 2027 16:07:08.939            13.665                Anadyr2           427.031
       319   03 Jun 2027 16:08:13.807   03 Jun 2027 16:08:23.442             9.635                Anadyr2           301.094
       320   03 Jun 2027 16:59:09.253   03 Jun 2027 17:01:02.086           112.833               CapeTown          3526.031
       321   03 Jun 2027 17:29:22.681   03 Jun 2027 17:31:46.350           143.669              Murmansk2          4489.656
       322   03 Jun 2027 17:34:07.710   03 Jun 2027 17:34:20.270            12.560              Murmansk2           392.500
       323   03 Jun 2027 17:34:28.277   03 Jun 2027 17:34:49.210            20.933              Murmansk1           654.156
       324   03 Jun 2027 17:39:44.147   03 Jun 2027 17:40:50.517            66.370                Anadyr1          2074.062
       325   03 Jun 2027 17:41:36.593   03 Jun 2027 17:41:39.679             3.086                Anadyr1            96.437
       326   03 Jun 2027 17:42:31.116   03 Jun 2027 17:42:59.896            28.780                Anadyr2           899.375
       327   03 Jun 2027 17:43:13.518   03 Jun 2027 17:44:10.392            56.874               Magadan2          1777.313
       328   03 Jun 2027 17:44:10.392   03 Jun 2027 17:44:24.646            14.254               Magadan1           445.438
       329   03 Jun 2027 17:45:29.308   03 Jun 2027 17:46:14.033            44.725               Magadan1          1397.656
       330   03 Jun 2027 19:15:38.929   03 Jun 2027 19:19:35.470           236.541                Anadyr2          7391.906
       331   03 Jun 2027 19:19:52.140   03 Jun 2027 19:21:11.878            79.738               Magadan1          2491.812
       332   03 Jun 2027 19:21:11.878   03 Jun 2027 19:21:43.723            31.845               Magadan2           995.156
       333   03 Jun 2027 19:25:39.226   03 Jun 2027 19:25:58.964            19.738               Magadan2           616.812
       334   03 Jun 2027 19:26:17.589   03 Jun 2027 19:26:27.400             9.811               Magadan2           306.594
       335   03 Jun 2027 19:27:00.601   03 Jun 2027 19:27:29.674            29.073               Magadan2           908.531
       336   03 Jun 2027 20:51:30.603   03 Jun 2027 20:55:12.761           222.158                Anadyr1          6942.438
       337   03 Jun 2027 20:55:14.295   03 Jun 2027 20:57:02.383           108.088               Magadan1          3377.750
       338   03 Jun 2027 20:57:15.790   03 Jun 2027 20:57:21.434             5.644                Norilsk           176.375
       339   03 Jun 2027 20:57:35.324   03 Jun 2027 20:57:58.531            23.207               Magadan1           725.219
       340   03 Jun 2027 20:59:10.296   03 Jun 2027 20:59:28.898            18.602                Irkutsk           581.313
       341   03 Jun 2027 20:59:52.779   03 Jun 2027 21:00:33.357            40.578                Norilsk          1268.062
       342   03 Jun 2027 21:01:03.555   03 Jun 2027 21:02:01.248            57.693                Irkutsk          1802.906
       343   03 Jun 2027 21:03:18.358   03 Jun 2027 21:05:01.526           103.168                Irkutsk          3224.000
       344   03 Jun 2027 21:15:15.105   03 Jun 2027 21:16:29.453            74.348                Sumatra          2323.375
       345   03 Jun 2027 21:18:29.587   03 Jun 2027 21:19:12.139            42.552                Sumatra          1329.750
       346   03 Jun 2027 22:28:49.952   03 Jun 2027 22:29:22.076            32.124                Anadyr1          1003.875
       347   03 Jun 2027 22:29:22.839   03 Jun 2027 22:30:39.517            76.678                Norilsk          2396.188
       348   03 Jun 2027 22:31:01.327   03 Jun 2027 22:31:22.825            21.498                Norilsk           671.812
       349   03 Jun 2027 22:33:21.819   03 Jun 2027 22:34:35.761            73.942                Irkutsk          2310.687
       350   03 Jun 2027 22:35:05.380   03 Jun 2027 22:36:58.377           112.997                Novosib          3531.156
       351   03 Jun 2027 22:47:04.962   03 Jun 2027 22:47:22.885            17.923                Sumatra           560.094
       352   03 Jun 2027 22:53:40.255   03 Jun 2027 22:55:01.591            81.336                Sumatra          2541.750
       353   04 Jun 2027 00:01:15.855   04 Jun 2027 00:01:22.500             6.645                Anadyr1           207.656
       354   04 Jun 2027 00:02:03.525   04 Jun 2027 00:03:28.418            84.893                Anadyr1          2652.906
       355   04 Jun 2027 00:05:22.558   04 Jun 2027 00:05:40.826            18.268                Norilsk           570.875
       356   04 Jun 2027 00:05:59.828   04 Jun 2027 00:07:11.551            71.723               Magadan2          2241.344
       357   04 Jun 2027 00:07:12.207   04 Jun 2027 00:08:05.083            52.876               Magadan1          1652.375
       358   04 Jun 2027 00:08:50.947   04 Jun 2027 00:09:51.860            60.913              Murmansk1          1903.531
       359   04 Jun 2027 00:09:51.860   04 Jun 2027 00:11:21.735            89.875              Murmansk2          2808.594
       360   04 Jun 2027 00:16:38.010   04 Jun 2027 00:17:32.808            54.798                  Delhi          1712.438
       361   04 Jun 2027 00:20:38.020   04 Jun 2027 00:22:44.180           126.160                  Delhi          3942.500
       362   04 Jun 2027 01:34:36.426   04 Jun 2027 01:35:02.532            26.106                Anadyr1           815.812
       363   04 Jun 2027 01:35:08.293   04 Jun 2027 01:35:13.539             5.246                Anadyr2           163.937
       364   04 Jun 2027 01:35:28.291   04 Jun 2027 01:36:05.520            37.229                Anadyr2          1163.406
       365   04 Jun 2027 01:36:51.999   04 Jun 2027 01:37:13.771            21.772                Anadyr2           680.375
       366   04 Jun 2027 01:37:38.819   04 Jun 2027 01:37:54.995            16.176                Anadyr1           505.500
       367   04 Jun 2027 01:40:21.289   04 Jun 2027 01:40:25.969             4.680                Anadyr1           146.250
       368   04 Jun 2027 01:40:47.403   04 Jun 2027 01:42:43.854           116.451               Magadan2          3639.094
       369   04 Jun 2027 01:43:17.002   04 Jun 2027 01:43:29.146            12.144               Magadan1           379.500
       370   04 Jun 2027 01:43:35.474   04 Jun 2027 01:45:58.773           143.299              Murmansk1          4478.094
       371   04 Jun 2027 01:51:05.059   04 Jun 2027 01:51:14.646             9.587                Irkutsk           299.594
       372   04 Jun 2027 01:52:25.582   04 Jun 2027 01:53:19.461            53.879                Novosib          1683.719
       373   04 Jun 2027 02:00:33.434   04 Jun 2027 02:02:45.902           132.468                  Delhi          4139.625
       374   04 Jun 2027 03:11:08.875   04 Jun 2027 03:11:20.799            11.924                Anadyr1           372.625
       375   04 Jun 2027 03:17:34.495   04 Jun 2027 03:17:43.559             9.064               Magadan2           283.250
       376   04 Jun 2027 03:28:07.540   04 Jun 2027 03:28:50.841            43.301                Norilsk          1353.156
       377   04 Jun 2027 03:29:00.027   04 Jun 2027 03:29:04.518             4.491              Murmansk1           140.344
       378   04 Jun 2027 03:29:14.274   04 Jun 2027 03:29:32.414            18.140                Novosib           566.875
       379   04 Jun 2027 03:30:22.066   04 Jun 2027 03:33:27.802           185.736                 Moscow          5804.250
       380   04 Jun 2027 03:46:39.078   04 Jun 2027 03:50:26.348           227.270               CapeTown          7102.187
       381   04 Jun 2027 03:57:04.595   04 Jun 2027 03:59:03.496           118.901               CapeTown          3715.656
       382   04 Jun 2027 04:43:19.134   04 Jun 2027 04:46:39.957           200.823                Anadyr2          6275.719
       383   04 Jun 2027 04:46:39.957   04 Jun 2027 04:46:49.982            10.025                Anadyr1           313.281
       384   04 Jun 2027 04:47:05.295   04 Jun 2027 04:48:11.502            66.207                Anadyr1          2068.969
       385   04 Jun 2027 04:50:02.844   04 Jun 2027 04:54:40.708           277.864               Magadan2          8683.250
       386   04 Jun 2027 04:55:00.643   04 Jun 2027 04:55:48.558            47.915               Magadan2          1497.344
       387   04 Jun 2027 04:55:53.971   04 Jun 2027 04:56:15.581            21.610                Anadyr2           675.313
       388   04 Jun 2027 06:24:08.632   04 Jun 2027 06:24:18.837            10.205               Magadan2           318.906
       389   04 Jun 2027 06:24:41.141   04 Jun 2027 06:24:47.017             5.876                Anadyr1           183.625
       390   04 Jun 2027 06:24:53.341   04 Jun 2027 06:25:01.562             8.221               Magadan2           256.906
       391   04 Jun 2027 06:25:03.181   04 Jun 2027 06:25:52.554            49.373               Magadan2          1542.906
       392   04 Jun 2027 06:26:04.824   04 Jun 2027 06:26:10.858             6.034               Magadan1           188.562
       393   04 Jun 2027 06:26:12.467   04 Jun 2027 06:26:46.659            34.192                Anadyr2          1068.500
       394   04 Jun 2027 06:27:10.604   04 Jun 2027 06:27:19.147             8.543                Anadyr1           266.969
       395   04 Jun 2027 06:27:40.278   04 Jun 2027 06:27:55.208            14.930               Magadan2           466.563
       396   04 Jun 2027 06:27:59.217   04 Jun 2027 06:28:05.949             6.732               Magadan2           210.375
       397   04 Jun 2027 06:28:07.330   04 Jun 2027 06:28:30.612            23.282               Magadan2           727.563
       398   04 Jun 2027 06:28:34.528   04 Jun 2027 06:29:53.520            78.992               Magadan1          2468.500
       399   04 Jun 2027 07:59:07.635   04 Jun 2027 08:00:16.262            68.627               Magadan1          2144.594
       400   04 Jun 2027 08:00:44.961   04 Jun 2027 08:01:36.199            51.238                Anadyr2          1601.187
       401   04 Jun 2027 08:01:41.440   04 Jun 2027 08:02:23.589            42.149               Magadan1          1317.156
       402   04 Jun 2027 08:02:38.255   04 Jun 2027 08:03:48.286            70.031                Anadyr1          2188.469
       403   04 Jun 2027 08:03:59.377   04 Jun 2027 08:04:15.592            16.215               Magadan2           506.719
       404   04 Jun 2027 08:04:38.617   04 Jun 2027 08:05:15.572            36.955                Anadyr1          1154.844
       405   04 Jun 2027 08:05:19.617   04 Jun 2027 08:05:56.761            37.144                Anadyr1          1160.750
       406   04 Jun 2027 08:06:09.953   04 Jun 2027 08:06:46.489            36.536               Magadan1          1141.750
       407   04 Jun 2027 08:08:24.473   04 Jun 2027 08:08:39.731            15.258              Murmansk1           476.812
       408   04 Jun 2027 08:42:46.063   04 Jun 2027 08:43:40.412            54.349            RioGallegos          1698.406
       409   04 Jun 2027 08:47:26.837   04 Jun 2027 08:48:26.175            59.338            RioGallegos          1854.313
       410   04 Jun 2027 09:20:29.040   04 Jun 2027 09:21:47.076            78.036                Sumatra          2438.625
       411   04 Jun 2027 09:36:32.730   04 Jun 2027 09:37:02.493            29.763               Magadan1           930.094
       412   04 Jun 2027 09:37:29.366   04 Jun 2027 09:37:47.275            17.909                Irkutsk           559.656
       413   04 Jun 2027 09:39:44.763   04 Jun 2027 09:40:09.357            24.594                Irkutsk           768.563
       414   04 Jun 2027 09:40:20.439   04 Jun 2027 09:41:22.706            62.267                Irkutsk          1945.844
       415   04 Jun 2027 09:41:33.661   04 Jun 2027 09:41:34.084             0.423                Irkutsk            13.219
       416   04 Jun 2027 09:42:15.805   04 Jun 2027 09:42:49.024            33.219                Irkutsk          1038.094
       417   04 Jun 2027 09:42:58.372   04 Jun 2027 09:43:01.762             3.390                Irkutsk           105.937
       418   04 Jun 2027 09:43:06.880   04 Jun 2027 09:43:14.752             7.872                Novosib           246.000
       419   04 Jun 2027 09:43:18.151   04 Jun 2027 09:43:48.104            29.953                Novosib           936.031
       420   04 Jun 2027 10:18:33.718   04 Jun 2027 10:18:51.909            18.191            RioGallegos           568.469
       421   04 Jun 2027 10:19:44.143   04 Jun 2027 10:19:47.274             3.131            RioGallegos            97.844
       422   04 Jun 2027 10:21:21.804   04 Jun 2027 10:21:25.606             3.802            RioGallegos           118.812
       423   04 Jun 2027 10:22:42.288   04 Jun 2027 10:22:50.267             7.979            RioGallegos           249.344
       424   04 Jun 2027 10:54:38.069   04 Jun 2027 10:55:41.765            63.696                Sumatra          1990.500
       425   04 Jun 2027 11:06:28.453   04 Jun 2027 11:07:57.653            89.200                  Delhi          2787.500
       426   04 Jun 2027 11:15:24.969   04 Jun 2027 11:15:36.994            12.025                Irkutsk           375.781
       427   04 Jun 2027 11:15:47.906   04 Jun 2027 11:16:06.114            18.208                Irkutsk           569.000
       428   04 Jun 2027 11:16:14.099   04 Jun 2027 11:16:49.174            35.075                Novosib          1096.094
       429   04 Jun 2027 11:16:56.779   04 Jun 2027 11:17:30.342            33.563                Irkutsk          1048.844
       430   04 Jun 2027 11:17:39.065   04 Jun 2027 11:17:52.383            13.318                Irkutsk           416.188
       431   04 Jun 2027 11:17:54.168   04 Jun 2027 11:18:59.791            65.623                Novosib          2050.719
       432   04 Jun 2027 11:19:03.926   04 Jun 2027 11:19:24.570            20.644                Norilsk           645.125
       433   04 Jun 2027 11:19:28.264   04 Jun 2027 11:20:04.290            36.026                Norilsk          1125.812
       434   04 Jun 2027 11:59:38.467   04 Jun 2027 12:00:14.094            35.627            RioGallegos          1113.344
       435   04 Jun 2027 12:01:28.046   04 Jun 2027 12:01:55.538            27.492            RioGallegos           859.125
       436   04 Jun 2027 12:37:32.966   04 Jun 2027 12:37:39.472             6.506                  Delhi           203.313
       437   04 Jun 2027 12:39:29.488   04 Jun 2027 12:40:19.030            49.542                  Delhi          1548.187
       438   04 Jun 2027 12:40:48.121   04 Jun 2027 12:42:13.400            85.279                  Delhi          2664.969
       439   04 Jun 2027 12:45:31.403   04 Jun 2027 12:46:11.717            40.314                Novosib          1259.813
       440   04 Jun 2027 12:49:21.811   04 Jun 2027 12:49:26.149             4.338                Novosib           135.563
       441   04 Jun 2027 12:49:31.948   04 Jun 2027 12:50:11.050            39.102                Norilsk          1221.938
       442   04 Jun 2027 12:50:24.576   04 Jun 2027 12:50:36.745            12.169                Novosib           380.281
       443   04 Jun 2027 12:52:58.799   04 Jun 2027 12:53:33.977            35.178                Norilsk          1099.313
       444   04 Jun 2027 14:21:41.406   04 Jun 2027 14:24:51.284           189.878                 Moscow          5933.687
       445   04 Jun 2027 14:25:10.264   04 Jun 2027 14:26:33.253            82.989              Murmansk1          2593.406
       446   04 Jun 2027 14:27:30.560   04 Jun 2027 14:28:05.051            34.491              Murmansk2          1077.844
       447   04 Jun 2027 14:29:43.241   04 Jun 2027 14:29:55.399            12.158                Norilsk           379.938
       448   04 Jun 2027 14:31:01.817   04 Jun 2027 14:32:32.081            90.264                Norilsk          2820.750
       449   04 Jun 2027 14:33:18.663   04 Jun 2027 14:34:27.643            68.980                Norilsk          2155.625
       450   04 Jun 2027 15:36:00.420   04 Jun 2027 15:36:28.946            28.526               CapeTown           891.438
       451   04 Jun 2027 15:59:25.259   04 Jun 2027 16:00:09.502            44.243                 Moscow          1382.594
       452   04 Jun 2027 16:02:25.597   04 Jun 2027 16:02:51.357            25.760              Murmansk1           805.000
       453   04 Jun 2027 16:03:30.349   04 Jun 2027 16:04:47.724            77.375              Murmansk1          2417.969
       454   04 Jun 2027 16:06:32.926   04 Jun 2027 16:06:37.600             4.674              Murmansk2           146.063
       455   04 Jun 2027 16:07:13.618   04 Jun 2027 16:07:14.349             0.731              Murmansk2            22.844
       456   04 Jun 2027 16:16:07.770   04 Jun 2027 16:18:13.031           125.261                Anadyr1          3914.406
       457   04 Jun 2027 16:22:05.827   04 Jun 2027 16:22:08.191             2.364                Anadyr1            73.875
       458   04 Jun 2027 16:24:54.508   04 Jun 2027 16:25:15.463            20.955                Anadyr2           654.844
       459   04 Jun 2027 17:11:16.215   04 Jun 2027 17:13:16.259           120.044               CapeTown          3751.375
       460   04 Jun 2027 17:42:02.282   04 Jun 2027 17:46:06.569           244.287              Murmansk1          7633.969
       461   04 Jun 2027 17:51:44.991   04 Jun 2027 17:52:13.696            28.705                Anadyr2           897.031
       462   04 Jun 2027 17:52:40.996   04 Jun 2027 17:53:07.144            26.148                Anadyr2           817.125
       463   04 Jun 2027 17:54:56.880   04 Jun 2027 17:57:12.660           135.780               Magadan1          4243.125
       464   04 Jun 2027 19:27:40.457   04 Jun 2027 19:29:45.869           125.412                Anadyr1          3919.125
       465   04 Jun 2027 19:29:59.939   04 Jun 2027 19:33:37.105           217.166               Magadan2          6786.437
       466   04 Jun 2027 19:36:58.262   04 Jun 2027 19:37:24.645            26.383               Magadan1           824.469
       467   04 Jun 2027 19:38:18.898   04 Jun 2027 19:38:20.017             1.119               Magadan2            34.969
       468   04 Jun 2027 20:24:14.368   04 Jun 2027 20:26:30.529           136.161            RioGallegos          4255.031
       469   04 Jun 2027 21:03:30.295   04 Jun 2027 21:03:59.064            28.769                Anadyr1           899.031
       470   04 Jun 2027 21:04:49.411   04 Jun 2027 21:05:41.169            51.758                Anadyr1          1617.437
       471   04 Jun 2027 21:05:53.710   04 Jun 2027 21:06:07.085            13.375               Magadan1           417.969
       472   04 Jun 2027 21:06:07.085   04 Jun 2027 21:07:24.120            77.035               Magadan2          2407.344
       473   04 Jun 2027 21:07:25.702   04 Jun 2027 21:08:07.627            41.925                Norilsk          1310.156
       474   04 Jun 2027 21:08:17.893   04 Jun 2027 21:08:28.764            10.871               Magadan1           339.719
       475   04 Jun 2027 21:08:34.076   04 Jun 2027 21:09:20.262            46.186                Norilsk          1443.313
       476   04 Jun 2027 21:10:42.749   04 Jun 2027 21:11:25.551            42.802                Irkutsk          1337.563
       477   04 Jun 2027 21:12:43.381   04 Jun 2027 21:13:48.464            65.083                Irkutsk          2033.844
       478   04 Jun 2027 21:16:28.388   04 Jun 2027 21:16:52.346            23.958                Irkutsk           748.688
       479   04 Jun 2027 21:25:53.860   04 Jun 2027 21:27:56.938           123.078                Sumatra          3846.187
       480   04 Jun 2027 21:32:47.099   04 Jun 2027 21:33:49.571            62.472                Sumatra          1952.250
       481   04 Jun 2027 22:39:22.626   04 Jun 2027 22:39:58.524            35.898                Anadyr1          1121.812
       482   04 Jun 2027 22:40:38.417   04 Jun 2027 22:41:19.525            41.108                Anadyr1          1284.625
