uniorb/output/strategy_4/Drop/Drop_KinoSat_110805.txt

KinoSat_110805
-------------------------
    Access    *     Start Time (UTCG)     *     Stop Time (UTCG)  *   Duration (s)        *       Station  *  Data (Mbytes)
         1   01 Jun 2027 03:35:49.668   01 Jun 2027 03:36:31.453            41.785                Anadyr2          1305.781
         2   01 Jun 2027 03:36:31.453   01 Jun 2027 03:36:34.744             3.291                Anadyr1           102.844
         3   01 Jun 2027 03:36:44.515   01 Jun 2027 03:38:03.974            79.459                Anadyr1          2483.094
         4   01 Jun 2027 03:38:03.974   01 Jun 2027 03:38:36.549            32.575                Anadyr2          1017.969
         5   01 Jun 2027 03:38:49.485   01 Jun 2027 03:39:21.527            32.042               Magadan1          1001.313
         6   01 Jun 2027 03:39:33.572   01 Jun 2027 03:39:51.131            17.559                Anadyr1           548.719
         7   01 Jun 2027 03:39:56.256   01 Jun 2027 03:40:48.867            52.611               Magadan2          1644.094
         8   01 Jun 2027 03:41:13.471   01 Jun 2027 03:41:28.664            15.193               Magadan1           474.781
         9   01 Jun 2027 03:41:43.973   01 Jun 2027 03:41:48.622             4.649                Anadyr1           145.281
        10   01 Jun 2027 05:13:20.536   01 Jun 2027 05:14:31.723            71.187                Irkutsk          2224.594
        11   01 Jun 2027 05:14:52.724   01 Jun 2027 05:16:03.803            71.079               Magadan1          2221.219
        12   01 Jun 2027 05:16:03.803   01 Jun 2027 05:16:19.398            15.595               Magadan2           487.344
        13   01 Jun 2027 05:16:30.320   01 Jun 2027 05:17:38.990            68.670                Anadyr1          2145.938
        14   01 Jun 2027 06:47:32.137   01 Jun 2027 06:48:12.711            40.574                Irkutsk          1267.938
        15   01 Jun 2027 06:48:14.768   01 Jun 2027 06:48:23.818             9.050                Novosib           282.813
        16   01 Jun 2027 06:48:26.148   01 Jun 2027 06:48:35.213             9.065               Magadan1           283.281
        17   01 Jun 2027 06:48:35.213   01 Jun 2027 06:48:58.403            23.190               Magadan2           724.688
        18   01 Jun 2027 06:49:12.117   01 Jun 2027 06:49:36.121            24.004               Magadan2           750.125
        19   01 Jun 2027 06:49:38.368   01 Jun 2027 06:51:38.676           120.308               Magadan2          3759.625
        20   01 Jun 2027 06:51:38.676   01 Jun 2027 06:52:19.681            41.005               Magadan1          1281.406
        21   01 Jun 2027 06:52:31.023   01 Jun 2027 06:53:32.272            61.249                Irkutsk          1914.031
        22   01 Jun 2027 06:53:37.933   01 Jun 2027 06:53:52.999            15.066                Novosib           470.812
        23   01 Jun 2027 06:57:42.069   01 Jun 2027 06:58:09.929            27.860              Murmansk1           870.625
        24   01 Jun 2027 07:28:15.144   01 Jun 2027 07:30:02.259           107.115            RioGallegos          3347.344
        25   01 Jun 2027 08:03:22.131   01 Jun 2027 08:04:39.339            77.208                Sumatra          2412.750
        26   01 Jun 2027 08:06:07.677   01 Jun 2027 08:07:06.725            59.048                Sumatra          1845.250
        27   01 Jun 2027 08:15:09.606   01 Jun 2027 08:16:32.996            83.390                  Delhi          2605.938
        28   01 Jun 2027 08:25:06.438   01 Jun 2027 08:25:42.603            36.165                Novosib          1130.156
        29   01 Jun 2027 08:25:54.653   01 Jun 2027 08:27:22.248            87.595              Murmansk2          2737.344
        30   01 Jun 2027 08:27:48.854   01 Jun 2027 08:29:23.843            94.989                Irkutsk          2968.406
        31   01 Jun 2027 08:29:23.942   01 Jun 2027 08:30:04.991            41.049              Murmansk2          1282.781
        32   01 Jun 2027 08:30:21.214   01 Jun 2027 08:30:57.359            36.145              Murmansk2          1129.531
        33   01 Jun 2027 09:44:15.299   01 Jun 2027 09:45:10.753            55.454                Sumatra          1732.937
        34   01 Jun 2027 09:47:21.103   01 Jun 2027 09:47:58.296            37.193                  Delhi          1162.281
        35   01 Jun 2027 09:48:38.445   01 Jun 2027 09:50:05.084            86.639                  Delhi          2707.469
        36   01 Jun 2027 10:03:38.247   01 Jun 2027 10:04:27.355            49.108                Novosib          1534.625
        37   01 Jun 2027 10:04:45.779   01 Jun 2027 10:06:40.318           114.539                Norilsk          3579.344
        38   01 Jun 2027 10:06:47.120   01 Jun 2027 10:07:11.700            24.580              Murmansk2           768.125
        39   01 Jun 2027 10:07:31.206   01 Jun 2027 10:08:18.936            47.730                 Moscow          1491.562
        40   01 Jun 2027 10:08:26.756   01 Jun 2027 10:08:31.590             4.834                Norilsk           151.062
        41   01 Jun 2027 11:26:52.481   01 Jun 2027 11:29:48.650           176.169                  Delhi          5505.281
        42   01 Jun 2027 11:36:17.587   01 Jun 2027 11:36:37.116            19.529              Murmansk1           610.281
        43   01 Jun 2027 11:36:40.669   01 Jun 2027 11:40:21.329           220.660                Novosib          6895.625
        44   01 Jun 2027 11:40:28.515   01 Jun 2027 11:40:52.511            23.996                 Moscow           749.875
        45   01 Jun 2027 11:41:23.872   01 Jun 2027 11:44:20.726           176.854              Murmansk2          5526.688
        46   01 Jun 2027 11:46:02.841   01 Jun 2027 11:46:23.470            20.629              Murmansk2           644.656
        47   01 Jun 2027 12:47:36.372   01 Jun 2027 12:50:12.123           155.751               CapeTown          4867.219
        48   01 Jun 2027 12:53:23.030   01 Jun 2027 12:55:08.505           105.475               CapeTown          3296.094
        49   01 Jun 2027 13:08:23.500   01 Jun 2027 13:09:12.012            48.512                 Moscow          1516.000
        50   01 Jun 2027 13:11:47.258   01 Jun 2027 13:15:56.602           249.344              Murmansk1          7792.000
        51   01 Jun 2027 13:26:35.360   01 Jun 2027 13:30:22.183           226.823                Anadyr1          7088.219
        52   01 Jun 2027 13:30:24.390   01 Jun 2027 13:33:29.037           184.647                Anadyr2          5770.219
        53   01 Jun 2027 14:50:28.121   01 Jun 2027 14:50:59.280            31.159              Murmansk2           973.719
        54   01 Jun 2027 14:53:47.686   01 Jun 2027 14:54:09.294            21.608              Murmansk1           675.250
        55   01 Jun 2027 14:54:21.283   01 Jun 2027 14:55:02.627            41.344              Murmansk1          1292.000
        56   01 Jun 2027 15:01:51.102   01 Jun 2027 15:03:28.584            97.482                Anadyr2          3046.312
        57   01 Jun 2027 15:03:56.726   01 Jun 2027 15:04:09.538            12.812                Anadyr2           400.375
        58   01 Jun 2027 15:04:26.058   01 Jun 2027 15:04:38.409            12.351                Anadyr2           385.969
        59   01 Jun 2027 15:05:05.210   01 Jun 2027 15:05:22.865            17.655                Anadyr2           551.719
        60   01 Jun 2027 15:06:17.956   01 Jun 2027 15:09:41.233           203.277               Magadan1          6352.406
        61   01 Jun 2027 15:09:41.233   01 Jun 2027 15:10:50.430            69.197               Magadan2          2162.406
        62   01 Jun 2027 16:37:43.205   01 Jun 2027 16:39:27.242           104.037                Anadyr2          3251.156
        63   01 Jun 2027 16:40:12.057   01 Jun 2027 16:41:10.787            58.730               Magadan1          1835.312
        64   01 Jun 2027 16:41:10.787   01 Jun 2027 16:43:07.292           116.505               Magadan2          3640.781
        65   01 Jun 2027 16:43:17.084   01 Jun 2027 16:45:05.745           108.661               Magadan2          3395.656
        66   01 Jun 2027 16:51:40.323   01 Jun 2027 16:51:46.040             5.717               Magadan2           178.656
        67   01 Jun 2027 18:13:36.814   01 Jun 2027 18:15:10.452            93.638                Anadyr2          2926.187
        68   01 Jun 2027 18:15:20.989   01 Jun 2027 18:18:04.346           163.357                Anadyr1          5104.906
        69   01 Jun 2027 18:18:18.008   01 Jun 2027 18:18:39.659            21.651                Anadyr1           676.594
        70   01 Jun 2027 18:18:50.569   01 Jun 2027 18:21:06.009           135.440                Norilsk          4232.500
        71   01 Jun 2027 18:23:18.543   01 Jun 2027 18:25:21.945           123.402                Irkutsk          3856.312
        72   01 Jun 2027 19:07:58.102   01 Jun 2027 19:08:30.211            32.109            RioGallegos          1003.406
        73   01 Jun 2027 19:09:06.443   01 Jun 2027 19:09:30.425            23.982            RioGallegos           749.438
        74   01 Jun 2027 19:10:41.826   01 Jun 2027 19:11:19.363            37.537            RioGallegos          1173.031
        75   01 Jun 2027 19:17:25.697   01 Jun 2027 19:17:54.382            28.685            RioGallegos           896.406
        76   01 Jun 2027 19:51:28.762   01 Jun 2027 19:53:09.801           101.039                Norilsk          3157.469
        77   01 Jun 2027 19:53:17.585   01 Jun 2027 19:53:44.323            26.738               Magadan2           835.562
        78   01 Jun 2027 19:55:18.791   01 Jun 2027 19:56:31.318            72.527                Norilsk          2266.469
        79   01 Jun 2027 19:56:46.691   01 Jun 2027 19:57:31.769            45.078                Irkutsk          1408.687
        80   01 Jun 2027 19:58:12.339   01 Jun 2027 20:03:04.959           292.620                Novosib          9144.375
        81   01 Jun 2027 20:10:29.021   01 Jun 2027 20:11:29.139            60.118                Sumatra          1878.688
        82   01 Jun 2027 20:12:35.029   01 Jun 2027 20:12:57.153            22.124                Sumatra           691.375
        83   01 Jun 2027 20:19:42.909   01 Jun 2027 20:20:59.017            76.108                Sumatra          2378.375
        84   01 Jun 2027 21:31:18.585   01 Jun 2027 21:31:38.316            19.731                Irkutsk           616.594
        85   01 Jun 2027 21:31:48.802   01 Jun 2027 21:33:26.442            97.640                Novosib          3051.250
        86   01 Jun 2027 21:39:02.512   01 Jun 2027 21:42:30.459           207.947                  Delhi          6498.344
        87   01 Jun 2027 22:59:25.066   01 Jun 2027 22:59:51.304            26.238                Anadyr1           819.938
        88   01 Jun 2027 23:03:21.536   01 Jun 2027 23:05:21.423           119.887               Magadan1          3746.469
        89   01 Jun 2027 23:05:21.423   01 Jun 2027 23:05:27.907             6.484               Magadan2           202.625
        90   01 Jun 2027 23:05:45.474   01 Jun 2027 23:10:34.549           289.075              Murmansk1          9033.594
        91   01 Jun 2027 23:11:45.162   01 Jun 2027 23:14:49.857           184.695                 Moscow          5771.719
        92   02 Jun 2027 00:35:37.192   02 Jun 2027 00:37:38.080           120.888               Magadan1          3777.750
        93   02 Jun 2027 00:38:05.648   02 Jun 2027 00:39:20.984            75.336               Magadan1          2354.250
        94   02 Jun 2027 00:41:32.969   02 Jun 2027 00:41:33.179             0.210              Murmansk1             6.562
        95   02 Jun 2027 00:42:00.997   02 Jun 2027 00:43:42.887           101.890              Murmansk2          3184.063
        96   02 Jun 2027 00:44:24.015   02 Jun 2027 00:44:53.118            29.103              Murmansk2           909.469
        97   02 Jun 2027 00:45:05.739   02 Jun 2027 00:46:52.401           106.662                 Moscow          3333.188
        98   02 Jun 2027 01:09:02.535   02 Jun 2027 01:10:37.868            95.333               CapeTown          2979.156
        99   02 Jun 2027 01:20:06.522   02 Jun 2027 01:20:27.161            20.639               CapeTown           644.969
       100   02 Jun 2027 02:05:25.775   02 Jun 2027 02:06:47.629            81.854                Anadyr2          2557.937
       101   02 Jun 2027 02:07:13.010   02 Jun 2027 02:07:20.492             7.482                Anadyr1           233.813
       102   02 Jun 2027 02:07:35.188   02 Jun 2027 02:08:47.613            72.425               Magadan1          2263.281
       103   02 Jun 2027 02:09:40.729   02 Jun 2027 02:10:07.238            26.509               Magadan2           828.406
       104   02 Jun 2027 02:11:03.470   02 Jun 2027 02:11:16.218            12.748               Magadan2           398.375
       105   02 Jun 2027 02:13:42.477   02 Jun 2027 02:13:48.871             6.394               Magadan2           199.812
       106   02 Jun 2027 02:14:36.309   02 Jun 2027 02:14:47.722            11.413                Norilsk           356.656
       107   02 Jun 2027 02:16:35.870   02 Jun 2027 02:16:56.835            20.965                Norilsk           655.156
       108   02 Jun 2027 02:17:31.094   02 Jun 2027 02:17:41.984            10.890              Murmansk1           340.313
       109   02 Jun 2027 02:17:41.984   02 Jun 2027 02:18:25.059            43.075              Murmansk2          1346.094
       110   02 Jun 2027 02:18:51.124   02 Jun 2027 02:19:04.236            13.112              Murmansk1           409.750
       111   02 Jun 2027 02:20:08.115   02 Jun 2027 02:20:42.389            34.274              Murmansk2          1071.062
       112   02 Jun 2027 02:20:54.492   02 Jun 2027 02:21:03.412             8.920                 Moscow           278.750
       113   02 Jun 2027 02:21:50.200   02 Jun 2027 02:22:10.400            20.200                 Moscow           631.250
       114   02 Jun 2027 02:24:41.467   02 Jun 2027 02:25:05.697            24.230                 Moscow           757.188
       115   02 Jun 2027 02:27:56.965   02 Jun 2027 02:29:25.932            88.967                 Moscow          2780.219
       116   02 Jun 2027 02:51:53.884   02 Jun 2027 02:52:17.529            23.645               CapeTown           738.906
       117   02 Jun 2027 03:46:11.512   02 Jun 2027 03:48:01.916           110.404                Anadyr1          3450.125
       118   02 Jun 2027 03:48:15.893   02 Jun 2027 03:50:47.185           151.292               Magadan2          4727.875
       119   02 Jun 2027 03:50:47.185   02 Jun 2027 03:52:49.389           122.204               Magadan1          3818.875
       120   02 Jun 2027 03:52:49.389   02 Jun 2027 03:53:50.552            61.163               Magadan2          1911.344
       121   02 Jun 2027 05:23:22.226   02 Jun 2027 05:23:48.397            26.171                Irkutsk           817.844
       122   02 Jun 2027 05:24:51.570   02 Jun 2027 05:25:47.898            56.328                Anadyr2          1760.250
       123   02 Jun 2027 05:26:00.654   02 Jun 2027 05:29:30.568           209.914                Anadyr1          6559.812
       124   02 Jun 2027 07:01:38.016   02 Jun 2027 07:03:48.198           130.182               Magadan2          4068.187
       125   02 Jun 2027 07:04:14.914   02 Jun 2027 07:04:38.404            23.490               Magadan1           734.062
       126   02 Jun 2027 07:05:25.482   02 Jun 2027 07:06:49.487            84.005                Novosib          2625.156
       127   02 Jun 2027 07:10:29.723   02 Jun 2027 07:10:31.182             1.459              Murmansk2            45.594
       128   02 Jun 2027 07:10:52.000   02 Jun 2027 07:10:59.715             7.715              Murmansk2           241.094
       129   02 Jun 2027 07:45:21.331   02 Jun 2027 07:47:30.160           128.829            RioGallegos          4025.906
       130   02 Jun 2027 08:17:54.947   02 Jun 2027 08:23:02.095           307.148                Sumatra          9598.375
       131   02 Jun 2027 08:25:41.168   02 Jun 2027 08:27:55.285           134.117                Sumatra          4191.156
       132   02 Jun 2027 08:38:56.505   02 Jun 2027 08:39:48.796            52.291                Irkutsk          1634.094
       133   02 Jun 2027 08:40:37.273   02 Jun 2027 08:40:37.885             0.612                Irkutsk            19.125
       134   02 Jun 2027 08:40:41.797   02 Jun 2027 08:40:53.653            11.856                Irkutsk           370.500
       135   02 Jun 2027 08:44:10.473   02 Jun 2027 08:44:15.880             5.407                Norilsk           168.969
       136   02 Jun 2027 08:44:24.244   02 Jun 2027 08:44:43.296            19.052                Norilsk           595.375
       137   02 Jun 2027 08:47:20.738   02 Jun 2027 08:47:48.182            27.444              Murmansk2           857.625
       138   02 Jun 2027 09:19:34.620   02 Jun 2027 09:22:19.667           165.047            RioGallegos          5157.719
       139   02 Jun 2027 09:22:50.771   02 Jun 2027 09:23:20.518            29.747            RioGallegos           929.594
       140   02 Jun 2027 09:23:38.823   02 Jun 2027 09:23:42.588             3.765            RioGallegos           117.656
       141   02 Jun 2027 09:24:19.376   02 Jun 2027 09:24:49.793            30.417            RioGallegos           950.531
       142   02 Jun 2027 09:25:22.324   02 Jun 2027 09:26:35.550            73.226            RioGallegos          2288.313
       143   02 Jun 2027 09:54:18.653   02 Jun 2027 09:57:26.924           188.271                Sumatra          5883.469
       144   02 Jun 2027 10:13:42.137   02 Jun 2027 10:13:50.769             8.632                Irkutsk           269.750
       145   02 Jun 2027 10:14:01.051   02 Jun 2027 10:14:26.662            25.611                Norilsk           800.344
       146   02 Jun 2027 10:14:34.321   02 Jun 2027 10:14:59.343            25.022                Norilsk           781.938
       147   02 Jun 2027 10:15:10.829   02 Jun 2027 10:15:59.240            48.411                Norilsk          1512.844
       148   02 Jun 2027 10:16:04.511   02 Jun 2027 10:16:14.642            10.131                Norilsk           316.594
       149   02 Jun 2027 10:16:35.702   02 Jun 2027 10:16:36.438             0.736                Novosib            23.000
       150   02 Jun 2027 10:16:40.964   02 Jun 2027 10:16:47.940             6.976                Novosib           218.000
       151   02 Jun 2027 10:17:08.611   02 Jun 2027 10:17:26.574            17.963                Norilsk           561.344
       152   02 Jun 2027 11:56:48.084   02 Jun 2027 11:57:08.714            20.630              Murmansk2           644.687
       153   02 Jun 2027 12:58:54.557   02 Jun 2027 13:00:36.039           101.482               CapeTown          3171.312
       154   02 Jun 2027 13:01:44.194   02 Jun 2027 13:01:56.550            12.356               CapeTown           386.125
       155   02 Jun 2027 13:03:42.708   02 Jun 2027 13:05:36.932           114.224               CapeTown          3569.500
       156   02 Jun 2027 13:24:01.627   02 Jun 2027 13:25:22.596            80.969              Murmansk2          2530.281
       157   02 Jun 2027 13:26:04.292   02 Jun 2027 13:26:30.337            26.045              Murmansk2           813.906
       158   02 Jun 2027 13:26:31.567   02 Jun 2027 13:26:48.183            16.616              Murmansk1           519.250
       159   02 Jun 2027 13:27:27.705   02 Jun 2027 13:27:43.988            16.283              Murmansk1           508.844
       160   02 Jun 2027 13:28:01.500   02 Jun 2027 13:28:49.055            47.555              Murmansk1          1486.094
       161   02 Jun 2027 13:31:55.342   02 Jun 2027 13:32:01.769             6.427              Murmansk2           200.844
       162   02 Jun 2027 13:32:40.784   02 Jun 2027 13:33:42.070            61.286              Murmansk1          1915.187
       163   02 Jun 2027 13:38:26.251   02 Jun 2027 13:42:00.883           214.632                Anadyr1          6707.250
       164   02 Jun 2027 13:44:05.877   02 Jun 2027 13:44:21.593            15.716                Anadyr1           491.125
       165   02 Jun 2027 15:03:01.503   02 Jun 2027 15:04:19.751            78.248              Murmansk2          2445.250
       166   02 Jun 2027 15:06:10.452   02 Jun 2027 15:06:16.109             5.657              Murmansk2           176.781
       167   02 Jun 2027 15:08:10.086   02 Jun 2027 15:08:37.537            27.451              Murmansk1           857.844
       168   02 Jun 2027 15:13:51.132   02 Jun 2027 15:16:01.359           130.227                Anadyr2          4069.594
       169   02 Jun 2027 15:16:21.422   02 Jun 2027 15:16:38.903            17.481                Anadyr2           546.281
       170   02 Jun 2027 15:17:41.313   02 Jun 2027 15:20:58.287           196.974               Magadan2          6155.437
       171   02 Jun 2027 15:21:14.059   02 Jun 2027 15:23:44.261           150.202               Magadan1          4693.813
       172   02 Jun 2027 16:50:08.240   02 Jun 2027 16:50:24.104            15.864                Anadyr2           495.750
       173   02 Jun 2027 16:51:03.535   02 Jun 2027 16:51:16.148            12.613                Anadyr1           394.156
       174   02 Jun 2027 16:52:09.507   02 Jun 2027 16:54:10.539           121.032               Magadan2          3782.250
       175   02 Jun 2027 16:54:12.303   02 Jun 2027 16:54:28.317            16.014               Magadan1           500.437
       176   02 Jun 2027 16:55:09.480   02 Jun 2027 16:55:18.836             9.356               Magadan1           292.375
       177   02 Jun 2027 17:00:10.987   02 Jun 2027 17:00:29.206            18.219               Magadan2           569.344
       178   02 Jun 2027 17:03:48.984   02 Jun 2027 17:03:57.771             8.787               Magadan2           274.594
       179   02 Jun 2027 18:25:36.986   02 Jun 2027 18:29:32.299           235.313                Anadyr1          7353.531
       180   02 Jun 2027 18:29:53.605   02 Jun 2027 18:30:07.537            13.932                Anadyr1           435.375
       181   02 Jun 2027 18:30:07.620   02 Jun 2027 18:31:52.992           105.372                Norilsk          3292.875
       182   02 Jun 2027 18:33:52.537   02 Jun 2027 18:36:35.797           163.260                Irkutsk          5101.875
       183   02 Jun 2027 18:37:26.086   02 Jun 2027 18:39:15.269           109.183                Irkutsk          3411.969
       184   02 Jun 2027 19:29:38.536   02 Jun 2027 19:29:53.356            14.820            RioGallegos           463.125
       185   02 Jun 2027 20:03:29.590   02 Jun 2027 20:05:07.478            97.888                Norilsk          3059.000
       186   02 Jun 2027 20:06:50.450   02 Jun 2027 20:07:40.811            50.361                Norilsk          1573.781
       187   02 Jun 2027 20:08:44.027   02 Jun 2027 20:13:17.603           273.576                Novosib          8549.250
       188   02 Jun 2027 20:13:42.693   02 Jun 2027 20:15:09.425            86.732                Novosib          2710.375
       189   02 Jun 2027 20:22:02.261   02 Jun 2027 20:22:59.242            56.981                Sumatra          1780.656
       190   02 Jun 2027 21:41:03.184   02 Jun 2027 21:41:28.015            24.831               Magadan2           775.969
       191   02 Jun 2027 21:43:21.265   02 Jun 2027 21:45:24.597           123.332                Novosib          3854.125
       192   02 Jun 2027 21:48:23.365   02 Jun 2027 21:48:28.981             5.616                Novosib           175.500
       193   02 Jun 2027 21:50:51.178   02 Jun 2027 21:54:20.267           209.089                  Delhi          6534.031
       194   02 Jun 2027 22:02:26.979   02 Jun 2027 22:02:45.627            18.648                  Delhi           582.750
       195   02 Jun 2027 23:15:06.117   02 Jun 2027 23:15:43.468            37.351               Magadan2          1167.219
       196   02 Jun 2027 23:15:55.417   02 Jun 2027 23:16:10.259            14.842               Magadan1           463.813
       197   02 Jun 2027 23:16:28.620   02 Jun 2027 23:17:00.021            31.401                Norilsk           981.281
       198   02 Jun 2027 23:17:43.989   02 Jun 2027 23:19:40.234           116.245              Murmansk1          3632.656
       199   02 Jun 2027 23:19:42.532   02 Jun 2027 23:23:00.451           197.919              Murmansk2          6184.969
       200   02 Jun 2027 23:23:47.562   02 Jun 2027 23:26:39.090           171.528                 Moscow          5360.250
       201   02 Jun 2027 23:50:06.196   02 Jun 2027 23:51:08.158            61.962               CapeTown          1936.312
       202   03 Jun 2027 00:48:19.797   03 Jun 2027 00:48:26.528             6.731               Magadan1           210.344
       203   03 Jun 2027 00:49:11.250   03 Jun 2027 00:49:20.058             8.808               Magadan2           275.250
       204   03 Jun 2027 00:50:49.537   03 Jun 2027 00:52:08.958            79.421               Magadan2          2481.906
       205   03 Jun 2027 00:53:34.507   03 Jun 2027 00:55:01.293            86.786              Murmansk2          2712.063
       206   03 Jun 2027 00:56:51.105   03 Jun 2027 00:58:44.582           113.477                 Moscow          3546.156
       207   03 Jun 2027 01:20:51.289   03 Jun 2027 01:22:30.145            98.856               CapeTown          3089.250
       208   03 Jun 2027 02:17:25.119   03 Jun 2027 02:18:23.974            58.855                Anadyr1          1839.219
       209   03 Jun 2027 02:19:13.078   03 Jun 2027 02:20:17.146            64.068               Magadan2          2002.125
       210   03 Jun 2027 02:21:36.347   03 Jun 2027 02:22:40.488            64.141               Magadan2          2004.406
       211   03 Jun 2027 02:27:56.440   03 Jun 2027 02:28:10.397            13.957                Norilsk           436.156
       212   03 Jun 2027 02:29:32.479   03 Jun 2027 02:30:51.158            78.679              Murmansk2          2458.719
       213   03 Jun 2027 02:31:11.911   03 Jun 2027 02:31:12.714             0.803              Murmansk2            25.094
       214   03 Jun 2027 02:32:50.162   03 Jun 2027 02:33:32.732            42.570                 Moscow          1330.313
       215   03 Jun 2027 02:37:05.239   03 Jun 2027 02:37:10.724             5.485                 Moscow           171.406
       216   03 Jun 2027 02:39:02.335   03 Jun 2027 02:39:12.569            10.234                 Moscow           319.813
       217   03 Jun 2027 02:39:47.103   03 Jun 2027 02:39:57.046             9.943                 Moscow           310.719
       218   03 Jun 2027 02:41:36.804   03 Jun 2027 02:41:43.755             6.951                 Moscow           217.219
       219   03 Jun 2027 02:42:12.576   03 Jun 2027 02:42:27.900            15.324                 Moscow           478.875
       220   03 Jun 2027 02:58:22.146   03 Jun 2027 02:58:45.130            22.984               CapeTown           718.250
       221   03 Jun 2027 02:58:46.932   03 Jun 2027 03:00:21.532            94.600               CapeTown          2956.250
       222   03 Jun 2027 03:57:44.397   03 Jun 2027 03:57:48.716             4.319               Magadan2           134.969
       223   03 Jun 2027 03:57:50.742   03 Jun 2027 03:58:20.902            30.160               Magadan2           942.500
       224   03 Jun 2027 03:58:20.902   03 Jun 2027 03:58:30.682             9.780               Magadan1           305.625
       225   03 Jun 2027 03:58:54.466   03 Jun 2027 04:03:35.751           281.285               Magadan1          8790.156
       226   03 Jun 2027 04:03:54.064   03 Jun 2027 04:04:08.163            14.099                Anadyr2           440.594
       227   03 Jun 2027 04:04:08.163   03 Jun 2027 04:04:39.899            31.736                Anadyr1           991.750
       228   03 Jun 2027 04:45:16.760   03 Jun 2027 04:47:24.818           128.058            RioGallegos          4001.813
       229   03 Jun 2027 05:35:30.113   03 Jun 2027 05:36:11.643            41.530               Magadan1          1297.813
       230   03 Jun 2027 05:36:22.116   03 Jun 2027 05:41:18.826           296.710                Anadyr1          9272.187
       231   03 Jun 2027 05:41:25.704   03 Jun 2027 05:41:45.804            20.100               Magadan1           628.125
       232   03 Jun 2027 07:12:28.414   03 Jun 2027 07:12:40.716            12.302               Magadan2           384.437
       233   03 Jun 2027 07:13:02.567   03 Jun 2027 07:13:38.154            35.587               Magadan2          1112.094
       234   03 Jun 2027 07:13:38.154   03 Jun 2027 07:14:14.751            36.597               Magadan1          1143.656
       235   03 Jun 2027 07:15:16.332   03 Jun 2027 07:15:32.068            15.736               Magadan2           491.750
       236   03 Jun 2027 07:15:44.129   03 Jun 2027 07:16:12.479            28.350               Magadan2           885.938
       237   03 Jun 2027 07:16:54.661   03 Jun 2027 07:17:13.587            18.926                Norilsk           591.437
       238   03 Jun 2027 07:18:03.428   03 Jun 2027 07:18:30.715            27.287              Murmansk2           852.719
       239   03 Jun 2027 07:57:04.886   03 Jun 2027 07:57:28.668            23.782            RioGallegos           743.187
       240   03 Jun 2027 08:27:11.455   03 Jun 2027 08:28:16.711            65.256                Sumatra          2039.250
       241   03 Jun 2027 08:34:52.995   03 Jun 2027 08:35:40.809            47.814                Sumatra          1494.187
       242   03 Jun 2027 08:49:27.620   03 Jun 2027 08:50:00.105            32.485                Irkutsk          1015.156
       243   03 Jun 2027 08:50:13.867   03 Jun 2027 08:50:41.663            27.796              Murmansk1           868.625
       244   03 Jun 2027 08:51:13.265   03 Jun 2027 08:51:17.243             3.978                Irkutsk           124.313
       245   03 Jun 2027 08:51:51.971   03 Jun 2027 08:51:56.582             4.611                Irkutsk           144.094
       246   03 Jun 2027 08:52:22.705   03 Jun 2027 08:52:54.549            31.844                Norilsk           995.125
       247   03 Jun 2027 08:53:12.134   03 Jun 2027 08:53:18.029             5.895                Norilsk           184.219
       248   03 Jun 2027 08:53:29.996   03 Jun 2027 08:54:29.330            59.334                Norilsk          1854.188
       249   03 Jun 2027 09:34:50.761   03 Jun 2027 09:35:47.091            56.330            RioGallegos          1760.313
       250   03 Jun 2027 10:11:29.794   03 Jun 2027 10:12:59.400            89.606                  Delhi          2800.187
       251   03 Jun 2027 10:25:30.502   03 Jun 2027 10:25:36.935             6.433                Novosib           201.031
       252   03 Jun 2027 10:28:08.691   03 Jun 2027 10:28:33.079            24.388                Novosib           762.125
       253   03 Jun 2027 10:28:42.598   03 Jun 2027 10:29:12.786            30.188                Novosib           943.375
       254   03 Jun 2027 12:03:15.346   03 Jun 2027 12:04:17.334            61.988                Norilsk          1937.125
       255   03 Jun 2027 12:06:18.075   03 Jun 2027 12:07:28.577            70.502                Norilsk          2203.188
       256   03 Jun 2027 12:07:41.896   03 Jun 2027 12:09:03.577            81.681                Norilsk          2552.531
       257   03 Jun 2027 13:13:45.496   03 Jun 2027 13:14:29.090            43.594               CapeTown          1362.313
       258   03 Jun 2027 13:15:34.361   03 Jun 2027 13:16:16.325            41.964               CapeTown          1311.375
       259   03 Jun 2027 13:18:51.470   03 Jun 2027 13:19:42.549            51.079               CapeTown          1596.219
       260   03 Jun 2027 13:33:08.890   03 Jun 2027 13:33:24.093            15.203                 Moscow           475.094
       261   03 Jun 2027 13:36:18.000   03 Jun 2027 13:38:05.421           107.421              Murmansk1          3356.906
       262   03 Jun 2027 13:40:56.594   03 Jun 2027 13:41:20.363            23.769              Murmansk2           742.781
       263   03 Jun 2027 13:42:49.817   03 Jun 2027 13:43:20.583            30.766              Murmansk2           961.438
       264   03 Jun 2027 13:44:37.209   03 Jun 2027 13:45:36.842            59.633              Murmansk1          1863.531
       265   03 Jun 2027 13:50:19.632   03 Jun 2027 13:52:45.538           145.906                Anadyr2          4559.562
       266   03 Jun 2027 13:53:48.529   03 Jun 2027 13:54:16.140            27.611                Anadyr1           862.844
       267   03 Jun 2027 13:56:05.584   03 Jun 2027 13:57:31.437            85.853                Anadyr2          2682.906
       268   03 Jun 2027 15:15:59.427   03 Jun 2027 15:16:19.156            19.729              Murmansk1           616.531
       269   03 Jun 2027 15:17:51.207   03 Jun 2027 15:18:08.427            17.220              Murmansk1           538.125
       270   03 Jun 2027 15:19:32.802   03 Jun 2027 15:19:52.609            19.807              Murmansk1           618.969
       271   03 Jun 2027 15:21:41.587   03 Jun 2027 15:21:57.768            16.181              Murmansk1           505.656
       272   03 Jun 2027 15:25:51.521   03 Jun 2027 15:26:27.355            35.834                Anadyr1          1119.813
       273   03 Jun 2027 15:26:55.265   03 Jun 2027 15:27:31.013            35.748                Anadyr2          1117.125
       274   03 Jun 2027 15:28:03.999   03 Jun 2027 15:28:23.269            19.270                Anadyr1           602.188
       275   03 Jun 2027 15:28:39.104   03 Jun 2027 15:29:07.835            28.731                Anadyr2           897.844
       276   03 Jun 2027 15:29:18.403   03 Jun 2027 15:34:15.004           296.601               Magadan1          9268.781
       277   03 Jun 2027 15:35:46.634   03 Jun 2027 15:35:51.949             5.315               Magadan1           166.094
       278   03 Jun 2027 17:01:45.944   03 Jun 2027 17:02:20.783            34.839                Anadyr2          1088.719
       279   03 Jun 2027 17:03:07.024   03 Jun 2027 17:03:17.615            10.591                Anadyr1           330.969
       280   03 Jun 2027 17:03:40.798   03 Jun 2027 17:03:57.180            16.382                Anadyr1           511.938
       281   03 Jun 2027 17:04:07.834   03 Jun 2027 17:04:54.135            46.301               Magadan2          1446.906
       282   03 Jun 2027 17:05:30.722   03 Jun 2027 17:06:14.741            44.019               Magadan1          1375.594
       283   03 Jun 2027 17:07:02.711   03 Jun 2027 17:07:11.364             8.653               Magadan1           270.406
       284   03 Jun 2027 17:08:30.981   03 Jun 2027 17:09:45.453            74.472               Magadan1          2327.250
       285   03 Jun 2027 18:37:36.798   03 Jun 2027 18:39:12.816            96.018                Anadyr2          3000.562
       286   03 Jun 2027 18:39:22.548   03 Jun 2027 18:41:03.935           101.387                Anadyr1          3168.344
       287   03 Jun 2027 18:41:08.575   03 Jun 2027 18:42:34.356            85.781               Magadan1          2680.656
       288   03 Jun 2027 18:42:45.178   03 Jun 2027 18:44:24.425            99.247                Norilsk          3101.469
       289   03 Jun 2027 18:45:12.703   03 Jun 2027 18:49:17.915           245.212                Irkutsk          7662.875
       290   03 Jun 2027 18:49:51.127   03 Jun 2027 18:51:16.587            85.460                Irkutsk          2670.625
       291   03 Jun 2027 19:01:02.793   03 Jun 2027 19:02:34.058            91.265                Sumatra          2852.031
       292   03 Jun 2027 19:03:33.716   03 Jun 2027 19:04:01.031            27.315                Sumatra           853.594
       293   03 Jun 2027 19:05:52.001   03 Jun 2027 19:06:04.923            12.922                Sumatra           403.813
       294   03 Jun 2027 20:20:24.611   03 Jun 2027 20:22:18.101           113.490                Novosib          3546.562
       295   03 Jun 2027 20:23:59.083   03 Jun 2027 20:25:08.829            69.746                Novosib          2179.563
       296   03 Jun 2027 20:33:12.305   03 Jun 2027 20:33:39.679            27.374                Sumatra           855.438
       297   03 Jun 2027 20:33:54.774   03 Jun 2027 20:35:40.887           106.113                Sumatra          3316.031
       298   03 Jun 2027 21:52:04.731   03 Jun 2027 21:52:59.232            54.501               Magadan1          1703.156
       299   03 Jun 2027 21:54:56.178   03 Jun 2027 21:58:31.906           215.728              Murmansk2          6741.500
       300   03 Jun 2027 22:02:43.988   03 Jun 2027 22:04:09.215            85.227                  Delhi          2663.344
       301   03 Jun 2027 22:08:11.077   03 Jun 2027 22:08:36.159            25.082                  Delhi           783.812
       302   03 Jun 2027 23:26:46.370   03 Jun 2027 23:27:36.808            50.438               Magadan1          1576.188
       303   03 Jun 2027 23:28:09.168   03 Jun 2027 23:28:51.756            42.588               Magadan2          1330.875
       304   03 Jun 2027 23:29:31.565   03 Jun 2027 23:29:57.550            25.985               Magadan2           812.031
       305   03 Jun 2027 23:30:00.083   03 Jun 2027 23:31:32.797            92.714              Murmansk2          2897.312
       306   03 Jun 2027 23:32:03.601   03 Jun 2027 23:33:09.339            65.738                Novosib          2054.312
       307   03 Jun 2027 23:33:43.757   03 Jun 2027 23:37:24.852           221.095                 Moscow          6909.219
       308   03 Jun 2027 23:42:06.342   03 Jun 2027 23:43:27.495            81.153                 Moscow          2536.031
       309   04 Jun 2027 00:00:42.998   04 Jun 2027 00:02:32.136           109.138               CapeTown          3410.562
       310   04 Jun 2027 01:05:36.135   04 Jun 2027 01:07:07.123            90.988              Murmansk1          2843.375
       311   04 Jun 2027 01:07:51.856   04 Jun 2027 01:08:55.477            63.621              Murmansk2          1988.156
       312   04 Jun 2027 01:10:38.746   04 Jun 2027 01:10:45.180             6.434                 Moscow           201.063
       313   04 Jun 2027 01:11:13.526   04 Jun 2027 01:11:55.282            41.756                 Moscow          1304.875
       314   04 Jun 2027 01:16:33.867   04 Jun 2027 01:17:03.876            30.009                 Moscow           937.781
       315   04 Jun 2027 01:32:45.067   04 Jun 2027 01:33:32.641            47.574               CapeTown          1486.688
       316   04 Jun 2027 01:36:42.191   04 Jun 2027 01:37:03.141            20.950               CapeTown           654.687
       317   04 Jun 2027 01:40:00.582   04 Jun 2027 01:41:16.110            75.528               CapeTown          2360.250
       318   04 Jun 2027 02:29:26.341   04 Jun 2027 02:30:13.064            46.723                Anadyr1          1460.094
       319   04 Jun 2027 02:30:52.772   04 Jun 2027 02:32:19.875            87.103               Magadan2          2721.969
       320   04 Jun 2027 02:37:05.393   04 Jun 2027 02:37:09.165             3.772               Magadan1           117.875
       321   04 Jun 2027 02:38:15.271   04 Jun 2027 02:38:31.526            16.255                Norilsk           507.969
       322   04 Jun 2027 02:40:12.351   04 Jun 2027 02:40:19.581             7.230                Norilsk           225.937
       323   04 Jun 2027 02:40:29.085   04 Jun 2027 02:40:34.236             5.151                Norilsk           160.969
       324   04 Jun 2027 02:41:33.710   04 Jun 2027 02:41:53.857            20.147              Murmansk2           629.594
       325   04 Jun 2027 02:42:07.195   04 Jun 2027 02:42:45.261            38.066              Murmansk1          1189.563
       326   04 Jun 2027 02:43:11.107   04 Jun 2027 02:43:15.947             4.840              Murmansk2           151.250
       327   04 Jun 2027 02:43:52.697   04 Jun 2027 02:44:40.177            47.480              Murmansk2          1483.750
       328   04 Jun 2027 02:44:53.322   04 Jun 2027 02:45:17.667            24.345              Murmansk2           760.781
       329   04 Jun 2027 02:49:02.331   04 Jun 2027 02:49:16.300            13.969                 Moscow           436.531
       330   04 Jun 2027 02:51:57.818   04 Jun 2027 02:52:08.742            10.924                 Moscow           341.375
       331   04 Jun 2027 02:52:14.677   04 Jun 2027 02:53:11.259            56.582                 Moscow          1768.187
       332   04 Jun 2027 03:11:12.295   04 Jun 2027 03:11:30.524            18.229               CapeTown           569.656
       333   04 Jun 2027 03:13:32.234   04 Jun 2027 03:13:46.161            13.927               CapeTown           435.219
       334   04 Jun 2027 04:11:45.624   04 Jun 2027 04:13:33.650           108.026               Magadan2          3375.813
       335   04 Jun 2027 04:13:53.596   04 Jun 2027 04:16:47.553           173.957               Magadan2          5436.156
       336   04 Jun 2027 04:56:31.241   04 Jun 2027 04:58:53.891           142.650            RioGallegos          4457.813
       337   04 Jun 2027 05:47:46.883   04 Jun 2027 05:48:06.561            19.678               Magadan2           614.938
       338   04 Jun 2027 05:48:13.160   04 Jun 2027 05:49:39.966            86.806               Magadan1          2712.688
       339   04 Jun 2027 05:49:45.550   04 Jun 2027 05:51:58.252           132.702                Irkutsk          4146.938
       340   04 Jun 2027 05:52:10.041   04 Jun 2027 05:53:01.786            51.745                Anadyr2          1617.031
       341   04 Jun 2027 05:53:28.295   04 Jun 2027 05:53:43.335            15.040               Magadan2           470.000
       342   04 Jun 2027 05:55:54.761   04 Jun 2027 05:56:23.538            28.777              Murmansk1           899.281
       343   04 Jun 2027 07:23:58.366   04 Jun 2027 07:24:09.377            11.011               Magadan1           344.094
       344   04 Jun 2027 07:24:35.233   04 Jun 2027 07:24:50.576            15.343               Magadan2           479.469
       345   04 Jun 2027 07:25:33.526   04 Jun 2027 07:25:40.868             7.342               Magadan2           229.437
       346   04 Jun 2027 07:25:48.446   04 Jun 2027 07:26:23.665            35.219               Magadan1          1100.594
       347   04 Jun 2027 07:26:24.724   04 Jun 2027 07:27:13.275            48.551               Magadan2          1517.219
       348   04 Jun 2027 07:27:17.995   04 Jun 2027 07:27:41.450            23.455               Magadan1           732.969
       349   04 Jun 2027 07:29:22.819   04 Jun 2027 07:29:31.616             8.797                Norilsk           274.906
       350   04 Jun 2027 07:29:45.318   04 Jun 2027 07:29:55.496            10.178              Murmansk2           318.063
       351   04 Jun 2027 07:30:28.895   04 Jun 2027 07:30:42.103            13.208              Murmansk1           412.750
       352   04 Jun 2027 08:07:57.898   04 Jun 2027 08:08:11.316            13.418            RioGallegos           419.312
       353   04 Jun 2027 08:09:35.315   04 Jun 2027 08:09:54.206            18.891            RioGallegos           590.344
       354   04 Jun 2027 08:13:04.876   04 Jun 2027 08:13:32.735            27.859            RioGallegos           870.594
       355   04 Jun 2027 08:40:23.682   04 Jun 2027 08:41:28.434            64.752                Sumatra          2023.500
       356   04 Jun 2027 09:03:15.369   04 Jun 2027 09:03:20.624             5.255                Irkutsk           164.219
       357   04 Jun 2027 09:03:24.672   04 Jun 2027 09:03:42.727            18.055                Irkutsk           564.219
       358   04 Jun 2027 09:03:44.769   04 Jun 2027 09:03:45.111             0.342                Norilsk            10.687
       359   04 Jun 2027 09:03:52.296   04 Jun 2027 09:04:04.569            12.273                Novosib           383.531
       360   04 Jun 2027 09:04:35.960   04 Jun 2027 09:05:50.820            74.860                Novosib          2339.375
       361   04 Jun 2027 10:23:42.689   04 Jun 2027 10:25:08.376            85.687                  Delhi          2677.719
       362   04 Jun 2027 10:37:40.306   04 Jun 2027 10:37:52.754            12.448                Novosib           389.000
       363   04 Jun 2027 10:38:50.269   04 Jun 2027 10:39:25.170            34.901                Novosib          1090.656
       364   04 Jun 2027 10:39:36.344   04 Jun 2027 10:39:43.196             6.852                Novosib           214.125
       365   04 Jun 2027 10:39:54.440   04 Jun 2027 10:40:18.962            24.522                Norilsk           766.312
       366   04 Jun 2027 10:40:40.006   04 Jun 2027 10:40:43.620             3.614                Novosib           112.938
       367   04 Jun 2027 10:41:10.795   04 Jun 2027 10:41:14.752             3.957                Norilsk           123.656
       368   04 Jun 2027 12:11:17.932   04 Jun 2027 12:11:45.495            27.563              Murmansk2           861.344
       369   04 Jun 2027 12:16:01.056   04 Jun 2027 12:19:59.220           238.164                Norilsk          7442.625
       370   04 Jun 2027 13:22:04.289   04 Jun 2027 13:24:50.944           166.655               CapeTown          5207.969
       371   04 Jun 2027 13:25:38.170   04 Jun 2027 13:27:19.212           101.042               CapeTown          3157.562
       372   04 Jun 2027 13:48:36.445   04 Jun 2027 13:49:04.852            28.407              Murmansk2           887.719
       373   04 Jun 2027 13:49:09.879   04 Jun 2027 13:49:38.880            29.001              Murmansk1           906.281
       374   04 Jun 2027 13:50:34.284   04 Jun 2027 13:50:43.628             9.344              Murmansk1           292.000
       375   04 Jun 2027 13:53:21.685   04 Jun 2027 13:53:32.227            10.542              Murmansk2           329.437
       376   04 Jun 2027 13:53:32.227   04 Jun 2027 13:53:34.712             2.485              Murmansk1            77.656
       377   04 Jun 2027 13:57:16.967   04 Jun 2027 13:57:45.564            28.597              Murmansk2           893.656
       378   04 Jun 2027 14:02:14.805   04 Jun 2027 14:04:37.664           142.859                Anadyr2          4464.344
       379   04 Jun 2027 14:05:13.872   04 Jun 2027 14:06:34.984            81.112                Anadyr1          2534.750
       380   04 Jun 2027 15:08:17.854   04 Jun 2027 15:08:25.550             7.696               CapeTown           240.500
       381   04 Jun 2027 15:28:18.409   04 Jun 2027 15:29:52.813            94.404              Murmansk2          2950.125
       382   04 Jun 2027 15:30:13.403   04 Jun 2027 15:31:53.506           100.103              Murmansk2          3128.219
       383   04 Jun 2027 15:37:52.193   04 Jun 2027 15:39:29.684            97.491                Anadyr1          3046.594
       384   04 Jun 2027 15:41:02.406   04 Jun 2027 15:44:42.741           220.335               Magadan1          6885.469
       385   04 Jun 2027 15:45:36.383   04 Jun 2027 15:47:15.013            98.630               Magadan2          3082.187
       386   04 Jun 2027 17:14:54.845   04 Jun 2027 17:15:12.970            18.125                Anadyr1           566.406
       387   04 Jun 2027 17:16:06.892   04 Jun 2027 17:16:40.953            34.061               Magadan2          1064.406
       388   04 Jun 2027 17:16:40.953   04 Jun 2027 17:17:00.333            19.380               Magadan1           605.625
       389   04 Jun 2027 17:18:59.706   04 Jun 2027 17:19:05.415             5.709               Magadan1           178.406
       390   04 Jun 2027 17:19:12.833   04 Jun 2027 17:19:22.985            10.152               Magadan1           317.250
       391   04 Jun 2027 17:20:10.758   04 Jun 2027 17:21:52.381           101.623               Magadan2          3175.719
       392   04 Jun 2027 18:10:11.978   04 Jun 2027 18:12:46.660           154.682            RioGallegos          4833.813
       393   04 Jun 2027 18:51:11.739   04 Jun 2027 18:51:14.992             3.253                Anadyr2           101.656
       394   04 Jun 2027 18:51:48.446   04 Jun 2027 18:54:31.894           163.448                Norilsk          5107.750
       395   04 Jun 2027 18:55:19.659   04 Jun 2027 18:55:50.490            30.831                Norilsk           963.469
       396   04 Jun 2027 18:56:45.367   04 Jun 2027 18:57:39.032            53.665                Norilsk          1677.031
       397   04 Jun 2027 18:57:53.319   04 Jun 2027 19:00:11.264           137.945                Irkutsk          4310.781
       398   04 Jun 2027 19:01:20.332   04 Jun 2027 19:01:59.773            39.441                Irkutsk          1232.531
       399   04 Jun 2027 19:03:18.712   04 Jun 2027 19:04:06.476            47.764                Irkutsk          1492.625
       400   04 Jun 2027 19:11:49.480   04 Jun 2027 19:14:08.528           139.048                Sumatra          4345.250
       401   04 Jun 2027 19:16:02.270   04 Jun 2027 19:17:47.224           104.954                Sumatra          3279.813
       402   04 Jun 2027 20:32:10.381   04 Jun 2027 20:32:52.279            41.898                Novosib          1309.312
       403   04 Jun 2027 20:33:05.797   04 Jun 2027 20:34:18.898            73.101                Novosib          2284.406
       404   04 Jun 2027 20:42:25.771   04 Jun 2027 20:44:03.956            98.185                  Delhi          3068.281
       405   04 Jun 2027 20:45:13.605   04 Jun 2027 20:46:48.299            94.694                  Delhi          2959.187
       406   04 Jun 2027 22:06:33.846   04 Jun 2027 22:10:14.009           220.163              Murmansk1          6880.094
       407   04 Jun 2027 22:11:27.430   04 Jun 2027 22:11:36.809             9.379              Murmansk2           293.094
       408   04 Jun 2027 22:20:07.292   04 Jun 2027 22:20:24.760            17.468                  Delhi           545.875
       409   04 Jun 2027 22:21:49.211   04 Jun 2027 22:21:57.601             8.390                  Delhi           262.188
       410   04 Jun 2027 22:23:01.819   04 Jun 2027 22:23:53.149            51.330                  Delhi          1604.062
       411   04 Jun 2027 22:25:00.525   04 Jun 2027 22:26:29.227            88.702                  Delhi          2771.938
       412   04 Jun 2027 23:38:22.609   04 Jun 2027 23:40:11.739           109.130               Magadan2          3410.313
       413   04 Jun 2027 23:41:43.142   04 Jun 2027 23:44:30.001           166.859              Murmansk1          5214.344
       414   04 Jun 2027 23:45:32.443   04 Jun 2027 23:47:23.936           111.493                 Moscow          3484.156
       415   04 Jun 2027 23:48:30.785   04 Jun 2027 23:49:00.194            29.409                 Moscow           919.031
       416   05 Jun 2027 00:11:44.666   05 Jun 2027 00:14:03.552           138.886               CapeTown          4340.188
       417   05 Jun 2027 00:15:18.603   05 Jun 2027 00:15:39.222            20.619               CapeTown           644.344
       418   05 Jun 2027 00:17:20.527   05 Jun 2027 00:19:24.101           123.574               CapeTown          3861.688
       419   05 Jun 2027 01:18:50.830   05 Jun 2027 01:19:08.275            17.445              Murmansk1           545.156
       420   05 Jun 2027 01:19:53.641   05 Jun 2027 01:20:38.258            44.617              Murmansk2          1394.281
       421   05 Jun 2027 01:20:50.999   05 Jun 2027 01:22:03.269            72.270                 Moscow          2258.438
       422   05 Jun 2027 01:33:06.964   05 Jun 2027 01:33:45.176            38.212                 Moscow          1194.125
       423   05 Jun 2027 01:44:43.792   05 Jun 2027 01:44:44.083             0.291               CapeTown             9.094
       424   05 Jun 2027 01:47:11.876   05 Jun 2027 01:47:57.540            45.664               CapeTown          1427.000
       425   05 Jun 2027 01:51:53.968   05 Jun 2027 01:52:01.436             7.468               CapeTown           233.375
       426   05 Jun 2027 01:56:55.828   05 Jun 2027 01:57:31.752            35.924               CapeTown          1122.625
       427   05 Jun 2027 02:41:29.511   05 Jun 2027 02:42:25.911            56.400                Anadyr2          1762.500
       428   05 Jun 2027 02:42:34.332   05 Jun 2027 02:43:49.185            74.853               Magadan2          2339.156
       429   05 Jun 2027 02:44:22.605   05 Jun 2027 02:44:53.568            30.963               Magadan1           967.594
       430   05 Jun 2027 02:47:13.305   05 Jun 2027 02:47:34.737            21.432               Magadan1           669.750
       431   05 Jun 2027 02:50:43.552   05 Jun 2027 02:50:46.532             2.980                Norilsk            93.125
       432   05 Jun 2027 02:53:34.770   05 Jun 2027 02:55:06.234            91.464              Murmansk1          2858.250
       433   05 Jun 2027 02:56:19.468   05 Jun 2027 02:56:32.308            12.840              Murmansk1           401.250
       434   05 Jun 2027 02:56:51.569   05 Jun 2027 02:56:55.768             4.199              Murmansk2           131.219
       435   05 Jun 2027 02:56:58.805   05 Jun 2027 02:57:42.493            43.688                 Moscow          1365.250
       436   05 Jun 2027 02:59:08.046   05 Jun 2027 02:59:12.814             4.768                 Moscow           149.000
       437   05 Jun 2027 04:24:35.774   05 Jun 2027 04:25:02.811            27.037               Magadan1           844.906
       438   05 Jun 2027 04:25:35.552   05 Jun 2027 04:27:28.979           113.427               Magadan1          3544.594
       439   05 Jun 2027 04:27:28.979   05 Jun 2027 04:27:38.052             9.073               Magadan2           283.531
       440   05 Jun 2027 04:28:10.350   05 Jun 2027 04:28:36.160            25.810               Magadan2           806.563
       441   05 Jun 2027 05:07:51.531   05 Jun 2027 05:10:26.757           155.226            RioGallegos          4850.812
       442   05 Jun 2027 05:58:45.911   05 Jun 2027 05:59:28.840            42.929                Irkutsk          1341.531
       443   05 Jun 2027 06:00:22.703   05 Jun 2027 06:00:37.420            14.717                Novosib           459.906
       444   05 Jun 2027 06:00:43.157   05 Jun 2027 06:01:42.793            59.636               Magadan1          1863.625
       445   05 Jun 2027 06:01:42.793   05 Jun 2027 06:03:14.538            91.745               Magadan2          2867.031
       446   05 Jun 2027 06:03:34.602   05 Jun 2027 06:04:13.985            39.383                Irkutsk          1230.719
       447   05 Jun 2027 06:04:38.326   05 Jun 2027 06:05:22.810            44.484                Irkutsk          1390.125
       448   05 Jun 2027 06:05:30.715   05 Jun 2027 06:05:39.823             9.108               Magadan1           284.625
       449   05 Jun 2027 06:05:52.381   05 Jun 2027 06:06:20.988            28.607                Novosib           893.969
       450   05 Jun 2027 07:38:59.834   05 Jun 2027 07:39:31.610            31.776                Irkutsk           993.000
       451   05 Jun 2027 07:40:21.173   05 Jun 2027 07:40:23.019             1.846                Irkutsk            57.687
       452   05 Jun 2027 07:40:34.920   05 Jun 2027 07:40:38.039             3.119                Irkutsk            97.469
       453   05 Jun 2027 07:41:32.144   05 Jun 2027 07:41:43.876            11.732                Irkutsk           366.625
       454   05 Jun 2027 08:17:00.707   05 Jun 2027 08:17:50.914            50.207            RioGallegos          1568.969
       455   05 Jun 2027 08:25:03.677   05 Jun 2027 08:25:54.855            51.178            RioGallegos          1599.313
       456   05 Jun 2027 08:51:23.433   05 Jun 2027 08:53:09.321           105.888                Sumatra          3309.000
       457   05 Jun 2027 09:14:16.796   05 Jun 2027 09:14:48.772            31.976                Irkutsk           999.250
       458   05 Jun 2027 09:15:16.656   05 Jun 2027 09:15:58.636            41.980                Irkutsk          1311.875
       459   05 Jun 2027 09:16:08.515   05 Jun 2027 09:16:13.645             5.130                Irkutsk           160.313
       460   05 Jun 2027 09:16:40.601   05 Jun 2027 09:17:41.382            60.781                Novosib          1899.406
       461   05 Jun 2027 10:36:02.077   05 Jun 2027 10:38:06.420           124.343                  Delhi          3885.719
       462   05 Jun 2027 10:50:08.943   05 Jun 2027 10:50:33.481            24.538                Novosib           766.812
       463   05 Jun 2027 10:52:43.971   05 Jun 2027 10:52:46.268             2.297                Novosib            71.781
       464   05 Jun 2027 10:53:13.637   05 Jun 2027 10:53:26.650            13.013                Norilsk           406.656
       465   05 Jun 2027 12:21:37.677   05 Jun 2027 12:22:17.643            39.966                 Moscow          1248.937
       466   05 Jun 2027 12:22:41.101   05 Jun 2027 12:23:23.830            42.729                 Moscow          1335.281
       467   05 Jun 2027 12:23:36.331   05 Jun 2027 12:23:58.519            22.188              Murmansk2           693.375
       468   05 Jun 2027 12:24:15.681   05 Jun 2027 12:24:49.351            33.670              Murmansk1          1052.188
       469   05 Jun 2027 12:25:32.830   05 Jun 2027 12:26:13.783            40.953              Murmansk2          1279.781
       470   05 Jun 2027 12:27:02.040   05 Jun 2027 12:27:27.880            25.840              Murmansk1           807.500
       471   05 Jun 2027 12:27:27.880   05 Jun 2027 12:28:09.040            41.160              Murmansk2          1286.250
       472   05 Jun 2027 12:28:31.196   05 Jun 2027 12:28:35.086             3.890              Murmansk1           121.562
       473   05 Jun 2027 12:28:52.479   05 Jun 2027 12:29:19.645            27.166                Norilsk           848.938
       474   05 Jun 2027 12:33:01.476   05 Jun 2027 12:33:25.939            24.463                Norilsk           764.469
       475   05 Jun 2027 13:33:48.917   05 Jun 2027 13:37:03.187           194.270               CapeTown          6070.938
       476   05 Jun 2027 13:43:51.381   05 Jun 2027 13:44:53.242            61.861               CapeTown          1933.156
       477   05 Jun 2027 14:00:57.063   05 Jun 2027 14:01:16.019            18.956              Murmansk1           592.375
       478   05 Jun 2027 14:01:19.997   05 Jun 2027 14:02:42.169            82.172              Murmansk2          2567.875
       479   05 Jun 2027 14:04:06.777   05 Jun 2027 14:04:39.500            32.723              Murmansk2          1022.594
       480   05 Jun 2027 14:08:31.573   05 Jun 2027 14:08:52.857            21.284              Murmansk1           665.125
       481   05 Jun 2027 14:14:11.328   05 Jun 2027 14:16:21.147           129.819                Anadyr2          4056.844
       482   05 Jun 2027 14:16:45.776   05 Jun 2027 14:18:13.499            87.723                Anadyr1          2741.344
