uniorb/output/strategy_4/Drop/Drop_KinoSat_110804.txt

KinoSat_110804
-------------------------
    Access    *     Start Time (UTCG)     *     Stop Time (UTCG)  *   Duration (s)        *       Station  *  Data (Mbytes)
         1   01 Jun 2027 03:45:56.590   01 Jun 2027 03:47:11.439            74.849               Magadan1          2339.031
         2   01 Jun 2027 03:47:22.828   01 Jun 2027 03:47:58.178            35.350               Magadan1          1104.687
         3   01 Jun 2027 03:47:58.744   01 Jun 2027 03:48:11.890            13.146                Anadyr1           410.812
         4   01 Jun 2027 03:48:20.640   01 Jun 2027 03:49:20.654            60.014                Anadyr1          1875.438
         5   01 Jun 2027 03:49:27.846   01 Jun 2027 03:51:30.541           122.695               Magadan1          3834.219
         6   01 Jun 2027 05:21:09.431   01 Jun 2027 05:24:12.269           182.838                Anadyr2          5713.688
         7   01 Jun 2027 05:24:30.062   01 Jun 2027 05:24:39.625             9.563               Magadan1           298.844
         8   01 Jun 2027 05:24:57.087   01 Jun 2027 05:25:24.651            27.564                Irkutsk           861.375
         9   01 Jun 2027 05:25:32.118   01 Jun 2027 05:26:24.241            52.123                Irkutsk          1628.844
        10   01 Jun 2027 05:26:28.945   01 Jun 2027 05:27:22.158            53.213               Magadan2          1662.906
        11   01 Jun 2027 06:02:59.070   01 Jun 2027 06:04:04.737            65.667            RioGallegos          2052.094
        12   01 Jun 2027 06:04:49.699   01 Jun 2027 06:05:19.814            30.115            RioGallegos           941.094
        13   01 Jun 2027 06:50:48.021   01 Jun 2027 06:51:23.605            35.584                Irkutsk          1112.000
        14   01 Jun 2027 06:57:25.154   01 Jun 2027 06:57:57.071            31.917                Novosib           997.406
        15   01 Jun 2027 06:58:21.032   01 Jun 2027 07:03:09.745           288.713                Irkutsk          9022.281
        16   01 Jun 2027 08:12:49.645   01 Jun 2027 08:13:56.472            66.827                Sumatra          2088.344
        17   01 Jun 2027 08:15:22.080   01 Jun 2027 08:16:16.833            54.753                Sumatra          1711.031
        18   01 Jun 2027 08:23:55.289   01 Jun 2027 08:24:20.479            25.190                  Delhi           787.187
        19   01 Jun 2027 08:25:03.624   01 Jun 2027 08:26:10.708            67.084                  Delhi          2096.375
        20   01 Jun 2027 08:35:03.357   01 Jun 2027 08:35:43.279            39.922                Irkutsk          1247.562
        21   01 Jun 2027 08:36:07.910   01 Jun 2027 08:36:38.331            30.421                Irkutsk           950.656
        22   01 Jun 2027 08:36:44.159   01 Jun 2027 08:36:53.600             9.441                Irkutsk           295.031
        23   01 Jun 2027 08:37:00.164   01 Jun 2027 08:40:24.481           204.317                 Moscow          6384.906
        24   01 Jun 2027 09:16:58.370   01 Jun 2027 09:17:42.702            44.332            RioGallegos          1385.375
        25   01 Jun 2027 09:18:20.856   01 Jun 2027 09:19:28.180            67.324            RioGallegos          2103.875
        26   01 Jun 2027 09:51:34.482   01 Jun 2027 09:52:17.757            43.275                Sumatra          1352.344
        27   01 Jun 2027 09:54:55.900   01 Jun 2027 09:54:58.608             2.708                Sumatra            84.625
        28   01 Jun 2027 09:56:56.479   01 Jun 2027 09:57:29.869            33.390                  Delhi          1043.438
        29   01 Jun 2027 10:12:42.525   01 Jun 2027 10:13:20.168            37.643                 Moscow          1176.344
        30   01 Jun 2027 10:13:33.124   01 Jun 2027 10:14:14.561            41.437                Novosib          1294.906
        31   01 Jun 2027 10:14:19.400   01 Jun 2027 10:15:51.688            92.288                Norilsk          2884.000
        32   01 Jun 2027 10:16:30.784   01 Jun 2027 10:16:52.659            21.875                 Moscow           683.594
        33   01 Jun 2027 11:45:58.049   01 Jun 2027 11:46:33.759            35.710              Murmansk2          1115.937
        34   01 Jun 2027 11:46:33.986   01 Jun 2027 11:48:12.334            98.348                Novosib          3073.375
        35   01 Jun 2027 11:48:23.177   01 Jun 2027 11:49:00.383            37.206                Novosib          1162.687
        36   01 Jun 2027 11:49:01.906   01 Jun 2027 11:49:26.354            24.448              Murmansk2           764.000
        37   01 Jun 2027 11:49:40.647   01 Jun 2027 11:53:38.545           237.898              Murmansk2          7434.312
        38   01 Jun 2027 11:53:40.710   01 Jun 2027 11:53:54.023            13.313                Norilsk           416.031
        39   01 Jun 2027 12:56:36.257   01 Jun 2027 12:59:33.823           177.566               CapeTown          5548.938
        40   01 Jun 2027 13:03:08.350   01 Jun 2027 13:04:15.902            67.552               CapeTown          2111.000
        41   01 Jun 2027 13:18:14.102   01 Jun 2027 13:18:49.839            35.737                 Moscow          1116.781
        42   01 Jun 2027 13:21:33.089   01 Jun 2027 13:22:21.050            47.961              Murmansk1          1498.781
        43   01 Jun 2027 13:22:31.125   01 Jun 2027 13:24:52.587           141.462              Murmansk2          4420.687
        44   01 Jun 2027 13:33:13.735   01 Jun 2027 13:33:39.518            25.783              Murmansk2           805.719
        45   01 Jun 2027 13:36:02.376   01 Jun 2027 13:39:53.779           231.403                Anadyr1          7231.344
        46   01 Jun 2027 13:40:42.041   01 Jun 2027 13:43:04.564           142.523                Anadyr2          4453.844
        47   01 Jun 2027 15:00:29.035   01 Jun 2027 15:01:32.948            63.913              Murmansk2          1997.281
        48   01 Jun 2027 15:03:19.268   01 Jun 2027 15:03:23.557             4.289              Murmansk2           134.031
        49   01 Jun 2027 15:03:44.472   01 Jun 2027 15:04:59.032            74.560              Murmansk2          2330.000
        50   01 Jun 2027 15:05:44.286   01 Jun 2027 15:06:33.835            49.549              Murmansk1          1548.406
        51   01 Jun 2027 15:07:27.520   01 Jun 2027 15:07:54.641            27.121              Murmansk2           847.531
        52   01 Jun 2027 15:09:11.100   01 Jun 2027 15:09:27.708            16.608              Murmansk1           519.000
        53   01 Jun 2027 15:11:25.610   01 Jun 2027 15:12:38.962            73.352                Anadyr2          2292.250
        54   01 Jun 2027 15:13:01.237   01 Jun 2027 15:13:08.133             6.896                Anadyr2           215.500
        55   01 Jun 2027 15:13:35.125   01 Jun 2027 15:13:57.528            22.403                Anadyr1           700.094
        56   01 Jun 2027 15:14:13.351   01 Jun 2027 15:14:40.812            27.461                Anadyr1           858.156
        57   01 Jun 2027 15:15:21.728   01 Jun 2027 15:18:34.930           193.202               Magadan2          6037.562
        58   01 Jun 2027 15:18:51.587   01 Jun 2027 15:21:24.701           153.114               Magadan1          4784.812
        59   01 Jun 2027 16:47:18.822   01 Jun 2027 16:49:47.991           149.169                Anadyr1          4661.531
        60   01 Jun 2027 16:50:41.744   01 Jun 2027 16:52:34.000           112.256               Magadan2          3508.000
        61   01 Jun 2027 16:52:34.000   01 Jun 2027 16:53:48.263            74.263               Magadan1          2320.719
        62   01 Jun 2027 16:57:24.340   01 Jun 2027 16:58:03.506            39.166               Magadan1          1223.938
        63   01 Jun 2027 17:00:07.923   01 Jun 2027 17:00:51.717            43.794               Magadan2          1368.562
        64   01 Jun 2027 18:23:11.491   01 Jun 2027 18:24:45.944            94.453                Anadyr2          2951.656
        65   01 Jun 2027 18:24:55.801   01 Jun 2027 18:27:06.780           130.979                Anadyr1          4093.094
        66   01 Jun 2027 18:27:34.178   01 Jun 2027 18:30:50.864           196.686                Norilsk          6146.438
        67   01 Jun 2027 18:31:38.160   01 Jun 2027 18:34:13.670           155.510                Irkutsk          4859.688
        68   01 Jun 2027 19:19:04.184   01 Jun 2027 19:19:09.972             5.788            RioGallegos           180.875
        69   01 Jun 2027 19:20:20.148   01 Jun 2027 19:20:21.779             1.631            RioGallegos            50.969
        70   01 Jun 2027 19:25:02.805   01 Jun 2027 19:25:53.687            50.882            RioGallegos          1590.062
        71   01 Jun 2027 19:27:16.520   01 Jun 2027 19:27:49.670            33.150            RioGallegos          1035.937
        72   01 Jun 2027 20:01:03.909   01 Jun 2027 20:02:21.468            77.559                Norilsk          2423.719
        73   01 Jun 2027 20:04:24.613   01 Jun 2027 20:05:15.012            50.399                Norilsk          1574.969
        74   01 Jun 2027 20:05:17.731   01 Jun 2027 20:07:00.106           102.375                Irkutsk          3199.219
        75   01 Jun 2027 20:07:48.932   01 Jun 2027 20:11:14.996           206.064                Novosib          6439.500
        76   01 Jun 2027 20:12:43.001   01 Jun 2027 20:13:20.962            37.961                Novosib          1186.281
        77   01 Jun 2027 20:19:42.909   01 Jun 2027 20:20:59.017            76.108                Sumatra          2378.375
        78   01 Jun 2027 20:28:44.604   01 Jun 2027 20:29:17.970            33.366                Sumatra          1042.687
        79   01 Jun 2027 21:37:57.303   01 Jun 2027 21:38:37.184            39.881               Magadan2          1246.281
        80   01 Jun 2027 21:40:55.965   01 Jun 2027 21:41:03.385             7.420                Irkutsk           231.875
        81   01 Jun 2027 21:41:09.396   01 Jun 2027 21:42:59.727           110.331                Novosib          3447.844
        82   01 Jun 2027 21:47:15.998   01 Jun 2027 21:48:08.649            52.651                Irkutsk          1645.344
        83   01 Jun 2027 21:48:27.621   01 Jun 2027 21:50:59.669           152.048                  Delhi          4751.500
        84   01 Jun 2027 21:52:21.695   01 Jun 2027 21:52:22.380             0.685                  Delhi            21.406
        85   01 Jun 2027 21:53:12.015   01 Jun 2027 21:54:31.068            79.053                  Delhi          2470.406
        86   01 Jun 2027 23:09:15.516   01 Jun 2027 23:09:28.523            13.007                Anadyr1           406.469
        87   01 Jun 2027 23:11:51.299   01 Jun 2027 23:12:07.454            16.155                Anadyr2           504.844
        88   01 Jun 2027 23:12:44.103   01 Jun 2027 23:14:27.815           103.712               Magadan2          3241.000
        89   01 Jun 2027 23:14:27.815   01 Jun 2027 23:15:03.403            35.588               Magadan1          1112.125
        90   01 Jun 2027 23:15:18.734   01 Jun 2027 23:17:16.623           117.889              Murmansk1          3684.031
        91   01 Jun 2027 23:18:05.130   01 Jun 2027 23:19:25.077            79.947              Murmansk2          2498.344
        92   01 Jun 2027 23:19:37.062   01 Jun 2027 23:22:05.389           148.327                 Moscow          4635.219
        93   01 Jun 2027 23:48:03.966   01 Jun 2027 23:50:17.164           133.198               CapeTown          4162.438
        94   01 Jun 2027 23:51:31.014   01 Jun 2027 23:51:58.096            27.082               CapeTown           846.313
        95   02 Jun 2027 00:44:46.258   02 Jun 2027 00:44:56.190             9.932               Magadan1           310.375
        96   02 Jun 2027 00:44:56.190   02 Jun 2027 00:46:00.218            64.028               Magadan2          2000.875
        97   02 Jun 2027 00:51:06.916   02 Jun 2027 00:51:24.548            17.632               Magadan2           551.000
        98   02 Jun 2027 00:51:27.435   02 Jun 2027 00:52:40.585            73.150              Murmansk1          2285.937
        99   02 Jun 2027 00:52:54.022   02 Jun 2027 00:54:28.676            94.654              Murmansk2          2957.937
       100   02 Jun 2027 00:57:26.686   02 Jun 2027 00:57:32.724             6.038                 Moscow           188.688
       101   02 Jun 2027 00:58:55.684   02 Jun 2027 00:59:16.753            21.069                 Moscow           658.406
       102   02 Jun 2027 01:01:52.238   02 Jun 2027 01:02:14.640            22.402                 Moscow           700.063
       103   02 Jun 2027 01:03:09.588   02 Jun 2027 01:03:41.896            32.308                 Moscow          1009.625
       104   02 Jun 2027 01:18:27.664   02 Jun 2027 01:20:06.522            98.858               CapeTown          3089.312
       105   02 Jun 2027 01:27:56.013   02 Jun 2027 01:29:05.230            69.217               CapeTown          2163.031
       106   02 Jun 2027 02:16:22.934   02 Jun 2027 02:16:50.016            27.082                Anadyr2           846.313
       107   02 Jun 2027 02:16:51.916   02 Jun 2027 02:17:28.675            36.759               Magadan1          1148.719
       108   02 Jun 2027 02:17:51.115   02 Jun 2027 02:17:54.583             3.468               Magadan1           108.375
       109   02 Jun 2027 02:17:54.583   02 Jun 2027 02:18:05.661            11.078               Magadan2           346.188
       110   02 Jun 2027 02:19:16.756   02 Jun 2027 02:20:03.175            46.419               Magadan2          1450.594
       111   02 Jun 2027 02:23:18.998   02 Jun 2027 02:23:30.530            11.532               Magadan1           360.375
       112   02 Jun 2027 02:23:57.908   02 Jun 2027 02:24:01.836             3.928                Norilsk           122.750
       113   02 Jun 2027 02:25:33.273   02 Jun 2027 02:25:46.937            13.664                Norilsk           427.000
       114   02 Jun 2027 02:25:58.498   02 Jun 2027 02:26:07.416             8.918                Norilsk           278.688
       115   02 Jun 2027 02:27:06.727   02 Jun 2027 02:27:40.333            33.606              Murmansk2          1050.187
       116   02 Jun 2027 02:28:21.206   02 Jun 2027 02:28:36.895            15.689              Murmansk1           490.281
       117   02 Jun 2027 02:28:36.905   02 Jun 2027 02:28:51.262            14.357              Murmansk2           448.656
       118   02 Jun 2027 02:29:26.527   02 Jun 2027 02:29:33.360             6.833              Murmansk1           213.531
       119   02 Jun 2027 02:30:16.247   02 Jun 2027 02:31:05.569            49.322              Murmansk1          1541.313
       120   02 Jun 2027 02:32:48.509   02 Jun 2027 02:32:54.211             5.702                 Moscow           178.187
       121   02 Jun 2027 02:33:03.592   02 Jun 2027 02:34:23.524            79.932                 Moscow          2497.875
       122   02 Jun 2027 02:40:45.807   02 Jun 2027 02:41:25.179            39.372                 Moscow          1230.375
       123   02 Jun 2027 03:00:27.477   02 Jun 2027 03:01:24.989            57.512               CapeTown          1797.250
       124   02 Jun 2027 03:55:31.776   02 Jun 2027 03:55:38.014             6.238               Magadan1           194.937
       125   02 Jun 2027 03:55:46.998   02 Jun 2027 04:01:38.716           351.718                Anadyr1         10991.188
       126   02 Jun 2027 04:02:19.900   02 Jun 2027 04:02:55.040            35.140                Anadyr1          1098.125
       127   02 Jun 2027 05:33:13.265   02 Jun 2027 05:33:21.221             7.956               Magadan1           248.625
       128   02 Jun 2027 05:33:29.090   02 Jun 2027 05:35:18.776           109.686                Anadyr2          3427.687
       129   02 Jun 2027 05:35:18.776   02 Jun 2027 05:35:43.970            25.194                Anadyr1           787.313
       130   02 Jun 2027 05:35:53.201   02 Jun 2027 05:38:56.051           182.850                Anadyr2          5714.062
       131   02 Jun 2027 07:11:47.454   02 Jun 2027 07:12:51.284            63.830               Magadan2          1994.688
       132   02 Jun 2027 07:12:51.284   02 Jun 2027 07:13:47.129            55.845               Magadan1          1745.156
       133   02 Jun 2027 07:14:04.275   02 Jun 2027 07:15:13.524            69.249                Irkutsk          2164.031
       134   02 Jun 2027 07:15:17.158   02 Jun 2027 07:16:28.822            71.664                Novosib          2239.500
       135   02 Jun 2027 07:18:29.352   02 Jun 2027 07:18:51.581            22.229                Norilsk           694.656
       136   02 Jun 2027 07:20:00.393   02 Jun 2027 07:20:24.825            24.432              Murmansk1           763.500
       137   02 Jun 2027 08:33:12.574   02 Jun 2027 08:34:21.657            69.083                Sumatra          2158.844
       138   02 Jun 2027 08:47:02.437   02 Jun 2027 08:47:45.673            43.236                Irkutsk          1351.125
       139   02 Jun 2027 08:48:30.934   02 Jun 2027 08:49:25.544            54.610                Irkutsk          1706.562
       140   02 Jun 2027 08:50:04.147   02 Jun 2027 08:50:08.078             3.931                Novosib           122.844
       141   02 Jun 2027 08:50:33.084   02 Jun 2027 08:50:54.220            21.136                Irkutsk           660.500
       142   02 Jun 2027 08:51:29.781   02 Jun 2027 08:52:25.331            55.550                Novosib          1735.937
       143   02 Jun 2027 09:29:57.685   02 Jun 2027 09:30:35.635            37.950            RioGallegos          1185.937
       144   02 Jun 2027 09:31:20.444   02 Jun 2027 09:32:16.596            56.152            RioGallegos          1754.750
       145   02 Jun 2027 09:34:47.759   02 Jun 2027 09:34:56.871             9.112            RioGallegos           284.750
       146   02 Jun 2027 09:35:59.990   02 Jun 2027 09:36:19.082            19.092            RioGallegos           596.625
       147   02 Jun 2027 10:09:02.429   02 Jun 2027 10:10:21.221            78.792                  Delhi          2462.250
       148   02 Jun 2027 10:13:25.206   02 Jun 2027 10:14:03.508            38.302                  Delhi          1196.938
       149   02 Jun 2027 10:18:39.490   02 Jun 2027 10:18:45.780             6.290                  Delhi           196.562
       150   02 Jun 2027 10:20:21.874   02 Jun 2027 10:20:53.404            31.530                  Delhi           985.313
       151   02 Jun 2027 10:25:36.034   02 Jun 2027 10:25:46.636            10.602                Norilsk           331.313
       152   02 Jun 2027 10:25:48.287   02 Jun 2027 10:25:49.574             1.287                Novosib            40.219
       153   02 Jun 2027 10:25:51.058   02 Jun 2027 10:26:08.652            17.594                Norilsk           549.812
       154   02 Jun 2027 10:26:10.432   02 Jun 2027 10:26:18.948             8.516                Norilsk           266.125
       155   02 Jun 2027 10:26:37.193   02 Jun 2027 10:26:43.782             6.589                Norilsk           205.906
       156   02 Jun 2027 10:26:56.503   02 Jun 2027 10:27:52.978            56.475                Norilsk          1764.844
       157   02 Jun 2027 11:58:03.794   02 Jun 2027 11:58:15.261            11.467                 Moscow           358.344
       158   02 Jun 2027 11:58:24.210   02 Jun 2027 11:58:29.244             5.034              Murmansk2           157.313
       159   02 Jun 2027 11:58:37.218   02 Jun 2027 11:58:44.506             7.288              Murmansk2           227.750
       160   02 Jun 2027 11:59:03.961   02 Jun 2027 11:59:55.102            51.141              Murmansk2          1598.156
       161   02 Jun 2027 12:00:09.145   02 Jun 2027 12:00:26.859            17.714              Murmansk2           553.563
       162   02 Jun 2027 12:01:41.292   02 Jun 2027 12:02:15.732            34.440              Murmansk2          1076.250
       163   02 Jun 2027 12:03:51.998   02 Jun 2027 12:04:06.049            14.051                Norilsk           439.094
       164   02 Jun 2027 12:04:31.290   02 Jun 2027 12:04:55.817            24.527                Norilsk           766.469
       165   02 Jun 2027 12:05:42.124   02 Jun 2027 12:05:56.075            13.951                Norilsk           435.969
       166   02 Jun 2027 12:06:36.007   02 Jun 2027 12:07:19.371            43.364                Norilsk          1355.125
       167   02 Jun 2027 13:16:32.085   02 Jun 2027 13:18:13.285           101.200               CapeTown          3162.500
       168   02 Jun 2027 13:32:14.621   02 Jun 2027 13:32:44.300            29.679                 Moscow           927.469
       169   02 Jun 2027 13:33:58.663   02 Jun 2027 13:35:27.333            88.670                 Moscow          2770.937
       170   02 Jun 2027 13:35:39.574   02 Jun 2027 13:36:05.319            25.745              Murmansk2           804.531
       171   02 Jun 2027 13:36:20.361   02 Jun 2027 13:37:37.383            77.022              Murmansk2          2406.937
       172   02 Jun 2027 13:40:05.648   02 Jun 2027 13:40:34.980            29.332                 Moscow           916.625
       173   02 Jun 2027 13:41:37.610   02 Jun 2027 13:42:12.129            34.519              Murmansk2          1078.719
       174   02 Jun 2027 13:43:41.076   02 Jun 2027 13:43:44.212             3.136              Murmansk2            98.000
       175   02 Jun 2027 13:47:55.317   02 Jun 2027 13:50:47.507           172.190                Anadyr2          5380.938
       176   02 Jun 2027 13:51:12.780   02 Jun 2027 13:51:51.096            38.316                Anadyr2          1197.375
       177   02 Jun 2027 14:54:03.383   02 Jun 2027 14:55:08.867            65.484               CapeTown          2046.375
       178   02 Jun 2027 15:13:04.961   02 Jun 2027 15:13:33.783            28.822              Murmansk1           900.687
       179   02 Jun 2027 15:15:25.296   02 Jun 2027 15:15:44.763            19.467              Murmansk2           608.344
       180   02 Jun 2027 15:15:45.808   02 Jun 2027 15:17:22.900            97.092              Murmansk1          3034.125
       181   02 Jun 2027 15:23:25.930   02 Jun 2027 15:24:05.411            39.481                Anadyr1          1233.781
       182   02 Jun 2027 15:25:48.799   02 Jun 2027 15:25:55.207             6.408                Anadyr1           200.250
       183   02 Jun 2027 15:26:12.155   02 Jun 2027 15:26:42.120            29.965                Anadyr2           936.406
       184   02 Jun 2027 15:26:56.861   02 Jun 2027 15:33:20.661           383.800               Magadan2         11993.750
       185   02 Jun 2027 17:01:42.623   02 Jun 2027 17:03:11.240            88.617               Magadan1          2769.281
       186   02 Jun 2027 17:04:16.863   02 Jun 2027 17:04:36.694            19.831               Magadan2           619.719
       187   02 Jun 2027 17:08:02.048   02 Jun 2027 17:08:30.135            28.087               Magadan1           877.719
       188   02 Jun 2027 18:35:11.383   02 Jun 2027 18:36:47.084            95.701                Anadyr2          2990.656
       189   02 Jun 2027 18:36:56.675   02 Jun 2027 18:39:52.138           175.463                Anadyr1          5483.219
       190   02 Jun 2027 18:40:04.153   02 Jun 2027 18:41:26.084            81.931                Norilsk          2560.344
       191   02 Jun 2027 18:42:53.804   02 Jun 2027 18:45:58.830           185.026                Irkutsk          5782.062
       192   02 Jun 2027 18:46:54.336   02 Jun 2027 18:47:23.494            29.158                Irkutsk           911.188
       193   02 Jun 2027 18:48:50.791   02 Jun 2027 18:49:53.419            62.628                Irkutsk          1957.125
       194   02 Jun 2027 18:58:57.757   02 Jun 2027 19:03:28.189           270.432                Sumatra          8451.000
       195   02 Jun 2027 20:16:36.836   02 Jun 2027 20:17:16.683            39.847                Norilsk          1245.219
       196   02 Jun 2027 20:18:02.548   02 Jun 2027 20:19:51.828           109.280                Novosib          3415.000
       197   02 Jun 2027 20:20:15.730   02 Jun 2027 20:20:28.921            13.191                Novosib           412.219
       198   02 Jun 2027 20:23:24.820   02 Jun 2027 20:24:45.518            80.698                Novosib          2521.813
       199   02 Jun 2027 20:38:48.646   02 Jun 2027 20:40:05.608            76.962                Sumatra          2405.062
       200   02 Jun 2027 21:50:37.720   02 Jun 2027 21:50:48.431            10.711               Magadan1           334.719
       201   02 Jun 2027 21:52:37.439   02 Jun 2027 21:55:50.841           193.402              Murmansk1          6043.812
       202   02 Jun 2027 22:00:19.645   02 Jun 2027 22:02:26.979           127.334                  Delhi          3979.187
       203   02 Jun 2027 23:22:50.658   02 Jun 2027 23:22:54.135             3.477                Anadyr2           108.656
       204   02 Jun 2027 23:24:25.216   02 Jun 2027 23:25:10.729            45.513               Magadan2          1422.281
       205   02 Jun 2027 23:25:43.157   02 Jun 2027 23:26:26.418            43.261               Magadan2          1351.906
       206   02 Jun 2027 23:26:26.418   02 Jun 2027 23:26:41.406            14.988               Magadan1           468.375
       207   02 Jun 2027 23:27:05.331   02 Jun 2027 23:27:33.300            27.969               Magadan2           874.031
       208   02 Jun 2027 23:28:01.551   02 Jun 2027 23:28:05.204             3.653                Norilsk           114.156
       209   02 Jun 2027 23:28:07.449   02 Jun 2027 23:28:12.176             4.727               Magadan2           147.719
       210   02 Jun 2027 23:28:19.788   02 Jun 2027 23:30:05.061           105.273              Murmansk1          3289.781
       211   02 Jun 2027 23:30:05.061   02 Jun 2027 23:31:54.855           109.794              Murmansk2          3431.063
       212   02 Jun 2027 23:31:58.612   02 Jun 2027 23:34:28.395           149.783                 Moscow          4680.719
       213   02 Jun 2027 23:37:01.142   02 Jun 2027 23:37:33.117            31.975                 Moscow           999.219
       214   02 Jun 2027 23:58:31.608   03 Jun 2027 00:00:13.271           101.663               CapeTown          3176.969
       215   03 Jun 2027 00:01:14.882   03 Jun 2027 00:02:30.658            75.776               CapeTown          2368.000
       216   03 Jun 2027 00:59:58.439   03 Jun 2027 01:01:28.660            90.221               Magadan1          2819.406
       217   03 Jun 2027 01:04:32.221   03 Jun 2027 01:05:25.778            53.557              Murmansk1          1673.656
       218   03 Jun 2027 01:06:25.218   03 Jun 2027 01:08:14.268           109.050                 Moscow          3407.813
       219   03 Jun 2027 01:31:18.591   03 Jun 2027 01:31:55.823            37.232               CapeTown          1163.500
       220   03 Jun 2027 01:39:06.125   03 Jun 2027 01:39:22.401            16.276               CapeTown           508.625
       221   03 Jun 2027 02:27:00.456   03 Jun 2027 02:28:39.043            98.587                Anadyr2          3080.844
       222   03 Jun 2027 02:28:53.736   03 Jun 2027 02:29:25.792            32.056               Magadan1          1001.750
       223   03 Jun 2027 02:29:53.842   03 Jun 2027 02:30:45.491            51.649               Magadan2          1614.031
       224   03 Jun 2027 02:34:38.487   03 Jun 2027 02:35:21.646            43.159               Magadan1          1348.719
       225   03 Jun 2027 02:39:07.994   03 Jun 2027 02:39:29.768            21.774              Murmansk1           680.437
       226   03 Jun 2027 02:39:39.431   03 Jun 2027 02:40:21.805            42.374              Murmansk2          1324.188
       227   03 Jun 2027 02:40:51.975   03 Jun 2027 02:41:19.927            27.952              Murmansk1           873.500
       228   03 Jun 2027 02:42:15.021   03 Jun 2027 02:42:27.602            12.581              Murmansk1           393.156
       229   03 Jun 2027 02:42:27.900   03 Jun 2027 02:42:53.459            25.559                 Moscow           798.719
       230   03 Jun 2027 02:44:26.519   03 Jun 2027 02:44:41.605            15.086                 Moscow           471.438
       231   03 Jun 2027 02:46:34.425   03 Jun 2027 02:46:49.661            15.236                 Moscow           476.125
       232   03 Jun 2027 02:49:43.781   03 Jun 2027 02:50:47.939            64.158                 Moscow          2004.938
       233   03 Jun 2027 03:11:18.297   03 Jun 2027 03:12:42.988            84.691               CapeTown          2646.594
       234   03 Jun 2027 04:07:20.053   03 Jun 2027 04:07:25.335             5.282               Magadan1           165.063
       235   03 Jun 2027 04:07:43.254   03 Jun 2027 04:08:27.224            43.970               Magadan2          1374.063
       236   03 Jun 2027 04:08:30.598   03 Jun 2027 04:11:31.361           180.763                Anadyr1          5648.844
       237   03 Jun 2027 04:11:34.428   03 Jun 2027 04:13:49.591           135.163                Anadyr1          4223.844
       238   03 Jun 2027 04:15:27.059   03 Jun 2027 04:15:30.575             3.516                Anadyr1           109.875
       239   03 Jun 2027 04:15:30.575   03 Jun 2027 04:15:45.968            15.393                Anadyr2           481.031
       240   03 Jun 2027 04:55:06.784   03 Jun 2027 04:55:52.931            46.147            RioGallegos          1442.094
       241   03 Jun 2027 04:56:33.877   03 Jun 2027 04:56:34.335             0.458            RioGallegos            14.312
       242   03 Jun 2027 04:58:49.198   03 Jun 2027 04:59:32.621            43.423            RioGallegos          1356.969
       243   03 Jun 2027 05:44:26.267   03 Jun 2027 05:45:02.357            36.090                Irkutsk          1127.812
       244   03 Jun 2027 05:45:15.551   03 Jun 2027 05:49:07.131           231.580               Magadan1          7236.875
       245   03 Jun 2027 05:49:13.989   03 Jun 2027 05:49:27.862            13.873               Magadan2           433.531
       246   03 Jun 2027 05:49:32.915   03 Jun 2027 05:50:46.807            73.892                Irkutsk          2309.125
       247   03 Jun 2027 05:50:56.473   03 Jun 2027 05:51:09.242            12.769               Magadan1           399.031
       248   03 Jun 2027 05:51:09.242   03 Jun 2027 05:51:18.431             9.189               Magadan2           287.156
       249   03 Jun 2027 07:21:32.054   03 Jun 2027 07:21:47.425            15.371               Magadan1           480.344
       250   03 Jun 2027 07:23:03.029   03 Jun 2027 07:23:15.018            11.989               Magadan2           374.656
       251   03 Jun 2027 07:23:15.018   03 Jun 2027 07:23:48.321            33.303               Magadan1          1040.719
       252   03 Jun 2027 07:23:56.855   03 Jun 2027 07:24:48.447            51.592               Magadan1          1612.250
       253   03 Jun 2027 07:24:55.011   03 Jun 2027 07:25:20.401            25.390               Magadan2           793.438
       254   03 Jun 2027 07:26:59.118   03 Jun 2027 07:27:41.152            42.034                Novosib          1313.562
       255   03 Jun 2027 08:07:17.790   03 Jun 2027 08:07:23.934             6.144            RioGallegos           192.000
       256   03 Jun 2027 08:08:20.624   03 Jun 2027 08:08:54.072            33.448            RioGallegos          1045.250
       257   03 Jun 2027 08:36:47.993   03 Jun 2027 08:37:45.791            57.798                Sumatra          1806.187
       258   03 Jun 2027 08:45:23.591   03 Jun 2027 08:45:25.070             1.479                Sumatra            46.219
       259   03 Jun 2027 08:58:53.439   03 Jun 2027 08:59:15.695            22.256              Murmansk1           695.500
       260   03 Jun 2027 08:59:18.881   03 Jun 2027 08:59:43.083            24.202                Novosib           756.312
       261   03 Jun 2027 08:59:57.858   03 Jun 2027 09:00:05.185             7.327                Irkutsk           228.969
       262   03 Jun 2027 09:00:16.128   03 Jun 2027 09:00:48.849            32.721                Irkutsk          1022.531
       263   03 Jun 2027 09:01:02.020   03 Jun 2027 09:01:11.689             9.669                Irkutsk           302.156
       264   03 Jun 2027 09:02:09.409   03 Jun 2027 09:03:26.960            77.551                Novosib          2423.469
       265   03 Jun 2027 09:45:26.541   03 Jun 2027 09:45:32.980             6.439            RioGallegos           201.219
       266   03 Jun 2027 09:45:37.284   03 Jun 2027 09:45:47.432            10.148            RioGallegos           317.125
       267   03 Jun 2027 10:21:14.107   03 Jun 2027 10:22:45.014            90.907                  Delhi          2840.844
       268   03 Jun 2027 10:35:12.424   03 Jun 2027 10:35:30.965            18.541              Murmansk1           579.406
       269   03 Jun 2027 10:36:25.440   03 Jun 2027 10:37:10.725            45.285                Novosib          1415.156
       270   03 Jun 2027 10:37:22.497   03 Jun 2027 10:38:12.942            50.445                Novosib          1576.406
       271   03 Jun 2027 10:38:17.920   03 Jun 2027 10:39:10.560            52.640                Novosib          1645.000
       272   03 Jun 2027 12:08:51.558   03 Jun 2027 12:09:04.679            13.121              Murmansk2           410.031
       273   03 Jun 2027 12:09:21.878   03 Jun 2027 12:09:43.208            21.330              Murmansk2           666.563
       274   03 Jun 2027 12:10:24.592   03 Jun 2027 12:11:05.562            40.970              Murmansk2          1280.313
       275   03 Jun 2027 12:13:25.947   03 Jun 2027 12:15:53.777           147.830                Norilsk          4619.687
       276   03 Jun 2027 13:43:06.644   03 Jun 2027 13:43:06.903             0.259                 Moscow             8.094
       277   03 Jun 2027 13:43:20.723   03 Jun 2027 13:43:42.763            22.040                 Moscow           688.750
       278   03 Jun 2027 13:44:04.173   03 Jun 2027 13:44:10.407             6.234                 Moscow           194.812
       279   03 Jun 2027 13:46:04.201   03 Jun 2027 13:47:38.226            94.025                 Moscow          2938.281
       280   03 Jun 2027 13:47:40.865   03 Jun 2027 13:48:08.558            27.693              Murmansk2           865.406
       281   03 Jun 2027 13:48:18.252   03 Jun 2027 13:48:55.402            37.150              Murmansk2          1160.938
       282   03 Jun 2027 13:50:27.084   03 Jun 2027 13:50:42.586            15.502              Murmansk1           484.437
       283   03 Jun 2027 13:53:30.637   03 Jun 2027 13:54:09.062            38.425              Murmansk1          1200.781
       284   03 Jun 2027 13:55:19.656   03 Jun 2027 13:55:33.156            13.500              Murmansk2           421.875
       285   03 Jun 2027 13:55:41.056   03 Jun 2027 13:55:57.512            16.456              Murmansk2           514.250
       286   03 Jun 2027 13:59:50.174   03 Jun 2027 14:02:16.412           146.238                Anadyr1          4569.937
       287   03 Jun 2027 14:02:20.293   03 Jun 2027 14:02:48.236            27.943                Anadyr2           873.219
       288   03 Jun 2027 14:04:34.244   03 Jun 2027 14:05:19.394            45.150                Anadyr1          1410.937
       289   03 Jun 2027 14:07:19.143   03 Jun 2027 14:08:01.162            42.019                Anadyr2          1313.094
       290   03 Jun 2027 15:05:39.952   03 Jun 2027 15:05:59.096            19.144               CapeTown           598.250
       291   03 Jun 2027 15:25:44.467   03 Jun 2027 15:26:24.384            39.917              Murmansk2          1247.406
       292   03 Jun 2027 15:27:47.343   03 Jun 2027 15:28:12.521            25.178              Murmansk1           786.812
       293   03 Jun 2027 15:29:28.325   03 Jun 2027 15:29:44.258            15.933              Murmansk1           497.906
       294   03 Jun 2027 15:31:33.544   03 Jun 2027 15:32:05.179            31.635              Murmansk1           988.594
       295   03 Jun 2027 15:35:26.552   03 Jun 2027 15:37:08.655           102.103                Anadyr1          3190.719
       296   03 Jun 2027 15:38:05.381   03 Jun 2027 15:38:13.544             8.163                Anadyr1           255.094
       297   03 Jun 2027 15:38:39.742   03 Jun 2027 15:42:18.088           218.346               Magadan2          6823.312
       298   03 Jun 2027 15:42:18.088   03 Jun 2027 15:42:18.464             0.376               Magadan1            11.750
       299   03 Jun 2027 15:43:04.659   03 Jun 2027 15:45:23.144           138.485               Magadan2          4327.656
       300   03 Jun 2027 17:12:31.936   03 Jun 2027 17:12:52.859            20.923                Anadyr2           653.844
       301   03 Jun 2027 17:13:41.544   03 Jun 2027 17:14:18.307            36.763               Magadan1          1148.844
       302   03 Jun 2027 17:14:18.307   03 Jun 2027 17:14:41.055            22.748               Magadan2           710.875
       303   03 Jun 2027 17:16:30.272   03 Jun 2027 17:16:39.400             9.128               Magadan2           285.250
       304   03 Jun 2027 17:16:47.075   03 Jun 2027 17:16:57.073             9.998               Magadan2           312.438
       305   03 Jun 2027 17:19:03.456   03 Jun 2027 17:19:54.942            51.486               Magadan1          1608.937
       306   03 Jun 2027 17:25:22.672   03 Jun 2027 17:25:44.575            21.903               Magadan2           684.469
       307   03 Jun 2027 18:07:59.342   03 Jun 2027 18:10:24.799           145.457            RioGallegos          4545.531
       308   03 Jun 2027 18:48:12.020   03 Jun 2027 18:48:40.588            28.568                Anadyr2           892.750
       309   03 Jun 2027 18:49:23.704   03 Jun 2027 18:53:25.120           241.416                Norilsk          7544.250
       310   03 Jun 2027 18:54:04.007   03 Jun 2027 18:55:11.825            67.818                Norilsk          2119.312
       311   03 Jun 2027 18:55:57.019   03 Jun 2027 18:57:47.679           110.660                Irkutsk          3458.125
       312   03 Jun 2027 18:58:48.497   03 Jun 2027 18:59:32.852            44.355                Irkutsk          1386.094
       313   03 Jun 2027 19:00:52.757   03 Jun 2027 19:01:12.425            19.668                Irkutsk           614.625
       314   03 Jun 2027 19:09:36.205   03 Jun 2027 19:11:47.529           131.324                Sumatra          4103.875
       315   03 Jun 2027 19:15:22.267   03 Jun 2027 19:17:35.477           133.210                Sumatra          4162.813
       316   03 Jun 2027 20:29:47.442   03 Jun 2027 20:30:27.374            39.932                Novosib          1247.875
       317   03 Jun 2027 20:32:25.983   03 Jun 2027 20:33:11.910            45.927                Novosib          1435.219
       318   03 Jun 2027 20:36:47.622   03 Jun 2027 20:37:31.453            43.831                Novosib          1369.719
       319   03 Jun 2027 20:40:23.601   03 Jun 2027 20:41:44.033            80.432                  Delhi          2513.500
       320   03 Jun 2027 20:42:47.641   03 Jun 2027 20:44:20.497            92.856                  Delhi          2901.750
       321   03 Jun 2027 22:04:11.857   03 Jun 2027 22:08:59.407           287.550              Murmansk1          8985.937
       322   03 Jun 2027 23:31:01.566   03 Jun 2027 23:32:13.053            71.487                Anadyr2          2233.969
       323   03 Jun 2027 23:35:53.125   03 Jun 2027 23:36:09.916            16.791                Anadyr2           524.719
       324   03 Jun 2027 23:36:32.222   03 Jun 2027 23:37:12.985            40.763               Magadan1          1273.844
       325   03 Jun 2027 23:37:40.470   03 Jun 2027 23:38:26.170            45.700               Magadan1          1428.125
       326   03 Jun 2027 23:38:44.085   03 Jun 2027 23:38:53.236             9.151               Magadan2           285.969
       327   03 Jun 2027 23:39:17.637   03 Jun 2027 23:41:03.142           105.505              Murmansk2          3297.031
       328   03 Jun 2027 23:42:04.633   03 Jun 2027 23:43:26.607            81.974              Murmansk1          2561.688
       329   03 Jun 2027 23:43:27.495   03 Jun 2027 23:45:29.361           121.866                 Moscow          3808.313
       330   03 Jun 2027 23:45:46.969   03 Jun 2027 23:46:03.452            16.483                 Moscow           515.094
       331   04 Jun 2027 00:09:29.689   04 Jun 2027 00:11:43.298           133.609               CapeTown          4175.281
       332   04 Jun 2027 00:13:10.309   04 Jun 2027 00:14:50.290            99.981               CapeTown          3124.406
       333   04 Jun 2027 01:15:11.993   04 Jun 2027 01:16:26.629            74.636              Murmansk1          2332.375
       334   04 Jun 2027 01:17:38.497   04 Jun 2027 01:18:19.123            40.626                Novosib          1269.562
       335   04 Jun 2027 01:18:25.398   04 Jun 2027 01:19:43.657            78.259                 Moscow          2445.594
       336   04 Jun 2027 01:29:24.275   04 Jun 2027 01:29:37.883            13.608                 Moscow           425.250
       337   04 Jun 2027 01:42:18.167   04 Jun 2027 01:42:27.469             9.302               CapeTown           290.688
       338   04 Jun 2027 01:44:51.207   04 Jun 2027 01:45:31.856            40.649               CapeTown          1270.281
       339   04 Jun 2027 01:49:30.105   04 Jun 2027 01:49:50.088            19.983               CapeTown           624.469
       340   04 Jun 2027 01:51:37.476   04 Jun 2027 01:51:54.437            16.961               CapeTown           530.031
       341   04 Jun 2027 01:54:51.954   04 Jun 2027 01:55:06.512            14.558               CapeTown           454.937
       342   04 Jun 2027 02:39:03.228   04 Jun 2027 02:40:20.116            76.888                Anadyr1          2402.750
       343   04 Jun 2027 02:40:45.478   04 Jun 2027 02:41:56.571            71.093               Magadan1          2221.656
       344   04 Jun 2027 02:42:02.266   04 Jun 2027 02:42:13.203            10.937               Magadan1           341.781
       345   04 Jun 2027 02:43:21.437   04 Jun 2027 02:43:34.601            13.164               Magadan1           411.375
       346   04 Jun 2027 02:47:24.368   04 Jun 2027 02:47:34.590            10.222               Magadan1           319.437
       347   04 Jun 2027 02:48:12.137   04 Jun 2027 02:48:21.133             8.996                Norilsk           281.125
       348   04 Jun 2027 02:49:10.686   04 Jun 2027 02:49:24.424            13.738                Norilsk           429.312
       349   04 Jun 2027 02:49:47.049   04 Jun 2027 02:49:50.636             3.587                Norilsk           112.094
       350   04 Jun 2027 02:50:07.411   04 Jun 2027 02:50:33.345            25.934                Norilsk           810.437
       351   04 Jun 2027 02:51:09.088   04 Jun 2027 02:51:22.979            13.891              Murmansk1           434.094
       352   04 Jun 2027 02:51:49.623   04 Jun 2027 02:52:11.429            21.806              Murmansk2           681.437
       353   04 Jun 2027 02:52:44.154   04 Jun 2027 02:52:47.603             3.449              Murmansk2           107.781
       354   04 Jun 2027 02:53:48.502   04 Jun 2027 02:54:26.549            38.047              Murmansk2          1188.969
       355   04 Jun 2027 02:54:32.362   04 Jun 2027 02:54:53.176            20.814                 Moscow           650.437
       356   04 Jun 2027 02:55:16.503   04 Jun 2027 02:55:30.368            13.865                 Moscow           433.281
       357   04 Jun 2027 02:56:34.119   04 Jun 2027 02:56:38.538             4.419                 Moscow           138.094
       358   04 Jun 2027 02:58:47.701   04 Jun 2027 02:58:55.715             8.014                 Moscow           250.437
       359   04 Jun 2027 04:22:10.218   04 Jun 2027 04:23:05.829            55.611               Magadan1          1737.844
       360   04 Jun 2027 04:23:09.347   04 Jun 2027 04:23:29.799            20.452               Magadan1           639.125
       361   04 Jun 2027 04:23:29.799   04 Jun 2027 04:24:15.852            46.053               Magadan2          1439.156
       362   04 Jun 2027 04:25:06.770   04 Jun 2027 04:26:15.158            68.388               Magadan2          2137.125
       363   04 Jun 2027 04:30:00.912   04 Jun 2027 04:30:27.375            26.463              Murmansk1           826.969
       364   04 Jun 2027 05:05:33.651   04 Jun 2027 05:08:06.458           152.807            RioGallegos          4775.219
       365   04 Jun 2027 05:57:04.388   04 Jun 2027 05:57:43.690            39.302                Irkutsk          1228.188
       366   04 Jun 2027 05:57:58.552   04 Jun 2027 06:00:59.536           180.984                Irkutsk          5655.750
       367   04 Jun 2027 06:01:31.864   04 Jun 2027 06:01:53.448            21.584                Irkutsk           674.500
       368   04 Jun 2027 06:01:56.458   04 Jun 2027 06:03:04.636            68.178               Magadan2          2130.562
       369   04 Jun 2027 06:03:25.686   04 Jun 2027 06:03:52.920            27.234                Novosib           851.062
       370   04 Jun 2027 07:33:57.159   04 Jun 2027 07:34:06.840             9.681               Magadan1           302.531
       371   04 Jun 2027 07:35:08.974   04 Jun 2027 07:35:09.639             0.665                Irkutsk            20.781
       372   04 Jun 2027 07:36:00.134   04 Jun 2027 07:36:32.760            32.626                Irkutsk          1019.562
       373   04 Jun 2027 07:36:39.361   04 Jun 2027 07:37:16.550            37.189                Irkutsk          1162.156
       374   04 Jun 2027 07:37:47.778   04 Jun 2027 07:37:52.581             4.803                Irkutsk           150.094
       375   04 Jun 2027 07:37:58.453   04 Jun 2027 07:38:12.269            13.816                Irkutsk           431.750
       376   04 Jun 2027 07:38:48.050   04 Jun 2027 07:38:50.477             2.427                Norilsk            75.844
       377   04 Jun 2027 07:38:57.408   04 Jun 2027 07:39:11.596            14.188                Novosib           443.375
       378   04 Jun 2027 07:40:01.088   04 Jun 2027 07:40:23.995            22.907              Murmansk1           715.844
       379   04 Jun 2027 08:14:31.400   04 Jun 2027 08:14:42.150            10.750            RioGallegos           335.938
       380   04 Jun 2027 08:15:23.457   04 Jun 2027 08:15:25.116             1.659            RioGallegos            51.844
       381   04 Jun 2027 08:16:27.131   04 Jun 2027 08:16:35.237             8.106            RioGallegos           253.312
       382   04 Jun 2027 08:16:59.177   04 Jun 2027 08:17:46.517            47.340            RioGallegos          1479.375
       383   04 Jun 2027 08:48:55.671   04 Jun 2027 08:50:47.099           111.428                Sumatra          3482.125
       384   04 Jun 2027 09:10:48.893   04 Jun 2027 09:10:57.068             8.175                Irkutsk           255.469
       385   04 Jun 2027 09:11:00.510   04 Jun 2027 09:11:53.264            52.754                Irkutsk          1648.562
       386   04 Jun 2027 09:12:29.356   04 Jun 2027 09:12:50.921            21.565                Irkutsk           673.906
       387   04 Jun 2027 09:13:27.077   04 Jun 2027 09:13:40.674            13.597                Irkutsk           424.906
       388   04 Jun 2027 09:15:17.557   04 Jun 2027 09:15:22.882             5.325                Novosib           166.406
       389   04 Jun 2027 10:33:32.114   04 Jun 2027 10:37:42.354           250.240                  Delhi          7820.000
       390   04 Jun 2027 10:47:16.319   04 Jun 2027 10:48:06.664            50.345                Norilsk          1573.281
       391   04 Jun 2027 10:49:05.901   04 Jun 2027 10:50:18.414            72.513                Novosib          2266.031
       392   04 Jun 2027 10:50:48.510   04 Jun 2027 10:50:58.544            10.034                Norilsk           313.562
       393   04 Jun 2027 12:20:56.633   04 Jun 2027 12:21:12.536            15.903              Murmansk1           496.969
       394   04 Jun 2027 12:21:34.473   04 Jun 2027 12:22:01.833            27.360              Murmansk1           855.000
       395   04 Jun 2027 12:22:24.533   04 Jun 2027 12:23:07.075            42.542              Murmansk1          1329.437
       396   04 Jun 2027 12:26:16.044   04 Jun 2027 12:29:24.441           188.397                Norilsk          5887.406
       397   04 Jun 2027 13:31:26.140   04 Jun 2027 13:32:59.195            93.055               CapeTown          2907.969
       398   04 Jun 2027 13:33:17.340   04 Jun 2027 13:34:34.971            77.631               CapeTown          2425.969
       399   04 Jun 2027 13:40:50.974   04 Jun 2027 13:41:05.877            14.903               CapeTown           465.719
       400   04 Jun 2027 13:42:29.374   04 Jun 2027 13:43:10.970            41.596               CapeTown          1299.875
       401   04 Jun 2027 13:55:58.734   04 Jun 2027 13:56:12.221            13.487                 Moscow           421.469
       402   04 Jun 2027 13:58:27.239   04 Jun 2027 13:58:48.086            20.847              Murmansk2           651.469
       403   04 Jun 2027 13:58:54.930   04 Jun 2027 13:59:40.547            45.617              Murmansk1          1425.531
       404   04 Jun 2027 14:00:09.668   04 Jun 2027 14:00:10.956             1.288              Murmansk1            40.250
       405   04 Jun 2027 14:00:16.686   04 Jun 2027 14:00:42.765            26.079              Murmansk2           814.969
       406   04 Jun 2027 14:03:01.691   04 Jun 2027 14:03:22.093            20.402              Murmansk1           637.562
       407   04 Jun 2027 14:07:41.376   04 Jun 2027 14:08:27.649            46.273              Murmansk2          1446.031
       408   04 Jun 2027 14:11:46.448   04 Jun 2027 14:13:58.467           132.019                Anadyr1          4125.594
       409   04 Jun 2027 14:14:49.170   04 Jun 2027 14:16:20.553            91.383                Anadyr2          2855.719
       410   04 Jun 2027 15:38:28.204   04 Jun 2027 15:40:16.485           108.281              Murmansk2          3383.781
       411   04 Jun 2027 15:41:46.127   04 Jun 2027 15:42:07.926            21.799              Murmansk1           681.219
       412   04 Jun 2027 15:47:27.415   04 Jun 2027 15:47:39.373            11.958                Anadyr2           373.688
       413   04 Jun 2027 15:48:12.031   04 Jun 2027 15:49:03.556            51.525                Anadyr2          1610.156
       414   04 Jun 2027 15:49:38.484   04 Jun 2027 15:50:17.746            39.262                Anadyr1          1226.938
       415   04 Jun 2027 15:50:27.303   04 Jun 2027 15:55:33.917           306.614               Magadan2          9581.688
       416   04 Jun 2027 15:56:10.000   04 Jun 2027 15:57:25.727            75.727               Magadan2          2366.469
       417   04 Jun 2027 17:25:41.104   04 Jun 2027 17:27:47.564           126.460               Magadan1          3951.875
       418   04 Jun 2027 18:19:09.183   04 Jun 2027 18:22:08.814           179.631            RioGallegos          5613.469
       419   04 Jun 2027 18:24:58.197   04 Jun 2027 18:25:55.956            57.759            RioGallegos          1804.969
       420   04 Jun 2027 19:01:20.623   04 Jun 2027 19:05:24.867           244.244                Norilsk          7632.625
       421   04 Jun 2027 19:06:05.826   04 Jun 2027 19:06:31.222            25.396                Irkutsk           793.625
       422   04 Jun 2027 19:06:45.813   04 Jun 2027 19:07:19.678            33.865                Irkutsk          1058.281
       423   04 Jun 2027 19:08:06.536   04 Jun 2027 19:10:30.081           143.545                Irkutsk          4485.781
       424   04 Jun 2027 19:11:38.752   04 Jun 2027 19:13:50.930           132.178                Irkutsk          4130.562
       425   04 Jun 2027 19:20:43.784   04 Jun 2027 19:22:32.009           108.225                Sumatra          3382.031
       426   04 Jun 2027 19:27:21.958   04 Jun 2027 19:27:36.394            14.436                Sumatra           451.125
       427   04 Jun 2027 20:41:36.144   04 Jun 2027 20:42:04.261            28.117                Novosib           878.656
       428   04 Jun 2027 20:43:27.512   04 Jun 2027 20:43:59.448            31.936                Novosib           998.000
       429   04 Jun 2027 20:50:58.053   04 Jun 2027 20:53:19.719           141.666                  Delhi          4427.063
       430   04 Jun 2027 20:56:33.791   04 Jun 2027 20:58:07.031            93.240                  Delhi          2913.750
       431   04 Jun 2027 22:15:57.468   04 Jun 2027 22:21:54.734           357.266              Murmansk1         11164.563
       432   04 Jun 2027 23:47:35.772   04 Jun 2027 23:48:23.918            48.146               Magadan2          1504.562
       433   04 Jun 2027 23:49:38.039   04 Jun 2027 23:49:48.230            10.191               Magadan2           318.469
       434   04 Jun 2027 23:49:51.630   04 Jun 2027 23:50:12.487            20.857               Magadan2           651.781
       435   04 Jun 2027 23:50:26.771   04 Jun 2027 23:51:10.550            43.779               Magadan2          1368.094
       436   04 Jun 2027 23:51:17.893   04 Jun 2027 23:54:11.066           173.173              Murmansk2          5411.656
       437   04 Jun 2027 23:54:35.838   04 Jun 2027 23:55:27.767            51.929              Murmansk2          1622.781
       438   04 Jun 2027 23:55:49.242   04 Jun 2027 23:56:01.476            12.234                 Moscow           382.312
       439   04 Jun 2027 23:56:30.925   04 Jun 2027 23:57:33.719            62.794                 Moscow          1962.313
       440   05 Jun 2027 00:20:42.385   05 Jun 2027 00:22:32.457           110.072               CapeTown          3439.750
       441   05 Jun 2027 00:24:31.255   05 Jun 2027 00:24:51.505            20.250               CapeTown           632.813
       442   05 Jun 2027 00:25:25.682   05 Jun 2027 00:26:55.427            89.745               CapeTown          2804.531
       443   05 Jun 2027 01:27:08.293   05 Jun 2027 01:27:17.059             8.766               Magadan1           273.938
       444   05 Jun 2027 01:27:17.833   05 Jun 2027 01:27:30.000            12.167               Magadan2           380.219
       445   05 Jun 2027 01:28:19.914   05 Jun 2027 01:28:43.819            23.905              Murmansk2           747.031
       446   05 Jun 2027 01:29:23.863   05 Jun 2027 01:30:15.476            51.613              Murmansk1          1612.906
       447   05 Jun 2027 01:30:23.447   05 Jun 2027 01:30:44.626            21.179                Novosib           661.844
       448   05 Jun 2027 01:30:56.677   05 Jun 2027 01:31:15.516            18.839              Murmansk2           588.719
       449   05 Jun 2027 01:31:18.420   05 Jun 2027 01:31:41.770            23.350                 Moscow           729.687
       450   05 Jun 2027 01:33:06.964   05 Jun 2027 01:33:45.176            38.212                 Moscow          1194.125
       451   05 Jun 2027 01:39:30.300   05 Jun 2027 01:39:49.261            18.961                 Moscow           592.531
       452   05 Jun 2027 01:54:20.870   05 Jun 2027 01:55:01.853            40.983               CapeTown          1280.719
       453   05 Jun 2027 01:58:45.392   05 Jun 2027 01:58:59.730            14.338               CapeTown           448.062
       454   05 Jun 2027 02:00:46.869   05 Jun 2027 02:00:48.260             1.391               CapeTown            43.469
       455   05 Jun 2027 02:02:35.462   05 Jun 2027 02:02:55.808            20.346               CapeTown           635.812
       456   05 Jun 2027 02:51:07.996   05 Jun 2027 02:51:49.452            41.456                Anadyr1          1295.500
       457   05 Jun 2027 02:51:55.513   05 Jun 2027 02:54:44.124           168.611               Magadan2          5269.094
       458   05 Jun 2027 02:58:13.921   05 Jun 2027 02:58:48.892            34.971               Magadan2          1092.844
       459   05 Jun 2027 04:34:18.380   05 Jun 2027 04:34:50.531            32.151                Irkutsk          1004.719
       460   05 Jun 2027 04:36:02.419   05 Jun 2027 04:36:56.202            53.783               Magadan2          1680.719
       461   05 Jun 2027 04:36:56.202   05 Jun 2027 04:37:09.492            13.290               Magadan1           415.313
       462   05 Jun 2027 04:37:31.257   05 Jun 2027 04:37:41.785            10.528                Norilsk           329.000
       463   05 Jun 2027 04:37:51.492   05 Jun 2027 04:38:06.277            14.785                Anadyr2           462.031
       464   05 Jun 2027 05:16:57.800   05 Jun 2027 05:17:26.282            28.482            RioGallegos           890.063
       465   05 Jun 2027 06:08:26.878   05 Jun 2027 06:09:05.614            38.736                Irkutsk          1210.500
       466   05 Jun 2027 06:10:29.488   05 Jun 2027 06:11:19.001            49.513                Novosib          1547.281
       467   05 Jun 2027 06:11:19.314   05 Jun 2027 06:12:25.774            66.460               Magadan1          2076.875
       468   05 Jun 2027 06:12:34.479   05 Jun 2027 06:13:06.448            31.969                Anadyr2           999.031
       469   05 Jun 2027 06:13:09.468   05 Jun 2027 06:14:05.808            56.340               Magadan2          1760.625
       470   05 Jun 2027 06:14:40.146   05 Jun 2027 06:15:06.777            26.631               Magadan2           832.219
       471   05 Jun 2027 06:17:42.035   05 Jun 2027 06:17:49.995             7.960              Murmansk2           248.750
       472   05 Jun 2027 07:47:27.884   05 Jun 2027 07:47:54.977            27.093                Irkutsk           846.656
       473   05 Jun 2027 07:48:28.126   05 Jun 2027 07:48:39.875            11.749                Irkutsk           367.156
       474   05 Jun 2027 07:49:53.332   05 Jun 2027 07:49:59.331             5.999                Irkutsk           187.469
       475   05 Jun 2027 07:50:06.140   05 Jun 2027 07:50:38.566            32.426                Irkutsk          1013.312
       476   05 Jun 2027 07:50:56.860   05 Jun 2027 07:51:19.190            22.330                Irkutsk           697.812
       477   05 Jun 2027 08:26:52.168   05 Jun 2027 08:27:27.840            35.672            RioGallegos          1114.750
       478   05 Jun 2027 08:28:53.934   05 Jun 2027 08:29:20.224            26.290            RioGallegos           821.562
       479   05 Jun 2027 09:01:09.551   05 Jun 2027 09:02:33.411            83.860                Sumatra          2620.625
       480   05 Jun 2027 09:24:51.501   05 Jun 2027 09:25:51.478            59.977                Irkutsk          1874.281
       481   05 Jun 2027 09:26:17.435   05 Jun 2027 09:26:27.953            10.518                Irkutsk           328.687
       482   05 Jun 2027 10:45:57.453   05 Jun 2027 10:49:21.593           204.140                  Delhi          6379.375
