uniorb/output/strategy_4/Drop/Drop_KinoSat_111405.txt

KinoSat_111405
-------------------------
    Access    *     Start Time (UTCG)     *     Stop Time (UTCG)  *   Duration (s)        *       Station  *  Data (Mbytes)
         1   01 Jun 2027 03:25:31.094   01 Jun 2027 03:25:48.387            17.293                Novosib           540.406
         2   01 Jun 2027 03:25:57.846   01 Jun 2027 03:28:45.893           168.047              Murmansk2          5251.469
         3   01 Jun 2027 03:29:04.518   01 Jun 2027 03:30:09.461            64.943              Murmansk2          2029.469
         4   01 Jun 2027 03:30:16.614   01 Jun 2027 03:32:06.175           109.561                 Moscow          3423.781
         5   01 Jun 2027 03:45:36.524   01 Jun 2027 03:49:04.012           207.488               CapeTown          6484.000
         6   01 Jun 2027 04:48:57.847   01 Jun 2027 04:49:32.374            34.527                Anadyr1          1078.969
         7   01 Jun 2027 04:49:54.573   01 Jun 2027 04:50:44.825            50.252               Magadan2          1570.375
         8   01 Jun 2027 04:50:44.825   01 Jun 2027 04:51:16.091            31.266               Magadan1           977.062
         9   01 Jun 2027 05:00:46.336   01 Jun 2027 05:01:30.918            44.582                Norilsk          1393.188
        10   01 Jun 2027 05:01:31.169   01 Jun 2027 05:03:19.710           108.541              Murmansk1          3391.906
        11   01 Jun 2027 05:04:29.072   01 Jun 2027 05:04:44.164            15.092                 Moscow           471.625
        12   01 Jun 2027 05:04:46.520   01 Jun 2027 05:04:58.899            12.379              Murmansk2           386.844
        13   01 Jun 2027 06:23:57.053   01 Jun 2027 06:23:57.362             0.309               Magadan1             9.656
        14   01 Jun 2027 06:23:58.587   01 Jun 2027 06:24:17.249            18.662                Anadyr1           583.188
        15   01 Jun 2027 06:24:43.372   01 Jun 2027 06:27:44.772           181.400               Magadan2          5668.750
        16   01 Jun 2027 06:27:44.772   01 Jun 2027 06:28:04.534            19.762               Magadan1           617.562
        17   01 Jun 2027 08:00:47.551   01 Jun 2027 08:02:12.513            84.962                Irkutsk          2655.062
        18   01 Jun 2027 08:02:31.093   01 Jun 2027 08:04:55.360           144.267                Anadyr1          4508.344
        19   01 Jun 2027 08:04:55.360   01 Jun 2027 08:06:04.357            68.997                Anadyr2          2156.156
        20   01 Jun 2027 09:36:16.333   01 Jun 2027 09:38:03.363           107.030                Irkutsk          3344.688
        21   01 Jun 2027 09:38:13.984   01 Jun 2027 09:40:28.386           134.402               Magadan1          4200.062
        22   01 Jun 2027 09:41:39.027   01 Jun 2027 09:42:20.427            41.400              Murmansk1          1293.750
        23   01 Jun 2027 09:42:24.061   01 Jun 2027 09:43:14.419            50.358                Novosib          1573.688
        24   01 Jun 2027 10:16:46.810   01 Jun 2027 10:18:59.425           132.615            RioGallegos          4144.219
        25   01 Jun 2027 10:19:09.002   01 Jun 2027 10:19:41.189            32.187            RioGallegos          1005.844
        26   01 Jun 2027 10:51:44.642   01 Jun 2027 10:53:56.561           131.919                Sumatra          4122.469
        27   01 Jun 2027 11:14:15.745   01 Jun 2027 11:14:26.988            11.243              Murmansk2           351.344
        28   01 Jun 2027 11:14:26.988   01 Jun 2027 11:17:07.629           160.641              Murmansk1          5020.031
        29   01 Jun 2027 11:17:12.389   01 Jun 2027 11:18:59.626           107.237                Norilsk          3351.156
        30   01 Jun 2027 11:19:02.985   01 Jun 2027 11:19:27.711            24.726                 Moscow           772.687
        31   01 Jun 2027 11:21:01.352   01 Jun 2027 11:21:21.253            19.901                Norilsk           621.906
        32   01 Jun 2027 11:23:32.084   01 Jun 2027 11:23:51.290            19.206              Murmansk2           600.187
        33   01 Jun 2027 11:24:53.030   01 Jun 2027 11:25:04.811            11.781              Murmansk2           368.156
        34   01 Jun 2027 11:55:42.868   01 Jun 2027 11:56:50.959            68.091            RioGallegos          2127.844
        35   01 Jun 2027 11:57:45.861   01 Jun 2027 11:58:47.888            62.027            RioGallegos          1938.344
        36   01 Jun 2027 12:30:15.646   01 Jun 2027 12:31:47.052            91.406                Sumatra          2856.438
        37   01 Jun 2027 12:43:18.004   01 Jun 2027 12:44:46.170            88.166                Novosib          2755.187
        38   01 Jun 2027 12:45:46.988   01 Jun 2027 12:46:05.315            18.327                Novosib           572.719
        39   01 Jun 2027 12:46:12.427   01 Jun 2027 12:48:25.166           132.739                Irkutsk          4148.094
        40   01 Jun 2027 14:16:34.245   01 Jun 2027 14:19:05.870           151.625                  Delhi          4738.281
        41   01 Jun 2027 14:20:02.419   01 Jun 2027 14:20:06.673             4.254                  Delhi           132.938
        42   01 Jun 2027 14:21:28.891   01 Jun 2027 14:22:30.907            62.016                 Moscow          1938.000
        43   01 Jun 2027 14:23:39.994   01 Jun 2027 14:26:10.426           150.432              Murmansk2          4701.000
        44   01 Jun 2027 14:26:46.471   01 Jun 2027 14:27:45.611            59.140                Norilsk          1848.125
        45   01 Jun 2027 14:27:48.875   01 Jun 2027 14:28:04.831            15.956                Novosib           498.625
        46   01 Jun 2027 14:29:30.512   01 Jun 2027 14:31:11.193           100.681                Norilsk          3146.281
        47   01 Jun 2027 15:35:35.202   01 Jun 2027 15:36:34.932            59.730               CapeTown          1866.563
        48   01 Jun 2027 15:39:27.573   01 Jun 2027 15:39:29.133             1.560               CapeTown            48.750
        49   01 Jun 2027 15:42:34.672   01 Jun 2027 15:42:54.606            19.934               CapeTown           622.937
        50   01 Jun 2027 15:57:48.873   01 Jun 2027 15:58:21.834            32.961                 Moscow          1030.031
        51   01 Jun 2027 16:00:24.263   01 Jun 2027 16:00:57.084            32.821              Murmansk2          1025.656
        52   01 Jun 2027 16:01:18.056   01 Jun 2027 16:01:53.321            35.265              Murmansk2          1102.031
        53   01 Jun 2027 16:03:43.545   01 Jun 2027 16:04:44.922            61.377              Murmansk2          1918.031
        54   01 Jun 2027 16:14:55.876   01 Jun 2027 16:16:07.843            71.967                Anadyr1          2248.969
        55   01 Jun 2027 16:16:07.843   01 Jun 2027 16:16:13.837             5.994                Anadyr2           187.312
        56   01 Jun 2027 16:17:25.178   01 Jun 2027 16:18:24.644            59.466                Anadyr1          1858.313
        57   01 Jun 2027 16:18:30.025   01 Jun 2027 16:18:32.018             1.993                Anadyr2            62.281
        58   01 Jun 2027 17:09:40.295   01 Jun 2027 17:12:04.908           144.613               CapeTown          4519.156
        59   01 Jun 2027 17:39:16.185   01 Jun 2027 17:39:51.756            35.571              Murmansk1          1111.594
        60   01 Jun 2027 17:40:29.260   01 Jun 2027 17:44:27.496           238.236              Murmansk2          7444.875
        61   01 Jun 2027 17:53:37.869   01 Jun 2027 17:53:51.044            13.175                Anadyr1           411.719
        62   01 Jun 2027 17:54:17.916   01 Jun 2027 17:55:39.231            81.315               Magadan2          2541.094
        63   01 Jun 2027 17:55:39.231   01 Jun 2027 17:55:41.406             2.175               Magadan1            67.969
        64   01 Jun 2027 17:55:46.393   01 Jun 2027 17:56:09.004            22.611               Magadan1           706.594
        65   01 Jun 2027 18:47:46.536   01 Jun 2027 18:48:10.662            24.126               CapeTown           753.938
        66   01 Jun 2027 18:51:53.788   01 Jun 2027 18:52:32.349            38.561               CapeTown          1205.031
        67   01 Jun 2027 19:26:12.698   01 Jun 2027 19:27:59.343           106.645                Anadyr2          3332.656
        68   01 Jun 2027 19:27:59.881   01 Jun 2027 19:29:58.336           118.455                Anadyr1          3701.719
        69   01 Jun 2027 19:30:17.511   01 Jun 2027 19:33:36.221           198.710               Magadan2          6209.688
        70   01 Jun 2027 21:02:06.197   01 Jun 2027 21:05:41.786           215.589                Anadyr1          6737.156
        71   01 Jun 2027 21:05:48.330   01 Jun 2027 21:05:50.523             2.193                Norilsk            68.531
        72   01 Jun 2027 21:05:58.340   01 Jun 2027 21:09:42.788           224.448               Magadan1          7014.000
        73   01 Jun 2027 21:10:38.774   01 Jun 2027 21:10:55.444            16.670                Irkutsk           520.937
        74   01 Jun 2027 21:11:13.581   01 Jun 2027 21:11:52.624            39.043                Irkutsk          1220.094
        75   01 Jun 2027 21:56:20.188   01 Jun 2027 21:57:34.773            74.585            RioGallegos          2330.781
        76   01 Jun 2027 22:01:39.244   01 Jun 2027 22:02:27.913            48.669            RioGallegos          1520.906
        77   01 Jun 2027 22:05:47.057   01 Jun 2027 22:06:14.083            27.026            RioGallegos           844.563
        78   01 Jun 2027 22:37:37.023   01 Jun 2027 22:38:20.820            43.797                Anadyr1          1368.656
        79   01 Jun 2027 22:38:22.477   01 Jun 2027 22:40:00.648            98.171                Anadyr2          3067.844
        80   01 Jun 2027 22:40:04.707   01 Jun 2027 22:41:25.805            81.098                Norilsk          2534.312
        81   01 Jun 2027 22:42:00.643   01 Jun 2027 22:42:22.710            22.067               Magadan1           689.594
        82   01 Jun 2027 22:44:21.537   01 Jun 2027 22:44:28.782             7.245               Magadan2           226.406
        83   01 Jun 2027 22:44:34.495   01 Jun 2027 22:45:04.697            30.202                Irkutsk           943.812
        84   01 Jun 2027 22:45:19.353   01 Jun 2027 22:46:56.482            97.129                Novosib          3035.281
        85   01 Jun 2027 22:51:43.297   01 Jun 2027 22:51:43.692             0.395                Novosib            12.344
        86   01 Jun 2027 22:52:12.572   01 Jun 2027 22:52:18.358             5.786                Novosib           180.813
        87   01 Jun 2027 22:54:40.940   01 Jun 2027 22:55:15.603            34.663                Irkutsk          1083.219
        88   01 Jun 2027 22:57:41.777   01 Jun 2027 22:59:12.358            90.581                Sumatra          2830.656
        89   01 Jun 2027 23:10:10.448   01 Jun 2027 23:10:24.095            13.647                Sumatra           426.469
        90   01 Jun 2027 23:38:23.604   01 Jun 2027 23:38:29.839             6.235            RioGallegos           194.844
        91   01 Jun 2027 23:39:39.529   01 Jun 2027 23:39:54.555            15.026            RioGallegos           469.563
        92   01 Jun 2027 23:40:59.334   01 Jun 2027 23:41:27.947            28.613            RioGallegos           894.156
        93   02 Jun 2027 00:12:09.040   02 Jun 2027 00:13:22.260            73.220                Anadyr2          2288.125
        94   02 Jun 2027 00:13:40.449   02 Jun 2027 00:14:26.657            46.208                Anadyr1          1444.000
        95   02 Jun 2027 00:14:46.272   02 Jun 2027 00:14:58.973            12.701                Anadyr1           396.906
        96   02 Jun 2027 00:15:55.597   02 Jun 2027 00:16:09.377            13.780                Norilsk           430.625
        97   02 Jun 2027 00:16:34.517   02 Jun 2027 00:18:23.544           109.027               Magadan2          3407.094
        98   02 Jun 2027 00:19:49.752   02 Jun 2027 00:20:28.859            39.107                Irkutsk          1222.094
        99   02 Jun 2027 00:21:00.607   02 Jun 2027 00:22:35.535            94.928                Novosib          2966.500
       100   02 Jun 2027 00:23:27.011   02 Jun 2027 00:23:40.292            13.281                Novosib           415.031
       101   02 Jun 2027 00:27:22.948   02 Jun 2027 00:29:20.997           118.049                  Delhi          3689.031
       102   02 Jun 2027 00:29:50.708   02 Jun 2027 00:30:51.303            60.595                  Delhi          1893.594
       103   02 Jun 2027 01:09:07.378   02 Jun 2027 01:09:49.937            42.559            RioGallegos          1329.969
       104   02 Jun 2027 01:17:30.232   02 Jun 2027 01:17:38.119             7.887            RioGallegos           246.469
       105   02 Jun 2027 01:45:34.271   02 Jun 2027 01:45:57.420            23.149                Anadyr2           723.406
       106   02 Jun 2027 01:46:21.509   02 Jun 2027 01:46:46.005            24.496                Anadyr2           765.500
       107   02 Jun 2027 01:47:14.492   02 Jun 2027 01:47:42.173            27.681                Anadyr2           865.031
       108   02 Jun 2027 01:48:23.631   02 Jun 2027 01:48:32.418             8.787                Anadyr2           274.594
       109   02 Jun 2027 01:48:37.531   02 Jun 2027 01:48:59.200            21.669                Anadyr2           677.156
       110   02 Jun 2027 01:51:37.922   02 Jun 2027 01:51:48.693            10.771                Anadyr1           336.594
       111   02 Jun 2027 01:51:48.947   02 Jun 2027 01:52:03.440            14.493               Magadan2           452.906
       112   02 Jun 2027 01:52:06.622   02 Jun 2027 01:53:16.314            69.692               Magadan2          2177.875
       113   02 Jun 2027 01:53:22.370   02 Jun 2027 01:53:34.371            12.001                Norilsk           375.031
       114   02 Jun 2027 01:54:11.506   02 Jun 2027 01:55:46.064            94.558              Murmansk1          2954.938
       115   02 Jun 2027 01:55:46.064   02 Jun 2027 01:55:54.141             8.077              Murmansk2           252.406
       116   02 Jun 2027 01:56:16.972   02 Jun 2027 01:56:24.927             7.955              Murmansk1           248.594
       117   02 Jun 2027 01:56:25.411   02 Jun 2027 01:57:11.868            46.457                Novosib          1451.781
       118   02 Jun 2027 01:58:32.454   02 Jun 2027 01:58:48.479            16.025                 Moscow           500.781
       119   02 Jun 2027 02:01:15.791   02 Jun 2027 02:01:38.179            22.388                Irkutsk           699.625
       120   02 Jun 2027 02:03:39.753   02 Jun 2027 02:04:16.845            37.092                  Delhi          1159.125
       121   02 Jun 2027 02:08:30.645   02 Jun 2027 02:09:01.478            30.833                  Delhi           963.531
       122   02 Jun 2027 02:13:32.164   02 Jun 2027 02:13:34.604             2.440                  Delhi            76.250
       123   02 Jun 2027 02:14:08.272   02 Jun 2027 02:14:17.313             9.041                  Delhi           282.531
       124   02 Jun 2027 03:19:05.532   02 Jun 2027 03:19:50.697            45.165                Anadyr2          1411.406
       125   02 Jun 2027 03:26:08.077   02 Jun 2027 03:26:15.942             7.865               Magadan1           245.781
       126   02 Jun 2027 03:27:46.589   02 Jun 2027 03:28:11.380            24.791                Anadyr2           774.719
       127   02 Jun 2027 03:36:58.378   02 Jun 2027 03:37:36.983            38.605              Murmansk1          1206.406
       128   02 Jun 2027 03:38:39.034   02 Jun 2027 03:38:55.309            16.275                Novosib           508.594
       129   02 Jun 2027 03:39:05.478   02 Jun 2027 03:39:38.166            32.688                Norilsk          1021.500
       130   02 Jun 2027 03:39:43.309   02 Jun 2027 03:40:49.072            65.763                Novosib          2055.094
       131   02 Jun 2027 03:40:49.643   02 Jun 2027 03:41:31.133            41.490                 Moscow          1296.563
       132   02 Jun 2027 03:41:43.257   02 Jun 2027 03:42:23.638            40.381              Murmansk1          1261.906
       133   02 Jun 2027 03:42:24.898   02 Jun 2027 03:46:01.895           216.997                 Moscow          6781.156
       134   02 Jun 2027 03:57:23.476   02 Jun 2027 03:58:15.940            52.464               CapeTown          1639.500
       135   02 Jun 2027 04:00:16.481   02 Jun 2027 04:00:54.735            38.254               CapeTown          1195.438
       136   02 Jun 2027 05:00:32.905   02 Jun 2027 05:01:53.516            80.611               Magadan2          2519.094
       137   02 Jun 2027 05:01:53.516   02 Jun 2027 05:02:19.455            25.939               Magadan1           810.594
       138   02 Jun 2027 05:02:32.188   02 Jun 2027 05:02:37.367             5.179               Magadan2           161.844
       139   02 Jun 2027 05:02:37.367   02 Jun 2027 05:02:41.010             3.643               Magadan1           113.844
       140   02 Jun 2027 05:02:51.565   02 Jun 2027 05:03:28.564            36.999                Anadyr2          1156.219
       141   02 Jun 2027 05:04:46.432   02 Jun 2027 05:04:50.970             4.538                Anadyr1           141.813
       142   02 Jun 2027 05:05:43.825   02 Jun 2027 05:05:49.743             5.918                Anadyr1           184.937
       143   02 Jun 2027 06:38:00.349   02 Jun 2027 06:40:59.404           179.055                Anadyr1          5595.469
       144   02 Jun 2027 06:40:59.404   02 Jun 2027 06:41:46.344            46.940                Anadyr2          1466.875
       145   02 Jun 2027 08:12:19.823   02 Jun 2027 08:12:59.401            39.578               Magadan2          1236.812
       146   02 Jun 2027 08:13:11.137   02 Jun 2027 08:17:54.487           283.350                Anadyr1          8854.688
       147   02 Jun 2027 09:48:43.028   02 Jun 2027 09:48:47.533             4.505                Irkutsk           140.781
       148   02 Jun 2027 09:48:51.567   02 Jun 2027 09:49:10.320            18.753                Irkutsk           586.031
       149   02 Jun 2027 09:49:51.318   02 Jun 2027 09:50:35.921            44.603               Magadan2          1393.844
       150   02 Jun 2027 09:50:39.717   02 Jun 2027 09:52:26.027           106.310               Magadan2          3322.188
       151   02 Jun 2027 09:53:04.193   02 Jun 2027 09:53:05.121             0.928                Irkutsk            29.000
       152   02 Jun 2027 09:53:08.882   02 Jun 2027 09:53:31.493            22.611                Irkutsk           706.594
       153   02 Jun 2027 09:53:40.928   02 Jun 2027 09:53:44.750             3.822              Murmansk2           119.438
       154   02 Jun 2027 09:54:02.608   02 Jun 2027 09:54:06.906             4.298                Irkutsk           134.313
       155   02 Jun 2027 10:28:55.019   02 Jun 2027 10:29:35.018            39.999            RioGallegos          1249.969
       156   02 Jun 2027 10:31:51.320   02 Jun 2027 10:32:53.782            62.462            RioGallegos          1951.937
       157   02 Jun 2027 11:03:40.342   02 Jun 2027 11:04:38.274            57.932                Sumatra          1810.375
       158   02 Jun 2027 11:24:33.281   02 Jun 2027 11:24:36.876             3.595                Irkutsk           112.344
       159   02 Jun 2027 11:25:47.192   02 Jun 2027 11:26:13.895            26.703                Norilsk           834.469
       160   02 Jun 2027 11:26:16.159   02 Jun 2027 11:27:03.178            47.019                Irkutsk          1469.344
       161   02 Jun 2027 11:27:22.847   02 Jun 2027 11:27:29.027             6.180                Novosib           193.125
       162   02 Jun 2027 11:27:32.766   02 Jun 2027 11:27:57.893            25.127                Norilsk           785.219
       163   02 Jun 2027 11:27:59.648   02 Jun 2027 11:29:14.501            74.853                Norilsk          2339.156
       164   02 Jun 2027 11:29:32.358   02 Jun 2027 11:29:44.111            11.753                Novosib           367.281
       165   02 Jun 2027 11:29:49.859   02 Jun 2027 11:30:04.056            14.197                Norilsk           443.656
       166   02 Jun 2027 11:30:25.961   02 Jun 2027 11:30:27.452             1.491                Norilsk            46.594
       167   02 Jun 2027 12:08:39.671   02 Jun 2027 12:10:42.312           122.641            RioGallegos          3832.531
       168   02 Jun 2027 12:44:26.010   02 Jun 2027 12:46:32.841           126.831                Sumatra          3963.469
       169   02 Jun 2027 12:57:57.235   02 Jun 2027 12:58:09.600            12.365                Novosib           386.406
       170   02 Jun 2027 12:59:41.710   02 Jun 2027 12:59:48.858             7.148                Norilsk           223.375
       171   02 Jun 2027 13:00:03.009   02 Jun 2027 13:00:24.890            21.881                Novosib           683.781
       172   02 Jun 2027 13:00:48.283   02 Jun 2027 13:01:28.145            39.862                Norilsk          1245.687
       173   02 Jun 2027 13:03:32.676   02 Jun 2027 13:03:57.887            25.211                Norilsk           787.844
       174   02 Jun 2027 14:32:16.984   02 Jun 2027 14:35:33.940           196.956                 Moscow          6154.875
       175   02 Jun 2027 14:35:41.816   02 Jun 2027 14:37:44.677           122.861              Murmansk1          3839.406
       176   02 Jun 2027 14:39:26.575   02 Jun 2027 14:39:30.025             3.450                Norilsk           107.813
       177   02 Jun 2027 14:40:22.452   02 Jun 2027 14:40:55.158            32.706                Norilsk          1022.063
       178   02 Jun 2027 14:41:32.630   02 Jun 2027 14:43:10.713            98.083                Norilsk          3065.094
       179   02 Jun 2027 15:47:02.533   02 Jun 2027 15:49:59.515           176.982               CapeTown          5530.687
       180   02 Jun 2027 16:09:27.609   02 Jun 2027 16:10:31.090            63.481                 Moscow          1983.781
       181   02 Jun 2027 16:12:40.077   02 Jun 2027 16:12:57.840            17.763              Murmansk2           555.094
       182   02 Jun 2027 16:13:20.075   02 Jun 2027 16:14:36.247            76.172              Murmansk2          2380.375
       183   02 Jun 2027 16:26:48.868   02 Jun 2027 16:28:25.626            96.758                Anadyr2          3023.687
       184   02 Jun 2027 16:29:41.003   02 Jun 2027 16:29:48.015             7.012                Anadyr2           219.125
       185   02 Jun 2027 17:21:44.029   02 Jun 2027 17:23:49.105           125.076               CapeTown          3908.625
       186   02 Jun 2027 17:51:51.697   02 Jun 2027 17:52:46.597            54.900              Murmansk2          1715.625
       187   02 Jun 2027 17:53:03.466   02 Jun 2027 17:56:44.612           221.146              Murmansk1          6910.812
       188   02 Jun 2027 18:05:52.070   02 Jun 2027 18:06:29.617            37.547               Magadan1          1173.344
       189   02 Jun 2027 18:06:29.617   02 Jun 2027 18:07:41.583            71.966               Magadan2          2248.937
       190   02 Jun 2027 18:07:51.017   02 Jun 2027 18:07:56.144             5.127               Magadan2           160.219
       191   02 Jun 2027 18:08:31.292   02 Jun 2027 18:09:00.597            29.305               Magadan1           915.781
       192   02 Jun 2027 19:38:14.330   02 Jun 2027 19:39:59.890           105.560                Anadyr2          3298.750
       193   02 Jun 2027 19:40:16.451   02 Jun 2027 19:41:59.763           103.312                Anadyr1          3228.500
       194   02 Jun 2027 19:42:01.227   02 Jun 2027 19:45:08.224           186.997               Magadan1          5843.656
       195   02 Jun 2027 19:49:54.007   02 Jun 2027 19:50:15.828            21.821               Magadan2           681.906
       196   02 Jun 2027 21:14:06.406   02 Jun 2027 21:16:16.368           129.962                Anadyr1          4061.313
       197   02 Jun 2027 21:16:21.007   02 Jun 2027 21:20:36.537           255.530                Norilsk          7985.313
       198   02 Jun 2027 21:21:03.807   02 Jun 2027 21:21:43.709            39.902                Norilsk          1246.938
       199   02 Jun 2027 21:21:51.235   02 Jun 2027 21:21:57.469             6.234                Irkutsk           194.812
       200   02 Jun 2027 21:23:18.884   02 Jun 2027 21:24:07.723            48.839                Irkutsk          1526.219
       201   02 Jun 2027 21:24:52.972   02 Jun 2027 21:25:41.169            48.197                Irkutsk          1506.156
       202   02 Jun 2027 21:27:44.429   02 Jun 2027 21:27:55.111            10.682                Irkutsk           333.812
       203   02 Jun 2027 21:38:10.294   02 Jun 2027 21:39:11.642            61.348                Sumatra          1917.125
       204   02 Jun 2027 21:39:50.356   02 Jun 2027 21:41:47.866           117.510                Sumatra          3672.187
       205   02 Jun 2027 22:50:09.667   02 Jun 2027 22:50:21.992            12.325                Anadyr2           385.156
       206   02 Jun 2027 22:50:57.224   02 Jun 2027 22:51:58.951            61.727                Anadyr1          1928.969
       207   02 Jun 2027 22:52:09.629   02 Jun 2027 22:53:02.349            52.720                Norilsk          1647.500
       208   02 Jun 2027 22:53:33.008   02 Jun 2027 22:54:06.052            33.044                Norilsk          1032.625
       209   02 Jun 2027 22:55:57.733   02 Jun 2027 22:57:06.645            68.912                Irkutsk          2153.500
       210   02 Jun 2027 22:59:06.445   02 Jun 2027 22:59:09.535             3.090                Novosib            96.562
       211   02 Jun 2027 22:59:14.871   02 Jun 2027 22:59:38.461            23.590                Novosib           737.188
       212   02 Jun 2027 23:00:24.768   02 Jun 2027 23:03:09.367           164.599                Novosib          5143.719
       213   02 Jun 2027 23:50:38.397   02 Jun 2027 23:50:57.212            18.815            RioGallegos           587.969
       214   03 Jun 2027 00:23:54.400   03 Jun 2027 00:25:32.191            97.791                Anadyr2          3055.969
       215   03 Jun 2027 00:27:57.774   03 Jun 2027 00:28:25.243            27.469                Norilsk           858.406
       216   03 Jun 2027 00:28:35.860   03 Jun 2027 00:30:39.812           123.952               Magadan2          3873.500
       217   03 Jun 2027 00:31:31.252   03 Jun 2027 00:32:39.003            67.751              Murmansk1          2117.219
       218   03 Jun 2027 00:32:39.003   03 Jun 2027 00:34:23.081           104.078              Murmansk2          3252.437
       219   03 Jun 2027 00:39:14.607   03 Jun 2027 00:40:06.380            51.773                  Delhi          1617.906
       220   03 Jun 2027 00:42:31.771   03 Jun 2027 00:42:37.955             6.184                  Delhi           193.250
       221   03 Jun 2027 00:46:43.319   03 Jun 2027 00:47:32.698            49.379                  Delhi          1543.094
       222   03 Jun 2027 01:20:39.279   03 Jun 2027 01:20:56.856            17.577            RioGallegos           549.281
       223   03 Jun 2027 01:23:34.063   03 Jun 2027 01:23:58.613            24.550            RioGallegos           767.188
       224   03 Jun 2027 01:25:45.699   03 Jun 2027 01:26:14.582            28.883            RioGallegos           902.594
       225   03 Jun 2027 01:28:51.619   03 Jun 2027 01:29:11.972            20.353            RioGallegos           636.031
       226   03 Jun 2027 01:57:15.422   03 Jun 2027 01:57:20.515             5.093                Anadyr1           159.156
       227   03 Jun 2027 01:57:40.942   03 Jun 2027 01:57:44.237             3.295                Anadyr1           102.969
       228   03 Jun 2027 01:57:55.781   03 Jun 2027 01:58:17.996            22.215                Anadyr1           694.219
       229   03 Jun 2027 01:59:14.447   03 Jun 2027 01:59:41.424            26.977                Anadyr1           843.031
       230   03 Jun 2027 02:00:15.869   03 Jun 2027 02:00:26.643            10.774                Anadyr2           336.688
       231   03 Jun 2027 02:02:14.004   03 Jun 2027 02:03:01.320            47.316                Anadyr1          1478.625
       232   03 Jun 2027 02:03:27.571   03 Jun 2027 02:03:43.812            16.241               Magadan1           507.531
       233   03 Jun 2027 02:03:55.259   03 Jun 2027 02:04:08.192            12.933                Norilsk           404.156
       234   03 Jun 2027 02:04:08.914   03 Jun 2027 02:04:32.394            23.480               Magadan2           733.750
       235   03 Jun 2027 02:05:15.355   03 Jun 2027 02:05:31.058            15.703                Norilsk           490.719
       236   03 Jun 2027 02:05:47.318   03 Jun 2027 02:06:27.731            40.413               Magadan2          1262.906
       237   03 Jun 2027 02:06:53.506   03 Jun 2027 02:08:17.214            83.708              Murmansk2          2615.875
       238   03 Jun 2027 02:09:51.403   03 Jun 2027 02:10:02.680            11.277                Novosib           352.406
       239   03 Jun 2027 02:11:43.093   03 Jun 2027 02:12:44.649            61.556                 Moscow          1923.625
       240   03 Jun 2027 02:18:24.910   03 Jun 2027 02:19:17.164            52.254                  Delhi          1632.938
       241   03 Jun 2027 02:40:07.306   03 Jun 2027 02:41:41.355            94.049               CapeTown          2939.031
       242   03 Jun 2027 03:49:09.444   03 Jun 2027 03:49:43.896            34.452                Norilsk          1076.625
       243   03 Jun 2027 03:50:30.576   03 Jun 2027 03:50:42.317            11.741                Novosib           366.906
       244   03 Jun 2027 03:51:39.752   03 Jun 2027 03:54:35.895           176.143              Murmansk2          5504.469
       245   03 Jun 2027 03:54:36.828   03 Jun 2027 03:56:00.375            83.547                 Moscow          2610.844
       246   03 Jun 2027 05:12:35.840   03 Jun 2027 05:15:17.051           161.211               Magadan1          5037.844
       247   03 Jun 2027 05:15:18.237   03 Jun 2027 05:16:47.413            89.176                Anadyr2          2786.750
       248   03 Jun 2027 05:16:47.413   03 Jun 2027 05:18:50.991           123.578                Anadyr1          3861.813
       249   03 Jun 2027 06:47:17.383   03 Jun 2027 06:47:35.026            17.643                Anadyr1           551.344
       250   03 Jun 2027 06:47:51.470   03 Jun 2027 06:48:02.656            11.186                Anadyr2           349.562
       251   03 Jun 2027 06:48:15.297   03 Jun 2027 06:48:21.985             6.688               Magadan2           209.000
       252   03 Jun 2027 06:48:25.190   03 Jun 2027 06:48:46.827            21.637                Anadyr1           676.156
       253   03 Jun 2027 06:48:46.827   03 Jun 2027 06:49:19.212            32.385                Anadyr2          1012.031
       254   03 Jun 2027 06:49:44.297   03 Jun 2027 06:49:53.035             8.738                Anadyr2           273.063
       255   03 Jun 2027 06:50:23.190   03 Jun 2027 06:50:31.740             8.550               Magadan2           267.188
       256   03 Jun 2027 06:50:33.032   03 Jun 2027 06:50:42.047             9.015               Magadan1           281.719
       257   03 Jun 2027 06:50:42.047   03 Jun 2027 06:51:07.370            25.323               Magadan2           791.344
       258   03 Jun 2027 06:51:07.375   03 Jun 2027 06:51:44.776            37.401                Anadyr1          1168.781
       259   03 Jun 2027 06:52:23.466   03 Jun 2027 06:52:32.956             9.490                Anadyr1           296.562
       260   03 Jun 2027 06:52:49.765   03 Jun 2027 06:53:07.461            17.696                Anadyr2           553.000
       261   03 Jun 2027 06:53:57.260   03 Jun 2027 06:54:00.739             3.479                Anadyr2           108.719
       262   03 Jun 2027 07:00:21.157   03 Jun 2027 07:00:28.385             7.228                 Moscow           225.875
       263   03 Jun 2027 08:21:02.376   03 Jun 2027 08:21:38.768            36.392               Magadan1          1137.250
       264   03 Jun 2027 08:22:54.504   03 Jun 2027 08:23:18.818            24.314               Magadan1           759.813
       265   03 Jun 2027 08:23:45.361   03 Jun 2027 08:24:10.046            24.685               Magadan1           771.406
       266   03 Jun 2027 08:25:11.377   03 Jun 2027 08:26:26.296            74.919                Anadyr2          2341.219
       267   03 Jun 2027 08:26:40.173   03 Jun 2027 08:27:36.434            56.261               Magadan2          1758.156
       268   03 Jun 2027 08:27:45.307   03 Jun 2027 08:27:52.183             6.876               Magadan2           214.875
       269   03 Jun 2027 08:28:01.581   03 Jun 2027 08:28:05.723             4.142                Norilsk           129.438
       270   03 Jun 2027 08:28:06.130   03 Jun 2027 08:28:44.850            38.720               Magadan1          1210.000
       271   03 Jun 2027 08:28:53.589   03 Jun 2027 08:28:54.259             0.670                Anadyr1            20.938
       272   03 Jun 2027 08:29:21.439   03 Jun 2027 08:30:13.878            52.439               Magadan2          1638.719
       273   03 Jun 2027 09:05:23.926   03 Jun 2027 09:06:05.851            41.925            RioGallegos          1310.156
       274   03 Jun 2027 09:43:18.493   03 Jun 2027 09:44:40.759            82.266                Sumatra          2570.812
       275   03 Jun 2027 10:00:31.303   03 Jun 2027 10:00:59.286            27.983                Irkutsk           874.469
       276   03 Jun 2027 10:01:32.983   03 Jun 2027 10:01:41.306             8.323                Norilsk           260.094
       277   03 Jun 2027 10:02:18.082   03 Jun 2027 10:02:20.556             2.474                Irkutsk            77.312
       278   03 Jun 2027 10:02:41.124   03 Jun 2027 10:03:16.857            35.733               Magadan1          1116.656
       279   03 Jun 2027 10:03:37.615   03 Jun 2027 10:03:40.730             3.115                Norilsk            97.344
       280   03 Jun 2027 10:03:41.989   03 Jun 2027 10:04:22.546            40.557               Magadan2          1267.406
       281   03 Jun 2027 10:04:39.607   03 Jun 2027 10:05:17.606            37.999                Norilsk          1187.469
       282   03 Jun 2027 10:05:21.169   03 Jun 2027 10:05:23.219             2.050                Irkutsk            64.063
       283   03 Jun 2027 10:05:36.685   03 Jun 2027 10:05:53.907            17.222                Novosib           538.187
       284   03 Jun 2027 10:06:02.217   03 Jun 2027 10:06:16.151            13.934                Novosib           435.438
       285   03 Jun 2027 10:41:06.954   03 Jun 2027 10:42:20.189            73.235            RioGallegos          2288.594
       286   03 Jun 2027 11:15:41.682   03 Jun 2027 11:17:35.136           113.454                Sumatra          3545.437
       287   03 Jun 2027 11:36:55.324   03 Jun 2027 11:37:09.054            13.730                Irkutsk           429.062
       288   03 Jun 2027 11:37:51.575   03 Jun 2027 11:38:17.765            26.190                Novosib           818.438
       289   03 Jun 2027 11:38:40.853   03 Jun 2027 11:39:12.893            32.040                Novosib          1001.250
       290   03 Jun 2027 11:39:15.933   03 Jun 2027 11:39:36.396            20.463                Novosib           639.469
       291   03 Jun 2027 11:40:02.708   03 Jun 2027 11:41:16.643            73.935                Norilsk          2310.469
       292   03 Jun 2027 11:41:31.243   03 Jun 2027 11:41:49.312            18.069                Novosib           564.656
       293   03 Jun 2027 11:42:03.402   03 Jun 2027 11:42:13.839            10.437                Norilsk           326.156
       294   03 Jun 2027 12:21:56.889   03 Jun 2027 12:24:01.663           124.774            RioGallegos          3899.188
       295   03 Jun 2027 13:02:06.868   03 Jun 2027 13:02:55.972            49.104                  Delhi          1534.500
       296   03 Jun 2027 13:08:02.447   03 Jun 2027 13:09:02.872            60.425                Novosib          1888.281
       297   03 Jun 2027 13:10:13.384   03 Jun 2027 13:10:49.664            36.280                Novosib          1133.750
       298   03 Jun 2027 13:12:02.697   03 Jun 2027 13:13:01.141            58.444                Novosib          1826.375
       299   03 Jun 2027 13:15:34.955   03 Jun 2027 13:15:59.043            24.088                Norilsk           752.750
       300   03 Jun 2027 13:17:55.092   03 Jun 2027 13:18:47.466            52.374                Novosib          1636.687
       301   03 Jun 2027 14:44:16.818   03 Jun 2027 14:44:44.630            27.812                 Moscow           869.125
       302   03 Jun 2027 14:45:27.512   03 Jun 2027 14:45:45.578            18.066                 Moscow           564.562
       303   03 Jun 2027 14:46:35.453   03 Jun 2027 14:47:09.127            33.674                 Moscow          1052.313
       304   03 Jun 2027 14:47:35.782   03 Jun 2027 14:47:58.545            22.763                 Moscow           711.344
       305   03 Jun 2027 14:49:03.680   03 Jun 2027 14:50:25.916            82.236              Murmansk1          2569.875
       306   03 Jun 2027 14:52:10.582   03 Jun 2027 14:55:09.347           178.765                Norilsk          5586.406
       307   03 Jun 2027 15:58:39.151   03 Jun 2027 15:59:35.107            55.956               CapeTown          1748.625
       308   03 Jun 2027 16:02:46.570   03 Jun 2027 16:03:44.911            58.341               CapeTown          1823.156
       309   03 Jun 2027 16:21:55.625   03 Jun 2027 16:22:43.684            48.059                 Moscow          1501.844
       310   03 Jun 2027 16:24:57.954   03 Jun 2027 16:25:22.160            24.206              Murmansk1           756.437
       311   03 Jun 2027 16:26:21.692   03 Jun 2027 16:27:06.219            44.527                 Moscow          1391.469
       312   03 Jun 2027 16:27:17.033   03 Jun 2027 16:28:43.198            86.165              Murmansk2          2692.656
       313   03 Jun 2027 16:38:43.837   03 Jun 2027 16:40:13.786            89.949                Anadyr1          2810.906
       314   03 Jun 2027 16:41:27.226   03 Jun 2027 16:41:28.455             1.229                Anadyr1            38.406
       315   03 Jun 2027 16:41:42.426   03 Jun 2027 16:42:09.605            27.179                Anadyr2           849.344
       316   03 Jun 2027 16:45:39.464   03 Jun 2027 16:45:54.725            15.261                Anadyr1           476.906
       317   03 Jun 2027 16:47:55.289   03 Jun 2027 16:47:57.033             1.744                Anadyr2            54.500
       318   03 Jun 2027 17:33:50.578   03 Jun 2027 17:34:40.678            50.100               CapeTown          1565.625
       319   03 Jun 2027 17:38:58.863   03 Jun 2027 17:39:35.153            36.290               CapeTown          1134.063
       320   03 Jun 2027 17:44:07.330   03 Jun 2027 17:44:12.603             5.273               CapeTown           164.781
       321   03 Jun 2027 17:45:08.286   03 Jun 2027 17:45:25.993            17.707               CapeTown           553.344
       322   03 Jun 2027 18:04:30.688   03 Jun 2027 18:05:53.821            83.133              Murmansk1          2597.906
       323   03 Jun 2027 18:05:55.984   03 Jun 2027 18:08:43.669           167.685              Murmansk2          5240.156
       324   03 Jun 2027 18:15:13.024   03 Jun 2027 18:15:37.224            24.200                Anadyr1           756.250
       325   03 Jun 2027 18:17:34.559   03 Jun 2027 18:18:28.702            54.143               Magadan2          1691.969
       326   03 Jun 2027 18:18:46.637   03 Jun 2027 18:19:03.547            16.910               Magadan1           528.438
       327   03 Jun 2027 18:19:32.778   03 Jun 2027 18:19:57.903            25.125               Magadan1           785.156
       328   03 Jun 2027 18:23:39.961   03 Jun 2027 18:23:54.550            14.589               Magadan1           455.906
       329   03 Jun 2027 19:50:15.924   03 Jun 2027 19:52:00.136           104.212                Anadyr2          3256.625
       330   03 Jun 2027 19:52:06.639   03 Jun 2027 19:54:01.057           114.418                Anadyr1          3575.562
       331   03 Jun 2027 19:54:08.507   03 Jun 2027 19:54:55.850            47.343               Magadan1          1479.469
       332   03 Jun 2027 19:55:08.087   03 Jun 2027 19:56:18.810            70.723               Magadan2          2210.094
       333   03 Jun 2027 19:56:37.133   03 Jun 2027 19:57:30.837            53.704               Magadan1          1678.250
       334   03 Jun 2027 19:59:23.221   03 Jun 2027 20:00:04.478            41.257               Magadan1          1289.281
       335   03 Jun 2027 20:47:01.158   03 Jun 2027 20:49:08.783           127.625            RioGallegos          3988.281
       336   03 Jun 2027 21:26:06.225   03 Jun 2027 21:27:33.500            87.275                Anadyr1          2727.344
       337   03 Jun 2027 21:27:41.070   03 Jun 2027 21:27:48.855             7.785                Anadyr1           243.281
       338   03 Jun 2027 21:28:16.394   03 Jun 2027 21:30:17.186           120.792                Norilsk          3774.750
       339   03 Jun 2027 21:30:31.947   03 Jun 2027 21:30:51.781            19.834                Norilsk           619.813
       340   03 Jun 2027 21:30:52.491   03 Jun 2027 21:31:33.390            40.899               Magadan2          1278.094
       341   03 Jun 2027 21:32:17.937   03 Jun 2027 21:33:39.278            81.341                Norilsk          2541.906
       342   03 Jun 2027 21:35:03.925   03 Jun 2027 21:36:10.939            67.014                Irkutsk          2094.187
       343   03 Jun 2027 21:48:40.317   03 Jun 2027 21:50:36.783           116.466                Sumatra          3639.563
       344   03 Jun 2027 21:54:23.747   03 Jun 2027 21:56:16.858           113.111                Sumatra          3534.719
       345   03 Jun 2027 23:01:37.416   03 Jun 2027 23:01:55.603            18.187                Anadyr1           568.344
       346   03 Jun 2027 23:03:59.625   03 Jun 2027 23:04:11.276            11.651                Norilsk           364.094
       347   03 Jun 2027 23:04:35.584   03 Jun 2027 23:05:51.637            76.053               Magadan1          2376.656
       348   03 Jun 2027 23:07:07.571   03 Jun 2027 23:07:17.741            10.170               Magadan2           317.812
       349   03 Jun 2027 23:07:56.093   03 Jun 2027 23:09:05.395            69.302                Irkutsk          2165.688
       350   03 Jun 2027 23:09:08.807   03 Jun 2027 23:09:43.826            35.019                Novosib          1094.344
       351   03 Jun 2027 23:11:18.309   03 Jun 2027 23:12:23.801            65.492                Novosib          2046.625
       352   03 Jun 2027 23:19:37.505   03 Jun 2027 23:20:37.328            59.823                  Delhi          1869.469
       353   03 Jun 2027 23:28:00.369   03 Jun 2027 23:28:10.614            10.245                Sumatra           320.156
       354   03 Jun 2027 23:30:29.338   03 Jun 2027 23:30:37.336             7.998                Sumatra           249.937
       355   03 Jun 2027 23:31:26.348   03 Jun 2027 23:31:51.068            24.720                Sumatra           772.500
       356   04 Jun 2027 00:07:26.352   04 Jun 2027 00:07:57.375            31.023            RioGallegos           969.469
       357   04 Jun 2027 00:35:38.638   04 Jun 2027 00:37:37.226           118.588                Anadyr1          3705.875
       358   04 Jun 2027 00:39:59.912   04 Jun 2027 00:40:23.907            23.995                Norilsk           749.844
       359   04 Jun 2027 00:40:36.480   04 Jun 2027 00:42:17.944           101.464               Magadan2          3170.750
       360   04 Jun 2027 00:43:05.040   04 Jun 2027 00:45:19.445           134.405              Murmansk2          4200.156
       361   04 Jun 2027 00:51:10.101   04 Jun 2027 00:51:32.890            22.789                  Delhi           712.156
       362   04 Jun 2027 00:51:54.931   04 Jun 2027 00:53:43.563           108.632                  Delhi          3394.750
       363   04 Jun 2027 01:03:55.265   04 Jun 2027 01:03:55.635             0.370                  Delhi            11.563
       364   04 Jun 2027 01:32:54.403   04 Jun 2027 01:34:21.061            86.658            RioGallegos          2708.062
       365   04 Jun 2027 01:37:31.315   04 Jun 2027 01:37:46.332            15.017            RioGallegos           469.281
       366   04 Jun 2027 02:08:56.885   04 Jun 2027 02:09:23.589            26.704                Anadyr1           834.500
       367   04 Jun 2027 02:09:30.926   04 Jun 2027 02:09:41.282            10.356                Anadyr1           323.625
       368   04 Jun 2027 02:10:36.986   04 Jun 2027 02:11:14.742            37.756                Anadyr2          1179.875
       369   04 Jun 2027 02:13:35.785   04 Jun 2027 02:14:15.627            39.842                Anadyr2          1245.062
       370   04 Jun 2027 02:15:05.011   04 Jun 2027 02:15:57.608            52.597               Magadan2          1643.656
       371   04 Jun 2027 02:17:15.040   04 Jun 2027 02:17:47.813            32.773               Magadan1          1024.156
       372   04 Jun 2027 02:18:10.885   04 Jun 2027 02:19:35.158            84.273              Murmansk2          2633.531
       373   04 Jun 2027 02:19:52.413   04 Jun 2027 02:21:08.808            76.395                Novosib          2387.344
       374   04 Jun 2027 02:28:35.048   04 Jun 2027 02:29:02.618            27.570                  Delhi           861.562
       375   04 Jun 2027 02:31:57.528   04 Jun 2027 02:33:43.559           106.031                  Delhi          3313.469
       376   04 Jun 2027 04:03:32.977   04 Jun 2027 04:04:59.862            86.885              Murmansk2          2715.156
       377   04 Jun 2027 04:06:17.950   04 Jun 2027 04:08:13.266           115.316                 Moscow          3603.625
       378   04 Jun 2027 05:24:17.346   04 Jun 2027 05:28:37.277           259.931               Magadan2          8122.844
       379   04 Jun 2027 05:28:48.150   04 Jun 2027 05:30:32.966           104.816                Anadyr1          3275.500
       380   04 Jun 2027 05:30:46.323   04 Jun 2027 05:30:52.536             6.213                Anadyr1           194.156
       381   04 Jun 2027 07:01:19.119   04 Jun 2027 07:02:00.982            41.863                Anadyr2          1308.219
       382   04 Jun 2027 07:02:03.226   04 Jun 2027 07:02:18.989            15.763               Magadan2           492.594
       383   04 Jun 2027 07:02:31.068   04 Jun 2027 07:02:34.961             3.893               Magadan2           121.656
       384   04 Jun 2027 07:02:40.986   04 Jun 2027 07:02:44.455             3.469               Magadan2           108.406
       385   04 Jun 2027 07:03:00.755   04 Jun 2027 07:04:18.238            77.483                Anadyr2          2421.344
       386   04 Jun 2027 08:34:55.160   04 Jun 2027 08:35:17.738            22.578               Magadan1           705.563
       387   04 Jun 2027 08:35:58.751   04 Jun 2027 08:36:58.196            59.445               Magadan2          1857.656
       388   04 Jun 2027 08:37:11.115   04 Jun 2027 08:38:17.545            66.430                Anadyr2          2075.938
       389   04 Jun 2027 08:38:17.545   04 Jun 2027 08:39:05.398            47.853                Anadyr1          1495.406
       390   04 Jun 2027 08:39:30.831   04 Jun 2027 08:39:35.322             4.491               Magadan1           140.344
       391   04 Jun 2027 08:40:14.813   04 Jun 2027 08:40:38.787            23.974                Anadyr1           749.188
       392   04 Jun 2027 08:40:46.219   04 Jun 2027 08:41:31.965            45.746               Magadan1          1429.563
       393   04 Jun 2027 08:42:07.491   04 Jun 2027 08:42:20.342            12.851              Murmansk1           401.594
       394   04 Jun 2027 09:17:12.413   04 Jun 2027 09:18:24.820            72.407            RioGallegos          2262.719
       395   04 Jun 2027 09:54:09.883   04 Jun 2027 09:55:40.108            90.225                Sumatra          2819.531
       396   04 Jun 2027 10:12:25.241   04 Jun 2027 10:12:43.077            17.836               Magadan1           557.375
       397   04 Jun 2027 10:13:22.736   04 Jun 2027 10:14:42.110            79.374               Magadan1          2480.438
       398   04 Jun 2027 10:14:54.713   04 Jun 2027 10:16:03.840            69.127                Irkutsk          2160.219
       399   04 Jun 2027 10:16:11.783   04 Jun 2027 10:16:14.882             3.099                Irkutsk            96.844
       400   04 Jun 2027 10:16:58.317   04 Jun 2027 10:17:31.759            33.442                Irkutsk          1045.063
       401   04 Jun 2027 10:17:37.793   04 Jun 2027 10:17:42.460             4.667                Irkutsk           145.844
       402   04 Jun 2027 10:18:03.083   04 Jun 2027 10:18:14.413            11.330                Novosib           354.062
       403   04 Jun 2027 10:53:22.883   04 Jun 2027 10:54:01.042            38.159            RioGallegos          1192.469
       404   04 Jun 2027 10:54:25.303   04 Jun 2027 10:54:54.973            29.670            RioGallegos           927.187
       405   04 Jun 2027 11:27:48.750   04 Jun 2027 11:30:05.213           136.463                Sumatra          4264.469
       406   04 Jun 2027 11:49:12.830   04 Jun 2027 11:50:10.563            57.733                Irkutsk          1804.156
       407   04 Jun 2027 11:50:17.121   04 Jun 2027 11:50:17.604             0.483                Irkutsk            15.094
       408   04 Jun 2027 11:50:52.369   04 Jun 2027 11:50:56.317             3.948                Novosib           123.375
       409   04 Jun 2027 11:51:06.728   04 Jun 2027 11:51:22.017            15.289                Novosib           477.781
       410   04 Jun 2027 11:51:36.430   04 Jun 2027 11:52:09.075            32.645                Norilsk          1020.156
       411   04 Jun 2027 11:52:23.312   04 Jun 2027 11:53:29.153            65.841                Novosib          2057.531
       412   04 Jun 2027 11:53:35.092   04 Jun 2027 11:53:37.841             2.749                Norilsk            85.906
       413   04 Jun 2027 11:53:47.432   04 Jun 2027 11:54:03.558            16.126              Murmansk2           503.938
       414   04 Jun 2027 13:12:23.421   04 Jun 2027 13:12:57.001            33.580                  Delhi          1049.375
       415   04 Jun 2027 13:13:43.400   04 Jun 2027 13:14:14.347            30.947                  Delhi           967.094
       416   04 Jun 2027 13:14:41.287   04 Jun 2027 13:17:01.589           140.302                  Delhi          4384.438
       417   04 Jun 2027 13:20:31.508   04 Jun 2027 13:21:28.089            56.581                Novosib          1768.156
       418   04 Jun 2027 13:24:01.498   04 Jun 2027 13:25:42.420           100.922                Novosib          3153.813
       419   04 Jun 2027 13:33:26.055   04 Jun 2027 13:34:22.732            56.677                Norilsk          1771.156
       420   04 Jun 2027 14:56:19.564   04 Jun 2027 14:59:30.339           190.775                 Moscow          5961.719
       421   04 Jun 2027 15:01:05.503   04 Jun 2027 15:01:27.136            21.633              Murmansk1           676.031
       422   04 Jun 2027 15:04:59.516   04 Jun 2027 15:09:15.052           255.536                Norilsk          7985.500
       423   04 Jun 2027 16:13:41.908   04 Jun 2027 16:14:26.577            44.669               CapeTown          1395.906
       424   04 Jun 2027 16:19:46.631   04 Jun 2027 16:20:23.977            37.346               CapeTown          1167.062
       425   04 Jun 2027 16:34:28.943   04 Jun 2027 16:34:59.814            30.871                 Moscow           964.719
       426   04 Jun 2027 16:36:04.324   04 Jun 2027 16:36:23.975            19.651                 Moscow           614.094
       427   04 Jun 2027 16:37:17.983   04 Jun 2027 16:37:36.342            18.359              Murmansk2           573.719
       428   04 Jun 2027 16:38:15.228   04 Jun 2027 16:39:04.922            49.694              Murmansk1          1552.938
       429   04 Jun 2027 16:41:11.115   04 Jun 2027 16:41:55.946            44.831              Murmansk2          1400.969
       430   04 Jun 2027 16:50:40.265   04 Jun 2027 16:52:17.129            96.864                Anadyr2          3027.000
       431   04 Jun 2027 16:55:08.707   04 Jun 2027 16:55:55.394            46.687                Anadyr2          1458.969
       432   04 Jun 2027 16:58:46.900   04 Jun 2027 16:59:20.706            33.806                Anadyr2          1056.437
       433   04 Jun 2027 17:46:50.517   04 Jun 2027 17:47:00.202             9.685               CapeTown           302.656
       434   04 Jun 2027 17:48:27.607   04 Jun 2027 17:50:04.147            96.540               CapeTown          3016.875
       435   04 Jun 2027 18:17:13.723   04 Jun 2027 18:20:41.786           208.063              Murmansk2          6501.969
       436   04 Jun 2027 18:20:57.842   04 Jun 2027 18:22:38.243           100.401              Murmansk2          3137.531
       437   04 Jun 2027 18:29:21.958   04 Jun 2027 18:30:17.662            55.704               Magadan2          1740.750
       438   04 Jun 2027 20:02:17.438   04 Jun 2027 20:04:23.702           126.264                Anadyr2          3945.750
       439   04 Jun 2027 20:04:35.353   04 Jun 2027 20:08:44.197           248.844               Magadan2          7776.375
       440   04 Jun 2027 20:09:19.986   04 Jun 2027 20:09:23.076             3.090               Magadan1            96.563
       441   04 Jun 2027 20:09:30.734   04 Jun 2027 20:10:08.585            37.851               Magadan2          1182.844
       442   04 Jun 2027 20:58:07.151   04 Jun 2027 21:00:48.997           161.846            RioGallegos          5057.688
       443   04 Jun 2027 21:03:23.506   04 Jun 2027 21:03:38.870            15.364            RioGallegos           480.125
       444   04 Jun 2027 21:04:25.468   04 Jun 2027 21:04:41.949            16.481            RioGallegos           515.031
       445   04 Jun 2027 21:38:05.592   04 Jun 2027 21:40:18.408           132.816                Anadyr1          4150.500
       446   04 Jun 2027 21:40:31.555   04 Jun 2027 21:42:05.379            93.824               Magadan1          2932.000
       447   04 Jun 2027 21:43:06.735   04 Jun 2027 21:43:14.940             8.205                Norilsk           256.406
       448   04 Jun 2027 21:43:26.422   04 Jun 2027 21:43:53.416            26.994                Norilsk           843.563
       449   04 Jun 2027 21:45:01.535   04 Jun 2027 21:45:51.154            49.619                Irkutsk          1550.594
       450   04 Jun 2027 21:48:03.253   04 Jun 2027 21:48:36.062            32.809                Irkutsk          1025.281
       451   04 Jun 2027 21:50:30.047   04 Jun 2027 21:51:00.770            30.723                Irkutsk           960.094
       452   04 Jun 2027 22:00:51.350   04 Jun 2027 22:02:11.698            80.348                Sumatra          2510.875
       453   04 Jun 2027 22:03:56.113   04 Jun 2027 22:04:07.274            11.161                Sumatra           348.781
       454   04 Jun 2027 22:08:45.145   04 Jun 2027 22:08:47.069             1.924                Sumatra            60.125
       455   04 Jun 2027 22:43:09.685   04 Jun 2027 22:43:27.779            18.094            RioGallegos           565.438
       456   04 Jun 2027 23:13:18.996   04 Jun 2027 23:13:49.390            30.394                Anadyr2           949.813
       457   04 Jun 2027 23:13:49.390   04 Jun 2027 23:14:08.516            19.126                Anadyr1           597.687
       458   04 Jun 2027 23:14:32.208   04 Jun 2027 23:15:51.973            79.765                Anadyr2          2492.656
       459   04 Jun 2027 23:16:01.436   04 Jun 2027 23:16:12.784            11.348                Norilsk           354.625
       460   04 Jun 2027 23:16:38.567   04 Jun 2027 23:18:39.676           121.109               Magadan2          3784.656
       461   04 Jun 2027 23:19:55.559   04 Jun 2027 23:21:01.007            65.448                Irkutsk          2045.250
       462   04 Jun 2027 23:25:46.882   04 Jun 2027 23:26:40.817            53.935                Novosib          1685.469
       463   04 Jun 2027 23:30:00.506   04 Jun 2027 23:32:06.389           125.883                  Delhi          3933.844
       464   05 Jun 2027 00:13:42.530   05 Jun 2027 00:13:49.638             7.108            RioGallegos           222.125
       465   05 Jun 2027 00:15:19.520   05 Jun 2027 00:15:49.405            29.885            RioGallegos           933.906
       466   05 Jun 2027 00:19:07.809   05 Jun 2027 00:19:37.802            29.993            RioGallegos           937.281
       467   05 Jun 2027 00:47:21.887   05 Jun 2027 00:47:54.767            32.880                Anadyr2          1027.500
       468   05 Jun 2027 00:48:34.410   05 Jun 2027 00:49:37.723            63.313                Anadyr2          1978.531
       469   05 Jun 2027 00:52:01.985   05 Jun 2027 00:52:36.853            34.868                Norilsk          1089.625
       470   05 Jun 2027 00:52:58.810   05 Jun 2027 00:53:08.858            10.048               Magadan2           314.000
       471   05 Jun 2027 00:53:18.666   05 Jun 2027 00:54:21.431            62.765               Magadan1          1961.406
       472   05 Jun 2027 00:54:50.624   05 Jun 2027 00:57:21.026           150.402              Murmansk1          4700.062
       473   05 Jun 2027 01:00:40.984   05 Jun 2027 01:01:03.871            22.887                Novosib           715.219
       474   05 Jun 2027 01:03:09.088   05 Jun 2027 01:05:45.676           156.588                  Delhi          4893.375
       475   05 Jun 2027 01:45:13.354   05 Jun 2027 01:46:30.522            77.168            RioGallegos          2411.500
       476   05 Jun 2027 02:20:38.843   05 Jun 2027 02:21:00.330            21.487                Anadyr1           671.469
       477   05 Jun 2027 02:21:39.062   05 Jun 2027 02:22:16.755            37.693                Anadyr1          1177.906
       478   05 Jun 2027 02:26:38.719   05 Jun 2027 02:28:06.543            87.824               Magadan1          2744.500
       479   05 Jun 2027 02:29:40.437   05 Jun 2027 02:30:02.470            22.033                Norilsk           688.531
       480   05 Jun 2027 02:30:11.391   05 Jun 2027 02:31:15.479            64.088              Murmansk1          2002.750
       481   05 Jun 2027 02:31:29.862   05 Jun 2027 02:31:59.091            29.229              Murmansk2           913.406
       482   05 Jun 2027 02:32:46.469   05 Jun 2027 02:33:22.202            35.733                Novosib          1116.656
