uniorb/output/strategy_4/Drop/Drop_KinoSat_111409.txt

KinoSat_111409
-------------------------
    Access    *     Start Time (UTCG)     *     Stop Time (UTCG)  *   Duration (s)        *       Station  *  Data (Mbytes)
         1   01 Jun 2027 04:24:22.166   01 Jun 2027 04:24:24.191             2.025                Norilsk            63.281
         2   01 Jun 2027 04:24:25.965   01 Jun 2027 04:25:11.408            45.443              Murmansk2          1420.094
         3   01 Jun 2027 04:25:26.086   01 Jun 2027 04:27:59.436           153.350              Murmansk1          4792.187
         4   01 Jun 2027 04:49:17.226   01 Jun 2027 04:51:18.294           121.068               CapeTown          3783.375
         5   01 Jun 2027 05:45:56.453   01 Jun 2027 05:46:30.351            33.898                Anadyr2          1059.312
         6   01 Jun 2027 05:47:19.736   01 Jun 2027 05:49:30.861           131.125               Magadan2          4097.656
         7   01 Jun 2027 05:49:30.861   01 Jun 2027 05:49:39.095             8.234               Magadan1           257.312
         8   01 Jun 2027 05:49:56.971   01 Jun 2027 05:51:06.824            69.853                Anadyr2          2182.906
         9   01 Jun 2027 05:51:27.106   01 Jun 2027 05:51:57.962            30.856               Magadan2           964.250
        10   01 Jun 2027 07:24:06.043   01 Jun 2027 07:24:14.185             8.142               Magadan2           254.437
        11   01 Jun 2027 07:24:26.291   01 Jun 2027 07:25:14.175            47.884                Anadyr2          1496.375
        12   01 Jun 2027 07:25:14.175   01 Jun 2027 07:27:28.458           134.283                Anadyr1          4196.344
        13   01 Jun 2027 07:27:32.825   01 Jun 2027 07:28:38.571            65.746              Murmansk1          2054.563
        14   01 Jun 2027 07:32:10.264   01 Jun 2027 07:32:19.958             9.694                 Moscow           302.937
        15   01 Jun 2027 07:33:09.772   01 Jun 2027 07:33:21.775            12.003                 Moscow           375.094
        16   01 Jun 2027 08:04:59.538   01 Jun 2027 08:05:48.570            49.032            RioGallegos          1532.250
        17   01 Jun 2027 08:05:57.680   01 Jun 2027 08:06:11.531            13.851            RioGallegos           432.844
        18   01 Jun 2027 08:59:09.069   01 Jun 2027 08:59:58.120            49.051               Magadan1          1532.844
        19   01 Jun 2027 09:00:13.589   01 Jun 2027 09:03:23.555           189.966               Magadan1          5936.438
        20   01 Jun 2027 09:04:02.265   01 Jun 2027 09:04:30.259            27.994                Novosib           874.812
        21   01 Jun 2027 10:14:23.440   01 Jun 2027 10:15:11.991            48.551                Sumatra          1517.219
        22   01 Jun 2027 10:35:23.307   01 Jun 2027 10:35:56.315            33.008                Irkutsk          1031.500
        23   01 Jun 2027 10:36:22.912   01 Jun 2027 10:39:23.277           180.365                Irkutsk          5636.406
        24   01 Jun 2027 10:39:51.821   01 Jun 2027 10:40:08.897            17.076              Murmansk2           533.625
        25   01 Jun 2027 10:40:33.835   01 Jun 2027 10:41:01.188            27.353              Murmansk2           854.781
        26   01 Jun 2027 11:15:28.210   01 Jun 2027 11:16:32.471            64.261            RioGallegos          2008.156
        27   01 Jun 2027 11:17:11.576   01 Jun 2027 11:17:43.780            32.204            RioGallegos          1006.375
        28   01 Jun 2027 11:20:28.919   01 Jun 2027 11:20:29.357             0.438            RioGallegos            13.687
        29   01 Jun 2027 11:49:43.116   01 Jun 2027 11:51:12.297            89.181                Sumatra          2786.906
        30   01 Jun 2027 11:52:27.574   01 Jun 2027 11:54:17.488           109.914                Sumatra          3434.812
        31   01 Jun 2027 12:04:56.481   01 Jun 2027 12:06:51.475           114.994                Irkutsk          3593.563
        32   01 Jun 2027 13:34:38.679   01 Jun 2027 13:36:03.227            84.548                  Delhi          2642.125
        33   01 Jun 2027 13:37:53.302   01 Jun 2027 13:39:48.093           114.791                  Delhi          3587.219
        34   01 Jun 2027 13:43:03.250   01 Jun 2027 13:45:22.630           139.380                Novosib          4355.625
        35   01 Jun 2027 13:45:37.407   01 Jun 2027 13:46:15.040            37.633                Novosib          1176.031
        36   01 Jun 2027 13:46:42.014   01 Jun 2027 13:46:51.842             9.828                Norilsk           307.125
        37   01 Jun 2027 13:47:36.752   01 Jun 2027 13:47:58.622            21.870                Novosib           683.437
        38   01 Jun 2027 15:17:58.101   01 Jun 2027 15:19:55.555           117.454                 Moscow          3670.437
        39   01 Jun 2027 15:21:03.735   01 Jun 2027 15:21:59.063            55.328                 Moscow          1729.000
        40   01 Jun 2027 15:23:19.971   01 Jun 2027 15:24:36.494            76.523              Murmansk1          2391.344
        41   01 Jun 2027 15:28:53.287   01 Jun 2027 15:30:36.577           103.290                Norilsk          3227.812
        42   01 Jun 2027 15:39:07.506   01 Jun 2027 15:40:28.657            81.151                Anadyr2          2535.969
        43   01 Jun 2027 16:58:02.657   01 Jun 2027 16:58:49.755            47.098                 Moscow          1471.813
        44   01 Jun 2027 16:59:25.169   01 Jun 2027 17:00:37.079            71.910              Murmansk1          2247.187
        45   01 Jun 2027 17:01:07.335   01 Jun 2027 17:01:57.161            49.826                 Moscow          1557.062
        46   01 Jun 2027 17:03:05.853   01 Jun 2027 17:04:15.238            69.385              Murmansk2          2168.281
        47   01 Jun 2027 17:12:02.774   01 Jun 2027 17:13:02.540            59.766                Anadyr1          1867.687
        48   01 Jun 2027 17:13:34.195   01 Jun 2027 17:13:42.667             8.472                Anadyr1           264.750
        49   01 Jun 2027 17:16:50.514   01 Jun 2027 17:17:01.853            11.339                Anadyr2           354.344
        50   01 Jun 2027 17:17:10.462   01 Jun 2027 17:17:25.260            14.798                Anadyr1           462.438
        51   01 Jun 2027 17:22:35.634   01 Jun 2027 17:22:58.160            22.526                Anadyr2           703.937
        52   01 Jun 2027 18:09:15.876   01 Jun 2027 18:09:22.059             6.183               CapeTown           193.219
        53   01 Jun 2027 18:12:28.719   01 Jun 2027 18:13:22.593            53.874               CapeTown          1683.562
        54   01 Jun 2027 18:40:09.508   01 Jun 2027 18:45:19.910           310.402              Murmansk2          9700.063
        55   01 Jun 2027 18:50:33.383   01 Jun 2027 18:51:08.641            35.258               Magadan1          1101.813
        56   01 Jun 2027 18:51:29.468   01 Jun 2027 18:51:46.416            16.948               Magadan2           529.625
        57   01 Jun 2027 18:53:52.361   01 Jun 2027 18:54:31.067            38.706               Magadan2          1209.562
        58   01 Jun 2027 18:59:07.689   01 Jun 2027 19:00:03.258            55.569               Magadan2          1736.531
        59   01 Jun 2027 20:23:46.050   01 Jun 2027 20:27:49.063           243.013                Anadyr2          7594.156
        60   01 Jun 2027 20:27:54.438   01 Jun 2027 20:29:17.794            83.356               Magadan1          2604.875
        61   01 Jun 2027 20:29:22.293   01 Jun 2027 20:29:52.656            30.363               Magadan1           948.844
        62   01 Jun 2027 20:30:35.045   01 Jun 2027 20:30:44.442             9.397               Magadan1           293.656
        63   01 Jun 2027 20:30:56.419   01 Jun 2027 20:31:16.983            20.564               Magadan1           642.625
        64   01 Jun 2027 20:33:22.131   01 Jun 2027 20:33:42.457            20.326               Magadan2           635.187
        65   01 Jun 2027 21:18:43.715   01 Jun 2027 21:21:14.231           150.516            RioGallegos          4703.625
        66   01 Jun 2027 21:21:34.052   01 Jun 2027 21:21:44.827            10.775            RioGallegos           336.719
        67   01 Jun 2027 21:23:54.349   01 Jun 2027 21:24:34.905            40.556            RioGallegos          1267.375
        68   01 Jun 2027 21:59:29.402   01 Jun 2027 22:01:45.134           135.732                Anadyr1          4241.625
        69   01 Jun 2027 22:02:02.609   01 Jun 2027 22:03:38.012            95.403               Magadan2          2981.344
        70   01 Jun 2027 22:04:32.916   01 Jun 2027 22:05:12.053            39.137               Magadan2          1223.031
        71   01 Jun 2027 22:06:52.012   01 Jun 2027 22:07:16.335            24.323                Irkutsk           760.094
        72   01 Jun 2027 22:08:33.933   01 Jun 2027 22:09:28.759            54.826                Irkutsk          1713.313
        73   01 Jun 2027 22:20:09.491   01 Jun 2027 22:21:18.474            68.983                Sumatra          2155.719
        74   01 Jun 2027 22:30:23.417   01 Jun 2027 22:31:06.775            43.358                Sumatra          1354.938
        75   01 Jun 2027 23:04:43.373   01 Jun 2027 23:05:03.969            20.596            RioGallegos           643.625
        76   01 Jun 2027 23:34:29.693   01 Jun 2027 23:36:50.452           140.759                Anadyr1          4398.719
        77   01 Jun 2027 23:37:31.206   01 Jun 2027 23:37:54.892            23.686                Norilsk           740.187
        78   01 Jun 2027 23:38:09.834   01 Jun 2027 23:38:59.589            49.755               Magadan2          1554.844
        79   01 Jun 2027 23:39:19.667   01 Jun 2027 23:39:53.671            34.004               Magadan1          1062.625
        80   01 Jun 2027 23:41:23.200   01 Jun 2027 23:42:52.941            89.741                Irkutsk          2804.406
        81   01 Jun 2027 23:42:59.640   01 Jun 2027 23:43:16.544            16.904                Novosib           528.250
        82   01 Jun 2027 23:47:53.613   01 Jun 2027 23:48:22.577            28.964                Novosib           905.125
        83   01 Jun 2027 23:50:07.172   01 Jun 2027 23:51:02.011            54.839                  Delhi          1713.719
        84   01 Jun 2027 23:53:42.663   01 Jun 2027 23:54:35.105            52.442                  Delhi          1638.812
        85   02 Jun 2027 00:06:25.403   02 Jun 2027 00:06:33.083             7.680                Sumatra           240.000
        86   02 Jun 2027 00:29:40.462   02 Jun 2027 00:29:58.614            18.152            RioGallegos           567.250
        87   02 Jun 2027 00:31:15.956   02 Jun 2027 00:31:32.508            16.552            RioGallegos           517.250
        88   02 Jun 2027 00:33:25.407   02 Jun 2027 00:33:32.788             7.381            RioGallegos           230.656
        89   02 Jun 2027 00:35:39.761   02 Jun 2027 00:35:45.202             5.441            RioGallegos           170.031
        90   02 Jun 2027 00:36:45.533   02 Jun 2027 00:36:54.869             9.336            RioGallegos           291.750
        91   02 Jun 2027 00:37:20.018   02 Jun 2027 00:37:36.407            16.389            RioGallegos           512.156
        92   02 Jun 2027 01:08:16.611   02 Jun 2027 01:08:58.371            41.760                Anadyr2          1305.000
        93   02 Jun 2027 01:08:58.371   02 Jun 2027 01:09:23.536            25.165                Anadyr1           786.406
        94   02 Jun 2027 01:10:03.998   02 Jun 2027 01:10:39.542            35.544                Anadyr2          1110.750
        95   02 Jun 2027 01:10:39.542   02 Jun 2027 01:11:06.851            27.309                Anadyr1           853.406
        96   02 Jun 2027 01:13:31.634   02 Jun 2027 01:13:41.582             9.948                Norilsk           310.875
        97   02 Jun 2027 01:13:58.033   02 Jun 2027 01:15:44.836           106.803               Magadan1          3337.594
        98   02 Jun 2027 01:15:56.726   02 Jun 2027 01:16:07.153            10.427               Magadan2           325.844
        99   02 Jun 2027 01:16:56.398   02 Jun 2027 01:19:10.214           133.816              Murmansk1          4181.750
       100   02 Jun 2027 01:20:30.035   02 Jun 2027 01:20:46.010            15.975                Irkutsk           499.219
       101   02 Jun 2027 01:22:57.323   02 Jun 2027 01:24:14.567            77.244                 Moscow          2413.875
       102   02 Jun 2027 01:35:07.012   02 Jun 2027 01:36:23.754            76.742                  Delhi          2398.187
       103   02 Jun 2027 02:07:33.551   02 Jun 2027 02:08:17.180            43.629            RioGallegos          1363.406
       104   02 Jun 2027 02:10:33.335   02 Jun 2027 02:11:18.262            44.927            RioGallegos          1403.969
       105   02 Jun 2027 02:41:34.857   02 Jun 2027 02:41:51.372            16.515                Anadyr1           516.094
       106   02 Jun 2027 02:42:08.642   02 Jun 2027 02:43:01.697            53.055                Anadyr2          1657.969
       107   02 Jun 2027 02:47:12.327   02 Jun 2027 02:48:07.935            55.608               Magadan1          1737.750
       108   02 Jun 2027 02:49:23.418   02 Jun 2027 02:49:42.672            19.254                Norilsk           601.687
       109   02 Jun 2027 02:50:56.059   02 Jun 2027 02:51:07.743            11.684               Magadan2           365.125
       110   02 Jun 2027 02:51:39.413   02 Jun 2027 02:52:36.521            57.108              Murmansk1          1784.625
       111   02 Jun 2027 02:52:42.134   02 Jun 2027 02:53:23.316            41.182              Murmansk2          1286.937
       112   02 Jun 2027 02:53:33.289   02 Jun 2027 02:53:57.592            24.303                Novosib           759.469
       113   02 Jun 2027 02:54:43.865   02 Jun 2027 02:54:47.599             3.734                Novosib           116.688
       114   02 Jun 2027 02:54:49.244   02 Jun 2027 02:55:07.805            18.561                Novosib           580.031
       115   02 Jun 2027 02:56:45.388   02 Jun 2027 02:57:21.657            36.269                Novosib          1133.406
       116   02 Jun 2027 03:00:21.663   02 Jun 2027 03:00:39.145            17.482                Novosib           546.313
       117   02 Jun 2027 03:00:43.765   02 Jun 2027 03:01:11.758            27.993              Murmansk2           874.781
       118   02 Jun 2027 03:01:11.758   02 Jun 2027 03:01:14.879             3.121              Murmansk1            97.531
       119   02 Jun 2027 03:01:24.153   02 Jun 2027 03:02:01.732            37.579              Murmansk2          1174.344
       120   02 Jun 2027 03:02:04.012   02 Jun 2027 03:02:12.224             8.212                Novosib           256.625
       121   02 Jun 2027 03:20:06.983   02 Jun 2027 03:20:36.688            29.705               CapeTown           928.281
       122   02 Jun 2027 04:36:07.036   02 Jun 2027 04:37:44.443            97.407                 Moscow          3043.969
       123   02 Jun 2027 04:37:45.145   02 Jun 2027 04:38:30.177            45.032              Murmansk1          1407.250
       124   02 Jun 2027 04:54:57.609   02 Jun 2027 04:55:58.022            60.413               CapeTown          1887.906
       125   02 Jun 2027 05:58:19.488   02 Jun 2027 05:58:22.945             3.457               Magadan1           108.031
       126   02 Jun 2027 05:58:23.045   02 Jun 2027 05:58:54.600            31.555                Anadyr2           986.094
       127   02 Jun 2027 05:58:54.600   02 Jun 2027 06:00:18.927            84.327                Anadyr1          2635.219
       128   02 Jun 2027 07:37:07.627   02 Jun 2027 07:38:15.605            67.978                Irkutsk          2124.313
       129   02 Jun 2027 07:38:37.671   02 Jun 2027 07:39:59.736            82.065                Anadyr2          2564.531
       130   02 Jun 2027 09:12:08.605   02 Jun 2027 09:12:52.975            44.370               Magadan2          1386.562
       131   02 Jun 2027 09:12:52.975   02 Jun 2027 09:14:13.387            80.412               Magadan1          2512.875
       132   02 Jun 2027 09:15:19.898   02 Jun 2027 09:15:22.295             2.397               Magadan2            74.906
       133   02 Jun 2027 09:50:23.510   02 Jun 2027 09:52:07.258           103.748            RioGallegos          3242.125
       134   02 Jun 2027 09:52:22.624   02 Jun 2027 09:52:55.694            33.070            RioGallegos          1033.438
       135   02 Jun 2027 10:25:57.711   02 Jun 2027 10:27:26.625            88.914                Sumatra          2778.563
       136   02 Jun 2027 10:46:27.634   02 Jun 2027 10:47:10.735            43.101                Irkutsk          1346.906
       137   02 Jun 2027 10:47:15.438   02 Jun 2027 10:47:23.618             8.180                Novosib           255.625
       138   02 Jun 2027 10:47:29.554   02 Jun 2027 10:47:47.254            17.700                Irkutsk           553.125
       139   02 Jun 2027 10:47:54.189   02 Jun 2027 10:48:17.802            23.613                Novosib           737.906
       140   02 Jun 2027 10:48:19.461   02 Jun 2027 10:48:32.527            13.066                Irkutsk           408.312
       141   02 Jun 2027 10:48:54.974   02 Jun 2027 10:49:11.265            16.291                Norilsk           509.094
       142   02 Jun 2027 10:49:16.515   02 Jun 2027 10:49:19.633             3.118                Novosib            97.438
       143   02 Jun 2027 10:49:56.944   02 Jun 2027 10:50:24.784            27.840                Irkutsk           870.000
       144   02 Jun 2027 10:50:29.521   02 Jun 2027 10:50:31.478             1.957                Norilsk            61.156
       145   02 Jun 2027 10:50:35.466   02 Jun 2027 10:51:32.631            57.165                Irkutsk          1786.406
       146   02 Jun 2027 11:29:03.218   02 Jun 2027 11:29:11.133             7.915            RioGallegos           247.344
       147   02 Jun 2027 11:29:48.685   02 Jun 2027 11:30:26.948            38.263            RioGallegos          1195.719
       148   02 Jun 2027 12:02:10.005   02 Jun 2027 12:02:34.319            24.314                Sumatra           759.813
       149   02 Jun 2027 12:10:31.187   02 Jun 2027 12:11:22.447            51.260                  Delhi          1601.875
       150   02 Jun 2027 12:16:26.809   02 Jun 2027 12:17:23.369            56.560                  Delhi          1767.500
       151   02 Jun 2027 12:17:38.932   02 Jun 2027 12:17:44.064             5.132                Irkutsk           160.375
       152   02 Jun 2027 12:18:19.296   02 Jun 2027 12:18:56.477            37.181                Irkutsk          1161.906
       153   02 Jun 2027 12:24:21.781   02 Jun 2027 12:24:52.704            30.923                Norilsk           966.344
       154   02 Jun 2027 12:29:31.978   02 Jun 2027 12:29:33.141             1.163                Norilsk            36.344
       155   02 Jun 2027 12:30:53.886   02 Jun 2027 12:31:15.631            21.745              Murmansk1           679.531
       156   02 Jun 2027 13:47:20.568   02 Jun 2027 13:50:35.132           194.564                  Delhi          6080.125
       157   02 Jun 2027 13:55:50.849   02 Jun 2027 13:57:01.332            70.483                Novosib          2202.594
       158   02 Jun 2027 13:57:18.067   02 Jun 2027 13:58:11.750            53.683                Novosib          1677.594
       159   02 Jun 2027 13:58:13.522   02 Jun 2027 13:58:45.619            32.097              Murmansk1          1003.031
       160   02 Jun 2027 13:59:12.651   02 Jun 2027 13:59:34.899            22.248                Norilsk           695.250
       161   02 Jun 2027 14:00:11.804   02 Jun 2027 14:00:33.277            21.473                Norilsk           671.031
       162   02 Jun 2027 14:01:08.600   02 Jun 2027 14:01:41.767            33.167                Norilsk          1036.469
       163   02 Jun 2027 14:04:52.703   02 Jun 2027 14:05:33.750            41.047                Norilsk          1282.719
       164   02 Jun 2027 14:07:44.277   02 Jun 2027 14:08:34.363            50.086                Norilsk          1565.187
       165   02 Jun 2027 15:12:07.947   02 Jun 2027 15:12:53.509            45.562               CapeTown          1423.812
       166   02 Jun 2027 15:14:06.933   02 Jun 2027 15:14:29.691            22.758               CapeTown           711.187
       167   02 Jun 2027 15:30:09.514   02 Jun 2027 15:31:26.335            76.821                 Moscow          2400.656
       168   02 Jun 2027 15:33:39.091   02 Jun 2027 15:34:33.994            54.903              Murmansk1          1715.719
       169   02 Jun 2027 15:38:26.345   02 Jun 2027 15:38:43.293            16.948              Murmansk2           529.625
       170   02 Jun 2027 15:46:08.803   02 Jun 2027 15:46:14.381             5.578              Murmansk2           174.312
       171   02 Jun 2027 15:49:05.356   02 Jun 2027 15:49:58.553            53.197                Anadyr1          1662.406
       172   02 Jun 2027 15:50:06.161   02 Jun 2027 15:50:47.864            41.703                Anadyr2          1303.219
       173   02 Jun 2027 15:50:49.670   02 Jun 2027 15:51:04.272            14.602                Anadyr2           456.313
       174   02 Jun 2027 15:52:51.111   02 Jun 2027 15:54:21.282            90.171                Anadyr1          2817.844
       175   02 Jun 2027 16:49:27.361   02 Jun 2027 16:49:50.969            23.608               CapeTown           737.750
       176   02 Jun 2027 16:51:56.893   02 Jun 2027 16:52:51.956            55.063               CapeTown          1720.719
       177   02 Jun 2027 17:10:06.980   02 Jun 2027 17:10:14.649             7.669                 Moscow           239.656
       178   02 Jun 2027 17:11:51.680   02 Jun 2027 17:12:34.580            42.900              Murmansk1          1340.625
       179   02 Jun 2027 17:14:01.591   02 Jun 2027 17:14:38.595            37.004                 Moscow          1156.375
       180   02 Jun 2027 17:16:42.601   02 Jun 2027 17:16:46.629             4.028              Murmansk1           125.875
       181   02 Jun 2027 17:16:57.840   02 Jun 2027 17:17:05.365             7.525              Murmansk2           235.156
       182   02 Jun 2027 17:20:31.654   02 Jun 2027 17:21:48.964            77.310              Murmansk2          2415.938
       183   02 Jun 2027 17:24:01.776   02 Jun 2027 17:24:02.050             0.274                Anadyr2             8.563
       184   02 Jun 2027 17:24:07.824   02 Jun 2027 17:24:48.298            40.474                Anadyr2          1264.812
       185   02 Jun 2027 17:25:49.655   02 Jun 2027 17:25:58.548             8.893                Anadyr1           277.906
       186   02 Jun 2027 17:26:12.154   02 Jun 2027 17:26:22.065             9.911                Anadyr2           309.719
       187   02 Jun 2027 17:33:29.312   02 Jun 2027 17:33:35.787             6.475                Anadyr1           202.344
       188   02 Jun 2027 17:35:36.130   02 Jun 2027 17:35:40.903             4.773                Anadyr2           149.156
       189   02 Jun 2027 18:20:13.046   02 Jun 2027 18:21:28.502            75.456               CapeTown          2358.000
       190   02 Jun 2027 18:26:10.678   02 Jun 2027 18:26:30.883            20.205               CapeTown           631.406
       191   02 Jun 2027 18:53:13.227   02 Jun 2027 18:56:59.320           226.093              Murmansk2          7065.406
       192   02 Jun 2027 18:59:51.670   02 Jun 2027 19:00:38.290            46.620                Anadyr2          1456.875
       193   02 Jun 2027 19:01:05.589   02 Jun 2027 19:01:39.485            33.896                Anadyr2          1059.250
       194   02 Jun 2027 19:02:54.649   02 Jun 2027 19:03:16.008            21.359               Magadan2           667.469
       195   02 Jun 2027 19:03:39.591   02 Jun 2027 19:04:21.210            41.619               Magadan1          1300.594
       196   02 Jun 2027 19:07:36.015   02 Jun 2027 19:08:15.585            39.570               Magadan2          1236.563
       197   02 Jun 2027 20:35:47.151   02 Jun 2027 20:39:30.504           223.353                Anadyr2          6979.781
       198   02 Jun 2027 20:39:35.084   02 Jun 2027 20:42:27.634           172.550               Magadan1          5392.188
       199   02 Jun 2027 20:48:26.290   02 Jun 2027 20:48:27.985             1.695               Magadan1            52.969
       200   02 Jun 2027 20:48:37.667   02 Jun 2027 20:48:52.821            15.154               Magadan1           473.563
       201   02 Jun 2027 20:49:13.717   02 Jun 2027 20:49:38.866            25.149               Magadan1           785.906
       202   02 Jun 2027 21:30:26.473   02 Jun 2027 21:32:49.645           143.172            RioGallegos          4474.125
       203   02 Jun 2027 21:33:02.610   02 Jun 2027 21:33:25.905            23.295            RioGallegos           727.969
       204   02 Jun 2027 21:39:30.651   02 Jun 2027 21:39:50.380            19.729            RioGallegos           616.531
       205   02 Jun 2027 22:11:27.143   02 Jun 2027 22:12:00.643            33.500                Anadyr2          1046.875
       206   02 Jun 2027 22:13:37.552   02 Jun 2027 22:13:45.740             8.188                Norilsk           255.875
       207   02 Jun 2027 22:14:05.487   02 Jun 2027 22:15:45.503           100.016               Magadan1          3125.500
       208   02 Jun 2027 22:15:45.503   02 Jun 2027 22:16:01.811            16.308               Magadan2           509.625
       209   02 Jun 2027 22:17:11.762   02 Jun 2027 22:17:38.897            27.135                Norilsk           847.969
       210   02 Jun 2027 22:17:55.102   02 Jun 2027 22:19:23.461            88.359                Irkutsk          2761.219
       211   02 Jun 2027 22:20:27.058   02 Jun 2027 22:21:01.714            34.656                Irkutsk          1083.000
       212   02 Jun 2027 22:23:10.178   02 Jun 2027 22:23:18.549             8.371                Novosib           261.594
       213   02 Jun 2027 22:26:21.794   02 Jun 2027 22:26:37.640            15.846                Irkutsk           495.188
       214   02 Jun 2027 22:31:47.876   02 Jun 2027 22:33:13.611            85.735                Sumatra          2679.219
       215   02 Jun 2027 22:35:41.120   02 Jun 2027 22:36:24.518            43.398                Sumatra          1356.187
       216   02 Jun 2027 23:46:19.111   02 Jun 2027 23:46:49.906            30.795                Anadyr1           962.344
       217   02 Jun 2027 23:47:27.952   02 Jun 2027 23:47:48.402            20.450                Anadyr1           639.062
       218   02 Jun 2027 23:48:49.163   02 Jun 2027 23:49:05.765            16.602                Anadyr2           518.813
       219   02 Jun 2027 23:49:22.478   02 Jun 2027 23:49:36.605            14.127                Anadyr2           441.469
       220   02 Jun 2027 23:50:07.439   02 Jun 2027 23:51:25.023            77.584                Norilsk          2424.500
       221   02 Jun 2027 23:51:40.712   02 Jun 2027 23:52:08.143            27.431               Magadan2           857.219
       222   02 Jun 2027 23:52:09.393   02 Jun 2027 23:52:26.877            17.484                Norilsk           546.375
       223   02 Jun 2027 23:52:59.148   02 Jun 2027 23:53:50.907            51.759               Magadan2          1617.469
       224   02 Jun 2027 23:54:16.013   02 Jun 2027 23:54:35.536            19.523                Irkutsk           610.094
       225   02 Jun 2027 23:55:41.342   02 Jun 2027 23:56:21.491            40.149                Novosib          1254.656
       226   02 Jun 2027 23:57:09.638   02 Jun 2027 23:57:14.245             4.607                Novosib           143.969
       227   02 Jun 2027 23:58:16.488   02 Jun 2027 23:58:30.131            13.643                Novosib           426.344
       228   03 Jun 2027 00:00:19.777   03 Jun 2027 00:00:35.161            15.384                Novosib           480.750
       229   03 Jun 2027 00:01:40.364   03 Jun 2027 00:04:19.180           158.816                  Delhi          4963.000
       230   03 Jun 2027 00:15:40.366   03 Jun 2027 00:16:31.068            50.702                Sumatra          1584.438
       231   03 Jun 2027 00:49:58.736   03 Jun 2027 00:50:11.855            13.119            RioGallegos           409.969
       232   03 Jun 2027 01:19:58.027   03 Jun 2027 01:20:49.943            51.916                Anadyr1          1622.375
       233   03 Jun 2027 01:21:24.066   03 Jun 2027 01:22:05.340            41.274                Anadyr2          1289.812
       234   03 Jun 2027 01:25:33.390   03 Jun 2027 01:25:58.968            25.578                Norilsk           799.313
       235   03 Jun 2027 01:26:06.647   03 Jun 2027 01:27:50.117           103.470               Magadan2          3233.438
       236   03 Jun 2027 01:27:58.609   03 Jun 2027 01:28:53.320            54.711              Murmansk1          1709.719
       237   03 Jun 2027 01:28:53.320   03 Jun 2027 01:29:33.620            40.300              Murmansk2          1259.375
       238   03 Jun 2027 01:29:50.007   03 Jun 2027 01:30:28.457            38.450                Novosib          1201.563
       239   03 Jun 2027 01:32:33.737   03 Jun 2027 01:32:49.368            15.631                Novosib           488.469
       240   03 Jun 2027 01:33:21.987   03 Jun 2027 01:33:42.835            20.848                 Moscow           651.500
       241   03 Jun 2027 01:36:09.239   03 Jun 2027 01:36:39.095            29.856                 Moscow           933.000
       242   03 Jun 2027 01:41:55.087   03 Jun 2027 01:42:26.513            31.426                  Delhi           982.062
       243   03 Jun 2027 01:46:06.279   03 Jun 2027 01:46:33.687            27.408                  Delhi           856.500
       244   03 Jun 2027 02:53:18.956   03 Jun 2027 02:55:53.990           155.034                Anadyr2          4844.812
       245   03 Jun 2027 02:56:15.020   03 Jun 2027 02:56:37.357            22.337                Anadyr1           698.031
       246   03 Jun 2027 02:56:58.285   03 Jun 2027 02:57:19.511            21.226                Anadyr1           663.313
       247   03 Jun 2027 02:58:40.581   03 Jun 2027 02:59:36.489            55.908               Magadan1          1747.125
       248   03 Jun 2027 03:09:24.199   03 Jun 2027 03:09:39.149            14.950                Novosib           467.188
       249   03 Jun 2027 03:09:52.295   03 Jun 2027 03:10:45.928            53.633                Novosib          1676.031
       250   03 Jun 2027 03:10:53.750   03 Jun 2027 03:11:05.185            11.435              Murmansk2           357.344
       251   03 Jun 2027 03:11:18.859   03 Jun 2027 03:11:34.504            15.645                Norilsk           488.906
       252   03 Jun 2027 03:11:41.824   03 Jun 2027 03:12:27.134            45.310                Novosib          1415.937
       253   03 Jun 2027 03:12:36.755   03 Jun 2027 03:13:47.480            70.725                Novosib          2210.156
       254   03 Jun 2027 03:15:23.595   03 Jun 2027 03:15:32.678             9.083              Murmansk2           283.844
       255   03 Jun 2027 03:15:38.390   03 Jun 2027 03:16:38.670            60.280                 Moscow          1883.750
       256   03 Jun 2027 03:31:41.428   03 Jun 2027 03:32:45.147            63.719               CapeTown          1991.219
       257   03 Jun 2027 04:27:41.244   03 Jun 2027 04:30:14.498           153.254                Anadyr2          4789.188
       258   03 Jun 2027 04:48:42.468   03 Jun 2027 04:49:07.513            25.045                 Moscow           782.656
       259   03 Jun 2027 04:49:21.799   03 Jun 2027 04:49:29.305             7.506                 Moscow           234.563
       260   03 Jun 2027 04:53:54.021   03 Jun 2027 04:54:33.150            39.129                 Moscow          1222.781
       261   03 Jun 2027 05:07:15.006   03 Jun 2027 05:08:51.232            96.226               CapeTown          3007.063
       262   03 Jun 2027 06:03:42.374   03 Jun 2027 06:03:59.932            17.558               Magadan1           548.687
       263   03 Jun 2027 06:03:59.932   03 Jun 2027 06:05:00.413            60.481               Magadan2          1890.031
       264   03 Jun 2027 06:05:09.150   03 Jun 2027 06:05:35.281            26.131                Anadyr1           816.594
       265   03 Jun 2027 06:10:14.798   03 Jun 2027 06:10:21.644             6.846               Magadan1           213.937
       266   03 Jun 2027 06:10:25.745   03 Jun 2027 06:11:37.903            72.158               Magadan2          2254.938
       267   03 Jun 2027 06:12:02.778   03 Jun 2027 06:12:39.878            37.100                Anadyr2          1159.375
       268   03 Jun 2027 06:12:39.878   03 Jun 2027 06:12:58.830            18.952                Anadyr1           592.250
       269   03 Jun 2027 06:13:09.148   03 Jun 2027 06:13:49.222            40.074               Magadan1          1252.312
       270   03 Jun 2027 06:14:44.864   03 Jun 2027 06:15:13.002            28.138                Anadyr2           879.312
       271   03 Jun 2027 07:45:50.628   03 Jun 2027 07:46:52.290            61.662                Anadyr2          1926.938
       272   03 Jun 2027 07:47:11.190   03 Jun 2027 07:47:19.541             8.351               Magadan1           260.969
       273   03 Jun 2027 07:47:37.551   03 Jun 2027 07:47:52.990            15.439                Anadyr1           482.469
       274   03 Jun 2027 07:47:57.328   03 Jun 2027 07:48:12.872            15.544               Magadan2           485.750
       275   03 Jun 2027 07:48:17.124   03 Jun 2027 07:48:23.225             6.101                Anadyr2           190.656
       276   03 Jun 2027 07:48:41.676   03 Jun 2027 07:48:57.092            15.416                Anadyr1           481.750
       277   03 Jun 2027 07:48:57.092   03 Jun 2027 07:49:26.687            29.595                Anadyr2           924.844
       278   03 Jun 2027 07:49:45.274   03 Jun 2027 07:49:51.930             6.656               Magadan1           208.000
       279   03 Jun 2027 07:50:48.633   03 Jun 2027 07:51:59.629            70.996               Magadan1          2218.625
       280   03 Jun 2027 08:30:44.733   03 Jun 2027 08:30:50.954             6.221            RioGallegos           194.406
       281   03 Jun 2027 09:20:58.469   03 Jun 2027 09:21:01.582             3.113               Magadan1            97.281
       282   03 Jun 2027 09:22:04.546   03 Jun 2027 09:22:28.658            24.112                Irkutsk           753.500
       283   03 Jun 2027 09:23:24.636   03 Jun 2027 09:23:26.381             1.745               Magadan2            54.531
       284   03 Jun 2027 09:23:35.558   03 Jun 2027 09:24:18.639            43.081               Magadan1          1346.281
       285   03 Jun 2027 09:24:53.210   03 Jun 2027 09:25:06.000            12.790                Irkutsk           399.687
       286   03 Jun 2027 09:25:17.054   03 Jun 2027 09:25:38.304            21.250                Irkutsk           664.063
       287   03 Jun 2027 09:25:43.104   03 Jun 2027 09:25:45.694             2.590                Irkutsk            80.937
       288   03 Jun 2027 09:26:01.933   03 Jun 2027 09:26:22.614            20.681                Irkutsk           646.281
       289   03 Jun 2027 09:27:05.248   03 Jun 2027 09:27:59.141            53.893                Novosib          1684.156
       290   03 Jun 2027 10:02:24.178   03 Jun 2027 10:03:16.742            52.564            RioGallegos          1642.625
       291   03 Jun 2027 10:38:19.724   03 Jun 2027 10:39:48.629            88.905                Sumatra          2778.281
       292   03 Jun 2027 10:58:05.167   03 Jun 2027 10:59:01.265            56.098                Irkutsk          1753.063
       293   03 Jun 2027 10:59:15.718   03 Jun 2027 10:59:26.189            10.471                Irkutsk           327.219
       294   03 Jun 2027 10:59:37.974   03 Jun 2027 11:00:21.128            43.154                Norilsk          1348.562
       295   03 Jun 2027 11:00:57.004   03 Jun 2027 11:01:12.358            15.354                Norilsk           479.813
       296   03 Jun 2027 11:01:14.261   03 Jun 2027 11:01:24.337            10.076                Novosib           314.875
       297   03 Jun 2027 11:01:28.932   03 Jun 2027 11:02:01.358            32.426                Irkutsk          1013.313
       298   03 Jun 2027 11:02:10.827   03 Jun 2027 11:02:13.275             2.448                Novosib            76.500
       299   03 Jun 2027 11:02:22.675   03 Jun 2027 11:03:13.765            51.090                Novosib          1596.562
       300   03 Jun 2027 11:03:40.184   03 Jun 2027 11:04:01.180            20.996                Novosib           656.125
       301   03 Jun 2027 11:40:33.097   03 Jun 2027 11:40:59.796            26.699            RioGallegos           834.344
       302   03 Jun 2027 11:41:52.711   03 Jun 2027 11:42:28.170            35.459            RioGallegos          1108.094
       303   03 Jun 2027 12:14:48.211   03 Jun 2027 12:15:23.420            35.209                Sumatra          1100.281
       304   03 Jun 2027 12:18:23.506   03 Jun 2027 12:19:22.552            59.046                Sumatra          1845.187
       305   03 Jun 2027 12:28:41.704   03 Jun 2027 12:29:32.574            50.870                Novosib          1589.687
       306   03 Jun 2027 12:29:56.402   03 Jun 2027 12:31:31.968            95.566                Novosib          2986.437
       307   03 Jun 2027 12:40:58.664   03 Jun 2027 12:41:32.283            33.619                Norilsk          1050.594
       308   03 Jun 2027 14:00:18.869   03 Jun 2027 14:01:36.505            77.636                  Delhi          2426.125
       309   03 Jun 2027 14:02:26.715   03 Jun 2027 14:04:36.258           129.543                  Delhi          4048.219
       310   03 Jun 2027 14:07:36.283   03 Jun 2027 14:07:57.381            21.098                 Moscow           659.313
       311   03 Jun 2027 14:08:50.027   03 Jun 2027 14:11:35.810           165.783                Novosib          5180.719
       312   03 Jun 2027 14:11:45.966   03 Jun 2027 14:12:22.635            36.669                Norilsk          1145.906
       313   03 Jun 2027 14:13:10.251   03 Jun 2027 14:13:50.198            39.947                Norilsk          1248.344
       314   03 Jun 2027 15:22:17.637   03 Jun 2027 15:24:09.721           112.084               CapeTown          3502.625
       315   03 Jun 2027 15:42:24.388   03 Jun 2027 15:43:29.148            64.760                 Moscow          2023.750
       316   03 Jun 2027 15:45:50.675   03 Jun 2027 15:46:38.049            47.374              Murmansk2          1480.437
       317   03 Jun 2027 15:47:28.184   03 Jun 2027 15:48:33.678            65.494              Murmansk2          2046.688
       318   03 Jun 2027 16:00:50.336   03 Jun 2027 16:03:01.970           131.634                Anadyr1          4113.562
       319   03 Jun 2027 16:03:31.210   03 Jun 2027 16:04:38.760            67.550                Anadyr1          2110.938
       320   03 Jun 2027 17:02:13.127   03 Jun 2027 17:03:04.954            51.827               CapeTown          1619.594
       321   03 Jun 2027 17:23:21.390   03 Jun 2027 17:25:04.944           103.554                 Moscow          3236.062
       322   03 Jun 2027 17:27:02.042   03 Jun 2027 17:27:07.445             5.403                 Moscow           168.844
       323   03 Jun 2027 17:28:12.660   03 Jun 2027 17:28:44.755            32.095              Murmansk2          1002.969
       324   03 Jun 2027 17:36:01.378   03 Jun 2027 17:37:10.674            69.296                Anadyr1          2165.500
       325   03 Jun 2027 17:37:54.466   03 Jun 2027 17:38:10.554            16.088                Anadyr1           502.750
       326   03 Jun 2027 17:38:55.467   03 Jun 2027 17:39:16.409            20.942                Anadyr2           654.438
       327   03 Jun 2027 17:40:57.858   03 Jun 2027 17:42:24.924            87.066               Magadan1          2720.813
       328   03 Jun 2027 19:06:50.461   03 Jun 2027 19:08:07.260            76.799              Murmansk2          2399.969
       329   03 Jun 2027 19:11:53.276   03 Jun 2027 19:13:40.539           107.263                Anadyr1          3351.969
       330   03 Jun 2027 19:13:41.608   03 Jun 2027 19:13:49.000             7.392                Anadyr2           231.000
       331   03 Jun 2027 19:13:59.825   03 Jun 2027 19:15:38.929            99.104                Anadyr2          3097.000
       332   03 Jun 2027 19:16:06.212   03 Jun 2027 19:17:23.284            77.072               Magadan2          2408.500
       333   03 Jun 2027 19:17:27.193   03 Jun 2027 19:18:13.489            46.296               Magadan1          1446.750
       334   03 Jun 2027 20:47:48.028   03 Jun 2027 20:49:55.998           127.970                Anadyr1          3999.062
       335   03 Jun 2027 20:50:05.026   03 Jun 2027 20:54:21.618           256.592               Magadan2          8018.500
       336   03 Jun 2027 20:54:38.154   03 Jun 2027 20:54:51.709            13.555                Norilsk           423.594
       337   03 Jun 2027 20:59:58.535   03 Jun 2027 21:00:20.155            21.620               Magadan1           675.625
       338   03 Jun 2027 21:42:13.682   03 Jun 2027 21:45:37.110           203.428            RioGallegos          6357.125
       339   03 Jun 2027 21:51:04.211   03 Jun 2027 21:51:22.884            18.673            RioGallegos           583.531
       340   03 Jun 2027 22:23:24.136   03 Jun 2027 22:24:05.847            41.711                Anadyr1          1303.469
       341   03 Jun 2027 22:25:38.042   03 Jun 2027 22:27:26.770           108.728                Norilsk          3397.750
       342   03 Jun 2027 22:27:36.566   03 Jun 2027 22:28:04.099            27.533               Magadan2           860.406
       343   03 Jun 2027 22:29:48.535   03 Jun 2027 22:30:40.382            51.847                Irkutsk          1620.219
       344   03 Jun 2027 22:31:14.776   03 Jun 2027 22:31:18.212             3.436                Irkutsk           107.375
       345   03 Jun 2027 22:31:41.368   03 Jun 2027 22:32:41.135            59.767                Novosib          1867.719
       346   03 Jun 2027 22:32:46.104   03 Jun 2027 22:32:58.295            12.191                Novosib           380.969
       347   03 Jun 2027 22:33:22.633   03 Jun 2027 22:34:18.294            55.661                Novosib          1739.406
       348   03 Jun 2027 22:43:33.398   03 Jun 2027 22:44:15.570            42.172                Sumatra          1317.875
       349   03 Jun 2027 22:46:31.422   03 Jun 2027 22:47:04.962            33.540                Sumatra          1048.125
       350   03 Jun 2027 23:58:07.216   04 Jun 2027 00:00:23.344           136.128                Anadyr1          4254.000
       351   04 Jun 2027 00:01:35.520   04 Jun 2027 00:03:19.659           104.139                Norilsk          3254.344
       352   04 Jun 2027 00:03:34.248   04 Jun 2027 00:03:38.373             4.125               Magadan1           128.906
       353   04 Jun 2027 00:04:35.822   04 Jun 2027 00:04:53.230            17.408               Magadan2           544.000
       354   04 Jun 2027 00:05:27.983   04 Jun 2027 00:06:22.737            54.754                Irkutsk          1711.062
       355   04 Jun 2027 00:06:38.906   04 Jun 2027 00:07:29.366            50.460                Novosib          1576.875
       356   04 Jun 2027 00:09:27.768   04 Jun 2027 00:09:53.368            25.600                Novosib           800.000
       357   04 Jun 2027 00:11:15.690   04 Jun 2027 00:11:36.756            21.066                Novosib           658.312
       358   04 Jun 2027 00:13:21.063   04 Jun 2027 00:13:54.933            33.870                  Delhi          1058.438
       359   04 Jun 2027 00:15:04.812   04 Jun 2027 00:16:38.010            93.198                  Delhi          2912.438
       360   04 Jun 2027 00:54:58.463   04 Jun 2027 00:55:41.596            43.133            RioGallegos          1347.906
       361   04 Jun 2027 01:03:19.946   04 Jun 2027 01:03:39.361            19.415            RioGallegos           606.719
       362   04 Jun 2027 01:31:39.143   04 Jun 2027 01:31:58.209            19.066                Anadyr1           595.812
       363   04 Jun 2027 01:32:09.856   04 Jun 2027 01:32:50.157            40.301                Anadyr2          1259.406
       364   04 Jun 2027 01:33:24.285   04 Jun 2027 01:34:06.426            42.141                Anadyr2          1316.906
       365   04 Jun 2027 01:37:13.771   04 Jun 2027 01:37:38.819            25.048                Anadyr1           782.750
       366   04 Jun 2027 01:37:43.693   04 Jun 2027 01:39:18.058            94.365               Magadan1          2948.906
       367   04 Jun 2027 01:39:30.549   04 Jun 2027 01:39:40.305             9.756                Norilsk           304.875
       368   04 Jun 2027 01:39:55.847   04 Jun 2027 01:40:48.983            53.136              Murmansk1          1660.500
       369   04 Jun 2027 01:41:22.863   04 Jun 2027 01:42:35.176            72.313                Novosib          2259.781
       370   04 Jun 2027 01:43:23.857   04 Jun 2027 01:44:28.836            64.979                Novosib          2030.594
       371   04 Jun 2027 01:49:42.779   04 Jun 2027 01:49:51.518             8.739                  Delhi           273.094
       372   04 Jun 2027 01:53:22.139   04 Jun 2027 01:53:31.971             9.832                  Delhi           307.250
       373   04 Jun 2027 01:53:54.417   04 Jun 2027 01:54:00.149             5.732                  Delhi           179.125
       374   04 Jun 2027 01:55:12.515   04 Jun 2027 01:55:36.450            23.935                  Delhi           747.969
       375   04 Jun 2027 01:57:31.958   04 Jun 2027 01:57:48.945            16.987                  Delhi           530.844
       376   04 Jun 2027 03:05:04.087   04 Jun 2027 03:07:02.140           118.053                Anadyr1          3689.156
       377   04 Jun 2027 03:24:14.876   04 Jun 2027 03:25:31.764            76.888                Norilsk          2402.750
       378   04 Jun 2027 03:25:36.190   04 Jun 2027 03:27:09.042            92.852                Novosib          2901.625
       379   04 Jun 2027 03:27:24.520   04 Jun 2027 03:27:49.221            24.701              Murmansk1           771.906
       380   04 Jun 2027 03:28:29.914   04 Jun 2027 03:30:22.066           112.152                 Moscow          3504.750
       381   04 Jun 2027 03:43:21.931   04 Jun 2027 03:46:39.078           197.147               CapeTown          6160.844
       382   04 Jun 2027 04:39:37.927   04 Jun 2027 04:45:37.165           359.238                Anadyr1         11226.188
       383   04 Jun 2027 04:46:11.792   04 Jun 2027 04:46:25.425            13.633               Magadan1           426.031
       384   04 Jun 2027 04:46:39.957   04 Jun 2027 04:47:13.368            33.411                Anadyr2          1044.094
       385   04 Jun 2027 04:47:42.779   04 Jun 2027 04:50:02.844           140.065               Magadan1          4377.031
       386   04 Jun 2027 04:50:27.289   04 Jun 2027 04:52:29.955           122.666                Anadyr2          3833.313
       387   04 Jun 2027 05:01:40.217   04 Jun 2027 05:01:52.095            11.878                 Moscow           371.187
       388   04 Jun 2027 05:04:09.386   04 Jun 2027 05:04:12.957             3.571                 Moscow           111.594
       389   04 Jun 2027 05:04:33.273   04 Jun 2027 05:04:58.247            24.974                 Moscow           780.438
       390   04 Jun 2027 05:19:39.149   04 Jun 2027 05:20:33.706            54.557               CapeTown          1704.906
       391   04 Jun 2027 05:26:17.212   04 Jun 2027 05:26:44.659            27.447               CapeTown           857.719
       392   04 Jun 2027 06:20:30.808   04 Jun 2027 06:21:24.723            53.915               Magadan2          1684.844
       393   04 Jun 2027 06:21:39.334   04 Jun 2027 06:21:44.269             4.935                Anadyr2           154.219
       394   04 Jun 2027 06:22:01.126   04 Jun 2027 06:22:16.236            15.110               Magadan2           472.187
       395   04 Jun 2027 06:22:25.815   04 Jun 2027 06:22:45.432            19.617               Magadan1           613.031
       396   04 Jun 2027 06:22:58.167   04 Jun 2027 06:23:55.260            57.093                Anadyr1          1784.156
       397   04 Jun 2027 06:24:08.632   04 Jun 2027 06:24:18.837            10.205               Magadan1           318.906
       398   04 Jun 2027 06:24:41.141   04 Jun 2027 06:24:47.017             5.876                Anadyr2           183.625
       399   04 Jun 2027 06:24:53.341   04 Jun 2027 06:25:01.562             8.221               Magadan1           256.906
       400   04 Jun 2027 06:25:03.181   04 Jun 2027 06:25:52.554            49.373               Magadan1          1542.906
       401   04 Jun 2027 07:56:34.392   04 Jun 2027 07:57:05.481            31.089               Magadan2           971.531
       402   04 Jun 2027 07:57:25.196   04 Jun 2027 07:57:39.278            14.082                Anadyr1           440.063
       403   04 Jun 2027 07:57:47.731   04 Jun 2027 07:58:04.970            17.239               Magadan1           538.719
       404   04 Jun 2027 07:58:24.853   04 Jun 2027 07:58:33.441             8.588               Magadan1           268.375
       405   04 Jun 2027 07:58:53.316   04 Jun 2027 08:00:09.043            75.727                Anadyr1          2366.469
       406   04 Jun 2027 08:00:16.262   04 Jun 2027 08:00:18.234             1.972               Magadan2            61.625
       407   04 Jun 2027 08:00:20.299   04 Jun 2027 08:00:36.553            16.254                Anadyr1           507.937
       408   04 Jun 2027 08:00:43.540   04 Jun 2027 08:00:44.961             1.421                Anadyr1            44.406
       409   04 Jun 2027 08:01:10.869   04 Jun 2027 08:01:12.110             1.241               Magadan1            38.781
       410   04 Jun 2027 08:01:36.199   04 Jun 2027 08:02:38.255            62.056                Anadyr1          1939.250
       411   04 Jun 2027 08:43:40.412   04 Jun 2027 08:44:13.015            32.603            RioGallegos          1018.844
       412   04 Jun 2027 09:32:36.793   04 Jun 2027 09:33:01.158            24.365               Magadan2           761.406
       413   04 Jun 2027 09:34:29.357   04 Jun 2027 09:35:27.023            57.666               Magadan1          1802.062
       414   04 Jun 2027 09:35:44.081   04 Jun 2027 09:35:53.472             9.391               Magadan1           293.469
       415   04 Jun 2027 09:36:15.750   04 Jun 2027 09:36:54.206            38.456                Irkutsk          1201.750
       416   04 Jun 2027 09:37:02.493   04 Jun 2027 09:38:11.548            69.055               Magadan1          2157.969
       417   04 Jun 2027 09:38:19.376   04 Jun 2027 09:38:31.308            11.932                Irkutsk           372.875
       418   04 Jun 2027 09:39:25.801   04 Jun 2027 09:39:44.763            18.962                Irkutsk           592.562
       419   04 Jun 2027 10:14:28.232   04 Jun 2027 10:15:08.079            39.847            RioGallegos          1245.219
       420   04 Jun 2027 10:15:24.900   04 Jun 2027 10:15:53.639            28.739            RioGallegos           898.094
       421   04 Jun 2027 10:49:28.533   04 Jun 2027 10:51:58.253           149.720                Sumatra          4678.750
       422   04 Jun 2027 11:11:19.200   04 Jun 2027 11:11:28.406             9.206                Novosib           287.688
       423   04 Jun 2027 11:11:59.787   04 Jun 2027 11:12:30.863            31.076                Irkutsk           971.125
       424   04 Jun 2027 11:12:57.711   04 Jun 2027 11:13:01.713             4.002                Irkutsk           125.063
       425   04 Jun 2027 11:13:25.307   04 Jun 2027 11:13:28.550             3.243                Novosib           101.344
       426   04 Jun 2027 11:13:36.789   04 Jun 2027 11:13:52.957            16.168                Norilsk           505.250
       427   04 Jun 2027 11:13:59.728   04 Jun 2027 11:14:07.031             7.303                Novosib           228.219
       428   04 Jun 2027 11:14:34.325   04 Jun 2027 11:15:24.969            50.644                Irkutsk          1582.625
       429   04 Jun 2027 11:15:28.784   04 Jun 2027 11:15:49.313            20.529                Norilsk           641.531
       430   04 Jun 2027 11:53:16.588   04 Jun 2027 11:53:55.862            39.274            RioGallegos          1227.312
       431   04 Jun 2027 11:55:14.866   04 Jun 2027 11:55:29.548            14.682            RioGallegos           458.813
       432   04 Jun 2027 11:57:46.721   04 Jun 2027 11:58:06.768            20.047            RioGallegos           626.469
       433   04 Jun 2027 12:27:44.818   04 Jun 2027 12:29:31.157           106.339                Sumatra          3323.094
       434   04 Jun 2027 12:41:59.102   04 Jun 2027 12:42:28.068            28.966                Novosib           905.187
       435   04 Jun 2027 12:43:39.961   04 Jun 2027 12:44:45.935            65.974                Irkutsk          2061.688
       436   04 Jun 2027 12:45:01.105   04 Jun 2027 12:45:25.370            24.265                Norilsk           758.281
       437   04 Jun 2027 12:49:41.417   04 Jun 2027 12:50:11.050            29.633                Norilsk           926.031
       438   04 Jun 2027 14:13:51.310   04 Jun 2027 14:16:11.296           139.986                  Delhi          4374.562
       439   04 Jun 2027 14:18:03.325   04 Jun 2027 14:19:11.134            67.809                 Moscow          2119.031
       440   04 Jun 2027 14:20:07.935   04 Jun 2027 14:20:10.283             2.348                 Moscow            73.375
       441   04 Jun 2027 14:21:22.338   04 Jun 2027 14:23:38.569           136.231              Murmansk2          4257.219
       442   04 Jun 2027 14:24:10.740   04 Jun 2027 14:25:31.834            81.094                Novosib          2534.187
       443   04 Jun 2027 15:33:24.943   04 Jun 2027 15:36:00.420           155.477               CapeTown          4858.656
       444   04 Jun 2027 15:54:42.976   04 Jun 2027 15:55:31.412            48.436                 Moscow          1513.625
       445   04 Jun 2027 15:58:04.160   04 Jun 2027 15:59:00.582            56.422              Murmansk1          1763.188
       446   04 Jun 2027 16:00:29.661   04 Jun 2027 16:00:56.562            26.901              Murmansk2           840.656
       447   04 Jun 2027 16:01:26.312   04 Jun 2027 16:01:59.623            33.311              Murmansk2          1040.969
       448   04 Jun 2027 16:12:39.925   04 Jun 2027 16:13:50.588            70.663                Anadyr1          2208.219
       449   04 Jun 2027 16:13:50.588   04 Jun 2027 16:13:56.120             5.532                Anadyr2           172.875
       450   04 Jun 2027 16:15:06.807   04 Jun 2027 16:16:13.706            66.899                Anadyr2          2090.594
       451   04 Jun 2027 17:07:22.430   04 Jun 2027 17:09:49.366           146.936               CapeTown          4591.750
       452   04 Jun 2027 17:36:52.689   04 Jun 2027 17:37:24.505            31.816              Murmansk2           994.250
       453   04 Jun 2027 17:37:24.505   04 Jun 2027 17:38:45.047            80.542              Murmansk1          2516.937
       454   04 Jun 2027 17:41:04.740   04 Jun 2027 17:42:27.434            82.694              Murmansk2          2584.187
       455   04 Jun 2027 17:48:01.467   04 Jun 2027 17:48:28.160            26.693                Anadyr1           834.156
       456   04 Jun 2027 17:51:34.858   04 Jun 2027 17:52:08.699            33.841                Anadyr1          1057.531
       457   04 Jun 2027 17:52:19.188   04 Jun 2027 17:52:20.545             1.357               Magadan2            42.406
       458   04 Jun 2027 17:52:43.538   04 Jun 2027 17:56:17.285           213.747               Magadan1          6679.594
       459   04 Jun 2027 19:23:54.915   04 Jun 2027 19:25:58.939           124.024                Anadyr2          3875.750
       460   04 Jun 2027 19:26:08.407   04 Jun 2027 19:27:14.712            66.305                Anadyr2          2072.031
       461   04 Jun 2027 19:27:17.758   04 Jun 2027 19:28:28.965            71.207               Magadan1          2225.219
       462   04 Jun 2027 19:28:28.965   04 Jun 2027 19:28:50.679            21.714               Magadan2           678.563
       463   04 Jun 2027 19:31:51.147   04 Jun 2027 19:32:03.016            11.869               Magadan2           370.906
       464   04 Jun 2027 20:59:48.624   04 Jun 2027 21:01:57.524           128.900                Anadyr2          4028.125
       465   04 Jun 2027 21:02:02.402   04 Jun 2027 21:03:30.295            87.893                Anadyr1          2746.656
       466   04 Jun 2027 21:03:32.650   04 Jun 2027 21:06:29.609           176.959                Norilsk          5529.969
       467   04 Jun 2027 21:08:33.912   04 Jun 2027 21:10:42.749           128.837                Irkutsk          4026.156
       468   04 Jun 2027 21:54:04.137   04 Jun 2027 21:55:24.359            80.222            RioGallegos          2506.937
       469   04 Jun 2027 22:02:34.034   04 Jun 2027 22:02:42.946             8.912            RioGallegos           278.500
       470   04 Jun 2027 22:35:20.302   04 Jun 2027 22:36:03.674            43.372                Anadyr2          1355.375
       471   04 Jun 2027 22:36:23.363   04 Jun 2027 22:37:43.624            80.261                Anadyr1          2508.156
       472   04 Jun 2027 22:37:43.629   04 Jun 2027 22:38:24.914            41.285                Norilsk          1290.156
       473   04 Jun 2027 22:38:24.925   04 Jun 2027 22:39:28.120            63.195               Magadan2          1974.844
       474   04 Jun 2027 22:41:43.838   04 Jun 2027 22:42:26.652            42.814                Irkutsk          1337.938
       475   04 Jun 2027 22:42:46.264   04 Jun 2027 22:43:20.402            34.138                Irkutsk          1066.812
       476   04 Jun 2027 22:43:33.992   04 Jun 2027 22:44:36.570            62.578                Novosib          1955.563
       477   04 Jun 2027 22:45:45.122   04 Jun 2027 22:46:49.579            64.457                Novosib          2014.281
       478   04 Jun 2027 23:02:10.934   04 Jun 2027 23:03:46.332            95.398                Sumatra          2981.188
       479   05 Jun 2027 00:09:54.027   05 Jun 2027 00:11:02.466            68.439                Anadyr1          2138.719
       480   05 Jun 2027 00:12:32.355   05 Jun 2027 00:12:44.599            12.244                Anadyr2           382.625
       481   05 Jun 2027 00:13:37.721   05 Jun 2027 00:13:52.399            14.678                Norilsk           458.687
       482   05 Jun 2027 00:14:16.704   05 Jun 2027 00:16:10.800           114.096               Magadan1          3565.500
