uniorb/output/strategy_4/Drop/Drop_KinoSat_110708.txt

KinoSat_110708
-------------------------
    Access    *     Start Time (UTCG)     *     Stop Time (UTCG)  *   Duration (s)        *       Station  *  Data (Mbytes)
         1   01 Jun 2027 03:10:29.692   01 Jun 2027 03:11:34.269            64.577                Anadyr1          2018.031
         2   01 Jun 2027 03:11:34.269   01 Jun 2027 03:12:13.872            39.603                Anadyr2          1237.594
         3   01 Jun 2027 03:12:20.037   01 Jun 2027 03:12:47.740            27.703               Magadan1           865.719
         4   01 Jun 2027 03:13:02.893   01 Jun 2027 03:13:27.124            24.231                Anadyr1           757.219
         5   01 Jun 2027 03:13:34.003   01 Jun 2027 03:14:13.261            39.258               Magadan2          1226.813
         6   01 Jun 2027 03:14:19.730   01 Jun 2027 03:15:40.641            80.911                Anadyr1          2528.469
         7   01 Jun 2027 03:15:40.641   01 Jun 2027 03:16:42.579            61.938                Anadyr2          1935.562
         8   01 Jun 2027 03:17:25.819   01 Jun 2027 03:17:29.651             3.832                Anadyr1           119.750
         9   01 Jun 2027 04:46:52.521   01 Jun 2027 04:47:00.269             7.748                Irkutsk           242.125
        10   01 Jun 2027 04:47:15.917   01 Jun 2027 04:48:41.811            85.894                Irkutsk          2684.188
        11   01 Jun 2027 04:48:42.422   01 Jun 2027 04:49:54.573            72.151               Magadan1          2254.719
        12   01 Jun 2027 04:50:07.172   01 Jun 2027 04:50:29.232            22.060               Magadan1           689.375
        13   01 Jun 2027 04:50:35.350   01 Jun 2027 04:50:44.825             9.475               Magadan1           296.094
        14   01 Jun 2027 04:50:51.728   01 Jun 2027 04:51:20.420            28.692                Anadyr2           896.625
        15   01 Jun 2027 04:51:20.420   01 Jun 2027 04:52:45.246            84.826                Anadyr1          2650.813
        16   01 Jun 2027 05:29:25.333   01 Jun 2027 05:31:31.065           125.732            RioGallegos          3929.125
        17   01 Jun 2027 06:22:54.263   01 Jun 2027 06:23:31.559            37.296                Irkutsk          1165.500
        18   01 Jun 2027 06:23:45.434   01 Jun 2027 06:23:57.053            11.619               Magadan1           363.094
        19   01 Jun 2027 06:23:57.362   01 Jun 2027 06:24:14.210            16.848               Magadan1           526.500
        20   01 Jun 2027 06:24:33.069   01 Jun 2027 06:24:43.372            10.303               Magadan1           321.969
        21   01 Jun 2027 06:24:57.590   01 Jun 2027 06:28:58.284           240.694                Irkutsk          7521.688
        22   01 Jun 2027 06:29:12.255   01 Jun 2027 06:30:19.697            67.442              Murmansk2          2107.562
        23   01 Jun 2027 07:03:41.607   01 Jun 2027 07:04:17.090            35.483            RioGallegos          1108.844
        24   01 Jun 2027 07:05:15.137   01 Jun 2027 07:05:19.003             3.866            RioGallegos           120.813
        25   01 Jun 2027 07:38:40.345   01 Jun 2027 07:42:20.615           220.270                Sumatra          6883.438
        26   01 Jun 2027 07:49:57.097   01 Jun 2027 07:50:31.158            34.061                  Delhi          1064.406
        27   01 Jun 2027 07:50:57.625   01 Jun 2027 07:52:08.079            70.454                  Delhi          2201.688
        28   01 Jun 2027 08:00:25.705   01 Jun 2027 08:01:13.545            47.840                Novosib          1495.000
        29   01 Jun 2027 08:02:12.513   01 Jun 2027 08:03:00.690            48.177                Irkutsk          1505.531
        30   01 Jun 2027 08:03:03.361   01 Jun 2027 08:04:05.412            62.051                 Moscow          1939.094
        31   01 Jun 2027 08:04:08.412   01 Jun 2027 08:04:24.369            15.957                Irkutsk           498.656
        32   01 Jun 2027 08:04:39.690   01 Jun 2027 08:05:34.339            54.649                Norilsk          1707.781
        33   01 Jun 2027 08:05:35.677   01 Jun 2027 08:06:26.552            50.875                 Moscow          1589.844
        34   01 Jun 2027 08:06:32.849   01 Jun 2027 08:07:56.037            83.188                Norilsk          2599.625
        35   01 Jun 2027 08:08:23.542   01 Jun 2027 08:08:28.407             4.865              Murmansk1           152.031
        36   01 Jun 2027 08:44:00.672   01 Jun 2027 08:45:01.435            60.763            RioGallegos          1898.844
        37   01 Jun 2027 09:17:05.128   01 Jun 2027 09:17:57.314            52.186                Sumatra          1630.812
        38   01 Jun 2027 09:20:16.122   01 Jun 2027 09:20:48.714            32.592                Sumatra          1018.500
        39   01 Jun 2027 09:22:44.950   01 Jun 2027 09:25:09.132           144.182                  Delhi          4505.687
        40   01 Jun 2027 09:39:10.458   01 Jun 2027 09:40:02.184            51.726                Novosib          1616.437
        41   01 Jun 2027 09:40:07.054   01 Jun 2027 09:40:14.892             7.838                Novosib           244.938
        42   01 Jun 2027 09:40:28.983   01 Jun 2027 09:42:13.370           104.387                Novosib          3262.094
        43   01 Jun 2027 09:42:20.427   01 Jun 2027 09:43:10.631            50.204              Murmansk1          1568.875
        44   01 Jun 2027 09:43:10.874   01 Jun 2027 09:43:46.150            35.276                 Moscow          1102.375
        45   01 Jun 2027 11:03:21.181   01 Jun 2027 11:05:40.630           139.449                  Delhi          4357.781
        46   01 Jun 2027 11:06:02.525   01 Jun 2027 11:07:20.375            77.850                  Delhi          2432.812
        47   01 Jun 2027 11:12:03.800   01 Jun 2027 11:13:45.646           101.846                 Moscow          3182.688
        48   01 Jun 2027 11:13:56.441   01 Jun 2027 11:14:15.745            19.304              Murmansk2           603.250
        49   01 Jun 2027 11:14:20.199   01 Jun 2027 11:15:30.107            69.908                Novosib          2184.625
        50   01 Jun 2027 11:15:31.192   01 Jun 2027 11:17:12.389           101.197                Norilsk          3162.406
        51   01 Jun 2027 11:17:19.720   01 Jun 2027 11:20:43.384           203.664              Murmansk1          6364.500
        52   01 Jun 2027 11:20:56.820   01 Jun 2027 11:21:44.460            47.640              Murmansk1          1488.750
        53   01 Jun 2027 12:22:34.269   01 Jun 2027 12:25:30.394           176.125               CapeTown          5503.906
        54   01 Jun 2027 12:29:24.341   01 Jun 2027 12:31:04.464           100.123               CapeTown          3128.844
        55   01 Jun 2027 12:47:18.812   01 Jun 2027 12:49:52.839           154.027              Murmansk1          4813.344
        56   01 Jun 2027 12:50:13.227   01 Jun 2027 12:51:02.461            49.234              Murmansk1          1538.562
        57   01 Jun 2027 13:01:53.548   01 Jun 2027 13:08:02.556           369.008                Anadyr1         11531.500
        58   01 Jun 2027 14:28:51.414   01 Jun 2027 14:29:27.297            35.883              Murmansk1          1121.344
        59   01 Jun 2027 14:37:14.698   01 Jun 2027 14:38:47.533            92.835                Anadyr2          2901.094
        60   01 Jun 2027 14:38:51.707   01 Jun 2027 14:39:37.621            45.914                Anadyr1          1434.812
        61   01 Jun 2027 14:40:35.631   01 Jun 2027 14:41:08.313            32.682                Anadyr1          1021.312
        62   01 Jun 2027 14:41:18.490   01 Jun 2027 14:44:31.304           192.814               Magadan1          6025.438
        63   01 Jun 2027 14:45:44.112   01 Jun 2027 14:46:57.985            73.873               Magadan2          2308.531
        64   01 Jun 2027 16:13:07.561   01 Jun 2027 16:14:27.629            80.068                Anadyr1          2502.125
        65   01 Jun 2027 16:14:55.711   01 Jun 2027 16:16:07.843            72.132                Anadyr2          2254.125
        66   01 Jun 2027 16:16:36.123   01 Jun 2027 16:18:57.627           141.504               Magadan1          4422.000
        67   01 Jun 2027 16:20:35.131   01 Jun 2027 16:21:55.551            80.420               Magadan1          2513.125
        68   01 Jun 2027 17:49:00.478   01 Jun 2027 17:50:22.968            82.490                Anadyr1          2577.812
        69   01 Jun 2027 17:50:43.614   01 Jun 2027 17:52:04.663            81.049                Anadyr2          2532.781
        70   01 Jun 2027 17:52:09.891   01 Jun 2027 17:57:02.662           292.771                Norilsk          9149.094
        71   01 Jun 2027 17:57:42.357   01 Jun 2027 18:02:04.748           262.391                Irkutsk          8199.719
        72   01 Jun 2027 19:26:52.854   01 Jun 2027 19:28:21.446            88.592                Norilsk          2768.500
        73   01 Jun 2027 19:32:02.569   01 Jun 2027 19:32:19.296            16.727                Norilsk           522.719
        74   01 Jun 2027 19:32:43.414   01 Jun 2027 19:39:38.113           414.699                Novosib         12959.344
        75   01 Jun 2027 19:45:42.510   01 Jun 2027 19:46:35.996            53.486                Sumatra          1671.438
        76   01 Jun 2027 19:47:41.320   01 Jun 2027 19:47:54.749            13.429                Sumatra           419.656
        77   01 Jun 2027 19:54:09.558   01 Jun 2027 19:54:49.544            39.986                Sumatra          1249.563
        78   01 Jun 2027 21:08:38.820   01 Jun 2027 21:09:32.448            53.628                Novosib          1675.875
        79   01 Jun 2027 21:10:23.356   01 Jun 2027 21:12:19.864           116.508                Novosib          3640.875
        80   01 Jun 2027 21:14:19.122   01 Jun 2027 21:16:44.347           145.225                  Delhi          4538.281
        81   01 Jun 2027 22:41:08.217   01 Jun 2027 22:45:20.575           252.358              Murmansk2          7886.187
        82   01 Jun 2027 22:45:20.575   01 Jun 2027 22:46:41.040            80.465              Murmansk1          2514.531
        83   01 Jun 2027 22:47:46.016   01 Jun 2027 22:52:08.071           262.055                 Moscow          8189.219
        84   01 Jun 2027 23:14:25.531   01 Jun 2027 23:16:37.609           132.078               CapeTown          4127.438
        85   02 Jun 2027 00:17:26.021   02 Jun 2027 00:17:47.849            21.828              Murmansk1           682.125
        86   02 Jun 2027 00:19:06.380   02 Jun 2027 00:19:27.006            20.626                Novosib           644.562
        87   02 Jun 2027 00:20:15.139   02 Jun 2027 00:22:29.246           134.107                 Moscow          4190.844
        88   02 Jun 2027 00:44:19.076   02 Jun 2027 00:46:59.687           160.611               CapeTown          5019.094
        89   02 Jun 2027 00:53:28.442   02 Jun 2027 00:53:46.513            18.071               CapeTown           564.719
        90   02 Jun 2027 01:42:45.903   02 Jun 2027 01:43:39.633            53.730               Magadan1          1679.063
        91   02 Jun 2027 01:44:13.665   02 Jun 2027 01:44:53.705            40.040               Magadan2          1251.250
        92   02 Jun 2027 01:52:55.473   02 Jun 2027 01:53:20.951            25.478              Murmansk1           796.188
        93   02 Jun 2027 01:53:22.181   02 Jun 2027 01:54:13.739            51.558              Murmansk2          1611.187
        94   02 Jun 2027 01:55:46.064   02 Jun 2027 01:56:16.972            30.908              Murmansk1           965.875
        95   02 Jun 2027 01:56:32.590   02 Jun 2027 01:57:26.466            53.876                 Moscow          1683.625
        96   02 Jun 2027 02:00:35.030   02 Jun 2027 02:00:39.248             4.218                 Moscow           131.812
        97   02 Jun 2027 02:02:20.301   02 Jun 2027 02:03:04.448            44.147                 Moscow          1379.594
        98   02 Jun 2027 02:21:28.335   02 Jun 2027 02:22:19.892            51.557               CapeTown          1611.156
        99   02 Jun 2027 02:24:37.994   02 Jun 2027 02:25:54.444            76.450               CapeTown          2389.062
       100   02 Jun 2027 03:16:37.510   02 Jun 2027 03:17:05.866            28.356               Magadan1           886.125
       101   02 Jun 2027 03:22:12.481   02 Jun 2027 03:29:21.143           428.662               Magadan2         13395.687
       102   02 Jun 2027 03:29:23.227   02 Jun 2027 03:29:35.751            12.524                Anadyr1           391.375
       103   02 Jun 2027 04:58:40.536   02 Jun 2027 05:01:22.920           162.384                Anadyr1          5074.500
       104   02 Jun 2027 05:01:40.600   02 Jun 2027 05:04:46.432           185.832                Anadyr1          5807.250
       105   02 Jun 2027 06:35:46.313   02 Jun 2027 06:36:41.785            55.472                Irkutsk          1733.500
       106   02 Jun 2027 06:37:57.348   02 Jun 2027 06:38:10.320            12.972                Novosib           405.375
       107   02 Jun 2027 06:38:17.616   02 Jun 2027 06:40:06.282           108.666                Irkutsk          3395.812
       108   02 Jun 2027 06:41:15.342   02 Jun 2027 06:42:16.611            61.269                Novosib          1914.656
       109   02 Jun 2027 08:13:14.290   02 Jun 2027 08:14:17.622            63.332                Novosib          1979.125
       110   02 Jun 2027 08:15:01.552   02 Jun 2027 08:15:37.514            35.962                Irkutsk          1123.813
       111   02 Jun 2027 08:15:54.598   02 Jun 2027 08:16:44.417            49.819                Irkutsk          1556.844
       112   02 Jun 2027 08:17:47.740   02 Jun 2027 08:18:05.723            17.983              Murmansk1           561.969
       113   02 Jun 2027 08:18:29.130   02 Jun 2027 08:18:41.722            12.592              Murmansk1           393.500
       114   02 Jun 2027 08:23:14.855   02 Jun 2027 08:23:47.420            32.565              Murmansk2          1017.656
       115   02 Jun 2027 08:55:31.780   02 Jun 2027 08:56:51.023            79.243            RioGallegos          2476.344
       116   02 Jun 2027 08:57:19.672   02 Jun 2027 08:57:32.783            13.111            RioGallegos           409.719
       117   02 Jun 2027 08:58:28.429   02 Jun 2027 08:58:52.526            24.097            RioGallegos           753.031
       118   02 Jun 2027 09:00:01.037   02 Jun 2027 09:00:23.013            21.976            RioGallegos           686.750
       119   02 Jun 2027 09:31:02.190   02 Jun 2027 09:33:25.872           143.682                Sumatra          4490.063
       120   02 Jun 2027 09:49:12.147   02 Jun 2027 09:49:37.690            25.543                Novosib           798.219
       121   02 Jun 2027 09:51:43.836   02 Jun 2027 09:51:44.319             0.483                Norilsk            15.094
       122   02 Jun 2027 09:51:48.783   02 Jun 2027 09:51:49.069             0.286                Novosib             8.937
       123   02 Jun 2027 09:52:05.015   02 Jun 2027 09:52:24.907            19.892                Norilsk           621.625
       124   02 Jun 2027 09:52:34.373   02 Jun 2027 09:52:50.684            16.311                Novosib           509.719
       125   02 Jun 2027 11:29:38.378   02 Jun 2027 11:29:58.570            20.192              Murmansk2           631.000
       126   02 Jun 2027 12:39:40.903   02 Jun 2027 12:41:02.912            82.009               CapeTown          2562.781
       127   02 Jun 2027 12:56:21.235   02 Jun 2027 12:56:30.583             9.348                 Moscow           292.125
       128   02 Jun 2027 12:58:12.031   02 Jun 2027 12:58:16.959             4.928                 Moscow           154.000
       129   02 Jun 2027 12:58:20.752   02 Jun 2027 12:59:17.242            56.490                 Moscow          1765.313
       130   02 Jun 2027 12:59:34.294   02 Jun 2027 13:00:35.101            60.807              Murmansk1          1900.219
       131   02 Jun 2027 13:02:49.803   02 Jun 2027 13:03:10.153            20.350              Murmansk1           635.937
       132   02 Jun 2027 13:04:21.593   02 Jun 2027 13:04:30.582             8.989              Murmansk2           280.906
       133   02 Jun 2027 13:06:54.158   02 Jun 2027 13:07:07.697            13.539              Murmansk2           423.094
       134   02 Jun 2027 13:07:20.003   02 Jun 2027 13:07:45.002            24.999              Murmansk1           781.219
       135   02 Jun 2027 13:09:20.139   02 Jun 2027 13:09:22.647             2.508              Murmansk1            78.375
       136   02 Jun 2027 13:09:23.915   02 Jun 2027 13:10:03.564            39.649              Murmansk2          1239.031
       137   02 Jun 2027 13:13:45.928   02 Jun 2027 13:18:47.066           301.138                Anadyr2          9410.562
       138   02 Jun 2027 14:38:45.585   02 Jun 2027 14:39:03.139            17.554              Murmansk1           548.563
       139   02 Jun 2027 14:40:53.157   02 Jun 2027 14:41:40.740            47.583              Murmansk1          1486.969
       140   02 Jun 2027 14:47:00.166   02 Jun 2027 14:47:14.466            14.300              Murmansk2           446.875
       141   02 Jun 2027 14:49:14.917   02 Jun 2027 14:51:40.488           145.571                Anadyr1          4549.094
       142   02 Jun 2027 14:52:50.949   02 Jun 2027 14:59:48.145           417.196               Magadan2         13037.375
       143   02 Jun 2027 16:27:32.067   02 Jun 2027 16:29:51.276           139.209               Magadan2          4350.281
       144   02 Jun 2027 16:29:51.276   02 Jun 2027 16:31:00.357            69.081               Magadan1          2158.781
       145   02 Jun 2027 18:01:00.429   02 Jun 2027 18:02:24.147            83.718                Anadyr2          2616.188
       146   02 Jun 2027 18:02:29.394   02 Jun 2027 18:03:47.106            77.712                Anadyr1          2428.500
       147   02 Jun 2027 18:03:50.485   02 Jun 2027 18:09:29.922           339.437                Norilsk         10607.406
       148   02 Jun 2027 18:10:21.842   02 Jun 2027 18:13:10.769           168.927                Irkutsk          5278.969
       149   02 Jun 2027 18:15:07.135   02 Jun 2027 18:15:27.301            20.166                Irkutsk           630.188
       150   02 Jun 2027 18:25:14.575   02 Jun 2027 18:29:18.288           243.713                Sumatra          7616.031
       151   02 Jun 2027 19:43:55.909   02 Jun 2027 19:47:31.156           215.247                Novosib          6726.469
       152   02 Jun 2027 19:48:36.157   02 Jun 2027 19:51:01.953           145.796                Novosib          4556.125
       153   02 Jun 2027 21:18:36.522   02 Jun 2027 21:21:19.725           163.203              Murmansk1          5100.094
       154   02 Jun 2027 21:26:10.199   02 Jun 2027 21:27:30.891            80.692                  Delhi          2521.625
       155   02 Jun 2027 21:29:00.882   02 Jun 2027 21:29:19.157            18.275                  Delhi           571.094
       156   02 Jun 2027 22:53:07.162   02 Jun 2027 22:57:21.138           253.976              Murmansk1          7936.750
       157   02 Jun 2027 22:57:21.138   02 Jun 2027 22:58:47.634            86.496              Murmansk2          2703.000
       158   02 Jun 2027 22:59:42.841   02 Jun 2027 23:03:27.261           224.420                 Moscow          7013.125
       159   02 Jun 2027 23:24:37.904   02 Jun 2027 23:26:43.896           125.992               CapeTown          3937.250
       160   02 Jun 2027 23:28:53.531   02 Jun 2027 23:30:42.712           109.181               CapeTown          3411.906
       161   03 Jun 2027 00:40:58.592   03 Jun 2027 00:41:22.808            24.216                 Moscow           756.750
       162   03 Jun 2027 00:56:10.699   03 Jun 2027 00:57:30.931            80.232               CapeTown          2507.250
       163   03 Jun 2027 00:57:56.865   03 Jun 2027 00:59:13.416            76.551               CapeTown          2392.219
       164   03 Jun 2027 01:54:24.807   03 Jun 2027 01:55:42.332            77.525               Magadan1          2422.656
       165   03 Jun 2027 01:56:38.195   03 Jun 2027 01:56:55.726            17.531               Magadan2           547.844
       166   03 Jun 2027 02:01:41.785   03 Jun 2027 02:02:06.941            25.156                Norilsk           786.125
       167   03 Jun 2027 02:04:56.753   03 Jun 2027 02:06:53.506           116.753              Murmansk2          3648.531
       168   03 Jun 2027 02:08:15.937   03 Jun 2027 02:09:27.821            71.884                 Moscow          2246.375
       169   03 Jun 2027 02:17:27.297   03 Jun 2027 02:17:47.402            20.105                 Moscow           628.281
       170   03 Jun 2027 02:19:03.677   03 Jun 2027 02:19:11.773             8.096                 Moscow           253.000
       171   03 Jun 2027 02:19:40.409   03 Jun 2027 02:19:43.390             2.981                 Moscow            93.156
       172   03 Jun 2027 02:20:00.827   03 Jun 2027 02:20:04.959             4.132                 Moscow           129.125
       173   03 Jun 2027 02:34:12.320   03 Jun 2027 02:34:48.226            35.906               CapeTown          1122.062
       174   03 Jun 2027 02:38:18.018   03 Jun 2027 02:38:57.489            39.471               CapeTown          1233.469
       175   03 Jun 2027 03:32:50.090   03 Jun 2027 03:33:54.690            64.600               Magadan2          2018.750
       176   03 Jun 2027 03:33:59.629   03 Jun 2027 03:37:04.938           185.309                Anadyr1          5790.906
       177   03 Jun 2027 03:37:09.885   03 Jun 2027 03:38:34.365            84.480               Magadan2          2640.000
       178   03 Jun 2027 03:38:49.125   03 Jun 2027 03:39:12.979            23.854                Anadyr2           745.438
       179   03 Jun 2027 03:39:12.979   03 Jun 2027 03:40:15.005            62.026                Anadyr1          1938.313
       180   03 Jun 2027 03:40:19.691   03 Jun 2027 03:40:55.217            35.526               Magadan2          1110.187
       181   03 Jun 2027 04:26:03.840   03 Jun 2027 04:26:54.516            50.676            RioGallegos          1583.625
       182   03 Jun 2027 04:27:24.178   03 Jun 2027 04:27:34.925            10.747            RioGallegos           335.844
       183   03 Jun 2027 05:11:11.873   03 Jun 2027 05:11:32.170            20.297                Irkutsk           634.281
       184   03 Jun 2027 05:11:38.063   03 Jun 2027 05:12:35.840            57.777               Magadan1          1805.531
       185   03 Jun 2027 05:12:40.705   03 Jun 2027 05:15:14.427           153.722                Irkutsk          4803.812
       186   03 Jun 2027 05:15:17.051   03 Jun 2027 05:17:08.020           110.969               Magadan1          3467.781
       187   03 Jun 2027 05:17:22.038   03 Jun 2027 05:17:23.474             1.436                Novosib            44.875
       188   03 Jun 2027 06:47:39.077   03 Jun 2027 06:48:15.297            36.220               Magadan1          1131.875
       189   03 Jun 2027 06:48:21.985   03 Jun 2027 06:48:38.306            16.321               Magadan1           510.031
       190   03 Jun 2027 06:48:49.977   03 Jun 2027 06:49:14.197            24.220               Magadan2           756.875
       191   03 Jun 2027 06:49:15.560   03 Jun 2027 06:50:23.190            67.630               Magadan2          2113.437
       192   03 Jun 2027 06:50:31.740   03 Jun 2027 06:50:33.032             1.292               Magadan2            40.375
       193   03 Jun 2027 06:50:39.939   03 Jun 2027 06:51:33.489            53.550              Murmansk1          1673.437
       194   03 Jun 2027 06:54:14.339   03 Jun 2027 06:54:15.880             1.541              Murmansk1            48.156
       195   03 Jun 2027 06:59:30.129   03 Jun 2027 06:59:40.545            10.416              Murmansk2           325.500
       196   03 Jun 2027 06:59:53.778   03 Jun 2027 07:00:05.247            11.469              Murmansk2           358.406
       197   03 Jun 2027 08:02:44.181   03 Jun 2027 08:03:09.929            25.748                Sumatra           804.625
       198   03 Jun 2027 08:24:06.745   03 Jun 2027 08:24:58.169            51.424                Novosib          1607.000
       199   03 Jun 2027 08:25:42.890   03 Jun 2027 08:25:56.386            13.496                Irkutsk           421.750
       200   03 Jun 2027 08:25:59.183   03 Jun 2027 08:26:20.745            21.562                Novosib           673.813
       201   03 Jun 2027 08:26:56.587   03 Jun 2027 08:27:05.672             9.085                Irkutsk           283.906
       202   03 Jun 2027 08:27:15.172   03 Jun 2027 08:27:39.347            24.175                Novosib           755.469
       203   03 Jun 2027 08:28:00.754   03 Jun 2027 08:28:38.473            37.719                Irkutsk          1178.719
       204   03 Jun 2027 08:29:28.806   03 Jun 2027 08:29:44.492            15.686                Novosib           490.187
       205   03 Jun 2027 08:30:07.100   03 Jun 2027 08:30:18.638            11.538              Murmansk2           360.563
       206   03 Jun 2027 09:08:47.453   03 Jun 2027 09:09:43.478            56.025            RioGallegos          1750.781
       207   03 Jun 2027 09:48:29.020   03 Jun 2027 09:49:48.134            79.114                  Delhi          2472.313
       208   03 Jun 2027 10:00:38.148   03 Jun 2027 10:00:57.479            19.331                Novosib           604.094
       209   03 Jun 2027 10:01:42.713   03 Jun 2027 10:02:09.540            26.827                Novosib           838.344
       210   03 Jun 2027 10:03:30.911   03 Jun 2027 10:03:50.264            19.353                Novosib           604.781
       211   03 Jun 2027 10:04:42.866   03 Jun 2027 10:04:52.617             9.751                Novosib           304.719
       212   03 Jun 2027 11:44:00.903   03 Jun 2027 11:44:16.771            15.868                Norilsk           495.875
       213   03 Jun 2027 13:08:48.703   03 Jun 2027 13:09:01.035            12.332                 Moscow           385.375
       214   03 Jun 2027 13:09:24.559   03 Jun 2027 13:09:50.273            25.714                 Moscow           803.563
       215   03 Jun 2027 13:09:58.502   03 Jun 2027 13:10:12.424            13.922                 Moscow           435.063
       216   03 Jun 2027 13:11:42.765   03 Jun 2027 13:12:51.514            68.749                 Moscow          2148.406
       217   03 Jun 2027 13:18:20.388   03 Jun 2027 13:18:22.653             2.265                 Moscow            70.781
       218   03 Jun 2027 13:19:41.452   03 Jun 2027 13:19:50.628             9.176              Murmansk1           286.750
       219   03 Jun 2027 13:31:12.995   03 Jun 2027 13:31:58.855            45.860                Anadyr1          1433.125
       220   03 Jun 2027 13:35:11.555   03 Jun 2027 13:35:28.639            17.084                Anadyr2           533.875
       221   03 Jun 2027 14:20:44.344   03 Jun 2027 14:22:08.528            84.184               CapeTown          2630.750
       222   03 Jun 2027 14:23:36.853   03 Jun 2027 14:24:54.420            77.567               CapeTown          2423.969
       223   03 Jun 2027 14:27:29.468   03 Jun 2027 14:28:07.024            37.556               CapeTown          1173.625
       224   03 Jun 2027 14:51:24.215   03 Jun 2027 14:54:51.227           207.012              Murmansk1          6469.125
       225   03 Jun 2027 15:01:15.452   03 Jun 2027 15:02:42.810            87.358                Anadyr2          2729.938
       226   03 Jun 2027 15:03:30.177   03 Jun 2027 15:04:08.183            38.006                Anadyr1          1187.687
       227   03 Jun 2027 15:04:32.370   03 Jun 2027 15:08:57.695           265.325               Magadan2          8291.406
       228   03 Jun 2027 15:08:57.695   03 Jun 2027 15:10:51.615           113.920               Magadan1          3560.000
       229   03 Jun 2027 16:37:10.224   03 Jun 2027 16:37:52.308            42.084                Anadyr1          1315.125
       230   03 Jun 2027 16:38:18.417   03 Jun 2027 16:38:33.018            14.601                Anadyr1           456.281
       231   03 Jun 2027 16:38:36.249   03 Jun 2027 16:38:43.837             7.588                Anadyr1           237.125
       232   03 Jun 2027 16:39:30.802   03 Jun 2027 16:41:12.880           102.078               Magadan1          3189.938
       233   03 Jun 2027 16:41:51.548   03 Jun 2027 16:43:03.080            71.532               Magadan2          2235.375
       234   03 Jun 2027 16:50:33.243   03 Jun 2027 16:51:24.595            51.352               Magadan2          1604.750
       235   03 Jun 2027 17:34:06.432   03 Jun 2027 17:36:21.736           135.304            RioGallegos          4228.250
       236   03 Jun 2027 18:13:00.000   03 Jun 2027 18:13:18.324            18.324                Anadyr2           572.625
       237   03 Jun 2027 18:13:36.563   03 Jun 2027 18:13:46.158             9.595                Anadyr2           299.844
       238   03 Jun 2027 18:14:14.036   03 Jun 2027 18:14:45.335            31.299                Anadyr1           978.094
       239   03 Jun 2027 18:15:13.856   03 Jun 2027 18:19:20.698           246.842                Norilsk          7713.812
       240   03 Jun 2027 18:20:20.431   03 Jun 2027 18:24:41.481           261.050                Irkutsk          8157.813
       241   03 Jun 2027 18:25:43.576   03 Jun 2027 18:27:09.437            85.861                Irkutsk          2683.156
       242   03 Jun 2027 18:35:40.500   03 Jun 2027 18:37:44.755           124.255                Sumatra          3882.969
       243   03 Jun 2027 18:41:24.177   03 Jun 2027 18:43:10.726           106.549                Sumatra          3329.656
       244   03 Jun 2027 19:58:19.774   03 Jun 2027 20:00:49.156           149.382                Novosib          4668.188
       245   03 Jun 2027 20:06:49.236   03 Jun 2027 20:08:57.170           127.934                  Delhi          3997.937
       246   03 Jun 2027 21:30:05.724   03 Jun 2027 21:34:33.933           268.209              Murmansk1          8381.531
       247   03 Jun 2027 23:01:56.518   03 Jun 2027 23:02:06.388             9.870               Magadan2           308.438
       248   03 Jun 2027 23:02:36.275   03 Jun 2027 23:03:46.093            69.818               Magadan2          2181.812
       249   03 Jun 2027 23:05:06.769   03 Jun 2027 23:06:52.890           106.121              Murmansk1          3316.281
       250   03 Jun 2027 23:08:09.990   03 Jun 2027 23:11:09.434           179.444              Murmansk1          5607.625
       251   03 Jun 2027 23:11:48.802   03 Jun 2027 23:13:21.568            92.766              Murmansk2          2898.938
       252   03 Jun 2027 23:14:53.962   03 Jun 2027 23:15:14.938            20.976                 Moscow           655.500
       253   03 Jun 2027 23:15:19.637   03 Jun 2027 23:16:37.264            77.627                 Moscow          2425.844
       254   03 Jun 2027 23:35:31.332   03 Jun 2027 23:37:40.769           129.437               CapeTown          4044.906
       255   03 Jun 2027 23:41:03.558   03 Jun 2027 23:41:15.953            12.395               CapeTown           387.344
       256   03 Jun 2027 23:43:11.613   03 Jun 2027 23:43:26.581            14.968               CapeTown           467.750
       257   04 Jun 2027 00:41:00.664   04 Jun 2027 00:42:39.640            98.976              Murmansk1          3093.000
       258   04 Jun 2027 00:44:14.336   04 Jun 2027 00:44:44.582            30.246                 Moscow           945.187
       259   04 Jun 2027 00:48:06.415   04 Jun 2027 00:48:19.283            12.868                 Moscow           402.125
       260   04 Jun 2027 00:52:38.885   04 Jun 2027 00:53:02.138            23.253                 Moscow           726.656
       261   04 Jun 2027 01:08:07.276   04 Jun 2027 01:08:30.377            23.101               CapeTown           721.906
       262   04 Jun 2027 01:09:36.453   04 Jun 2027 01:10:42.041            65.588               CapeTown          2049.625
       263   04 Jun 2027 01:20:33.526   04 Jun 2027 01:20:55.676            22.150               CapeTown           692.187
       264   04 Jun 2027 02:04:51.447   04 Jun 2027 02:05:59.681            68.234                Anadyr1          2132.312
       265   04 Jun 2027 02:06:05.555   04 Jun 2027 02:06:46.877            41.322               Magadan1          1291.313
       266   04 Jun 2027 02:06:51.764   04 Jun 2027 02:07:45.035            53.271               Magadan2          1664.719
       267   04 Jun 2027 02:13:56.664   04 Jun 2027 02:14:40.977            44.313                Norilsk          1384.781
       268   04 Jun 2027 02:16:57.868   04 Jun 2027 02:18:10.885            73.017              Murmansk2          2281.781
       269   04 Jun 2027 02:19:35.158   04 Jun 2027 02:19:57.344            22.186              Murmansk2           693.312
       270   04 Jun 2027 02:20:16.041   04 Jun 2027 02:20:56.604            40.563              Murmansk1          1267.594
       271   04 Jun 2027 02:26:18.535   04 Jun 2027 02:27:03.408            44.873                 Moscow          1402.281
       272   04 Jun 2027 02:47:12.929   04 Jun 2027 02:48:25.009            72.080               CapeTown          2252.500
       273   04 Jun 2027 02:54:11.297   04 Jun 2027 02:54:18.810             7.513               CapeTown           234.781
       274   04 Jun 2027 03:46:53.484   04 Jun 2027 03:48:05.626            72.142               Magadan2          2254.437
       275   04 Jun 2027 03:48:07.158   04 Jun 2027 03:49:28.790            81.632                Anadyr2          2551.000
       276   04 Jun 2027 03:49:37.314   04 Jun 2027 03:51:56.698           139.384                Anadyr2          4355.750
       277   04 Jun 2027 03:52:53.670   04 Jun 2027 03:53:23.542            29.872                Anadyr2           933.500
       278   04 Jun 2027 04:39:24.753   04 Jun 2027 04:39:50.427            25.674            RioGallegos           802.313
       279   04 Jun 2027 05:23:38.721   04 Jun 2027 05:27:46.780           248.059                Irkutsk          7751.844
       280   04 Jun 2027 05:28:29.039   04 Jun 2027 05:29:04.956            35.917               Magadan1          1122.406
       281   04 Jun 2027 05:29:28.379   04 Jun 2027 05:29:39.068            10.689                Novosib           334.031
       282   04 Jun 2027 07:00:01.590   04 Jun 2027 07:00:45.502            43.912               Magadan1          1372.250
       283   04 Jun 2027 07:01:16.134   04 Jun 2027 07:02:03.409            47.275                Novosib          1477.344
       284   04 Jun 2027 07:02:18.989   04 Jun 2027 07:02:31.068            12.079               Magadan2           377.469
       285   04 Jun 2027 07:03:06.499   04 Jun 2027 07:03:27.528            21.029                Irkutsk           657.156
       286   04 Jun 2027 07:03:57.556   04 Jun 2027 07:04:00.226             2.670                Irkutsk            83.438
       287   04 Jun 2027 07:05:12.089   04 Jun 2027 07:05:39.443            27.354                Novosib           854.813
       288   04 Jun 2027 07:41:47.286   04 Jun 2027 07:42:22.626            35.340            RioGallegos          1104.375
       289   04 Jun 2027 08:22:08.908   04 Jun 2027 08:23:07.458            58.550                Sumatra          1829.688
       290   04 Jun 2027 08:37:13.645   04 Jun 2027 08:37:40.745            27.100                Novosib           846.875
       291   04 Jun 2027 08:38:11.170   04 Jun 2027 08:38:23.372            12.202                Novosib           381.312
       292   04 Jun 2027 08:38:25.571   04 Jun 2027 08:38:53.857            28.286                 Moscow           883.938
       293   04 Jun 2027 08:39:13.179   04 Jun 2027 08:39:23.147             9.968                Irkutsk           311.500
       294   04 Jun 2027 08:40:06.064   04 Jun 2027 08:40:30.447            24.383                Irkutsk           761.969
       295   04 Jun 2027 08:41:24.611   04 Jun 2027 08:42:35.070            70.459                Novosib          2201.844
       296   04 Jun 2027 09:59:16.391   04 Jun 2027 10:00:17.762            61.371                  Delhi          1917.844
       297   04 Jun 2027 10:01:41.961   04 Jun 2027 10:02:13.894            31.933                  Delhi           997.906
       298   04 Jun 2027 10:03:51.516   04 Jun 2027 10:04:15.870            24.354                  Delhi           761.062
       299   04 Jun 2027 10:08:36.610   04 Jun 2027 10:09:09.067            32.457                  Delhi          1014.281
       300   04 Jun 2027 10:14:36.867   04 Jun 2027 10:14:42.453             5.586                Novosib           174.562
       301   04 Jun 2027 10:15:25.882   04 Jun 2027 10:15:27.922             2.040                Norilsk            63.750
       302   04 Jun 2027 10:15:37.799   04 Jun 2027 10:15:51.124            13.325                Novosib           416.406
       303   04 Jun 2027 10:16:54.619   04 Jun 2027 10:17:16.413            21.794                Novosib           681.063
       304   04 Jun 2027 11:51:20.339   04 Jun 2027 11:51:23.415             3.076              Murmansk1            96.125
       305   04 Jun 2027 11:51:35.734   04 Jun 2027 11:52:03.594            27.860              Murmansk1           870.625
       306   04 Jun 2027 13:21:21.397   04 Jun 2027 13:21:49.982            28.585                 Moscow           893.281
       307   04 Jun 2027 13:23:28.584   04 Jun 2027 13:23:41.550            12.966                 Moscow           405.188
       308   04 Jun 2027 13:24:38.698   04 Jun 2027 13:25:13.378            34.680                 Moscow          1083.750
       309   04 Jun 2027 13:25:29.038   04 Jun 2027 13:25:44.515            15.477                 Moscow           483.656
       310   04 Jun 2027 13:27:33.252   04 Jun 2027 13:27:49.028            15.776                 Moscow           493.000
       311   04 Jun 2027 13:28:07.204   04 Jun 2027 13:29:13.381            66.177                 Moscow          2068.031
       312   04 Jun 2027 13:30:54.923   04 Jun 2027 13:31:12.920            17.997                 Moscow           562.406
       313   04 Jun 2027 13:32:30.244   04 Jun 2027 13:32:38.696             8.452              Murmansk1           264.125
       314   04 Jun 2027 13:33:04.815   04 Jun 2027 13:33:38.326            33.511              Murmansk1          1047.219
       315   04 Jun 2027 13:35:14.900   04 Jun 2027 13:35:33.650            18.750              Murmansk2           585.938
       316   04 Jun 2027 13:37:36.314   04 Jun 2027 13:39:44.621           128.307                Anadyr2          4009.594
       317   04 Jun 2027 13:40:46.257   04 Jun 2027 13:40:58.371            12.114                Anadyr1           378.563
       318   04 Jun 2027 13:42:10.178   04 Jun 2027 13:43:35.866            85.688                Anadyr1          2677.750
       319   04 Jun 2027 13:46:03.675   04 Jun 2027 13:46:20.783            17.108                Anadyr1           534.625
       320   04 Jun 2027 14:42:37.276   04 Jun 2027 14:43:26.011            48.735               CapeTown          1522.969
       321   04 Jun 2027 15:04:06.899   04 Jun 2027 15:06:53.143           166.244              Murmansk1          5195.125
       322   04 Jun 2027 15:11:02.431   04 Jun 2027 15:11:04.315             1.884              Murmansk2            58.875
       323   04 Jun 2027 15:13:16.245   04 Jun 2027 15:14:41.635            85.390                Anadyr1          2668.437
       324   04 Jun 2027 15:16:10.188   04 Jun 2027 15:16:53.703            43.515                Anadyr2          1359.844
       325   04 Jun 2027 15:17:09.249   04 Jun 2027 15:20:09.005           179.756               Magadan1          5617.375
       326   04 Jun 2027 15:21:27.278   04 Jun 2027 15:23:48.453           141.175               Magadan2          4411.719
       327   04 Jun 2027 16:49:11.461   04 Jun 2027 16:49:39.982            28.521                Anadyr1           891.281
       328   04 Jun 2027 16:50:14.507   04 Jun 2027 16:50:31.168            16.661                Anadyr1           520.656
       329   04 Jun 2027 16:51:30.201   04 Jun 2027 16:53:12.211           102.010               Magadan2          3187.812
       330   04 Jun 2027 16:55:05.767   04 Jun 2027 16:56:53.249           107.482               Magadan1          3358.813
       331   04 Jun 2027 17:45:07.556   04 Jun 2027 17:48:05.371           177.815            RioGallegos          5556.719
       332   04 Jun 2027 17:49:15.465   04 Jun 2027 17:49:42.979            27.514            RioGallegos           859.812
       333   04 Jun 2027 17:51:14.625   04 Jun 2027 17:51:28.921            14.296            RioGallegos           446.750
       334   04 Jun 2027 18:26:13.326   04 Jun 2027 18:26:21.515             8.189                Anadyr2           255.906
       335   04 Jun 2027 18:27:10.385   04 Jun 2027 18:28:30.338            79.953                Norilsk          2498.531
       336   04 Jun 2027 18:28:57.609   04 Jun 2027 18:31:12.765           135.156                Norilsk          4223.625
       337   04 Jun 2027 18:31:58.992   04 Jun 2027 18:32:44.892            45.900                Irkutsk          1434.375
       338   04 Jun 2027 18:33:45.673   04 Jun 2027 18:35:14.086            88.413                Norilsk          2762.906
       339   04 Jun 2027 18:36:43.078   04 Jun 2027 18:37:48.645            65.567                Irkutsk          2048.969
       340   04 Jun 2027 18:46:43.289   04 Jun 2027 18:49:24.927           161.638                Sumatra          5051.188
       341   04 Jun 2027 18:51:00.670   04 Jun 2027 18:53:24.339           143.669                Sumatra          4489.656
       342   04 Jun 2027 20:07:27.582   04 Jun 2027 20:07:44.824            17.242                Novosib           538.812
       343   04 Jun 2027 20:08:36.747   04 Jun 2027 20:10:24.052           107.305                Novosib          3353.281
       344   04 Jun 2027 20:17:02.036   04 Jun 2027 20:19:16.779           134.743                  Delhi          4210.719
       345   04 Jun 2027 20:22:56.217   04 Jun 2027 20:23:38.224            42.007                  Delhi          1312.719
       346   04 Jun 2027 21:41:49.479   04 Jun 2027 21:45:41.089           231.610              Murmansk1          7237.813
       347   04 Jun 2027 21:46:13.684   04 Jun 2027 21:47:31.539            77.855              Murmansk1          2432.969
       348   04 Jun 2027 23:12:44.234   04 Jun 2027 23:12:50.113             5.879                Anadyr1           183.719
       349   04 Jun 2027 23:13:04.802   04 Jun 2027 23:13:16.341            11.539                Anadyr1           360.594
       350   04 Jun 2027 23:13:30.811   04 Jun 2027 23:15:22.688           111.877               Magadan1          3496.156
       351   04 Jun 2027 23:17:06.894   04 Jun 2027 23:19:09.936           123.042              Murmansk2          3845.062
       352   04 Jun 2027 23:20:33.714   04 Jun 2027 23:21:13.862            40.148              Murmansk2          1254.625
       353   04 Jun 2027 23:21:23.152   04 Jun 2027 23:22:32.816            69.664              Murmansk1          2177.000
       354   04 Jun 2027 23:22:33.890   04 Jun 2027 23:23:57.377            83.487                 Moscow          2608.969
       355   04 Jun 2027 23:25:45.216   04 Jun 2027 23:26:43.204            57.988                 Moscow          1812.125
       356   04 Jun 2027 23:46:41.262   04 Jun 2027 23:48:28.499           107.237               CapeTown          3351.156
       357   04 Jun 2027 23:50:59.560   04 Jun 2027 23:52:57.224           117.664               CapeTown          3677.000
       358   04 Jun 2027 23:53:46.094   04 Jun 2027 23:54:18.953            32.859               CapeTown          1026.844
       359   05 Jun 2027 00:53:02.341   05 Jun 2027 00:54:20.845            78.504              Murmansk2          2453.250
       360   05 Jun 2027 00:54:29.523   05 Jun 2027 00:54:32.489             2.966              Murmansk1            92.688
       361   05 Jun 2027 00:56:15.010   05 Jun 2027 00:57:04.055            49.045                 Moscow          1532.656
       362   05 Jun 2027 01:05:06.433   05 Jun 2027 01:05:10.573             4.140                 Moscow           129.375
       363   05 Jun 2027 01:06:39.844   05 Jun 2027 01:07:17.976            38.132                 Moscow          1191.625
       364   05 Jun 2027 01:21:07.816   05 Jun 2027 01:22:17.386            69.570               CapeTown          2174.062
       365   05 Jun 2027 02:16:55.736   05 Jun 2027 02:18:03.718            67.982                Anadyr2          2124.437
       366   05 Jun 2027 02:18:04.055   05 Jun 2027 02:19:34.022            89.967               Magadan1          2811.469
       367   05 Jun 2027 02:20:13.987   05 Jun 2027 02:20:59.361            45.374               Magadan2          1417.938
       368   05 Jun 2027 02:27:25.810   05 Jun 2027 02:27:30.768             4.958                Norilsk           154.938
       369   05 Jun 2027 02:28:58.796   05 Jun 2027 02:30:11.391            72.595              Murmansk1          2268.594
       370   05 Jun 2027 02:31:15.479   05 Jun 2027 02:31:54.972            39.493              Murmansk1          1234.156
       371   05 Jun 2027 02:32:25.086   05 Jun 2027 02:32:41.832            16.746                 Moscow           523.313
       372   05 Jun 2027 02:32:50.182   05 Jun 2027 02:33:32.206            42.024                 Moscow          1313.250
       373   05 Jun 2027 02:39:42.806   05 Jun 2027 02:39:49.580             6.774                 Moscow           211.688
       374   05 Jun 2027 02:41:01.868   05 Jun 2027 02:41:34.281            32.413                 Moscow          1012.906
       375   05 Jun 2027 03:00:49.531   05 Jun 2027 03:02:06.974            77.443               CapeTown          2420.094
       376   05 Jun 2027 03:59:31.775   05 Jun 2027 04:03:04.271           212.496                Anadyr1          6640.500
       377   05 Jun 2027 04:42:54.594   05 Jun 2027 04:45:17.023           142.429            RioGallegos          4450.906
       378   05 Jun 2027 04:48:16.010   05 Jun 2027 04:48:45.712            29.702            RioGallegos           928.187
       379   05 Jun 2027 05:36:05.130   05 Jun 2027 05:39:24.266           199.136                Irkutsk          6223.000
       380   05 Jun 2027 05:39:39.292   05 Jun 2027 05:41:00.714            81.422               Magadan1          2544.437
       381   05 Jun 2027 07:12:06.162   05 Jun 2027 07:12:29.569            23.407                Norilsk           731.469
       382   05 Jun 2027 07:12:54.856   05 Jun 2027 07:13:25.473            30.617                Irkutsk           956.781
       383   05 Jun 2027 07:13:37.232   05 Jun 2027 07:13:50.083            12.851                Irkutsk           401.594
       384   05 Jun 2027 07:14:16.284   05 Jun 2027 07:15:24.334            68.050              Murmansk1          2126.562
       385   05 Jun 2027 07:16:13.620   05 Jun 2027 07:17:01.409            47.789                Novosib          1493.406
       386   05 Jun 2027 07:54:44.256   05 Jun 2027 07:55:12.105            27.849            RioGallegos           870.281
       387   05 Jun 2027 08:29:28.406   05 Jun 2027 08:30:51.736            83.330                Sumatra          2604.063
       388   05 Jun 2027 08:49:19.425   05 Jun 2027 08:49:24.954             5.529                Novosib           172.781
       389   05 Jun 2027 08:49:30.539   05 Jun 2027 08:50:15.978            45.439              Murmansk1          1419.969
       390   05 Jun 2027 08:52:07.084   05 Jun 2027 08:52:10.090             3.006                Norilsk            93.937
       391   05 Jun 2027 10:11:39.900   05 Jun 2027 10:15:10.127           210.227                  Delhi          6569.594
       392   05 Jun 2027 10:32:49.323   05 Jun 2027 10:33:08.937            19.614                Norilsk           612.937
       393   05 Jun 2027 12:02:40.870   05 Jun 2027 12:02:56.915            16.045                 Moscow           501.406
       394   05 Jun 2027 12:03:19.356   05 Jun 2027 12:03:57.541            38.185                 Moscow          1193.281
       395   05 Jun 2027 12:04:23.741   05 Jun 2027 12:05:00.146            36.405                 Moscow          1137.656
       396   05 Jun 2027 12:07:16.957   05 Jun 2027 12:08:09.211            52.254                Norilsk          1632.938
       397   05 Jun 2027 12:08:22.970   05 Jun 2027 12:08:24.189             1.219                Norilsk            38.094
       398   05 Jun 2027 12:15:52.361   05 Jun 2027 12:18:30.867           158.506                Anadyr1          4953.313
       399   05 Jun 2027 13:39:19.290   05 Jun 2027 13:39:55.781            36.491              Murmansk1          1140.344
       400   05 Jun 2027 13:44:17.501   05 Jun 2027 13:44:47.459            29.958              Murmansk1           936.188
       401   05 Jun 2027 13:46:44.539   05 Jun 2027 13:47:16.963            32.424              Murmansk2          1013.250
       402   05 Jun 2027 13:49:33.436   05 Jun 2027 13:51:20.137           106.701                Anadyr1          3334.406
       403   05 Jun 2027 13:51:20.137   05 Jun 2027 13:52:19.352            59.215                Anadyr2          1850.469
       404   05 Jun 2027 13:56:16.948   05 Jun 2027 13:57:36.690            79.742                Anadyr1          2491.937
       405   05 Jun 2027 15:16:54.639   05 Jun 2027 15:18:55.041           120.402              Murmansk2          3762.562
       406   05 Jun 2027 15:18:55.041   05 Jun 2027 15:19:07.373            12.332              Murmansk1           385.375
       407   05 Jun 2027 15:20:50.673   05 Jun 2027 15:20:59.337             8.664              Murmansk1           270.750
       408   05 Jun 2027 15:20:59.337   05 Jun 2027 15:21:10.619            11.282              Murmansk2           352.563
       409   05 Jun 2027 15:22:43.015   05 Jun 2027 15:22:55.266            12.251              Murmansk1           382.844
       410   05 Jun 2027 15:25:17.231   05 Jun 2027 15:27:37.756           140.525                Anadyr2          4391.406
       411   05 Jun 2027 15:28:09.051   05 Jun 2027 15:31:31.729           202.678               Magadan2          6333.688
       412   05 Jun 2027 15:31:54.894   05 Jun 2027 15:33:50.463           115.569               Magadan1          3611.531
       413   05 Jun 2027 15:33:52.674   05 Jun 2027 15:35:00.608            67.934               Magadan1          2122.938
       414   05 Jun 2027 17:03:30.166   05 Jun 2027 17:04:26.705            56.539               Magadan2          1766.844
       415   05 Jun 2027 17:06:39.505   05 Jun 2027 17:06:48.077             8.572               Magadan1           267.875
       416   05 Jun 2027 17:07:08.361   05 Jun 2027 17:08:58.342           109.981               Magadan1          3436.906
       417   05 Jun 2027 17:56:33.637   05 Jun 2027 17:59:53.111           199.474            RioGallegos          6233.562
       418   05 Jun 2027 18:39:08.267   05 Jun 2027 18:41:10.419           122.152                Norilsk          3817.250
       419   05 Jun 2027 18:41:45.758   05 Jun 2027 18:43:20.617            94.859                Norilsk          2964.344
       420   05 Jun 2027 18:43:43.280   05 Jun 2027 18:44:37.927            54.647                Irkutsk          1707.719
       421   05 Jun 2027 18:45:03.090   05 Jun 2027 18:46:32.358            89.268                Irkutsk          2789.625
       422   05 Jun 2027 18:47:22.773   05 Jun 2027 18:48:24.606            61.833                Irkutsk          1932.281
       423   05 Jun 2027 18:58:57.997   05 Jun 2027 19:01:09.329           131.332                Sumatra          4104.125
       424   05 Jun 2027 19:02:39.314   05 Jun 2027 19:04:01.996            82.682                Sumatra          2583.812
       425   05 Jun 2027 20:19:18.459   05 Jun 2027 20:22:27.027           188.568                Novosib          5892.750
       426   05 Jun 2027 20:28:07.868   05 Jun 2027 20:30:58.736           170.868                  Delhi          5339.625
       427   05 Jun 2027 20:34:52.577   05 Jun 2027 20:36:44.358           111.781                  Delhi          3493.156
       428   05 Jun 2027 21:53:39.262   05 Jun 2027 21:57:38.178           238.916              Murmansk2          7466.125
       429   05 Jun 2027 21:58:35.626   05 Jun 2027 21:59:36.437            60.811              Murmansk1          1900.344
       430   05 Jun 2027 23:25:45.213   05 Jun 2027 23:25:57.015            11.802               Magadan2           368.813
       431   05 Jun 2027 23:26:58.392   05 Jun 2027 23:28:07.589            69.197               Magadan1          2162.406
       432   05 Jun 2027 23:29:07.433   05 Jun 2027 23:31:11.852           124.419              Murmansk2          3888.094
       433   05 Jun 2027 23:31:11.852   05 Jun 2027 23:32:46.825            94.973              Murmansk1          2967.906
       434   05 Jun 2027 23:33:51.789   05 Jun 2027 23:34:12.849            21.060                 Moscow           658.125
       435   05 Jun 2027 23:34:41.807   05 Jun 2027 23:35:20.463            38.656                 Moscow          1208.000
       436   05 Jun 2027 23:38:28.809   05 Jun 2027 23:39:13.333            44.524                 Moscow          1391.375
       437   05 Jun 2027 23:40:34.430   05 Jun 2027 23:40:44.177             9.747                 Moscow           304.594
       438   05 Jun 2027 23:41:16.532   05 Jun 2027 23:42:24.361            67.829                 Moscow          2119.656
       439   05 Jun 2027 23:58:01.826   05 Jun 2027 23:58:27.424            25.598               CapeTown           799.938
       440   05 Jun 2027 23:59:18.068   06 Jun 2027 00:00:09.421            51.353               CapeTown          1604.781
       441   06 Jun 2027 00:03:31.944   06 Jun 2027 00:04:55.831            83.887               CapeTown          2621.469
       442   06 Jun 2027 01:05:04.021   06 Jun 2027 01:06:24.331            80.310              Murmansk2          2509.687
       443   06 Jun 2027 01:07:51.240   06 Jun 2027 01:08:16.634            25.394                Novosib           793.563
       444   06 Jun 2027 01:08:40.660   06 Jun 2027 01:08:55.943            15.283                 Moscow           477.594
       445   06 Jun 2027 01:09:47.409   06 Jun 2027 01:10:47.225            59.816                 Moscow          1869.250
       446   06 Jun 2027 01:32:15.453   06 Jun 2027 01:33:58.632           103.179               CapeTown          3224.344
       447   06 Jun 2027 02:29:02.077   06 Jun 2027 02:30:16.503            74.426                Anadyr2          2325.813
       448   06 Jun 2027 02:30:31.829   06 Jun 2027 02:31:50.357            78.528               Magadan2          2454.000
       449   06 Jun 2027 02:31:50.357   06 Jun 2027 02:32:19.054            28.697               Magadan1           896.781
       450   06 Jun 2027 02:37:18.570   06 Jun 2027 02:37:33.917            15.347               Magadan1           479.594
       451   06 Jun 2027 02:37:50.490   06 Jun 2027 02:38:21.143            30.653                Norilsk           957.906
       452   06 Jun 2027 02:40:59.504   06 Jun 2027 02:41:33.644            34.140              Murmansk2          1066.875
       453   06 Jun 2027 02:41:33.644   06 Jun 2027 02:42:20.396            46.752              Murmansk1          1461.000
       454   06 Jun 2027 02:43:39.904   06 Jun 2027 02:44:04.855            24.951              Murmansk2           779.719
       455   06 Jun 2027 02:44:30.440   06 Jun 2027 02:44:50.108            19.668                 Moscow           614.625
       456   06 Jun 2027 02:47:05.940   06 Jun 2027 02:47:21.534            15.594                 Moscow           487.312
       457   06 Jun 2027 02:50:31.942   06 Jun 2027 02:51:03.428            31.486                 Moscow           983.938
       458   06 Jun 2027 04:11:37.191   06 Jun 2027 04:11:56.775            19.584                Anadyr2           612.000
       459   06 Jun 2027 04:11:56.775   06 Jun 2027 04:13:04.291            67.516                Anadyr1          2109.875
       460   06 Jun 2027 04:13:06.396   06 Jun 2027 04:13:56.353            49.957               Magadan2          1561.156
       461   06 Jun 2027 04:14:10.967   06 Jun 2027 04:16:44.656           153.689               Magadan2          4802.781
       462   06 Jun 2027 04:16:56.734   06 Jun 2027 04:17:23.827            27.093                Anadyr1           846.656
       463   06 Jun 2027 04:54:22.070   06 Jun 2027 04:57:18.204           176.134            RioGallegos          5504.188
       464   06 Jun 2027 05:47:49.235   06 Jun 2027 05:48:26.877            37.642                Irkutsk          1176.312
       465   06 Jun 2027 05:48:46.811   06 Jun 2027 05:49:03.757            16.946                Irkutsk           529.562
       466   06 Jun 2027 05:49:23.791   06 Jun 2027 05:49:38.362            14.571                Irkutsk           455.344
       467   06 Jun 2027 05:50:38.080   06 Jun 2027 05:52:55.000           136.920               Magadan1          4278.750
       468   06 Jun 2027 07:25:22.495   06 Jun 2027 07:26:13.014            50.519                Novosib          1578.719
       469   06 Jun 2027 07:27:59.626   06 Jun 2027 07:28:12.720            13.094                Novosib           409.188
       470   06 Jun 2027 07:29:04.318   06 Jun 2027 07:29:48.760            44.442                Novosib          1388.812
       471   06 Jun 2027 08:05:07.533   06 Jun 2027 08:06:01.783            54.250            RioGallegos          1695.312
       472   06 Jun 2027 08:39:14.024   06 Jun 2027 08:40:06.532            52.508                Sumatra          1640.875
       473   06 Jun 2027 09:01:09.054   06 Jun 2027 09:01:20.040            10.986                Irkutsk           343.312
       474   06 Jun 2027 09:01:20.704   06 Jun 2027 09:02:03.388            42.684              Murmansk1          1333.875
       475   06 Jun 2027 09:05:11.195   06 Jun 2027 09:05:28.748            17.553                Novosib           548.531
       476   06 Jun 2027 10:24:11.985   06 Jun 2027 10:26:43.843           151.858                  Delhi          4745.562
       477   06 Jun 2027 10:38:07.906   06 Jun 2027 10:38:49.181            41.275              Murmansk1          1289.844
       478   06 Jun 2027 10:39:50.705   06 Jun 2027 10:40:23.254            32.549                Novosib          1017.156
       479   06 Jun 2027 10:41:22.486   06 Jun 2027 10:41:51.956            29.470                Norilsk           920.937
       480   06 Jun 2027 12:12:37.468   06 Jun 2027 12:13:36.057            58.589              Murmansk1          1830.906
       481   06 Jun 2027 12:13:59.360   06 Jun 2027 12:15:49.036           109.676              Murmansk2          3427.375
       482   06 Jun 2027 12:17:59.429   06 Jun 2027 12:19:17.055            77.626                Norilsk          2425.813
