uniorb/output/strategy_4/Drop/Drop_KinoSat_110702.txt

KinoSat_110702
-------------------------
    Access    *     Start Time (UTCG)     *     Stop Time (UTCG)  *   Duration (s)        *       Station  *  Data (Mbytes)
         1   01 Jun 2027 04:10:23.040   01 Jun 2027 04:13:21.893           178.853                Anadyr1          5589.156
         2   01 Jun 2027 04:13:31.568   01 Jun 2027 04:14:53.444            81.876               Magadan2          2558.625
         3   01 Jun 2027 05:45:15.502   01 Jun 2027 05:45:40.724            25.222                Irkutsk           788.187
         4   01 Jun 2027 05:46:09.922   01 Jun 2027 05:47:19.736            69.814               Magadan1          2181.687
         5   01 Jun 2027 05:47:29.728   01 Jun 2027 05:47:38.634             8.906                Novosib           278.312
         6   01 Jun 2027 05:47:46.847   01 Jun 2027 05:49:30.861           104.014               Magadan1          3250.438
         7   01 Jun 2027 05:49:39.095   01 Jun 2027 05:50:23.507            44.412               Magadan2          1387.875
         8   01 Jun 2027 05:50:43.853   01 Jun 2027 05:50:53.210             9.357                Novosib           292.406
         9   01 Jun 2027 06:25:21.413   01 Jun 2027 06:27:33.799           132.386            RioGallegos          4137.063
        10   01 Jun 2027 06:27:49.948   01 Jun 2027 06:28:32.990            43.042            RioGallegos          1345.063
        11   01 Jun 2027 07:01:20.819   01 Jun 2027 07:02:13.707            52.888                Sumatra          1652.750
        12   01 Jun 2027 07:02:24.146   01 Jun 2027 07:02:30.723             6.577                Sumatra           205.531
        13   01 Jun 2027 07:07:32.271   01 Jun 2027 07:08:26.539            54.268                Sumatra          1695.875
        14   01 Jun 2027 07:22:08.622   01 Jun 2027 07:22:13.162             4.540                Novosib           141.875
        15   01 Jun 2027 07:22:31.324   01 Jun 2027 07:22:41.154             9.830                Norilsk           307.187
        16   01 Jun 2027 07:22:49.137   01 Jun 2027 07:24:27.515            98.378                Novosib          3074.313
        17   01 Jun 2027 07:24:39.211   01 Jun 2027 07:24:44.823             5.612                Novosib           175.375
        18   01 Jun 2027 07:24:45.387   01 Jun 2027 07:26:03.897            78.510              Murmansk2          2453.438
        19   01 Jun 2027 07:26:09.793   01 Jun 2027 07:28:11.523           121.730                Norilsk          3804.063
        20   01 Jun 2027 07:28:38.571   01 Jun 2027 07:30:46.145           127.574              Murmansk1          3986.687
        21   01 Jun 2027 07:30:46.145   01 Jun 2027 07:31:03.934            17.789              Murmansk2           555.906
        22   01 Jun 2027 08:02:22.104   01 Jun 2027 08:02:33.806            11.702            RioGallegos           365.687
        23   01 Jun 2027 08:03:26.944   01 Jun 2027 08:04:06.272            39.328            RioGallegos          1229.000
        24   01 Jun 2027 08:05:48.570   01 Jun 2027 08:05:57.680             9.110            RioGallegos           284.687
        25   01 Jun 2027 08:06:11.531   01 Jun 2027 08:07:04.536            53.005            RioGallegos          1656.406
        26   01 Jun 2027 08:36:36.534   01 Jun 2027 08:37:35.291            58.757                Sumatra          1836.156
        27   01 Jun 2027 08:40:03.595   01 Jun 2027 08:41:09.384            65.789                Sumatra          2055.906
        28   01 Jun 2027 08:44:47.718   01 Jun 2027 08:46:32.802           105.084                  Delhi          3283.875
        29   01 Jun 2027 08:47:22.030   01 Jun 2027 08:48:40.297            78.267                  Delhi          2445.844
        30   01 Jun 2027 09:00:44.165   01 Jun 2027 09:01:36.084            51.919                Irkutsk          1622.469
        31   01 Jun 2027 09:01:49.634   01 Jun 2027 09:02:40.417            50.783                Norilsk          1586.969
        32   01 Jun 2027 09:02:53.936   01 Jun 2027 09:04:02.265            68.329                Novosib          2135.281
        33   01 Jun 2027 09:04:40.260   01 Jun 2027 09:05:04.940            24.680                 Moscow           771.250
        34   01 Jun 2027 10:21:31.636   01 Jun 2027 10:24:15.748           164.112                  Delhi          5128.500
        35   01 Jun 2027 10:25:59.961   01 Jun 2027 10:26:03.965             4.004                  Delhi           125.125
        36   01 Jun 2027 10:35:21.457   01 Jun 2027 10:36:21.974            60.517                 Moscow          1891.156
        37   01 Jun 2027 10:37:10.429   01 Jun 2027 10:37:36.054            25.625                Norilsk           800.781
        38   01 Jun 2027 10:37:45.640   01 Jun 2027 10:39:51.821           126.181              Murmansk2          3943.156
        39   01 Jun 2027 10:40:08.897   01 Jun 2027 10:40:33.835            24.938              Murmansk2           779.313
        40   01 Jun 2027 12:05:15.147   01 Jun 2027 12:07:46.596           151.449                 Moscow          4732.781
        41   01 Jun 2027 12:09:22.444   01 Jun 2027 12:10:05.071            42.627              Murmansk1          1332.094
        42   01 Jun 2027 12:10:30.784   01 Jun 2027 12:10:45.572            14.788              Murmansk1           462.125
        43   01 Jun 2027 12:10:55.722   01 Jun 2027 12:11:31.100            35.378              Murmansk1          1105.562
        44   01 Jun 2027 12:11:50.337   01 Jun 2027 12:13:13.230            82.893              Murmansk2          2590.406
        45   01 Jun 2027 12:13:42.798   01 Jun 2027 12:14:22.538            39.740              Murmansk1          1241.875
        46   01 Jun 2027 12:16:43.977   01 Jun 2027 12:16:52.088             8.111                Norilsk           253.469
        47   01 Jun 2027 12:16:56.527   01 Jun 2027 12:17:33.001            36.474                Norilsk          1139.813
        48   01 Jun 2027 12:24:30.116   01 Jun 2027 12:27:49.794           199.678                Anadyr1          6239.937
        49   01 Jun 2027 12:28:24.679   01 Jun 2027 12:29:07.372            42.693                Anadyr2          1334.156
        50   01 Jun 2027 13:21:06.805   01 Jun 2027 13:21:35.543            28.738               CapeTown           898.062
        51   01 Jun 2027 13:48:39.660   01 Jun 2027 13:49:04.048            24.388              Murmansk2           762.125
        52   01 Jun 2027 13:50:49.643   01 Jun 2027 13:51:24.742            35.099              Murmansk2          1096.844
        53   01 Jun 2027 13:58:58.977   01 Jun 2027 14:02:15.400           196.423                Anadyr2          6138.219
        54   01 Jun 2027 14:02:45.615   01 Jun 2027 14:03:10.203            24.588                Anadyr2           768.375
        55   01 Jun 2027 15:27:04.407   01 Jun 2027 15:28:22.896            78.489              Murmansk2          2452.781
        56   01 Jun 2027 15:28:31.380   01 Jun 2027 15:28:43.022            11.642              Murmansk1           363.812
        57   01 Jun 2027 15:34:45.295   01 Jun 2027 15:37:01.591           136.296                Anadyr1          4259.250
        58   01 Jun 2027 15:37:30.126   01 Jun 2027 15:40:18.326           168.200               Magadan2          5256.250
        59   01 Jun 2027 15:40:31.162   01 Jun 2027 15:41:29.828            58.666               Magadan1          1833.313
        60   01 Jun 2027 15:45:37.631   01 Jun 2027 15:46:54.088            76.457               Magadan2          2389.281
        61   01 Jun 2027 17:10:40.547   01 Jun 2027 17:12:00.647            80.100                Anadyr2          2503.125
        62   01 Jun 2027 17:12:57.642   01 Jun 2027 17:14:27.833            90.191               Magadan1          2818.469
        63   01 Jun 2027 17:21:20.155   01 Jun 2027 17:21:41.580            21.425               Magadan2           669.531
        64   01 Jun 2027 17:22:24.731   01 Jun 2027 17:22:32.755             8.024               Magadan1           250.750
        65   01 Jun 2027 17:24:28.083   01 Jun 2027 17:25:32.284            64.201               Magadan2          2006.281
        66   01 Jun 2027 18:05:41.786   01 Jun 2027 18:06:19.239            37.453            RioGallegos          1170.406
        67   01 Jun 2027 18:06:56.469   01 Jun 2027 18:10:16.630           200.161            RioGallegos          6255.031
        68   01 Jun 2027 18:10:40.248   01 Jun 2027 18:12:19.357            99.109            RioGallegos          3097.156
        69   01 Jun 2027 18:48:34.467   01 Jun 2027 18:49:16.592            42.125                Norilsk          1316.406
        70   01 Jun 2027 18:50:17.209   01 Jun 2027 18:52:48.324           151.115                Norilsk          4722.344
        71   01 Jun 2027 18:54:38.591   01 Jun 2027 18:56:00.942            82.351                Irkutsk          2573.469
        72   01 Jun 2027 19:03:22.284   01 Jun 2027 19:03:44.360            22.076                Irkutsk           689.875
        73   01 Jun 2027 19:07:06.512   01 Jun 2027 19:10:25.436           198.924                Sumatra          6216.375
        74   01 Jun 2027 19:12:19.173   01 Jun 2027 19:13:56.731            97.558                Sumatra          3048.687
        75   01 Jun 2027 20:30:09.194   01 Jun 2027 20:30:38.250            29.056                Novosib           908.000
        76   01 Jun 2027 20:36:30.867   01 Jun 2027 20:36:40.568             9.701                Novosib           303.156
        77   01 Jun 2027 20:36:59.510   01 Jun 2027 20:38:10.075            70.565                Novosib          2205.156
        78   01 Jun 2027 20:39:25.364   01 Jun 2027 20:40:15.457            50.093                  Delhi          1565.406
        79   01 Jun 2027 20:42:08.471   01 Jun 2027 20:44:19.337           130.866                  Delhi          4089.562
        80   01 Jun 2027 22:03:00.827   01 Jun 2027 22:08:48.864           348.037              Murmansk2         10876.156
        81   01 Jun 2027 23:34:05.640   01 Jun 2027 23:35:09.884            64.244               Magadan1          2007.625
        82   01 Jun 2027 23:35:13.294   01 Jun 2027 23:36:00.000            46.705               Magadan1          1459.531
        83   01 Jun 2027 23:38:35.256   01 Jun 2027 23:40:16.172           100.916              Murmansk1          3153.625
        84   01 Jun 2027 23:40:16.172   01 Jun 2027 23:41:48.792            92.620              Murmansk2          2894.375
        85   01 Jun 2027 23:42:06.347   01 Jun 2027 23:42:33.213            26.866                 Moscow           839.563
        86   01 Jun 2027 23:43:09.292   01 Jun 2027 23:44:00.090            50.798                 Moscow          1587.438
        87   01 Jun 2027 23:44:51.724   01 Jun 2027 23:45:10.008            18.284              Murmansk1           571.375
        88   01 Jun 2027 23:45:28.438   01 Jun 2027 23:46:10.724            42.286                 Moscow          1321.438
        89   01 Jun 2027 23:50:14.615   01 Jun 2027 23:50:50.564            35.949                 Moscow          1123.406
        90   02 Jun 2027 00:07:03.597   02 Jun 2027 00:09:50.664           167.067               CapeTown          5220.844
        91   02 Jun 2027 00:12:40.074   02 Jun 2027 00:13:53.172            73.098               CapeTown          2284.313
        92   02 Jun 2027 01:12:13.231   02 Jun 2027 01:12:15.782             2.551               Magadan2            79.719
        93   02 Jun 2027 01:13:30.056   02 Jun 2027 01:13:39.606             9.550               Magadan1           298.437
        94   02 Jun 2027 01:14:32.498   02 Jun 2027 01:15:50.394            77.896              Murmansk2          2434.250
        95   02 Jun 2027 01:17:33.474   02 Jun 2027 01:18:10.705            37.231                Novosib          1163.469
        96   02 Jun 2027 01:19:01.323   02 Jun 2027 01:21:00.301           118.978                 Moscow          3718.063
        97   02 Jun 2027 01:41:51.696   02 Jun 2027 01:43:14.672            82.976               CapeTown          2593.000
        98   02 Jun 2027 02:38:35.774   02 Jun 2027 02:39:42.253            66.479                Anadyr2          2077.469
        99   02 Jun 2027 02:39:57.986   02 Jun 2027 02:41:43.746           105.760               Magadan1          3305.000
       100   02 Jun 2027 02:42:28.900   02 Jun 2027 02:42:34.071             5.171               Magadan2           161.594
       101   02 Jun 2027 02:44:08.598   02 Jun 2027 02:44:25.241            16.643               Magadan2           520.094
       102   02 Jun 2027 02:46:38.189   02 Jun 2027 02:46:55.867            17.678                Norilsk           552.438
       103   02 Jun 2027 02:47:19.582   02 Jun 2027 02:47:48.182            28.600                Norilsk           893.750
       104   02 Jun 2027 02:50:27.062   02 Jun 2027 02:51:05.386            38.324              Murmansk2          1197.625
       105   02 Jun 2027 02:51:05.386   02 Jun 2027 02:51:39.413            34.027              Murmansk1          1063.344
       106   02 Jun 2027 02:54:02.257   02 Jun 2027 02:55:04.828            62.571                 Moscow          1955.344
       107   02 Jun 2027 02:57:10.060   02 Jun 2027 02:57:42.063            32.003                 Moscow          1000.094
       108   02 Jun 2027 04:21:13.210   02 Jun 2027 04:22:50.918            97.708                Irkutsk          3053.375
       109   02 Jun 2027 04:23:43.475   02 Jun 2027 04:23:55.130            11.655               Magadan2           364.219
       110   02 Jun 2027 04:24:06.044   02 Jun 2027 04:25:27.830            81.786               Magadan1          2555.812
       111   02 Jun 2027 04:25:44.554   02 Jun 2027 04:25:57.072            12.518               Magadan2           391.188
       112   02 Jun 2027 04:26:10.180   02 Jun 2027 04:26:53.951            43.771               Magadan2          1367.844
       113   02 Jun 2027 05:03:26.301   02 Jun 2027 05:06:31.039           184.738            RioGallegos          5773.063
       114   02 Jun 2027 05:58:08.955   02 Jun 2027 05:58:19.488            10.533               Magadan2           329.156
       115   02 Jun 2027 05:58:22.945   02 Jun 2027 05:58:51.984            29.039               Magadan1           907.469
       116   02 Jun 2027 05:58:51.984   02 Jun 2027 06:00:04.295            72.311               Magadan2          2259.719
       117   02 Jun 2027 06:00:09.815   02 Jun 2027 06:01:31.012            81.197               Magadan2          2537.406
       118   02 Jun 2027 06:02:01.667   02 Jun 2027 06:02:11.465             9.798               Magadan2           306.187
       119   02 Jun 2027 06:02:39.826   02 Jun 2027 06:02:55.834            16.008                Novosib           500.250
       120   02 Jun 2027 07:14:16.787   02 Jun 2027 07:16:31.063           134.276                Sumatra          4196.125
       121   02 Jun 2027 07:33:01.401   02 Jun 2027 07:33:34.652            33.251                Novosib          1039.094
       122   02 Jun 2027 07:35:26.973   02 Jun 2027 07:36:51.763            84.790                Irkutsk          2649.687
       123   02 Jun 2027 07:36:53.718   02 Jun 2027 07:37:05.119            11.401                Novosib           356.281
       124   02 Jun 2027 07:38:15.605   02 Jun 2027 07:38:35.196            19.591                Irkutsk           612.219
       125   02 Jun 2027 07:39:16.479   02 Jun 2027 07:40:05.924            49.445                Novosib          1545.156
       126   02 Jun 2027 08:14:50.805   02 Jun 2027 08:16:23.119            92.314            RioGallegos          2884.813
       127   02 Jun 2027 08:16:30.273   02 Jun 2027 08:17:10.913            40.640            RioGallegos          1270.000
       128   02 Jun 2027 08:18:24.825   02 Jun 2027 08:19:17.724            52.899            RioGallegos          1653.094
       129   02 Jun 2027 08:49:02.373   02 Jun 2027 08:49:29.288            26.915                Sumatra           841.094
       130   02 Jun 2027 08:50:19.259   02 Jun 2027 08:51:13.875            54.616                Sumatra          1706.750
       131   02 Jun 2027 08:52:35.442   02 Jun 2027 08:53:43.915            68.473                Sumatra          2139.781
       132   02 Jun 2027 09:13:02.413   02 Jun 2027 09:13:18.143            15.730                Irkutsk           491.562
       133   02 Jun 2027 09:13:33.863   02 Jun 2027 09:14:04.083            30.220                Norilsk           944.375
       134   02 Jun 2027 09:14:17.317   02 Jun 2027 09:14:22.743             5.426                Norilsk           169.563
       135   02 Jun 2027 10:34:12.393   02 Jun 2027 10:38:15.372           242.979                  Delhi          7593.094
       136   02 Jun 2027 10:47:12.554   02 Jun 2027 10:47:15.438             2.884                Novosib            90.125
       137   02 Jun 2027 10:49:19.633   02 Jun 2027 10:50:22.246            62.613                Novosib          1956.656
       138   02 Jun 2027 10:54:00.656   02 Jun 2027 10:54:28.744            28.088                Norilsk           877.750
       139   02 Jun 2027 12:20:33.525   02 Jun 2027 12:21:29.499            55.974              Murmansk1          1749.187
       140   02 Jun 2027 12:22:02.553   02 Jun 2027 12:25:30.236           207.683              Murmansk2          6490.094
       141   02 Jun 2027 12:28:43.275   02 Jun 2027 12:28:56.536            13.261              Murmansk2           414.406
       142   02 Jun 2027 12:29:43.846   02 Jun 2027 12:30:27.190            43.344              Murmansk1          1354.500
       143   02 Jun 2027 12:36:04.708   02 Jun 2027 12:39:41.969           217.261                Anadyr2          6789.406
       144   02 Jun 2027 12:40:45.462   02 Jun 2027 12:42:11.697            86.235                Anadyr1          2694.844
       145   02 Jun 2027 13:58:45.619   02 Jun 2027 13:59:27.191            41.572              Murmansk1          1299.125
       146   02 Jun 2027 14:00:49.132   02 Jun 2027 14:01:04.599            15.467              Murmansk1           483.344
       147   02 Jun 2027 14:05:20.747   02 Jun 2027 14:06:25.024            64.277              Murmansk2          2008.656
       148   02 Jun 2027 14:10:57.604   02 Jun 2027 14:14:16.329           198.725                Anadyr2          6210.156
       149   02 Jun 2027 15:40:08.324   02 Jun 2027 15:42:07.532           119.208              Murmansk1          3725.250
       150   02 Jun 2027 15:46:46.523   02 Jun 2027 15:48:08.122            81.599                Anadyr1          2549.969
       151   02 Jun 2027 15:48:26.411   02 Jun 2027 15:48:55.806            29.395                Anadyr2           918.594
       152   02 Jun 2027 15:49:24.167   02 Jun 2027 15:53:27.692           243.525               Magadan2          7610.156
       153   02 Jun 2027 15:54:56.312   02 Jun 2027 15:55:06.868            10.556               Magadan2           329.875
       154   02 Jun 2027 15:57:20.913   02 Jun 2027 15:57:30.457             9.544               Magadan1           298.250
       155   02 Jun 2027 15:57:45.965   02 Jun 2027 15:58:33.733            47.768               Magadan1          1492.750
       156   02 Jun 2027 17:22:41.379   02 Jun 2027 17:23:03.964            22.585                Anadyr2           705.781
       157   02 Jun 2027 17:23:22.896   02 Jun 2027 17:24:01.776            38.880                Anadyr2          1215.000
       158   02 Jun 2027 17:24:58.419   02 Jun 2027 17:26:25.663            87.244               Magadan1          2726.375
       159   02 Jun 2027 17:27:52.187   02 Jun 2027 17:28:39.736            47.549               Magadan2          1485.906
       160   02 Jun 2027 18:17:23.752   02 Jun 2027 18:23:39.086           375.334            RioGallegos         11729.188
       161   02 Jun 2027 19:02:07.204   02 Jun 2027 19:05:57.140           229.936                Norilsk          7185.500
       162   02 Jun 2027 19:06:15.734   02 Jun 2027 19:08:03.377           107.643                Irkutsk          3363.844
       163   02 Jun 2027 19:08:03.915   02 Jun 2027 19:09:52.898           108.983                Novosib          3405.719
       164   02 Jun 2027 19:18:44.215   02 Jun 2027 19:20:10.885            86.670                Sumatra          2708.437
       165   02 Jun 2027 19:23:05.032   02 Jun 2027 19:23:47.451            42.419                Sumatra          1325.594
       166   02 Jun 2027 20:40:34.581   02 Jun 2027 20:40:41.172             6.591                Novosib           205.969
       167   02 Jun 2027 20:42:43.098   02 Jun 2027 20:44:07.872            84.774                Novosib          2649.188
       168   02 Jun 2027 20:48:37.639   02 Jun 2027 20:51:36.999           179.360                  Delhi          5605.000
       169   02 Jun 2027 20:53:52.377   02 Jun 2027 20:54:55.326            62.949                  Delhi          1967.156
       170   02 Jun 2027 22:14:55.843   02 Jun 2027 22:19:02.746           246.903              Murmansk1          7715.719
       171   02 Jun 2027 22:19:03.552   02 Jun 2027 22:20:36.905            93.353              Murmansk2          2917.281
       172   02 Jun 2027 22:21:21.517   02 Jun 2027 22:25:12.041           230.524                 Moscow          7203.875
       173   02 Jun 2027 23:50:36.327   02 Jun 2027 23:50:51.501            15.174              Murmansk2           474.187
       174   02 Jun 2027 23:51:51.987   02 Jun 2027 23:52:36.478            44.491              Murmansk2          1390.344
       175   02 Jun 2027 23:54:02.113   02 Jun 2027 23:54:54.713            52.600                 Moscow          1643.750
       176   02 Jun 2027 23:55:09.913   02 Jun 2027 23:56:15.616            65.703                 Moscow          2053.219
       177   03 Jun 2027 00:02:19.167   03 Jun 2027 00:02:28.971             9.804                 Moscow           306.375
       178   03 Jun 2027 00:18:37.616   03 Jun 2027 00:20:01.632            84.016               CapeTown          2625.500
       179   03 Jun 2027 00:20:29.045   03 Jun 2027 00:22:06.618            97.573               CapeTown          3049.156
       180   03 Jun 2027 01:18:32.781   03 Jun 2027 01:18:41.197             8.416               Magadan2           263.000
       181   03 Jun 2027 01:20:28.276   03 Jun 2027 01:20:44.615            16.339               Magadan1           510.594
       182   03 Jun 2027 01:22:26.749   03 Jun 2027 01:22:38.189            11.440               Magadan2           357.500
       183   03 Jun 2027 01:24:58.000   03 Jun 2027 01:25:37.939            39.939               Magadan2          1248.094
       184   03 Jun 2027 01:26:34.116   03 Jun 2027 01:28:53.320           139.204              Murmansk2          4350.125
       185   03 Jun 2027 01:34:15.070   03 Jun 2027 01:34:17.856             2.786                 Moscow            87.063
       186   03 Jun 2027 01:35:54.057   03 Jun 2027 01:36:09.239            15.182                 Moscow           474.437
       187   03 Jun 2027 01:38:47.278   03 Jun 2027 01:39:07.016            19.738                 Moscow           616.812
       188   03 Jun 2027 01:54:08.424   03 Jun 2027 01:55:05.337            56.913               CapeTown          1778.531
       189   03 Jun 2027 02:01:06.153   03 Jun 2027 02:02:14.491            68.338               CapeTown          2135.563
       190   03 Jun 2027 02:50:37.560   03 Jun 2027 02:53:22.016           164.456               Magadan2          5139.250
       191   03 Jun 2027 02:56:10.836   03 Jun 2027 02:56:18.430             7.594               Magadan1           237.312
       192   03 Jun 2027 02:59:23.003   03 Jun 2027 02:59:49.792            26.789                Norilsk           837.156
       193   03 Jun 2027 04:32:45.477   03 Jun 2027 04:34:11.848            86.371                Irkutsk          2699.094
       194   03 Jun 2027 04:35:12.195   03 Jun 2027 04:35:56.643            44.448                Irkutsk          1389.000
       195   03 Jun 2027 05:15:00.599   03 Jun 2027 05:17:03.784           123.185            RioGallegos          3849.531
       196   03 Jun 2027 06:10:21.644   03 Jun 2027 06:12:06.224           104.580               Magadan1          3268.125
       197   03 Jun 2027 06:12:09.787   03 Jun 2027 06:13:09.148            59.361               Magadan1          1855.031
       198   03 Jun 2027 06:13:34.781   03 Jun 2027 06:13:43.202             8.421                Norilsk           263.156
       199   03 Jun 2027 06:13:49.222   03 Jun 2027 06:14:03.395            14.173               Magadan2           442.906
       200   03 Jun 2027 06:18:46.723   03 Jun 2027 06:18:49.747             3.024                Norilsk            94.500
       201   03 Jun 2027 07:46:27.889   03 Jun 2027 07:47:37.233            69.344                Irkutsk          2167.000
       202   03 Jun 2027 07:47:51.986   03 Jun 2027 07:48:31.903            39.917                Irkutsk          1247.406
       203   03 Jun 2027 07:50:18.982   03 Jun 2027 07:51:16.476            57.494                Novosib          1796.687
       204   03 Jun 2027 08:27:37.909   03 Jun 2027 08:27:46.385             8.476            RioGallegos           264.875
       205   03 Jun 2027 08:28:04.753   03 Jun 2027 08:28:18.719            13.966            RioGallegos           436.437
       206   03 Jun 2027 08:30:50.954   03 Jun 2027 08:31:00.268             9.314            RioGallegos           291.062
       207   03 Jun 2027 09:01:39.124   03 Jun 2027 09:01:57.104            17.980                Sumatra           561.875
       208   03 Jun 2027 09:05:29.905   03 Jun 2027 09:06:00.485            30.580                Sumatra           955.625
       209   03 Jun 2027 09:22:21.854   03 Jun 2027 09:22:28.817             6.963                Novosib           217.594
       210   03 Jun 2027 09:23:07.204   03 Jun 2027 09:23:55.406            48.202                Novosib          1506.312
       211   03 Jun 2027 09:23:58.513   03 Jun 2027 09:24:11.596            13.083                Norilsk           408.844
       212   03 Jun 2027 09:24:45.456   03 Jun 2027 09:24:47.746             2.290                Novosib            71.563
       213   03 Jun 2027 09:25:12.598   03 Jun 2027 09:25:21.989             9.391                Novosib           293.469
       214   03 Jun 2027 09:26:17.905   03 Jun 2027 09:26:30.127            12.222                Novosib           381.937
       215   03 Jun 2027 10:47:08.953   03 Jun 2027 10:50:04.509           175.556                  Delhi          5486.125
       216   03 Jun 2027 10:59:17.015   03 Jun 2027 10:59:26.278             9.263                Novosib           289.469
       217   03 Jun 2027 11:06:20.396   03 Jun 2027 11:06:41.157            20.761                Norilsk           648.781
       218   03 Jun 2027 12:30:04.697   03 Jun 2027 12:30:14.227             9.530                 Moscow           297.813
       219   03 Jun 2027 12:30:26.568   03 Jun 2027 12:30:59.542            32.974                 Moscow          1030.438
       220   03 Jun 2027 12:32:44.463   03 Jun 2027 12:33:23.491            39.028                 Moscow          1219.625
       221   03 Jun 2027 12:33:24.122   03 Jun 2027 12:34:22.865            58.743              Murmansk1          1835.719
       222   03 Jun 2027 12:34:36.457   03 Jun 2027 12:37:17.975           161.518              Murmansk2          5047.438
       223   03 Jun 2027 12:42:28.524   03 Jun 2027 12:42:29.651             1.127              Murmansk2            35.219
       224   03 Jun 2027 12:43:18.576   03 Jun 2027 12:43:28.806            10.230              Murmansk1           319.687
       225   03 Jun 2027 12:47:48.495   03 Jun 2027 12:55:04.316           435.821                Anadyr1         13619.406
       226   03 Jun 2027 14:22:56.847   03 Jun 2027 14:26:17.041           200.194                Anadyr1          6256.063
       227   03 Jun 2027 14:28:05.872   03 Jun 2027 14:30:49.534           163.662               Magadan2          5114.438
       228   03 Jun 2027 15:58:47.837   03 Jun 2027 16:00:08.655            80.818                Anadyr2          2525.563
       229   03 Jun 2027 16:00:48.409   03 Jun 2027 16:00:50.336             1.927                Anadyr1            60.219
       230   03 Jun 2027 16:01:19.739   03 Jun 2027 16:02:46.105            86.366               Magadan2          2698.938
       231   03 Jun 2027 16:02:46.105   03 Jun 2027 16:04:36.342           110.237               Magadan1          3444.906
       232   03 Jun 2027 16:04:43.276   03 Jun 2027 16:05:26.353            43.077               Magadan1          1346.156
       233   03 Jun 2027 16:09:33.194   03 Jun 2027 16:09:46.477            13.283               Magadan2           415.094
       234   03 Jun 2027 17:34:41.989   03 Jun 2027 17:36:03.427            81.438                Anadyr2          2544.937
       235   03 Jun 2027 17:36:40.900   03 Jun 2027 17:36:59.219            18.319                Anadyr2           572.469
       236   03 Jun 2027 17:36:59.557   03 Jun 2027 17:38:24.312            84.755               Magadan2          2648.594
       237   03 Jun 2027 17:38:31.497   03 Jun 2027 17:38:33.811             2.314                Norilsk            72.312
       238   03 Jun 2027 17:39:23.744   03 Jun 2027 17:40:19.367            55.623               Magadan1          1738.219
       239   03 Jun 2027 17:40:57.470   03 Jun 2027 17:41:09.757            12.287                Norilsk           383.969
       240   03 Jun 2027 18:29:10.309   03 Jun 2027 18:33:17.998           247.689            RioGallegos          7740.281
       241   03 Jun 2027 19:12:34.037   03 Jun 2027 19:14:07.686            93.649                Norilsk          2926.531
       242   03 Jun 2027 19:16:44.378   03 Jun 2027 19:19:18.558           154.180                Irkutsk          4818.125
       243   03 Jun 2027 19:19:51.260   03 Jun 2027 19:23:59.036           247.776                Novosib          7743.000
       244   03 Jun 2027 19:30:29.062   03 Jun 2027 19:31:54.200            85.138                Sumatra          2660.563
       245   03 Jun 2027 19:33:11.542   03 Jun 2027 19:34:10.454            58.912                Sumatra          1841.000
       246   03 Jun 2027 20:52:30.632   03 Jun 2027 20:53:20.596            49.964                Novosib          1561.375
       247   03 Jun 2027 20:56:12.177   03 Jun 2027 20:56:40.232            28.055                Novosib           876.719
       248   03 Jun 2027 20:57:39.658   03 Jun 2027 20:58:57.121            77.463                Novosib          2420.719
       249   03 Jun 2027 21:00:17.581   03 Jun 2027 21:03:53.004           215.423                  Delhi          6731.969
       250   03 Jun 2027 21:05:30.181   03 Jun 2027 21:06:38.202            68.021                  Delhi          2125.656
       251   03 Jun 2027 22:26:52.527   03 Jun 2027 22:32:29.064           336.537              Murmansk2         10516.781
       252   03 Jun 2027 22:33:15.567   03 Jun 2027 22:35:40.848           145.281              Murmansk1          4540.031
       253   03 Jun 2027 22:38:12.253   03 Jun 2027 22:38:26.646            14.393                 Moscow           449.781
       254   04 Jun 2027 00:02:37.608   04 Jun 2027 00:03:37.872            60.264              Murmansk1          1883.250
       255   04 Jun 2027 00:05:59.159   04 Jun 2027 00:07:53.757           114.598                 Moscow          3581.188
       256   04 Jun 2027 00:17:57.969   04 Jun 2027 00:18:25.023            27.054                 Moscow           845.437
       257   04 Jun 2027 00:30:17.667   04 Jun 2027 00:31:58.120           100.453               CapeTown          3139.156
       258   04 Jun 2027 00:32:32.466   04 Jun 2027 00:34:02.817            90.351               CapeTown          2823.469
       259   04 Jun 2027 01:28:55.272   04 Jun 2027 01:29:18.374            23.102               Magadan1           721.938
       260   04 Jun 2027 01:29:51.615   04 Jun 2027 01:30:01.288             9.673               Magadan1           302.281
       261   04 Jun 2027 01:32:23.556   04 Jun 2027 01:32:39.647            16.091               Magadan1           502.844
       262   04 Jun 2027 01:33:40.325   04 Jun 2027 01:33:58.529            18.204               Magadan1           568.875
       263   04 Jun 2027 01:37:35.396   04 Jun 2027 01:37:43.693             8.297               Magadan1           259.281
       264   04 Jun 2027 01:38:35.657   04 Jun 2027 01:39:43.347            67.690              Murmansk1          2115.313
       265   04 Jun 2027 01:40:48.983   04 Jun 2027 01:41:33.188            44.205              Murmansk1          1381.406
       266   04 Jun 2027 01:41:50.006   04 Jun 2027 01:43:07.669            77.663                 Moscow          2426.969
       267   04 Jun 2027 01:47:38.344   04 Jun 2027 01:48:23.838            45.494                 Moscow          1421.687
       268   04 Jun 2027 02:06:31.773   04 Jun 2027 02:07:00.985            29.212               CapeTown           912.875
       269   04 Jun 2027 02:12:52.264   04 Jun 2027 02:13:03.013            10.749               CapeTown           335.906
       270   04 Jun 2027 02:14:10.357   04 Jun 2027 02:14:50.483            40.126               CapeTown          1253.938
       271   04 Jun 2027 03:02:27.979   04 Jun 2027 03:03:53.080            85.101               Magadan1          2659.406
       272   04 Jun 2027 03:07:42.156   04 Jun 2027 03:12:11.291           269.135               Magadan2          8410.469
       273   04 Jun 2027 03:12:11.291   04 Jun 2027 03:13:56.484           105.193               Magadan1          3287.281
       274   04 Jun 2027 03:13:56.484   04 Jun 2027 03:14:07.814            11.330               Magadan2           354.062
       275   04 Jun 2027 04:47:05.295   04 Jun 2027 04:48:20.151            74.856                Anadyr1          2339.250
       276   04 Jun 2027 04:48:33.790   04 Jun 2027 04:50:27.289           113.499                Anadyr2          3546.844
       277   04 Jun 2027 06:21:33.049   04 Jun 2027 06:21:41.679             8.630               Magadan1           269.687
       278   04 Jun 2027 06:22:16.236   04 Jun 2027 06:22:25.815             9.579               Magadan2           299.344
       279   04 Jun 2027 06:22:45.432   04 Jun 2027 06:24:08.632            83.200               Magadan2          2600.000
       280   04 Jun 2027 06:24:18.837   04 Jun 2027 06:24:53.341            34.504               Magadan1          1078.250
       281   04 Jun 2027 06:25:01.562   04 Jun 2027 06:25:03.181             1.619               Magadan2            50.594
       282   04 Jun 2027 06:25:52.554   04 Jun 2027 06:25:54.013             1.459               Magadan1            45.594
       283   04 Jun 2027 06:30:48.091   04 Jun 2027 06:30:52.158             4.067                Norilsk           127.094
       284   04 Jun 2027 07:57:28.248   04 Jun 2027 07:58:25.279            57.031                Irkutsk          1782.219
       285   04 Jun 2027 07:59:06.531   04 Jun 2027 07:59:29.327            22.796              Murmansk1           712.375
       286   04 Jun 2027 07:59:51.227   04 Jun 2027 07:59:56.350             5.123                Irkutsk           160.094
       287   04 Jun 2027 08:00:07.404   04 Jun 2027 08:00:39.648            32.244                Irkutsk          1007.625
       288   04 Jun 2027 08:00:42.889   04 Jun 2027 08:01:28.383            45.494                Irkutsk          1421.687
       289   04 Jun 2027 08:01:32.729   04 Jun 2027 08:01:40.204             7.475                Irkutsk           233.594
       290   04 Jun 2027 08:02:08.693   04 Jun 2027 08:02:12.759             4.066                Novosib           127.063
       291   04 Jun 2027 08:03:29.832   04 Jun 2027 08:03:48.793            18.961              Murmansk2           592.531
       292   04 Jun 2027 08:40:08.407   04 Jun 2027 08:40:17.562             9.155            RioGallegos           286.094
       293   04 Jun 2027 08:41:28.539   04 Jun 2027 08:42:01.746            33.207            RioGallegos          1037.719
       294   04 Jun 2027 08:43:35.467   04 Jun 2027 08:43:40.412             4.945            RioGallegos           154.531
       295   04 Jun 2027 08:47:08.791   04 Jun 2027 08:47:26.837            18.046            RioGallegos           563.938
       296   04 Jun 2027 09:14:33.245   04 Jun 2027 09:15:42.772            69.527                Sumatra          2172.719
       297   04 Jun 2027 09:36:55.583   04 Jun 2027 09:36:55.606             0.023                Novosib             0.719
       298   04 Jun 2027 09:37:40.104   04 Jun 2027 09:37:55.449            15.345                Novosib           479.531
       299   04 Jun 2027 09:38:00.773   04 Jun 2027 09:38:10.297             9.524                Novosib           297.625
       300   04 Jun 2027 11:00:37.269   04 Jun 2027 11:02:49.705           132.436                  Delhi          4138.625
       301   04 Jun 2027 11:03:21.279   04 Jun 2027 11:03:32.136            10.857                  Delhi           339.281
       302   04 Jun 2027 11:17:27.023   04 Jun 2027 11:17:44.895            17.872                Norilsk           558.500
       303   04 Jun 2027 12:41:36.243   04 Jun 2027 12:43:06.334            90.091                 Moscow          2815.344
       304   04 Jun 2027 12:44:57.926   04 Jun 2027 12:45:36.734            38.808              Murmansk1          1212.750
       305   04 Jun 2027 12:45:52.626   04 Jun 2027 12:47:16.897            84.271              Murmansk2          2633.469
       306   04 Jun 2027 12:48:47.597   04 Jun 2027 12:49:00.273            12.676              Murmansk2           396.125
       307   04 Jun 2027 12:49:06.125   04 Jun 2027 12:49:59.220            53.095              Murmansk1          1659.219
       308   04 Jun 2027 12:59:37.233   04 Jun 2027 13:03:32.085           234.852                Anadyr1          7339.125
       309   04 Jun 2027 14:00:53.938   04 Jun 2027 14:00:57.018             3.080               CapeTown            96.250
       310   04 Jun 2027 14:23:45.859   04 Jun 2027 14:25:10.264            84.405              Murmansk1          2637.656
       311   04 Jun 2027 14:25:12.327   04 Jun 2027 14:26:33.253            80.926              Murmansk2          2528.938
       312   04 Jun 2027 14:30:28.273   04 Jun 2027 14:30:34.849             6.576              Murmansk1           205.500
       313   04 Jun 2027 14:30:58.623   04 Jun 2027 14:31:14.020            15.397              Murmansk1           481.156
       314   04 Jun 2027 14:34:56.594   04 Jun 2027 14:36:30.201            93.607                Anadyr2          2925.219
       315   04 Jun 2027 14:36:34.983   04 Jun 2027 14:36:47.996            13.013                Anadyr1           406.656
       316   04 Jun 2027 14:37:18.678   04 Jun 2027 14:38:17.507            58.829                Anadyr1          1838.406
       317   04 Jun 2027 14:39:07.472   04 Jun 2027 14:42:15.390           187.918               Magadan2          5872.437
       318   04 Jun 2027 14:43:22.632   04 Jun 2027 14:44:25.777            63.145               Magadan1          1973.281
       319   04 Jun 2027 16:10:49.188   04 Jun 2027 16:12:09.453            80.265                Anadyr1          2508.281
       320   04 Jun 2027 16:13:16.522   04 Jun 2027 16:16:39.041           202.519               Magadan1          6328.719
       321   04 Jun 2027 16:16:43.896   04 Jun 2027 16:17:25.692            41.796               Magadan1          1306.125
       322   04 Jun 2027 16:18:24.815   04 Jun 2027 16:19:54.343            89.528               Magadan1          2797.750
       323   04 Jun 2027 17:46:42.329   04 Jun 2027 17:47:24.876            42.547                Anadyr1          1329.594
       324   04 Jun 2027 17:48:28.160   04 Jun 2027 17:48:58.402            30.242                Anadyr1           945.062
       325   04 Jun 2027 17:49:01.006   04 Jun 2027 17:50:23.646            82.640               Magadan1          2582.500
       326   04 Jun 2027 17:50:38.715   04 Jun 2027 17:53:06.139           147.424                Norilsk          4607.000
       327   04 Jun 2027 17:55:39.561   04 Jun 2027 17:57:55.902           136.341                Irkutsk          4260.656
       328   04 Jun 2027 17:59:02.047   04 Jun 2027 17:59:24.839            22.792                Irkutsk           712.250
       329   04 Jun 2027 18:42:53.422   04 Jun 2027 18:44:09.055            75.633            RioGallegos          2363.531
       330   04 Jun 2027 19:25:04.735   04 Jun 2027 19:25:34.482            29.747               Magadan2           929.594
       331   04 Jun 2027 19:28:39.223   04 Jun 2027 19:29:46.098            66.875                Irkutsk          2089.844
       332   04 Jun 2027 19:30:05.801   04 Jun 2027 19:37:08.614           422.813                Novosib         13212.906
       333   04 Jun 2027 19:52:23.865   04 Jun 2027 19:52:38.774            14.909                Sumatra           465.906
       334   04 Jun 2027 21:05:02.842   04 Jun 2027 21:06:22.876            80.034                Novosib          2501.062
       335   04 Jun 2027 21:06:31.136   04 Jun 2027 21:06:44.015            12.879                Novosib           402.469
       336   04 Jun 2027 21:07:11.501   04 Jun 2027 21:08:04.496            52.995                Novosib          1656.094
       337   04 Jun 2027 21:12:03.241   04 Jun 2027 21:15:58.964           235.723                  Delhi          7366.344
       338   04 Jun 2027 22:38:50.409   04 Jun 2027 22:40:44.831           114.422              Murmansk1          3575.687
       339   04 Jun 2027 22:42:11.797   04 Jun 2027 22:44:23.786           131.989              Murmansk2          4124.656
       340   04 Jun 2027 22:45:06.593   04 Jun 2027 22:45:33.297            26.704              Murmansk1           834.500
       341   04 Jun 2027 22:45:37.367   04 Jun 2027 22:50:30.384           293.017                 Moscow          9156.781
       342   04 Jun 2027 23:12:48.254   04 Jun 2027 23:14:27.343            99.089               CapeTown          3096.531
       343   05 Jun 2027 00:15:31.921   05 Jun 2027 00:16:19.527            47.606              Murmansk1          1487.687
       344   05 Jun 2027 00:17:57.286   05 Jun 2027 00:18:13.414            16.128                 Moscow           504.000
       345   05 Jun 2027 00:20:12.039   05 Jun 2027 00:20:53.018            40.979                 Moscow          1280.594
       346   05 Jun 2027 00:21:38.305   05 Jun 2027 00:21:56.311            18.006                 Moscow           562.687
       347   05 Jun 2027 00:26:36.821   05 Jun 2027 00:27:28.386            51.565                 Moscow          1611.406
       348   05 Jun 2027 00:42:03.179   05 Jun 2027 00:44:45.544           162.365               CapeTown          5073.906
       349   05 Jun 2027 01:41:21.011   05 Jun 2027 01:41:56.244            35.233               Magadan1          1101.031
       350   05 Jun 2027 01:42:57.218   05 Jun 2027 01:43:08.572            11.354               Magadan1           354.813
       351   05 Jun 2027 01:44:54.332   05 Jun 2027 01:45:09.695            15.363               Magadan1           480.094
       352   05 Jun 2027 01:45:43.001   05 Jun 2027 01:45:48.733             5.732               Magadan1           179.125
       353   05 Jun 2027 01:50:37.094   05 Jun 2027 01:51:07.548            30.454              Murmansk2           951.687
       354   05 Jun 2027 01:51:07.787   05 Jun 2027 01:51:55.411            47.624              Murmansk1          1488.250
       355   05 Jun 2027 01:53:28.900   05 Jun 2027 01:53:36.053             7.153              Murmansk2           223.531
       356   05 Jun 2027 01:53:53.282   05 Jun 2027 01:55:08.276            74.994                 Moscow          2343.562
       357   05 Jun 2027 01:58:26.728   05 Jun 2027 01:58:36.399             9.671                 Moscow           302.219
       358   05 Jun 2027 02:00:05.954   05 Jun 2027 02:00:46.585            40.631                 Moscow          1269.719
       359   05 Jun 2027 02:19:03.059   05 Jun 2027 02:20:05.636            62.577               CapeTown          1955.531
       360   05 Jun 2027 02:27:49.129   05 Jun 2027 02:27:54.807             5.678               CapeTown           177.437
       361   05 Jun 2027 03:14:20.578   05 Jun 2027 03:14:53.883            33.305               Magadan1          1040.781
       362   05 Jun 2027 03:17:43.234   05 Jun 2027 03:19:02.374            79.140                Anadyr2          2473.125
       363   05 Jun 2027 03:19:57.230   05 Jun 2027 03:20:44.092            46.862               Magadan1          1464.438
       364   05 Jun 2027 03:20:44.092   05 Jun 2027 03:27:02.667           378.575               Magadan2         11830.469
       365   05 Jun 2027 03:27:05.755   05 Jun 2027 03:27:17.695            11.940                Anadyr1           373.125
       366   05 Jun 2027 04:56:42.403   05 Jun 2027 04:56:52.844            10.441                Anadyr2           326.281
       367   05 Jun 2027 04:57:02.240   05 Jun 2027 04:59:53.884           171.644                Anadyr1          5363.875
       368   05 Jun 2027 05:00:02.419   05 Jun 2027 05:02:02.628           120.209                Irkutsk          3756.531
       369   05 Jun 2027 05:02:14.474   05 Jun 2027 05:02:52.315            37.841               Magadan2          1182.531
       370   05 Jun 2027 06:33:40.745   05 Jun 2027 06:34:07.483            26.738               Magadan1           835.562
       371   05 Jun 2027 06:34:18.830   05 Jun 2027 06:34:29.098            10.268               Magadan2           320.875
       372   05 Jun 2027 06:34:29.098   05 Jun 2027 06:34:49.559            20.461               Magadan1           639.406
       373   05 Jun 2027 06:36:07.883   05 Jun 2027 06:36:56.225            48.342               Magadan2          1510.687
       374   05 Jun 2027 06:36:56.225   05 Jun 2027 06:37:23.088            26.863               Magadan1           839.469
       375   05 Jun 2027 06:44:53.856   05 Jun 2027 06:45:18.227            24.371              Murmansk2           761.594
       376   05 Jun 2027 08:10:49.642   05 Jun 2027 08:11:46.189            56.547                Irkutsk          1767.094
       377   05 Jun 2027 08:11:54.728   05 Jun 2027 08:11:59.957             5.229                Irkutsk           163.406
       378   05 Jun 2027 08:12:09.241   05 Jun 2027 08:12:17.793             8.552                Irkutsk           267.250
       379   05 Jun 2027 08:12:43.139   05 Jun 2027 08:13:27.894            44.755                Irkutsk          1398.594
       380   05 Jun 2027 08:13:35.651   05 Jun 2027 08:14:27.251            51.600                Irkutsk          1612.500
       381   05 Jun 2027 08:20:38.467   05 Jun 2027 08:20:58.130            19.663              Murmansk2           614.469
       382   05 Jun 2027 08:53:01.669   05 Jun 2027 08:53:35.568            33.899            RioGallegos          1059.344
       383   05 Jun 2027 08:56:06.166   05 Jun 2027 08:56:32.050            25.884            RioGallegos           808.875
       384   05 Jun 2027 09:28:09.230   05 Jun 2027 09:30:02.029           112.799                Sumatra          3524.969
       385   05 Jun 2027 09:49:23.861   05 Jun 2027 09:49:30.520             6.659                Novosib           208.094
       386   05 Jun 2027 09:49:36.779   05 Jun 2027 09:50:02.223            25.444                Novosib           795.125
       387   05 Jun 2027 09:50:15.109   05 Jun 2027 09:50:30.836            15.727                Novosib           491.469
       388   05 Jun 2027 11:30:06.278   05 Jun 2027 11:30:40.197            33.919                Norilsk          1059.969
       389   05 Jun 2027 12:53:58.336   05 Jun 2027 12:54:11.326            12.990                 Moscow           405.938
       390   05 Jun 2027 12:55:10.685   05 Jun 2027 12:55:47.827            37.142                 Moscow          1160.688
       391   05 Jun 2027 12:56:14.408   05 Jun 2027 12:56:55.371            40.963                 Moscow          1280.094
       392   05 Jun 2027 12:57:13.020   05 Jun 2027 12:59:16.129           123.109              Murmansk2          3847.156
       393   05 Jun 2027 13:00:53.969   05 Jun 2027 13:01:52.378            58.409              Murmansk2          1825.281
       394   05 Jun 2027 13:11:29.122   05 Jun 2027 13:14:25.282           176.160                Anadyr2          5505.000
       395   05 Jun 2027 13:14:38.324   05 Jun 2027 13:14:46.230             7.906                Anadyr1           247.062
       396   05 Jun 2027 13:17:02.996   05 Jun 2027 13:17:32.116            29.120                Anadyr2           910.000
       397   05 Jun 2027 13:19:15.651   05 Jun 2027 13:19:45.258            29.607                Anadyr2           925.219
       398   05 Jun 2027 14:11:44.529   05 Jun 2027 14:11:45.091             0.562               CapeTown            17.563
       399   05 Jun 2027 14:36:20.397   05 Jun 2027 14:37:15.487            55.090              Murmansk1          1721.562
       400   05 Jun 2027 14:38:35.011   05 Jun 2027 14:39:24.161            49.150              Murmansk2          1535.937
       401   05 Jun 2027 14:42:46.367   05 Jun 2027 14:42:56.667            10.300              Murmansk2           321.875
       402   05 Jun 2027 14:46:56.738   05 Jun 2027 14:50:32.985           216.247                Anadyr1          6757.719
       403   05 Jun 2027 14:50:37.308   05 Jun 2027 14:57:30.851           413.543               Magadan1         12923.219
       404   05 Jun 2027 16:25:14.295   05 Jun 2027 16:27:32.787           138.492               Magadan2          4327.875
       405   05 Jun 2027 16:36:55.346   05 Jun 2027 16:37:08.115            12.769               Magadan1           399.031
       406   05 Jun 2027 17:58:42.351   05 Jun 2027 18:00:05.930            83.579                Anadyr1          2611.844
       407   05 Jun 2027 18:00:14.171   05 Jun 2027 18:01:32.628            78.457                Anadyr2          2451.781
       408   05 Jun 2027 18:01:36.098   05 Jun 2027 18:01:43.469             7.371                Anadyr2           230.344
       409   05 Jun 2027 18:01:49.301   05 Jun 2027 18:03:44.128           114.827               Magadan1          3588.344
       410   05 Jun 2027 18:04:08.816   05 Jun 2027 18:07:23.943           195.127                Norilsk          6097.719
       411   05 Jun 2027 18:08:02.978   05 Jun 2027 18:10:54.726           171.748                Irkutsk          5367.125
       412   05 Jun 2027 18:12:48.663   05 Jun 2027 18:12:55.600             6.937                Irkutsk           216.781
       413   05 Jun 2027 18:23:26.228   05 Jun 2027 18:26:57.006           210.778                Sumatra          6586.813
       414   05 Jun 2027 19:37:40.681   05 Jun 2027 19:38:01.730            21.049                Norilsk           657.781
       415   05 Jun 2027 19:41:41.595   05 Jun 2027 19:48:18.516           396.921                Novosib         12403.781
       416   05 Jun 2027 21:16:28.920   05 Jun 2027 21:18:42.440           133.520              Murmansk2          4172.500
       417   05 Jun 2027 21:23:53.510   05 Jun 2027 21:25:33.145            99.635                  Delhi          3113.594
       418   05 Jun 2027 21:32:49.575   05 Jun 2027 21:33:23.111            33.536                  Delhi          1048.000
       419   05 Jun 2027 21:35:27.115   05 Jun 2027 21:35:38.522            11.407                  Delhi           356.469
       420   05 Jun 2027 22:49:36.536   05 Jun 2027 22:49:44.572             8.036               Magadan1           251.125
       421   05 Jun 2027 22:49:54.492   05 Jun 2027 22:49:58.071             3.579               Magadan1           111.844
       422   05 Jun 2027 22:50:10.555   05 Jun 2027 22:50:20.599            10.044               Magadan1           313.875
       423   05 Jun 2027 22:50:49.205   05 Jun 2027 22:55:02.861           253.656              Murmansk1          7926.750
       424   05 Jun 2027 22:55:02.861   05 Jun 2027 22:56:20.268            77.407              Murmansk2          2418.969
       425   05 Jun 2027 22:57:08.407   05 Jun 2027 23:00:06.184           177.777                 Moscow          5555.531
       426   05 Jun 2027 23:00:52.240   05 Jun 2027 23:01:15.530            23.290                 Moscow           727.813
       427   05 Jun 2027 23:22:35.788   05 Jun 2027 23:24:43.172           127.384               CapeTown          3980.750
       428   05 Jun 2027 23:26:31.841   05 Jun 2027 23:28:13.371           101.530               CapeTown          3172.812
       429   06 Jun 2027 00:29:56.324   06 Jun 2027 00:31:35.608            99.284                 Moscow          3102.625
       430   06 Jun 2027 00:53:53.827   06 Jun 2027 00:55:26.831            93.004               CapeTown          2906.375
       431   06 Jun 2027 01:51:13.609   06 Jun 2027 01:51:22.368             8.759                Anadyr1           273.719
       432   06 Jun 2027 01:51:22.368   06 Jun 2027 01:51:45.492            23.124                Anadyr2           722.625
       433   06 Jun 2027 01:52:37.491   06 Jun 2027 01:53:23.695            46.204               Magadan2          1443.875
       434   06 Jun 2027 01:53:53.491   06 Jun 2027 01:54:17.656            24.165               Magadan2           755.156
       435   06 Jun 2027 01:54:26.439   06 Jun 2027 01:54:37.330            10.891               Magadan2           340.344
       436   06 Jun 2027 01:58:24.100   06 Jun 2027 01:58:26.749             2.649               Magadan2            82.781
       437   06 Jun 2027 01:59:24.995   06 Jun 2027 01:59:30.625             5.630                Norilsk           175.937
       438   06 Jun 2027 01:59:50.916   06 Jun 2027 02:00:57.669            66.753                Norilsk          2086.031
       439   06 Jun 2027 02:02:38.404   06 Jun 2027 02:03:30.330            51.926              Murmansk2          1622.688
       440   06 Jun 2027 02:03:44.188   06 Jun 2027 02:03:56.002            11.814              Murmansk2           369.187
       441   06 Jun 2027 02:05:57.037   06 Jun 2027 02:07:09.342            72.305                 Moscow          2259.531
       442   06 Jun 2027 02:14:23.439   06 Jun 2027 02:14:39.534            16.095                 Moscow           502.969
       443   06 Jun 2027 02:16:45.424   06 Jun 2027 02:17:01.953            16.529                 Moscow           516.531
       444   06 Jun 2027 02:31:44.613   06 Jun 2027 02:33:04.090            79.477               CapeTown          2483.656
       445   06 Jun 2027 03:27:30.934   06 Jun 2027 03:27:54.167            23.233                Anadyr1           726.031
       446   06 Jun 2027 03:30:49.561   06 Jun 2027 03:33:46.618           177.057               Magadan2          5533.031
       447   06 Jun 2027 03:33:52.641   06 Jun 2027 03:37:21.313           208.672                Anadyr1          6521.000
       448   06 Jun 2027 05:09:03.778   06 Jun 2027 05:14:18.454           314.676                Anadyr1          9833.625
       449   06 Jun 2027 06:44:36.889   06 Jun 2027 06:45:17.169            40.280               Magadan2          1258.750
       450   06 Jun 2027 06:45:22.933   06 Jun 2027 06:45:59.421            36.488               Magadan1          1140.250
       451   06 Jun 2027 06:46:20.441   06 Jun 2027 06:48:05.771           105.330               Magadan2          3291.562
       452   06 Jun 2027 06:48:14.413   06 Jun 2027 06:48:18.489             4.076               Magadan2           127.375
       453   06 Jun 2027 06:48:24.239   06 Jun 2027 06:48:53.207            28.968               Magadan2           905.250
       454   06 Jun 2027 06:48:53.207   06 Jun 2027 06:48:54.960             1.753               Magadan1            54.781
       455   06 Jun 2027 06:50:44.214   06 Jun 2027 06:50:51.113             6.899                Norilsk           215.594
       456   06 Jun 2027 08:09:27.152   06 Jun 2027 08:09:46.007            18.855                Sumatra           589.219
       457   06 Jun 2027 08:22:52.672   06 Jun 2027 08:23:07.835            15.163                Irkutsk           473.844
       458   06 Jun 2027 08:23:23.992   06 Jun 2027 08:23:35.918            11.926                Norilsk           372.687
       459   06 Jun 2027 08:23:39.104   06 Jun 2027 08:24:09.566            30.462                Norilsk           951.937
       460   06 Jun 2027 08:24:31.675   06 Jun 2027 08:24:46.036            14.361                Irkutsk           448.781
       461   06 Jun 2027 08:25:08.507   06 Jun 2027 08:25:22.865            14.358                Norilsk           448.688
       462   06 Jun 2027 08:25:41.970   06 Jun 2027 08:26:21.662            39.692                Irkutsk          1240.375
       463   06 Jun 2027 08:27:29.696   06 Jun 2027 08:27:50.123            20.427              Murmansk1           638.344
       464   06 Jun 2027 09:06:12.228   06 Jun 2027 09:06:27.275            15.047            RioGallegos           470.219
       465   06 Jun 2027 09:07:36.545   06 Jun 2027 09:08:33.245            56.700            RioGallegos          1771.875
       466   06 Jun 2027 09:46:13.812   06 Jun 2027 09:47:11.020            57.208                  Delhi          1787.750
       467   06 Jun 2027 10:00:55.193   06 Jun 2027 10:01:00.068             4.875                Novosib           152.344
       468   06 Jun 2027 10:01:12.267   06 Jun 2027 10:01:32.111            19.844                Novosib           620.125
       469   06 Jun 2027 10:02:02.922   06 Jun 2027 10:02:08.570             5.648                Norilsk           176.500
       470   06 Jun 2027 10:02:21.408   06 Jun 2027 10:02:59.754            38.346                Norilsk          1198.313
       471   06 Jun 2027 11:41:41.778   06 Jun 2027 11:42:00.665            18.887                Norilsk           590.219
       472   06 Jun 2027 13:06:41.734   06 Jun 2027 13:07:14.553            32.819                 Moscow          1025.594
       473   06 Jun 2027 13:07:55.238   06 Jun 2027 13:09:04.697            69.459                 Moscow          2170.594
       474   06 Jun 2027 13:09:30.141   06 Jun 2027 13:10:40.429            70.288              Murmansk1          2196.500
       475   06 Jun 2027 13:10:40.429   06 Jun 2027 13:11:30.319            49.890              Murmansk2          1559.062
       476   06 Jun 2027 13:12:54.021   06 Jun 2027 13:13:48.026            54.005              Murmansk2          1687.656
       477   06 Jun 2027 13:15:08.216   06 Jun 2027 13:15:16.259             8.043              Murmansk2           251.344
       478   06 Jun 2027 13:19:27.072   06 Jun 2027 13:19:41.187            14.115              Murmansk1           441.094
       479   06 Jun 2027 13:23:23.205   06 Jun 2027 13:27:27.067           243.862                Anadyr1          7620.688
       480   06 Jun 2027 13:28:50.045   06 Jun 2027 13:29:06.115            16.070                Anadyr2           502.187
       481   06 Jun 2027 13:31:45.158   06 Jun 2027 13:32:54.178            69.020                Anadyr1          2156.875
       482   06 Jun 2027 14:48:58.313   06 Jun 2027 14:50:36.690            98.377              Murmansk1          3074.281
