uniorb/output/strategy_4/Drop/Drop_KinoSat_110803.txt

KinoSat_110803
-------------------------
    Access    *     Start Time (UTCG)     *     Stop Time (UTCG)  *   Duration (s)        *       Station  *  Data (Mbytes)
         1   01 Jun 2027 03:55:41.456   01 Jun 2027 03:57:31.173           109.717                Anadyr2          3428.656
         2   01 Jun 2027 03:57:50.818   01 Jun 2027 04:01:21.256           210.438                Anadyr2          6576.187
         3   01 Jun 2027 05:29:26.431   01 Jun 2027 05:29:44.999            18.568               Magadan1           580.250
         4   01 Jun 2027 05:29:53.416   01 Jun 2027 05:30:23.870            30.454                Anadyr2           951.688
         5   01 Jun 2027 05:30:45.352   01 Jun 2027 05:31:32.511            47.159               Magadan2          1473.719
         6   01 Jun 2027 05:31:32.511   01 Jun 2027 05:32:28.012            55.501               Magadan1          1734.406
         7   01 Jun 2027 05:32:44.561   01 Jun 2027 05:36:55.582           251.021               Magadan2          7844.406
         8   01 Jun 2027 06:13:40.639   01 Jun 2027 06:14:34.960            54.321            RioGallegos          1697.531
         9   01 Jun 2027 06:52:48.758   01 Jun 2027 06:53:43.673            54.915                Sumatra          1716.094
        10   01 Jun 2027 07:07:21.406   01 Jun 2027 07:09:41.309           139.903                Irkutsk          4371.969
        11   01 Jun 2027 07:09:47.460   01 Jun 2027 07:10:06.574            19.114                Irkutsk           597.313
        12   01 Jun 2027 07:10:15.749   01 Jun 2027 07:12:26.159           130.410                Irkutsk          4075.313
        13   01 Jun 2027 07:12:47.818   01 Jun 2027 07:14:24.515            96.697                Norilsk          3021.781
        14   01 Jun 2027 07:16:37.185   01 Jun 2027 07:16:58.858            21.673              Murmansk1           677.281
        15   01 Jun 2027 07:47:35.122   01 Jun 2027 07:48:56.697            81.575            RioGallegos          2549.219
        16   01 Jun 2027 07:51:56.499   01 Jun 2027 07:52:13.140            16.641            RioGallegos           520.031
        17   01 Jun 2027 07:52:26.188   01 Jun 2027 07:52:28.482             2.294            RioGallegos            71.688
        18   01 Jun 2027 08:22:20.822   01 Jun 2027 08:23:08.228            47.406                Sumatra          1481.438
        19   01 Jun 2027 08:23:53.902   01 Jun 2027 08:25:18.291            84.389                Sumatra          2637.156
        20   01 Jun 2027 08:32:51.026   01 Jun 2027 08:34:01.885            70.859                  Delhi          2214.344
        21   01 Jun 2027 08:37:37.371   01 Jun 2027 08:37:50.895            13.524                  Delhi           422.625
        22   01 Jun 2027 08:44:06.887   01 Jun 2027 08:44:37.209            30.322                Irkutsk           947.563
        23   01 Jun 2027 08:45:31.711   01 Jun 2027 08:46:17.370            45.659                Irkutsk          1426.844
        24   01 Jun 2027 08:46:21.097   01 Jun 2027 08:47:21.420            60.323                Irkutsk          1885.094
        25   01 Jun 2027 08:47:48.655   01 Jun 2027 08:50:21.069           152.414              Murmansk2          4762.938
        26   01 Jun 2027 08:50:21.608   01 Jun 2027 08:50:36.111            14.503                 Moscow           453.219
        27   01 Jun 2027 09:29:11.426   01 Jun 2027 09:29:48.715            37.289            RioGallegos          1165.281
        28   01 Jun 2027 09:31:00.041   01 Jun 2027 09:31:10.335            10.294            RioGallegos           321.688
        29   01 Jun 2027 10:02:54.174   01 Jun 2027 10:04:03.517            69.343                Sumatra          2166.969
        30   01 Jun 2027 10:04:42.253   01 Jun 2027 10:05:16.499            34.246                Sumatra          1070.187
        31   01 Jun 2027 10:06:35.294   01 Jun 2027 10:08:37.049           121.755                  Delhi          3804.844
        32   01 Jun 2027 10:22:16.923   01 Jun 2027 10:22:50.172            33.249              Murmansk2          1039.031
        33   01 Jun 2027 10:22:57.945   01 Jun 2027 10:23:38.609            40.664                Novosib          1270.750
        34   01 Jun 2027 10:23:50.913   01 Jun 2027 10:24:33.391            42.478                Novosib          1327.437
        35   01 Jun 2027 10:24:59.275   01 Jun 2027 10:25:05.445             6.170              Murmansk1           192.813
        36   01 Jun 2027 10:25:05.445   01 Jun 2027 10:25:47.226            41.781              Murmansk2          1305.656
        37   01 Jun 2027 10:26:09.524   01 Jun 2027 10:26:45.366            35.842                 Moscow          1120.062
        38   01 Jun 2027 11:55:11.721   01 Jun 2027 11:55:44.075            32.354                 Moscow          1011.062
        39   01 Jun 2027 11:55:55.694   01 Jun 2027 11:57:43.359           107.665              Murmansk2          3364.531
        40   01 Jun 2027 11:57:52.376   01 Jun 2027 11:58:51.420            59.044              Murmansk1          1845.125
        41   01 Jun 2027 11:58:53.892   01 Jun 2027 11:59:15.618            21.726              Murmansk1           678.937
        42   01 Jun 2027 11:59:23.143   01 Jun 2027 12:03:50.104           266.961                 Moscow          8342.531
        43   01 Jun 2027 12:03:58.998   01 Jun 2027 12:04:18.583            19.585              Murmansk2           612.031
        44   01 Jun 2027 12:04:41.341   01 Jun 2027 12:05:24.139            42.798                Norilsk          1337.438
        45   01 Jun 2027 12:06:13.997   01 Jun 2027 12:06:48.902            34.905              Murmansk2          1090.781
        46   01 Jun 2027 12:07:03.129   01 Jun 2027 12:07:19.094            15.965              Murmansk2           498.906
        47   01 Jun 2027 13:05:45.059   01 Jun 2027 13:07:48.343           123.284               CapeTown          3852.625
        48   01 Jun 2027 13:08:23.649   01 Jun 2027 13:10:47.397           143.748               CapeTown          4492.125
        49   01 Jun 2027 13:11:17.325   01 Jun 2027 13:15:39.946           262.621               CapeTown          8206.906
        50   01 Jun 2027 13:35:22.207   01 Jun 2027 13:35:55.017            32.810              Murmansk2          1025.312
        51   01 Jun 2027 13:36:07.158   01 Jun 2027 13:36:24.106            16.948              Murmansk1           529.625
        52   01 Jun 2027 13:36:47.118   01 Jun 2027 13:37:00.975            13.857              Murmansk2           433.031
        53   01 Jun 2027 13:37:33.597   01 Jun 2027 13:38:15.409            41.812              Murmansk1          1306.625
        54   01 Jun 2027 13:38:32.659   01 Jun 2027 13:40:51.402           138.743              Murmansk1          4335.719
        55   01 Jun 2027 13:40:51.402   01 Jun 2027 13:41:42.390            50.988              Murmansk2          1593.375
        56   01 Jun 2027 13:42:03.252   01 Jun 2027 13:42:05.768             2.516              Murmansk2            78.625
        57   01 Jun 2027 13:42:49.118   01 Jun 2027 13:43:17.088            27.970              Murmansk2           874.063
        58   01 Jun 2027 13:45:31.084   01 Jun 2027 13:47:54.340           143.256                Anadyr1          4476.750
        59   01 Jun 2027 13:47:54.340   01 Jun 2027 13:48:21.929            27.589                Anadyr2           862.156
        60   01 Jun 2027 13:49:26.087   01 Jun 2027 13:54:40.957           314.870                Anadyr1          9839.687
        61   01 Jun 2027 15:15:04.029   01 Jun 2027 15:15:52.892            48.863              Murmansk2          1526.969
        62   01 Jun 2027 15:17:05.661   01 Jun 2027 15:17:32.379            26.718              Murmansk2           834.938
        63   01 Jun 2027 15:18:47.012   01 Jun 2027 15:18:59.991            12.979              Murmansk1           405.594
        64   01 Jun 2027 15:23:30.432   01 Jun 2027 15:23:47.037            16.605                Anadyr1           518.906
        65   01 Jun 2027 15:24:02.554   01 Jun 2027 15:24:56.385            53.831                Anadyr1          1682.219
        66   01 Jun 2027 15:26:03.344   01 Jun 2027 15:27:30.468            87.124                Anadyr2          2722.625
        67   01 Jun 2027 15:27:57.711   01 Jun 2027 15:31:24.951           207.240               Magadan1          6476.250
        68   01 Jun 2027 16:56:54.428   01 Jun 2027 16:57:23.755            29.327                Anadyr1           916.469
        69   01 Jun 2027 16:57:37.747   01 Jun 2027 16:58:14.370            36.623                Anadyr1          1144.469
        70   01 Jun 2027 16:58:55.919   01 Jun 2027 16:59:19.192            23.273                Anadyr1           727.281
        71   01 Jun 2027 16:59:29.306   01 Jun 2027 17:00:07.923            38.617               Magadan1          1206.781
        72   01 Jun 2027 17:00:51.717   01 Jun 2027 17:01:23.127            31.410               Magadan2           981.562
        73   01 Jun 2027 17:01:25.055   01 Jun 2027 17:01:48.029            22.974               Magadan2           717.938
        74   01 Jun 2027 17:02:10.678   01 Jun 2027 17:02:19.643             8.965               Magadan2           280.156
        75   01 Jun 2027 17:02:29.074   01 Jun 2027 17:03:47.660            78.586               Magadan1          2455.813
        76   01 Jun 2027 17:06:32.086   01 Jun 2027 17:07:00.919            28.833               Magadan1           901.031
        77   01 Jun 2027 17:08:09.052   01 Jun 2027 17:08:18.562             9.510                Anadyr2           297.187
        78   01 Jun 2027 17:08:49.813   01 Jun 2027 17:08:54.434             4.621                Anadyr1           144.406
        79   01 Jun 2027 17:08:54.434   01 Jun 2027 17:09:40.871            46.437                Anadyr2          1451.156
        80   01 Jun 2027 17:10:58.633   01 Jun 2027 17:11:26.644            28.011               Magadan2           875.344
        81   01 Jun 2027 18:32:45.955   01 Jun 2027 18:34:45.251           119.296                Anadyr2          3728.000
        82   01 Jun 2027 18:35:04.312   01 Jun 2027 18:37:38.302           153.990                Norilsk          4812.187
        83   01 Jun 2027 18:37:39.495   01 Jun 2027 18:37:41.642             2.147                Norilsk            67.094
        84   01 Jun 2027 18:38:01.337   01 Jun 2027 18:40:34.587           153.250                Norilsk          4789.063
        85   01 Jun 2027 18:41:31.309   01 Jun 2027 18:43:36.012           124.703                Irkutsk          3896.969
        86   01 Jun 2027 18:44:30.632   01 Jun 2027 18:44:55.709            25.077                Irkutsk           783.656
        87   01 Jun 2027 18:46:25.028   01 Jun 2027 18:47:14.780            49.752                Irkutsk          1554.750
        88   01 Jun 2027 18:56:56.329   01 Jun 2027 19:01:01.833           245.504                Sumatra          7672.000
        89   01 Jun 2027 20:15:49.894   01 Jun 2027 20:16:02.895            13.001                Novosib           406.281
        90   01 Jun 2027 20:17:04.797   01 Jun 2027 20:17:50.363            45.566                Novosib          1423.937
        91   01 Jun 2027 20:18:08.997   01 Jun 2027 20:19:11.151            62.154                Novosib          1942.312
        92   01 Jun 2027 20:28:20.546   01 Jun 2027 20:28:44.604            24.058                Sumatra           751.813
        93   01 Jun 2027 20:34:03.700   01 Jun 2027 20:35:13.373            69.673                Sumatra          2177.281
        94   01 Jun 2027 20:36:08.964   01 Jun 2027 20:36:51.006            42.042                Sumatra          1313.813
        95   01 Jun 2027 20:37:50.506   01 Jun 2027 20:37:59.353             8.847                Sumatra           276.469
        96   01 Jun 2027 21:48:06.850   01 Jun 2027 21:48:49.926            43.076                Norilsk          1346.125
        97   01 Jun 2027 21:49:48.035   01 Jun 2027 21:50:00.879            12.844               Magadan2           401.375
        98   01 Jun 2027 21:50:20.120   01 Jun 2027 21:53:08.269           168.149              Murmansk1          5254.656
        99   01 Jun 2027 21:57:55.458   01 Jun 2027 21:59:48.741           113.283                  Delhi          3540.094
       100   01 Jun 2027 22:00:46.725   01 Jun 2027 22:01:03.499            16.774                  Delhi           524.187
       101   01 Jun 2027 22:02:22.743   01 Jun 2027 22:03:51.120            88.377                  Delhi          2761.781
       102   01 Jun 2027 23:20:25.495   01 Jun 2027 23:20:27.017             1.522                Anadyr1            47.563
       103   01 Jun 2027 23:21:26.777   01 Jun 2027 23:21:39.476            12.699                Anadyr2           396.844
       104   01 Jun 2027 23:22:03.896   01 Jun 2027 23:22:48.086            44.190               Magadan2          1380.937
       105   01 Jun 2027 23:23:17.143   01 Jun 2027 23:24:22.132            64.989               Magadan1          2030.906
       106   01 Jun 2027 23:24:36.800   01 Jun 2027 23:24:38.912             2.112                Norilsk            66.000
       107   01 Jun 2027 23:24:39.110   01 Jun 2027 23:24:55.222            16.112               Magadan1           503.500
       108   01 Jun 2027 23:24:56.894   01 Jun 2027 23:29:00.063           243.169              Murmansk2          7599.031
       109   01 Jun 2027 23:29:33.479   01 Jun 2027 23:30:59.282            85.803                 Moscow          2681.344
       110   01 Jun 2027 23:34:34.460   01 Jun 2027 23:35:13.251            38.791                 Moscow          1212.219
       111   01 Jun 2027 23:36:37.527   01 Jun 2027 23:37:24.092            46.565                 Moscow          1455.156
       112   01 Jun 2027 23:56:21.299   01 Jun 2027 23:57:54.723            93.424               CapeTown          2919.500
       113   01 Jun 2027 23:58:19.885   01 Jun 2027 23:59:11.480            51.595               CapeTown          1612.344
       114   02 Jun 2027 00:54:50.713   02 Jun 2027 00:55:10.805            20.092               Magadan2           627.875
       115   02 Jun 2027 00:56:58.425   02 Jun 2027 00:57:39.403            40.978               Magadan1          1280.562
       116   02 Jun 2027 01:00:22.948   02 Jun 2027 01:00:37.076            14.128                Norilsk           441.500
       117   02 Jun 2027 01:00:44.499   02 Jun 2027 01:02:07.736            83.237              Murmansk2          2601.156
       118   02 Jun 2027 01:02:59.636   02 Jun 2027 01:03:09.110             9.474              Murmansk1           296.062
       119   02 Jun 2027 01:03:31.287   02 Jun 2027 01:03:44.959            13.672              Murmansk2           427.250
       120   02 Jun 2027 01:04:52.689   02 Jun 2027 01:04:56.647             3.958              Murmansk2           123.688
       121   02 Jun 2027 01:05:36.188   02 Jun 2027 01:05:43.536             7.348                Novosib           229.625
       122   02 Jun 2027 01:05:57.295   02 Jun 2027 01:06:09.400            12.105                 Moscow           378.281
       123   02 Jun 2027 01:06:42.062   02 Jun 2027 01:07:09.037            26.975                 Moscow           842.969
       124   02 Jun 2027 01:08:33.163   02 Jun 2027 01:09:35.546            62.383                 Moscow          1949.469
       125   02 Jun 2027 01:15:43.439   02 Jun 2027 01:16:49.110            65.671                 Moscow          2052.219
       126   02 Jun 2027 01:36:32.774   02 Jun 2027 01:37:19.916            47.142               CapeTown          1473.188
       127   02 Jun 2027 02:24:34.653   02 Jun 2027 02:25:55.572            80.919                Anadyr2          2528.719
       128   02 Jun 2027 02:26:09.780   02 Jun 2027 02:27:00.219            50.439               Magadan1          1576.219
       129   02 Jun 2027 02:27:37.716   02 Jun 2027 02:27:39.546             1.830               Magadan1            57.188
       130   02 Jun 2027 02:28:26.377   02 Jun 2027 02:28:52.984            26.607               Magadan1           831.469
       131   02 Jun 2027 02:28:52.984   02 Jun 2027 02:29:41.522            48.538               Magadan2          1516.812
       132   02 Jun 2027 02:33:56.326   02 Jun 2027 02:34:07.411            11.085                Norilsk           346.406
       133   02 Jun 2027 02:35:39.329   02 Jun 2027 02:36:09.185            29.856                Norilsk           933.000
       134   02 Jun 2027 02:36:42.267   02 Jun 2027 02:37:11.593            29.326              Murmansk2           916.438
       135   02 Jun 2027 02:37:11.593   02 Jun 2027 02:37:58.321            46.728              Murmansk1          1460.250
       136   02 Jun 2027 02:39:49.842   02 Jun 2027 02:40:02.671            12.829              Murmansk1           400.906
       137   02 Jun 2027 02:40:31.924   02 Jun 2027 02:40:36.729             4.805              Murmansk1           150.156
       138   02 Jun 2027 02:41:25.179   02 Jun 2027 02:41:53.558            28.379                 Moscow           886.844
       139   02 Jun 2027 02:43:31.160   02 Jun 2027 02:43:53.138            21.978              Murmansk1           686.813
       140   02 Jun 2027 02:46:55.678   02 Jun 2027 02:47:12.688            17.010                 Moscow           531.563
       141   02 Jun 2027 02:48:51.780   02 Jun 2027 02:49:23.143            31.363              Murmansk2           980.094
       142   02 Jun 2027 03:06:51.130   02 Jun 2027 03:07:23.205            32.075               CapeTown          1002.344
       143   02 Jun 2027 03:11:25.420   02 Jun 2027 03:11:56.333            30.913               CapeTown           966.031
       144   02 Jun 2027 04:04:54.014   02 Jun 2027 04:05:21.155            27.141               Magadan1           848.156
       145   02 Jun 2027 04:05:22.402   02 Jun 2027 04:05:59.441            37.039                Anadyr1          1157.469
       146   02 Jun 2027 04:06:08.522   02 Jun 2027 04:06:56.078            47.556                Anadyr1          1486.125
       147   02 Jun 2027 04:07:13.202   02 Jun 2027 04:11:23.765           250.563                Anadyr1          7830.094
       148   02 Jun 2027 04:11:29.579   02 Jun 2027 04:11:49.503            19.924                Anadyr1           622.625
       149   02 Jun 2027 04:12:56.703   02 Jun 2027 04:13:01.143             4.440                Anadyr2           138.750
       150   02 Jun 2027 04:51:57.856   02 Jun 2027 04:53:17.781            79.925            RioGallegos          2497.656
       151   02 Jun 2027 05:42:30.126   02 Jun 2027 05:45:42.986           192.860               Magadan1          6026.875
       152   02 Jun 2027 05:45:49.333   02 Jun 2027 05:48:18.540           149.207                Anadyr2          4662.719
       153   02 Jun 2027 05:48:36.052   02 Jun 2027 05:48:53.480            17.428               Magadan2           544.625
       154   02 Jun 2027 07:20:39.119   02 Jun 2027 07:22:50.560           131.441                Irkutsk          4107.531
       155   02 Jun 2027 07:22:54.213   02 Jun 2027 07:23:06.847            12.634               Magadan1           394.812
       156   02 Jun 2027 07:23:37.113   02 Jun 2027 07:23:59.534            22.421                Irkutsk           700.656
       157   02 Jun 2027 07:24:33.885   02 Jun 2027 07:26:07.772            93.887                Novosib          2933.969
       158   02 Jun 2027 07:28:05.375   02 Jun 2027 07:28:33.785            28.410                Norilsk           887.812
       159   02 Jun 2027 07:29:36.696   02 Jun 2027 07:31:03.906            87.210              Murmansk2          2725.313
       160   02 Jun 2027 08:03:31.875   02 Jun 2027 08:05:53.805           141.930            RioGallegos          4435.312
       161   02 Jun 2027 08:06:30.219   02 Jun 2027 08:06:54.450            24.231            RioGallegos           757.219
       162   02 Jun 2027 08:07:27.895   02 Jun 2027 08:08:14.050            46.155            RioGallegos          1442.344
       163   02 Jun 2027 08:34:21.657   02 Jun 2027 08:35:08.995            47.338                Sumatra          1479.313
       164   02 Jun 2027 08:36:47.323   02 Jun 2027 08:38:11.190            83.867                Sumatra          2620.844
       165   02 Jun 2027 08:39:59.111   02 Jun 2027 08:41:03.874            64.763                Sumatra          2023.844
       166   02 Jun 2027 08:43:23.267   02 Jun 2027 08:43:33.727            10.460                Sumatra           326.875
       167   02 Jun 2027 08:43:58.472   02 Jun 2027 08:44:00.896             2.424                Sumatra            75.750
       168   02 Jun 2027 08:57:47.640   02 Jun 2027 09:00:23.822           156.182                Irkutsk          4880.687
       169   02 Jun 2027 09:01:02.159   02 Jun 2027 09:01:35.094            32.935                Novosib          1029.219
       170   02 Jun 2027 09:03:59.767   02 Jun 2027 09:04:21.543            21.776                Norilsk           680.500
       171   02 Jun 2027 09:40:35.336   02 Jun 2027 09:43:04.896           149.560            RioGallegos          4673.750
       172   02 Jun 2027 09:43:07.607   02 Jun 2027 09:43:17.750            10.143            RioGallegos           316.969
       173   02 Jun 2027 10:18:45.780   02 Jun 2027 10:20:21.874            96.094                  Delhi          3002.938
       174   02 Jun 2027 10:28:29.024   02 Jun 2027 10:28:33.069             4.045                  Delhi           126.406
       175   02 Jun 2027 10:32:30.860   02 Jun 2027 10:32:33.883             3.023                Novosib            94.469
       176   02 Jun 2027 10:32:52.922   02 Jun 2027 10:33:55.492            62.570                Novosib          1955.312
       177   02 Jun 2027 10:35:01.915   02 Jun 2027 10:35:45.850            43.935                Novosib          1372.969
       178   02 Jun 2027 10:35:52.194   02 Jun 2027 10:36:08.780            16.586                Novosib           518.312
       179   02 Jun 2027 10:36:18.704   02 Jun 2027 10:36:19.327             0.623                Norilsk            19.469
       180   02 Jun 2027 10:36:27.103   02 Jun 2027 10:37:28.517            61.414                Norilsk          1919.188
       181   02 Jun 2027 12:06:25.245   02 Jun 2027 12:06:41.629            16.384              Murmansk1           512.000
       182   02 Jun 2027 12:06:58.294   02 Jun 2027 12:07:03.258             4.964              Murmansk1           155.125
       183   02 Jun 2027 12:07:19.351   02 Jun 2027 12:07:59.082            39.731              Murmansk1          1241.594
       184   02 Jun 2027 12:08:39.781   02 Jun 2027 12:09:28.499            48.718              Murmansk1          1522.437
       185   02 Jun 2027 12:10:51.051   02 Jun 2027 12:13:28.114           157.063                Norilsk          4908.219
       186   02 Jun 2027 13:19:56.054   02 Jun 2027 13:20:49.767            53.713               CapeTown          1678.531
       187   02 Jun 2027 13:22:00.940   02 Jun 2027 13:22:36.035            35.095               CapeTown          1096.719
       188   02 Jun 2027 13:23:35.420   02 Jun 2027 13:23:52.604            17.184               CapeTown           537.000
       189   02 Jun 2027 13:26:39.441   02 Jun 2027 13:26:41.166             1.725               CapeTown            53.906
       190   02 Jun 2027 13:40:34.980   02 Jun 2027 13:40:39.066             4.086                 Moscow           127.687
       191   02 Jun 2027 13:43:37.780   02 Jun 2027 13:44:09.804            32.024              Murmansk1          1000.750
       192   02 Jun 2027 13:44:31.067   02 Jun 2027 13:45:52.898            81.831              Murmansk2          2557.219
       193   02 Jun 2027 13:47:22.588   02 Jun 2027 13:48:02.234            39.646              Murmansk2          1238.937
       194   02 Jun 2027 13:51:05.511   02 Jun 2027 13:51:13.402             7.891              Murmansk2           246.594
       195   02 Jun 2027 13:52:35.438   02 Jun 2027 13:52:53.749            18.311              Murmansk1           572.219
       196   02 Jun 2027 13:53:15.339   02 Jun 2027 13:53:50.914            35.575              Murmansk1          1111.719
       197   02 Jun 2027 13:57:25.598   02 Jun 2027 13:59:54.748           149.150                Anadyr1          4660.938
       198   02 Jun 2027 13:59:54.748   02 Jun 2027 13:59:56.392             1.644                Anadyr2            51.375
       199   02 Jun 2027 14:02:11.363   02 Jun 2027 14:02:48.998            37.635                Anadyr1          1176.094
       200   02 Jun 2027 14:04:41.084   02 Jun 2027 14:05:24.317            43.233                Anadyr1          1351.031
       201   02 Jun 2027 15:23:10.695   02 Jun 2027 15:23:56.822            46.127              Murmansk2          1441.469
       202   02 Jun 2027 15:25:01.039   02 Jun 2027 15:25:11.148            10.109              Murmansk1           315.906
       203   02 Jun 2027 15:25:21.292   02 Jun 2027 15:27:02.529           101.237              Murmansk1          3163.656
       204   02 Jun 2027 15:33:00.920   02 Jun 2027 15:33:27.109            26.189                Anadyr2           818.406
       205   02 Jun 2027 15:33:58.961   02 Jun 2027 15:34:25.796            26.835                Anadyr1           838.594
       206   02 Jun 2027 15:35:13.723   02 Jun 2027 15:35:26.508            12.785                Anadyr2           399.531
       207   02 Jun 2027 15:35:43.711   02 Jun 2027 15:35:56.630            12.919                Anadyr1           403.719
       208   02 Jun 2027 15:36:12.457   02 Jun 2027 15:36:49.152            36.695                Anadyr2          1146.719
       209   02 Jun 2027 15:37:38.375   02 Jun 2027 15:39:54.257           135.882               Magadan2          4246.312
       210   02 Jun 2027 15:39:56.329   02 Jun 2027 15:42:36.527           160.198               Magadan1          5006.188
       211   02 Jun 2027 17:10:08.973   02 Jun 2027 17:10:27.068            18.095                Anadyr2           565.469
       212   02 Jun 2027 17:11:16.222   02 Jun 2027 17:11:55.578            39.356               Magadan1          1229.875
       213   02 Jun 2027 17:11:55.578   02 Jun 2027 17:12:21.740            26.162               Magadan2           817.562
       214   02 Jun 2027 17:12:46.331   02 Jun 2027 17:13:07.714            21.383               Magadan2           668.219
       215   02 Jun 2027 17:15:28.185   02 Jun 2027 17:15:53.004            24.819               Magadan1           775.594
       216   02 Jun 2027 17:19:02.467   02 Jun 2027 17:19:40.577            38.110               Magadan2          1190.937
       217   02 Jun 2027 18:05:49.167   02 Jun 2027 18:08:03.168           134.001            RioGallegos          4187.531
       218   02 Jun 2027 18:44:45.533   02 Jun 2027 18:45:35.902            50.369                Anadyr1          1574.031
       219   02 Jun 2027 18:46:09.301   02 Jun 2027 18:46:22.361            13.060                Anadyr2           408.125
       220   02 Jun 2027 18:46:30.333   02 Jun 2027 18:47:02.442            32.109                Anadyr1          1003.406
       221   02 Jun 2027 18:47:08.771   02 Jun 2027 18:47:56.202            47.431               Magadan2          1482.219
       222   02 Jun 2027 18:48:04.580   02 Jun 2027 18:49:40.196            95.616                Norilsk          2988.000
       223   02 Jun 2027 18:50:59.777   02 Jun 2027 18:51:09.330             9.553                Norilsk           298.531
       224   02 Jun 2027 18:51:46.268   02 Jun 2027 18:52:44.551            58.283                Norilsk          1821.344
       225   02 Jun 2027 18:53:35.279   02 Jun 2027 18:56:16.411           161.132                Irkutsk          5035.375
       226   02 Jun 2027 18:57:05.794   02 Jun 2027 18:58:26.834            81.040                Irkutsk          2532.500
       227   02 Jun 2027 19:07:24.002   02 Jun 2027 19:09:26.852           122.850                Sumatra          3839.063
       228   02 Jun 2027 19:12:57.538   02 Jun 2027 19:14:02.306            64.768                Sumatra          2024.000
       229   02 Jun 2027 20:27:24.652   02 Jun 2027 20:29:29.248           124.596                Novosib          3893.625
       230   02 Jun 2027 20:32:40.050   02 Jun 2027 20:33:04.929            24.879                Novosib           777.469
       231   02 Jun 2027 20:38:29.033   02 Jun 2027 20:40:21.459           112.426                  Delhi          3513.313
       232   02 Jun 2027 21:59:13.769   02 Jun 2027 22:00:01.325            47.556               Magadan2          1486.125
       233   02 Jun 2027 22:00:10.740   02 Jun 2027 22:00:41.300            30.560               Magadan2           955.000
       234   02 Jun 2027 22:01:50.276   02 Jun 2027 22:05:25.133           214.857              Murmansk1          6714.281
       235   02 Jun 2027 22:09:50.495   02 Jun 2027 22:10:38.769            48.274                  Delhi          1508.562
       236   02 Jun 2027 22:14:02.785   02 Jun 2027 22:14:56.479            53.694                  Delhi          1677.938
       237   02 Jun 2027 23:28:37.985   02 Jun 2027 23:29:50.582            72.597                Anadyr1          2268.656
       238   02 Jun 2027 23:33:41.686   02 Jun 2027 23:34:23.199            41.513               Magadan1          1297.281
       239   02 Jun 2027 23:34:23.199   02 Jun 2027 23:35:19.748            56.549               Magadan2          1767.156
       240   02 Jun 2027 23:36:52.159   02 Jun 2027 23:38:38.546           106.387              Murmansk1          3324.594
       241   02 Jun 2027 23:39:39.254   02 Jun 2027 23:41:57.421           138.167              Murmansk2          4317.719
       242   02 Jun 2027 23:42:46.287   02 Jun 2027 23:44:30.851           104.564                 Moscow          3267.625
       243   03 Jun 2027 00:07:15.288   03 Jun 2027 00:09:23.314           128.026               CapeTown          4000.812
       244   03 Jun 2027 00:12:20.340   03 Jun 2027 00:14:37.852           137.512               CapeTown          4297.250
       245   03 Jun 2027 01:13:59.332   03 Jun 2027 01:15:05.002            65.670              Murmansk2          2052.187
       246   03 Jun 2027 01:15:59.818   03 Jun 2027 01:17:24.607            84.789                 Moscow          2649.656
       247   03 Jun 2027 01:39:52.741   03 Jun 2027 01:41:18.690            85.949               CapeTown          2685.906
       248   03 Jun 2027 01:50:38.148   03 Jun 2027 01:51:46.619            68.471               CapeTown          2139.719
       249   03 Jun 2027 02:36:37.027   03 Jun 2027 02:37:22.670            45.643                Anadyr1          1426.344
       250   03 Jun 2027 02:37:50.576   03 Jun 2027 02:38:24.165            33.589               Magadan1          1049.656
       251   03 Jun 2027 02:38:58.321   03 Jun 2027 02:39:30.537            32.216               Magadan2          1006.750
       252   03 Jun 2027 02:42:43.091   03 Jun 2027 02:42:48.700             5.609               Magadan2           175.281
       253   03 Jun 2027 02:43:45.528   03 Jun 2027 02:44:19.376            33.848               Magadan1          1057.750
       254   03 Jun 2027 02:45:19.914   03 Jun 2027 02:45:44.785            24.871                Norilsk           777.219
       255   03 Jun 2027 02:48:43.397   03 Jun 2027 02:48:58.410            15.013              Murmansk2           469.156
       256   03 Jun 2027 02:49:22.155   03 Jun 2027 02:49:48.078            25.923              Murmansk2           810.094
       257   03 Jun 2027 02:49:48.078   03 Jun 2027 02:50:14.508            26.430              Murmansk1           825.938
       258   03 Jun 2027 02:51:17.436   03 Jun 2027 02:52:01.470            44.034              Murmansk2          1376.063
       259   03 Jun 2027 02:52:50.396   03 Jun 2027 02:53:13.449            23.053                 Moscow           720.406
       260   03 Jun 2027 02:57:17.731   03 Jun 2027 02:57:31.061            13.330                 Moscow           416.563
       261   03 Jun 2027 02:59:45.190   03 Jun 2027 03:00:00.849            15.659                 Moscow           489.344
       262   03 Jun 2027 03:19:00.431   03 Jun 2027 03:19:11.888            11.457               CapeTown           358.031
       263   03 Jun 2027 04:19:14.734   03 Jun 2027 04:21:17.098           122.364                Anadyr2          3823.875
       264   03 Jun 2027 04:21:20.339   03 Jun 2027 04:21:46.623            26.284                Anadyr2           821.375
       265   03 Jun 2027 04:21:50.167   03 Jun 2027 04:22:40.660            50.493               Magadan2          1577.906
       266   03 Jun 2027 05:03:15.970   03 Jun 2027 05:05:40.405           144.435            RioGallegos          4513.594
       267   03 Jun 2027 05:55:16.982   03 Jun 2027 05:55:57.184            40.202                Irkutsk          1256.312
       268   03 Jun 2027 05:56:40.813   03 Jun 2027 05:59:19.687           158.874                Anadyr2          4964.812
       269   03 Jun 2027 05:59:29.006   03 Jun 2027 06:00:31.421            62.415               Magadan1          1950.469
       270   03 Jun 2027 06:00:38.548   03 Jun 2027 06:00:45.874             7.326               Magadan1           228.938
       271   03 Jun 2027 07:31:04.519   03 Jun 2027 07:31:07.657             3.138               Magadan1            98.063
       272   03 Jun 2027 07:31:08.570   03 Jun 2027 07:31:41.715            33.145               Magadan2          1035.781
       273   03 Jun 2027 07:31:50.450   03 Jun 2027 07:32:50.171            59.721               Magadan2          1866.281
       274   03 Jun 2027 07:32:57.831   03 Jun 2027 07:32:58.842             1.011               Magadan1            31.594
       275   03 Jun 2027 07:33:34.719   03 Jun 2027 07:33:39.710             4.991                Irkutsk           155.969
       276   03 Jun 2027 07:34:05.639   03 Jun 2027 07:35:01.871            56.232                Irkutsk          1757.250
       277   03 Jun 2027 07:35:23.865   03 Jun 2027 07:35:33.826             9.961                Irkutsk           311.281
       278   03 Jun 2027 07:35:49.748   03 Jun 2027 07:36:52.303            62.555                Irkutsk          1954.844
       279   03 Jun 2027 08:12:02.270   03 Jun 2027 08:12:06.721             4.451            RioGallegos           139.094
       280   03 Jun 2027 08:16:17.332   03 Jun 2027 08:16:21.958             4.626            RioGallegos           144.563
       281   03 Jun 2027 08:19:38.608   03 Jun 2027 08:20:13.300            34.692            RioGallegos          1084.125
       282   03 Jun 2027 08:49:24.547   03 Jun 2027 08:50:36.040            71.493                Sumatra          2234.156
       283   03 Jun 2027 09:08:32.356   03 Jun 2027 09:08:50.379            18.023                Irkutsk           563.219
       284   03 Jun 2027 09:09:25.623   03 Jun 2027 09:09:35.431             9.808                Novosib           306.500
       285   03 Jun 2027 09:10:10.106   03 Jun 2027 09:10:25.146            15.040                Irkutsk           470.000
       286   03 Jun 2027 09:10:54.991   03 Jun 2027 09:11:09.485            14.494                Irkutsk           452.938
       287   03 Jun 2027 09:11:12.976   03 Jun 2027 09:12:15.761            62.785                Irkutsk          1962.031
       288   03 Jun 2027 09:12:53.843   03 Jun 2027 09:12:58.350             4.507                Novosib           140.844
       289   03 Jun 2027 10:31:02.447   03 Jun 2027 10:35:14.885           252.438                  Delhi          7888.687
       290   03 Jun 2027 10:44:38.501   03 Jun 2027 10:45:11.129            32.628                Novosib          1019.625
       291   03 Jun 2027 10:45:19.697   03 Jun 2027 10:45:45.260            25.563                Novosib           798.844
       292   03 Jun 2027 10:45:59.770   03 Jun 2027 10:46:38.320            38.550                Novosib          1204.688
       293   03 Jun 2027 10:46:41.383   03 Jun 2027 10:47:52.373            70.990                Novosib          2218.437
       294   03 Jun 2027 10:48:30.515   03 Jun 2027 10:48:38.560             8.045                Norilsk           251.406
       295   03 Jun 2027 12:18:29.992   03 Jun 2027 12:19:10.463            40.471              Murmansk2          1264.719
       296   03 Jun 2027 12:19:24.323   03 Jun 2027 12:19:58.816            34.493              Murmansk2          1077.906
       297   03 Jun 2027 12:20:41.314   03 Jun 2027 12:21:27.529            46.215              Murmansk2          1444.219
       298   03 Jun 2027 12:23:39.924   03 Jun 2027 12:26:12.341           152.417                Norilsk          4763.031
       299   03 Jun 2027 13:32:44.409   03 Jun 2027 13:33:41.900            57.491               CapeTown          1796.594
       300   03 Jun 2027 13:35:01.824   03 Jun 2027 13:35:18.935            17.111               CapeTown           534.719
       301   03 Jun 2027 13:37:46.684   03 Jun 2027 13:38:27.685            41.001               CapeTown          1281.281
       302   03 Jun 2027 13:40:05.304   03 Jun 2027 13:40:41.082            35.778               CapeTown          1118.062
       303   03 Jun 2027 13:53:25.344   03 Jun 2027 13:53:46.056            20.712                 Moscow           647.250
       304   03 Jun 2027 13:54:12.182   03 Jun 2027 13:54:16.192             4.010                 Moscow           125.312
       305   03 Jun 2027 13:55:57.512   03 Jun 2027 13:57:08.055            70.543              Murmansk2          2204.469
       306   03 Jun 2027 13:57:16.416   03 Jun 2027 13:57:43.983            27.567              Murmansk1           861.469
       307   03 Jun 2027 13:59:23.265   03 Jun 2027 13:59:48.847            25.582              Murmansk2           799.437
       308   03 Jun 2027 14:00:37.661   03 Jun 2027 14:01:04.246            26.585              Murmansk2           830.781
       309   03 Jun 2027 14:01:52.658   03 Jun 2027 14:03:06.699            74.041              Murmansk2          2313.781
       310   03 Jun 2027 14:09:21.615   03 Jun 2027 14:10:39.576            77.961                Anadyr2          2436.281
       311   03 Jun 2027 14:11:18.708   03 Jun 2027 14:12:23.505            64.797                Anadyr1          2024.906
       312   03 Jun 2027 14:15:33.170   03 Jun 2027 14:16:41.974            68.804                Anadyr2          2150.125
       313   03 Jun 2027 15:35:53.508   03 Jun 2027 15:37:22.961            89.453              Murmansk2          2795.406
       314   03 Jun 2027 15:39:01.348   03 Jun 2027 15:39:20.142            18.794              Murmansk1           587.313
       315   03 Jun 2027 15:42:06.327   03 Jun 2027 15:42:49.809            43.482              Murmansk1          1358.812
       316   03 Jun 2027 15:45:01.743   03 Jun 2027 15:47:13.322           131.579                Anadyr1          4111.844
       317   03 Jun 2027 15:48:04.036   03 Jun 2027 15:53:02.902           298.866               Magadan1          9339.562
       318   03 Jun 2027 17:21:44.955   03 Jun 2027 17:21:56.036            11.081                Anadyr1           346.281
       319   03 Jun 2027 17:22:06.787   03 Jun 2027 17:22:49.225            42.438                Anadyr1          1326.188
       320   03 Jun 2027 17:23:15.662   03 Jun 2027 17:23:41.175            25.513               Magadan1           797.281
       321   03 Jun 2027 17:23:41.175   03 Jun 2027 17:23:50.815             9.640               Magadan2           301.250
       322   03 Jun 2027 17:26:15.756   03 Jun 2027 17:26:33.435            17.679               Magadan1           552.469
       323   03 Jun 2027 17:27:06.875   03 Jun 2027 17:27:24.093            17.218               Magadan2           538.062
       324   03 Jun 2027 17:29:22.232   03 Jun 2027 17:29:54.263            32.031               Magadan1          1000.969
       325   03 Jun 2027 17:31:05.661   03 Jun 2027 17:31:09.255             3.594               Magadan2           112.312
       326   03 Jun 2027 17:31:09.255   03 Jun 2027 17:31:16.833             7.578               Magadan1           236.813
       327   03 Jun 2027 17:31:21.138   03 Jun 2027 17:32:50.137            88.999               Magadan1          2781.219
       328   03 Jun 2027 18:16:51.660   03 Jun 2027 18:19:46.196           174.536            RioGallegos          5454.250
       329   03 Jun 2027 18:58:55.644   03 Jun 2027 19:00:13.792            78.148                Norilsk          2442.125
       330   03 Jun 2027 19:00:58.136   03 Jun 2027 19:02:59.397           121.261                Norilsk          3789.406
       331   03 Jun 2027 19:03:43.861   03 Jun 2027 19:04:06.540            22.679                Irkutsk           708.719
       332   03 Jun 2027 19:05:02.094   03 Jun 2027 19:05:56.813            54.719                Irkutsk          1709.969
       333   03 Jun 2027 19:06:10.078   03 Jun 2027 19:07:15.312            65.234                Irkutsk          2038.562
       334   03 Jun 2027 19:08:07.605   03 Jun 2027 19:08:46.882            39.277                Irkutsk          1227.406
       335   03 Jun 2027 19:18:27.420   03 Jun 2027 19:22:33.528           246.108                Sumatra          7690.875
       336   03 Jun 2027 19:25:21.059   03 Jun 2027 19:26:24.429            63.370                Sumatra          1980.312
       337   03 Jun 2027 20:41:33.136   03 Jun 2027 20:41:50.730            17.594                Novosib           549.812
       338   03 Jun 2027 20:42:07.249   03 Jun 2027 20:42:59.148            51.899                Novosib          1621.844
       339   03 Jun 2027 20:48:45.463   03 Jun 2027 20:50:58.538           133.075                  Delhi          4158.594
       340   03 Jun 2027 20:54:30.300   03 Jun 2027 20:55:26.083            55.783                  Delhi          1743.219
       341   03 Jun 2027 22:13:34.362   03 Jun 2027 22:17:20.533           226.171              Murmansk1          7067.844
       342   03 Jun 2027 22:17:28.645   03 Jun 2027 22:19:18.775           110.130              Murmansk2          3441.562
       343   03 Jun 2027 23:44:23.349   03 Jun 2027 23:45:29.376            66.027                Anadyr2          2063.344
       344   03 Jun 2027 23:46:00.614   03 Jun 2027 23:46:55.631            55.017               Magadan2          1719.281
       345   03 Jun 2027 23:47:53.431   03 Jun 2027 23:48:21.667            28.236               Magadan1           882.375
       346   03 Jun 2027 23:48:52.321   03 Jun 2027 23:52:10.038           197.717              Murmansk2          6178.656
       347   03 Jun 2027 23:52:36.095   03 Jun 2027 23:53:25.214            49.119                 Moscow          1534.969
       348   03 Jun 2027 23:54:03.424   03 Jun 2027 23:55:07.330            63.906                 Moscow          1997.062
       349   04 Jun 2027 00:01:35.537   04 Jun 2027 00:02:04.695            29.158                 Moscow           911.187
       350   04 Jun 2027 00:18:25.550   04 Jun 2027 00:19:18.881            53.331               CapeTown          1666.594
       351   04 Jun 2027 00:20:14.956   04 Jun 2027 00:20:58.606            43.650               CapeTown          1364.063
       352   04 Jun 2027 00:22:26.626   04 Jun 2027 00:22:57.442            30.816               CapeTown           963.000
       353   04 Jun 2027 01:16:54.794   04 Jun 2027 01:18:08.258            73.464               Magadan2          2295.750
       354   04 Jun 2027 01:24:47.867   04 Jun 2027 01:25:55.888            68.021              Murmansk1          2125.656
       355   04 Jun 2027 01:25:55.888   04 Jun 2027 01:26:18.014            22.126              Murmansk2           691.438
       356   04 Jun 2027 01:26:59.491   04 Jun 2027 01:27:30.477            30.986              Murmansk2           968.312
       357   04 Jun 2027 01:27:35.364   04 Jun 2027 01:27:53.008            17.644              Murmansk2           551.375
       358   04 Jun 2027 01:28:00.540   04 Jun 2027 01:29:24.275            83.735                 Moscow          2616.719
       359   04 Jun 2027 01:51:54.437   04 Jun 2027 01:52:27.766            33.329               CapeTown          1041.531
       360   04 Jun 2027 01:56:24.604   04 Jun 2027 01:56:38.033            13.429               CapeTown           419.656
       361   04 Jun 2027 01:57:29.558   04 Jun 2027 01:58:33.871            64.313               CapeTown          2009.781
       362   04 Jun 2027 02:48:41.385   04 Jun 2027 02:49:26.576            45.191                Anadyr2          1412.219
       363   04 Jun 2027 02:49:33.286   04 Jun 2027 02:50:57.815            84.529               Magadan2          2641.531
       364   04 Jun 2027 02:51:33.247   04 Jun 2027 02:51:38.135             4.888               Magadan2           152.750
       365   04 Jun 2027 02:51:38.135   04 Jun 2027 02:51:50.634            12.499               Magadan1           390.594
       366   04 Jun 2027 02:54:44.476   04 Jun 2027 02:54:57.517            13.041               Magadan2           407.531
       367   04 Jun 2027 02:54:57.517   04 Jun 2027 02:55:13.174            15.657               Magadan1           489.281
       368   04 Jun 2027 02:57:12.035   04 Jun 2027 02:57:45.914            33.879                Norilsk          1058.719
       369   04 Jun 2027 02:59:34.283   04 Jun 2027 02:59:39.796             5.513                Norilsk           172.281
       370   04 Jun 2027 04:32:15.383   04 Jun 2027 04:34:15.646           120.263                Irkutsk          3758.219
       371   04 Jun 2027 06:08:03.156   04 Jun 2027 06:08:30.229            27.073                Novosib           846.031
       372   04 Jun 2027 06:08:50.627   04 Jun 2027 06:10:21.392            90.765                Novosib          2836.406
       373   04 Jun 2027 06:10:28.648   04 Jun 2027 06:11:34.522            65.874               Magadan2          2058.562
       374   04 Jun 2027 06:11:34.522   04 Jun 2027 06:11:39.664             5.142               Magadan1           160.688
       375   04 Jun 2027 06:12:17.166   04 Jun 2027 06:12:40.857            23.691               Magadan2           740.344
       376   04 Jun 2027 06:12:40.857   04 Jun 2027 06:12:46.159             5.302               Magadan1           165.687
       377   04 Jun 2027 06:14:51.574   04 Jun 2027 06:15:27.027            35.453              Murmansk1          1107.906
       378   04 Jun 2027 07:44:51.105   04 Jun 2027 07:44:58.220             7.115                Novosib           222.344
       379   04 Jun 2027 07:47:29.038   04 Jun 2027 07:47:36.186             7.148                Irkutsk           223.375
       380   04 Jun 2027 07:47:37.964   04 Jun 2027 07:48:19.913            41.949                Irkutsk          1310.906
       381   04 Jun 2027 07:48:22.542   04 Jun 2027 07:48:53.557            31.015                Irkutsk           969.219
       382   04 Jun 2027 07:49:19.516   04 Jun 2027 07:49:31.836            12.320                Novosib           385.000
       383   04 Jun 2027 08:24:22.123   04 Jun 2027 08:25:01.490            39.367            RioGallegos          1230.219
       384   04 Jun 2027 08:58:40.728   04 Jun 2027 09:00:10.151            89.423                Sumatra          2794.469
       385   04 Jun 2027 09:21:34.672   04 Jun 2027 09:22:03.962            29.290                Novosib           915.313
       386   04 Jun 2027 09:23:32.488   04 Jun 2027 09:23:33.374             0.886                Norilsk            27.687
       387   04 Jun 2027 09:23:44.124   04 Jun 2027 09:24:05.029            20.905                Irkutsk           653.281
       388   04 Jun 2027 10:43:26.197   04 Jun 2027 10:47:01.212           215.015                  Delhi          6719.219
       389   04 Jun 2027 10:57:25.233   04 Jun 2027 10:57:51.981            26.748                Novosib           835.875
       390   04 Jun 2027 10:59:31.061   04 Jun 2027 10:59:53.899            22.838                Norilsk           713.687
       391   04 Jun 2027 10:59:58.277   04 Jun 2027 11:01:12.034            73.757                Novosib          2304.906
       392   04 Jun 2027 12:30:36.394   04 Jun 2027 12:32:07.329            90.935              Murmansk2          2841.719
       393   04 Jun 2027 12:33:14.904   04 Jun 2027 12:33:27.186            12.282              Murmansk2           383.812
       394   04 Jun 2027 12:33:48.184   04 Jun 2027 12:34:07.371            19.187              Murmansk2           599.594
       395   04 Jun 2027 12:35:18.756   04 Jun 2027 12:35:42.558            23.802              Murmansk2           743.813
       396   04 Jun 2027 12:36:36.106   04 Jun 2027 12:37:44.253            68.147                Norilsk          2129.594
       397   04 Jun 2027 12:39:18.837   04 Jun 2027 12:39:36.579            17.742                Norilsk           554.437
       398   04 Jun 2027 12:47:22.427   04 Jun 2027 12:50:11.379           168.952                Anadyr1          5279.750
       399   04 Jun 2027 13:43:10.970   04 Jun 2027 13:44:21.410            70.440               CapeTown          2201.250
       400   04 Jun 2027 13:51:47.916   04 Jun 2027 13:53:00.260            72.344               CapeTown          2260.750
       401   04 Jun 2027 14:08:19.470   04 Jun 2027 14:08:32.505            13.035              Murmansk1           407.344
       402   04 Jun 2027 14:09:17.993   04 Jun 2027 14:09:44.294            26.301              Murmansk2           821.906
       403   04 Jun 2027 14:11:54.495   04 Jun 2027 14:12:29.257            34.762              Murmansk2          1086.312
       404   04 Jun 2027 14:13:06.020   04 Jun 2027 14:13:27.768            21.748              Murmansk2           679.625
       405   04 Jun 2027 14:21:18.793   04 Jun 2027 14:24:24.579           185.786                Anadyr2          5805.813
       406   04 Jun 2027 14:24:55.027   04 Jun 2027 14:25:43.310            48.283                Anadyr2          1508.844
       407   04 Jun 2027 15:48:41.406   04 Jun 2027 15:50:58.492           137.086              Murmansk2          4283.937
       408   04 Jun 2027 15:57:02.756   04 Jun 2027 15:59:05.782           123.026                Anadyr2          3844.563
       409   04 Jun 2027 15:59:54.212   04 Jun 2027 16:03:09.386           195.174               Magadan1          6099.187
       410   04 Jun 2027 16:03:15.984   04 Jun 2027 16:03:55.867            39.883               Magadan2          1246.344
       411   04 Jun 2027 16:07:28.276   04 Jun 2027 16:07:51.635            23.359               Magadan2           729.969
       412   04 Jun 2027 17:32:58.162   04 Jun 2027 17:34:15.471            77.309                Anadyr2          2415.906
       413   04 Jun 2027 17:35:15.665   04 Jun 2027 17:36:17.795            62.130               Magadan2          1941.562
       414   04 Jun 2027 17:37:18.909   04 Jun 2027 17:38:18.717            59.808               Magadan1          1869.000
       415   04 Jun 2027 17:42:44.997   04 Jun 2027 17:43:01.914            16.917               Magadan2           528.656
       416   04 Jun 2027 18:28:18.211   04 Jun 2027 18:31:33.507           195.296            RioGallegos          6103.000
       417   04 Jun 2027 18:34:34.381   04 Jun 2027 18:35:23.832            49.451            RioGallegos          1545.344
       418   04 Jun 2027 19:10:53.594   04 Jun 2027 19:12:16.020            82.426                Norilsk          2575.813
       419   04 Jun 2027 19:13:43.866   04 Jun 2027 19:14:05.988            22.122                Norilsk           691.313
       420   04 Jun 2027 19:15:28.308   04 Jun 2027 19:18:50.759           202.451                Irkutsk          6326.594
       421   04 Jun 2027 19:21:41.743   04 Jun 2027 19:24:53.257           191.514                Irkutsk          5984.812
       422   04 Jun 2027 19:32:52.255   04 Jun 2027 19:34:15.449            83.194                Sumatra          2599.812
       423   04 Jun 2027 19:35:39.599   04 Jun 2027 19:36:58.778            79.179                Sumatra          2474.344
       424   04 Jun 2027 20:51:03.668   04 Jun 2027 20:52:05.394            61.726                Novosib          1928.938
       425   04 Jun 2027 20:52:34.184   04 Jun 2027 20:53:37.498            63.314                Novosib          1978.562
       426   04 Jun 2027 20:59:52.046   04 Jun 2027 21:02:39.749           167.703                  Delhi          5240.719
       427   04 Jun 2027 21:06:22.304   04 Jun 2027 21:08:05.857           103.553                  Delhi          3236.031
       428   04 Jun 2027 22:25:24.329   04 Jun 2027 22:29:17.490           233.161              Murmansk1          7286.281
       429   04 Jun 2027 22:29:51.621   04 Jun 2027 22:32:08.093           136.472              Murmansk2          4264.750
       430   04 Jun 2027 23:58:32.890   04 Jun 2027 23:58:46.839            13.949               Magadan1           435.906
       431   05 Jun 2027 00:00:02.233   05 Jun 2027 00:00:10.903             8.670               Magadan1           270.937
       432   05 Jun 2027 00:00:52.896   05 Jun 2027 00:04:11.481           198.585              Murmansk1          6205.781
       433   05 Jun 2027 00:04:28.889   05 Jun 2027 00:05:59.195            90.306                 Moscow          2822.063
       434   05 Jun 2027 00:06:12.254   05 Jun 2027 00:07:08.785            56.531                 Moscow          1766.594
       435   05 Jun 2027 00:29:46.361   05 Jun 2027 00:31:27.888           101.527               CapeTown          3172.719
       436   05 Jun 2027 00:34:22.505   05 Jun 2027 00:34:37.657            15.152               CapeTown           473.500
       437   05 Jun 2027 00:35:09.716   05 Jun 2027 00:36:28.112            78.396               CapeTown          2449.875
       438   05 Jun 2027 01:34:08.164   05 Jun 2027 01:34:29.255            21.091                Norilsk           659.094
       439   05 Jun 2027 01:36:06.333   05 Jun 2027 01:36:17.684            11.351               Magadan2           354.719
       440   05 Jun 2027 01:36:49.568   05 Jun 2027 01:38:53.617           124.049              Murmansk1          3876.531
       441   05 Jun 2027 01:40:01.881   05 Jun 2027 01:40:38.238            36.357                 Moscow          1136.156
       442   05 Jun 2027 01:47:12.841   05 Jun 2027 01:47:27.643            14.802                 Moscow           462.562
       443   05 Jun 2027 01:49:41.363   05 Jun 2027 01:50:01.277            19.914                 Moscow           622.313
       444   05 Jun 2027 01:50:45.915   05 Jun 2027 01:51:12.650            26.735                 Moscow           835.469
       445   05 Jun 2027 02:04:32.376   05 Jun 2027 02:05:16.288            43.912               CapeTown          1372.250
       446   05 Jun 2027 02:13:39.745   05 Jun 2027 02:13:45.072             5.327               CapeTown           166.469
       447   05 Jun 2027 02:15:43.281   05 Jun 2027 02:16:34.627            51.346               CapeTown          1604.562
       448   05 Jun 2027 03:00:47.800   05 Jun 2027 03:01:13.769            25.969                Anadyr2           811.531
       449   05 Jun 2027 03:01:21.186   05 Jun 2027 03:01:36.507            15.321                Anadyr1           478.781
       450   05 Jun 2027 03:01:42.447   05 Jun 2027 03:02:09.910            27.463                Anadyr1           858.219
       451   05 Jun 2027 03:04:21.639   05 Jun 2027 03:04:32.378            10.739                Anadyr2           335.594
       452   05 Jun 2027 03:06:28.162   05 Jun 2027 03:07:01.962            33.800                Anadyr1          1056.250
       453   05 Jun 2027 03:07:12.249   05 Jun 2027 03:08:49.841            97.592               Magadan2          3049.750
       454   05 Jun 2027 03:08:51.137   05 Jun 2027 03:09:03.835            12.698               Magadan1           396.812
       455   05 Jun 2027 03:09:27.784   05 Jun 2027 03:10:28.975            61.191                Anadyr1          1912.219
       456   05 Jun 2027 03:10:30.697   05 Jun 2027 03:11:09.387            38.690                Anadyr2          1209.062
       457   05 Jun 2027 03:11:12.034   05 Jun 2027 03:11:42.666            30.632                Anadyr2           957.250
       458   05 Jun 2027 04:45:56.648   05 Jun 2027 04:46:18.567            21.919               Magadan1           684.969
       459   05 Jun 2027 04:46:46.048   05 Jun 2027 04:46:50.084             4.036               Magadan1           126.125
       460   05 Jun 2027 04:47:07.308   05 Jun 2027 04:47:26.805            19.497                Anadyr1           609.281
       461   05 Jun 2027 04:47:26.805   05 Jun 2027 04:48:48.256            81.451                Anadyr2          2545.344
       462   05 Jun 2027 06:20:02.154   05 Jun 2027 06:20:52.006            49.852               Magadan2          1557.875
       463   05 Jun 2027 06:20:55.569   05 Jun 2027 06:20:57.067             1.498               Magadan2            46.812
       464   05 Jun 2027 06:20:57.067   05 Jun 2027 06:21:26.761            29.694               Magadan1           927.938
       465   05 Jun 2027 06:21:37.859   05 Jun 2027 06:21:55.561            17.702               Magadan2           553.187
       466   05 Jun 2027 06:22:44.425   05 Jun 2027 06:22:57.143            12.718               Magadan2           397.438
       467   05 Jun 2027 06:22:57.143   05 Jun 2027 06:23:53.238            56.095               Magadan1          1752.969
       468   05 Jun 2027 06:24:05.004   05 Jun 2027 06:24:05.071             0.067               Magadan1             2.094
       469   05 Jun 2027 06:24:21.957   05 Jun 2027 06:24:40.423            18.466               Magadan1           577.063
       470   05 Jun 2027 06:25:10.358   05 Jun 2027 06:25:47.343            36.985                Novosib          1155.781
       471   05 Jun 2027 07:56:06.099   05 Jun 2027 07:56:07.185             1.086                Novosib            33.937
       472   05 Jun 2027 07:56:08.067   05 Jun 2027 07:56:22.086            14.019                Irkutsk           438.094
       473   05 Jun 2027 07:57:01.234   05 Jun 2027 07:58:02.019            60.785                Novosib          1899.531
       474   05 Jun 2027 07:58:19.329   05 Jun 2027 07:59:22.450            63.121                Irkutsk          1972.531
       475   05 Jun 2027 07:59:44.806   05 Jun 2027 08:00:14.274            29.468                Novosib           920.875
       476   05 Jun 2027 08:00:26.117   05 Jun 2027 08:00:34.239             8.122                Novosib           253.813
       477   05 Jun 2027 08:01:18.085   05 Jun 2027 08:01:31.627            13.542              Murmansk2           423.187
       478   05 Jun 2027 08:01:54.445   05 Jun 2027 08:02:17.378            22.933              Murmansk2           716.656
       479   05 Jun 2027 08:36:46.745   05 Jun 2027 08:37:06.943            20.198            RioGallegos           631.188
       480   05 Jun 2027 08:38:13.375   05 Jun 2027 08:39:03.521            50.146            RioGallegos          1567.063
       481   05 Jun 2027 09:11:00.250   05 Jun 2027 09:12:01.369            61.119                Sumatra          1909.969
       482   05 Jun 2027 09:20:24.149   05 Jun 2027 09:20:56.406            32.257                Sumatra          1008.031
