uniorb/output/strategy_4/Drop/Drop_KinoSat_110105.txt

KinoSat_110105
-------------------------
    Access    *     Start Time (UTCG)     *     Stop Time (UTCG)  *   Duration (s)        *       Station  *  Data (Mbytes)
         1   01 Jun 2027 04:09:21.441   01 Jun 2027 04:10:11.828            50.387                Norilsk          6298.375
         2   01 Jun 2027 04:10:21.616   01 Jun 2027 04:12:41.173           139.557                Irkutsk         17444.625
         3   01 Jun 2027 04:12:52.572   01 Jun 2027 04:12:56.020             3.448                Norilsk           431.000
         4   01 Jun 2027 04:13:03.882   01 Jun 2027 04:13:37.812            33.930                Norilsk          4241.250
         5   01 Jun 2027 04:13:50.926   01 Jun 2027 04:13:58.769             7.843                Norilsk           980.375
         6   01 Jun 2027 04:14:58.743   01 Jun 2027 04:15:06.628             7.885                Norilsk           985.625
         7   01 Jun 2027 04:15:13.134   01 Jun 2027 04:15:17.348             4.214                Norilsk           526.750
         8   01 Jun 2027 04:50:43.042   01 Jun 2027 04:51:16.956            33.914            RioGallegos          4239.250
         9   01 Jun 2027 04:56:51.675   01 Jun 2027 04:57:07.469            15.794            RioGallegos          1974.250
        10   01 Jun 2027 05:25:03.687   01 Jun 2027 05:26:28.408            84.721                Sumatra         10590.125
        11   01 Jun 2027 05:31:13.286   01 Jun 2027 05:32:44.541            91.255                  Delhi         11406.875
        12   01 Jun 2027 05:36:28.850   01 Jun 2027 05:38:52.851           144.001                  Delhi         18000.125
        13   01 Jun 2027 05:48:21.745   01 Jun 2027 05:49:22.554            60.809                Novosib          7601.125
        14   01 Jun 2027 07:10:55.587   01 Jun 2027 07:12:15.835            80.248                  Delhi         10031.000
        15   01 Jun 2027 07:21:03.425   01 Jun 2027 07:22:24.522            81.097              Murmansk2         10137.125
        16   01 Jun 2027 07:22:41.154   01 Jun 2027 07:23:54.480            73.326                Norilsk          9165.750
        17   01 Jun 2027 07:24:45.387   01 Jun 2027 07:27:07.232           141.845              Murmansk1         17730.625
        18   01 Jun 2027 07:27:15.770   01 Jun 2027 07:27:39.541            23.771                 Moscow          2971.375
        19   01 Jun 2027 08:31:22.770   01 Jun 2027 08:32:31.942            69.172               CapeTown          8646.500
        20   01 Jun 2027 10:05:46.750   01 Jun 2027 10:06:32.591            45.841               CapeTown          5730.125
        21   01 Jun 2027 10:45:43.287   01 Jun 2027 10:46:10.373            27.086                Anadyr1          3385.750
        22   01 Jun 2027 10:47:32.031   01 Jun 2027 10:47:38.132             6.101                Anadyr2           762.625
        23   01 Jun 2027 10:48:03.893   01 Jun 2027 10:48:32.920            29.027                Anadyr1          3628.375
        24   01 Jun 2027 12:21:35.639   01 Jun 2027 12:22:19.856            44.217                Anadyr1          5527.125
        25   01 Jun 2027 12:24:03.906   01 Jun 2027 12:25:20.973            77.067               Magadan2          9633.375
        26   01 Jun 2027 12:26:02.570   01 Jun 2027 12:29:07.835           185.265               Magadan2         23158.125
        27   01 Jun 2027 12:32:03.124   01 Jun 2027 12:34:38.172           155.048               Magadan1         19381.000
        28   01 Jun 2027 14:55:37.764   01 Jun 2027 14:56:50.072            72.308            RioGallegos          9038.500
        29   01 Jun 2027 15:39:27.084   01 Jun 2027 15:41:27.144           120.060                Irkutsk         15007.500
        30   01 Jun 2027 15:48:58.342   01 Jun 2027 15:50:32.041            93.699                Irkutsk         11712.375
        31   01 Jun 2027 15:53:08.668   01 Jun 2027 15:58:34.792           326.124                Sumatra         40765.500
        32   01 Jun 2027 17:15:15.223   01 Jun 2027 17:17:54.347           159.124                Novosib         18902.000
        33   02 Jun 2027 05:38:23.110   02 Jun 2027 05:40:16.059           112.949                Sumatra         14118.625
        34   02 Jun 2027 05:43:15.537   02 Jun 2027 05:44:40.110            84.573                  Delhi         10571.625
        35   02 Jun 2027 05:51:03.443   02 Jun 2027 05:52:40.311            96.868                  Delhi         12108.500
        36   02 Jun 2027 06:01:02.274   02 Jun 2027 06:01:34.487            32.213                Novosib          4026.625
        37   02 Jun 2027 06:01:41.602   02 Jun 2027 06:01:52.244            10.642                Norilsk          1330.250
        38   02 Jun 2027 06:02:01.888   02 Jun 2027 06:04:17.881           135.993                 Moscow         16999.125
        39   02 Jun 2027 06:04:38.319   02 Jun 2027 06:08:09.873           211.554              Murmansk1         26444.250
        40   02 Jun 2027 07:27:41.806   02 Jun 2027 07:29:26.780           104.974                 Moscow         13121.750
        41   02 Jun 2027 07:36:58.313   02 Jun 2027 07:37:09.622            11.309              Murmansk2          1413.625
        42   02 Jun 2027 07:38:43.971   02 Jun 2027 07:40:32.614           108.643                 Moscow         13580.375
        43   02 Jun 2027 07:40:34.657   02 Jun 2027 07:44:01.616           206.959              Murmansk1         25869.875
        44   02 Jun 2027 08:42:42.841   02 Jun 2027 08:52:02.547           559.706               CapeTown         69963.250
        45   02 Jun 2027 09:06:52.070   02 Jun 2027 09:07:06.652            14.582                 Moscow          1822.750
        46   02 Jun 2027 09:10:24.096   02 Jun 2027 09:14:23.822           239.726              Murmansk2         29965.750
        47   02 Jun 2027 09:14:23.822   02 Jun 2027 09:18:54.340           270.518              Murmansk1         33814.750
        48   02 Jun 2027 09:19:56.807   02 Jun 2027 09:19:59.770             2.963              Murmansk2           370.375
        49   02 Jun 2027 09:22:17.473   02 Jun 2027 09:30:11.901           474.428                Anadyr2         59303.500
        50   02 Jun 2027 10:57:43.391   02 Jun 2027 10:58:04.195            20.804                Anadyr1          2600.500
        51   02 Jun 2027 11:00:32.643   02 Jun 2027 11:02:33.136           120.493                Anadyr2         15061.625
        52   02 Jun 2027 12:36:01.493   02 Jun 2027 12:36:25.250            23.757               Magadan1          2969.625
        53   02 Jun 2027 12:38:22.804   02 Jun 2027 12:41:01.241           158.437               Magadan2         19804.625
        54   02 Jun 2027 14:11:49.125   02 Jun 2027 14:12:23.014            33.889               Magadan2          4236.125
        55   02 Jun 2027 14:15:27.532   02 Jun 2027 14:16:33.265            65.733               Magadan1          8216.625
        56   02 Jun 2027 15:03:41.062   02 Jun 2027 15:05:30.256           109.194            RioGallegos         13649.250
        57   02 Jun 2027 15:51:23.164   02 Jun 2027 15:52:51.526            88.362                Irkutsk         11045.250
        58   02 Jun 2027 15:56:29.671   02 Jun 2027 15:57:40.099            70.428                Irkutsk          8803.500
        59   02 Jun 2027 16:00:30.708   02 Jun 2027 16:00:55.528            24.820                Irkutsk          3102.500
        60   02 Jun 2027 16:05:04.040   02 Jun 2027 16:08:12.578           188.538                Sumatra         23567.250
        61   02 Jun 2027 17:27:13.349   02 Jun 2027 17:28:06.700            53.351                Novosib          6668.875
        62   02 Jun 2027 17:30:08.477   02 Jun 2027 17:32:11.499           123.022                Novosib         15377.750
        63   02 Jun 2027 17:34:42.399   02 Jun 2027 17:40:21.841           339.442                  Delhi         42430.250
        64   02 Jun 2027 20:40:43.274   02 Jun 2027 20:41:26.613            43.339                 Moscow          5417.375
        65   02 Jun 2027 20:43:40.466   02 Jun 2027 20:45:38.633           118.167                 Moscow          6368.875
        66   03 Jun 2027 04:11:03.829   03 Jun 2027 04:13:51.417           167.588                Sumatra         20948.500
        67   03 Jun 2027 04:36:46.011   03 Jun 2027 04:37:05.419            19.408                 Moscow          2426.000
        68   03 Jun 2027 04:37:36.997   03 Jun 2027 04:41:09.246           212.249              Murmansk1         26531.125
        69   03 Jun 2027 05:55:23.278   03 Jun 2027 05:57:43.508           140.230                  Delhi         17528.750
        70   03 Jun 2027 06:01:06.382   03 Jun 2027 06:03:10.391           124.009                  Delhi         15501.125
        71   03 Jun 2027 06:13:20.477   03 Jun 2027 06:16:23.356           182.879                 Moscow         22859.875
        72   03 Jun 2027 06:16:25.425   03 Jun 2027 06:20:09.859           224.434              Murmansk2         28054.250
        73   03 Jun 2027 07:49:38.414   03 Jun 2027 07:52:34.034           175.620                 Moscow         21952.500
        74   03 Jun 2027 07:52:56.025   03 Jun 2027 07:56:03.204           187.179              Murmansk1         23397.375
        75   03 Jun 2027 08:54:37.087   03 Jun 2027 09:04:42.586           605.499               CapeTown         75687.375
        76   03 Jun 2027 09:19:10.977   03 Jun 2027 09:19:40.128            29.151                 Moscow          3643.875
        77   03 Jun 2027 09:22:25.555   03 Jun 2027 09:23:32.851            67.296              Murmansk2          8412.000
        78   03 Jun 2027 09:23:32.851   03 Jun 2027 09:24:12.655            39.804              Murmansk1          4975.500
        79   03 Jun 2027 09:24:13.532   03 Jun 2027 09:26:24.852           131.320                 Moscow         16415.000
        80   03 Jun 2027 09:27:09.074   03 Jun 2027 09:30:44.713           215.639              Murmansk2         26954.875
        81   03 Jun 2027 09:31:58.429   03 Jun 2027 09:32:01.093             2.664              Murmansk1           333.000
        82   03 Jun 2027 09:34:11.127   03 Jun 2027 09:42:23.243           492.116                Anadyr2         61514.500
        83   03 Jun 2027 11:18:09.516   03 Jun 2027 11:19:18.904            69.388                Anadyr1          8673.500
        84   03 Jun 2027 12:47:59.943   03 Jun 2027 12:50:39.705           159.762               Magadan2         19970.250
        85   03 Jun 2027 12:51:53.040   03 Jun 2027 12:52:56.315            63.275               Magadan1          7909.375
        86   03 Jun 2027 14:23:51.073   03 Jun 2027 14:24:47.026            55.953               Magadan1          6994.125
        87   03 Jun 2027 15:15:35.089   03 Jun 2027 15:17:45.036           129.947            RioGallegos         16243.375
        88   03 Jun 2027 15:23:25.758   03 Jun 2027 15:25:06.100           100.342            RioGallegos         12542.750
        89   03 Jun 2027 16:03:20.612   03 Jun 2027 16:04:27.523            66.911                Irkutsk          8363.875
        90   03 Jun 2027 16:06:17.093   03 Jun 2027 16:08:21.840           124.747                Irkutsk         15593.375
        91   03 Jun 2027 16:17:05.016   03 Jun 2027 16:19:22.116           137.100                Sumatra         17137.500
        92   03 Jun 2027 16:28:09.507   03 Jun 2027 16:28:19.622            10.115                Sumatra          1264.375
        93   03 Jun 2027 17:39:54.294   03 Jun 2027 17:42:19.209           144.915                Novosib         18114.375
        94   03 Jun 2027 17:46:35.684   03 Jun 2027 17:49:49.537           193.853                  Delhi         24231.625
        95   03 Jun 2027 19:23:39.479   03 Jun 2027 19:24:32.855            53.376                  Delhi          6672.000
        96   03 Jun 2027 20:49:51.465   03 Jun 2027 20:50:17.516            26.051              Murmansk1          3256.375
        97   03 Jun 2027 20:52:42.972   03 Jun 2027 20:53:16.001            33.029                 Moscow          4128.625
        98   03 Jun 2027 20:53:56.313   03 Jun 2027 20:54:12.260            15.947              Murmansk2          1993.375
        99   03 Jun 2027 20:55:56.171   03 Jun 2027 20:57:35.256            99.085                 Moscow         12385.625
       100   04 Jun 2027 02:50:35.770   04 Jun 2027 02:50:57.296            21.526                Sumatra           123.875
       101   04 Jun 2027 03:13:30.441   04 Jun 2027 03:17:25.343           234.902              Murmansk1         29362.750
       102   04 Jun 2027 04:23:07.611   04 Jun 2027 04:24:57.772           110.161                Sumatra         13770.125
       103   04 Jun 2027 04:30:48.502   04 Jun 2027 04:32:49.285           120.783                Sumatra         15097.875
       104   04 Jun 2027 04:48:11.353   04 Jun 2027 04:49:03.321            51.968                Irkutsk          6496.000
       105   04 Jun 2027 04:49:27.890   04 Jun 2027 04:49:38.120            10.230              Murmansk2          1278.750
       106   04 Jun 2027 04:49:43.478   04 Jun 2027 04:51:03.501            80.023                Novosib         10002.875
       107   04 Jun 2027 04:51:08.581   04 Jun 2027 04:51:42.625            34.044                 Moscow          4255.500
       108   04 Jun 2027 04:52:03.527   04 Jun 2027 04:56:33.385           269.858              Murmansk1         33732.250
       109   04 Jun 2027 06:15:13.985   04 Jun 2027 06:19:41.295           267.310                  Delhi         33413.750
       110   04 Jun 2027 06:25:20.927   04 Jun 2027 06:25:46.198            25.271              Murmansk2          3158.875
       111   04 Jun 2027 06:26:21.249   04 Jun 2027 06:26:26.831             5.582                Novosib           697.750
       112   04 Jun 2027 06:26:34.253   04 Jun 2027 06:28:28.294           114.041                 Moscow         14255.125
       113   04 Jun 2027 06:29:18.717   04 Jun 2027 06:32:10.150           171.433              Murmansk1         21429.125
       114   04 Jun 2027 07:54:59.746   04 Jun 2027 07:55:14.254            14.508                 Moscow          1813.500
       115   04 Jun 2027 07:56:01.749   04 Jun 2027 07:57:30.267            88.518                 Moscow         11064.750
       116   04 Jun 2027 08:00:20.863   04 Jun 2027 08:04:34.835           253.972                 Moscow         31746.500
       117   04 Jun 2027 08:04:43.496   04 Jun 2027 08:08:04.870           201.374              Murmansk1         25171.750
       118   04 Jun 2027 09:09:11.765   04 Jun 2027 09:17:12.751           480.986               CapeTown         60123.250
       119   04 Jun 2027 09:34:26.839   04 Jun 2027 09:35:28.841            62.002              Murmansk2          7750.250
       120   04 Jun 2027 09:35:28.841   04 Jun 2027 09:35:40.535            11.694              Murmansk1          1461.750
       121   04 Jun 2027 09:35:51.479   04 Jun 2027 09:39:49.982           238.503                 Moscow         29812.875
       122   04 Jun 2027 09:40:02.230   04 Jun 2027 09:43:06.367           184.137              Murmansk1         23017.125
       123   04 Jun 2027 09:44:00.098   04 Jun 2027 09:44:02.210             2.112              Murmansk2           264.000
       124   04 Jun 2027 09:46:14.880   04 Jun 2027 09:54:51.379           516.499                Anadyr2         64562.375
       125   04 Jun 2027 12:59:59.103   04 Jun 2027 13:02:50.754           171.651               Magadan1         21456.375
       126   04 Jun 2027 13:06:48.633   04 Jun 2027 13:09:33.377           164.744               Magadan1         20593.000
       127   04 Jun 2027 14:56:02.997   04 Jun 2027 14:57:27.027            84.030                Sumatra         10503.750
       128   04 Jun 2027 15:27:30.869   04 Jun 2027 15:29:05.540            94.671            RioGallegos         11833.875
       129   04 Jun 2027 15:36:34.415   04 Jun 2027 15:38:18.510           104.095            RioGallegos         13011.875
       130   04 Jun 2027 16:29:11.659   04 Jun 2027 16:30:37.214            85.555                Sumatra         10694.375
       131   04 Jun 2027 16:31:02.556   04 Jun 2027 16:31:25.112            22.556                  Delhi          2819.500
       132   04 Jun 2027 16:32:07.700   04 Jun 2027 16:33:57.902           110.202                Sumatra         13775.250
       133   04 Jun 2027 17:51:12.252   04 Jun 2027 17:52:30.433            78.181                Novosib          9772.625
       134   04 Jun 2027 17:55:30.099   04 Jun 2027 17:56:03.942            33.843                Novosib          4230.375
       135   04 Jun 2027 17:58:32.590   04 Jun 2027 18:00:45.414           132.824                  Delhi         16603.000
       136   04 Jun 2027 18:05:49.229   04 Jun 2027 18:08:07.048           137.819                  Delhi         17227.375
       137   04 Jun 2027 21:04:43.401   04 Jun 2027 21:05:07.987            24.586                 Moscow          3073.250
       138   04 Jun 2027 21:08:01.253   04 Jun 2027 21:08:04.097             2.844                 Moscow           355.500
       139   04 Jun 2027 21:14:18.720   04 Jun 2027 21:16:21.734           123.014                 Moscow         15376.750
       140   04 Jun 2027 21:33:17.846   04 Jun 2027 21:33:43.074            25.228               CapeTown          3153.500
       141   05 Jun 2027 03:01:34.430   05 Jun 2027 03:04:05.391           150.961                Sumatra          4765.250
       142   05 Jun 2027 03:25:25.621   05 Jun 2027 03:25:56.586            30.965              Murmansk1          3870.625
       143   05 Jun 2027 03:25:56.859   05 Jun 2027 03:26:58.502            61.643                Novosib          7705.375
       144   05 Jun 2027 04:35:17.220   05 Jun 2027 04:36:19.734            62.514                Sumatra          7814.250
       145   05 Jun 2027 04:38:05.305   05 Jun 2027 04:39:54.570           109.265                Sumatra         13658.125
       146   05 Jun 2027 05:01:13.606   05 Jun 2027 05:03:54.282           160.676                 Moscow         20084.500
       147   05 Jun 2027 05:03:58.414   05 Jun 2027 05:08:30.754           272.340              Murmansk2         34042.500
       148   05 Jun 2027 06:29:23.029   05 Jun 2027 06:32:11.350           168.321                Novosib         21040.125
       149   05 Jun 2027 06:37:14.102   05 Jun 2027 06:40:32.731           198.629                 Moscow         24828.625
       150   05 Jun 2027 06:40:58.105   05 Jun 2027 06:44:10.720           192.615              Murmansk1         24076.875
       151   05 Jun 2027 08:07:00.414   05 Jun 2027 08:08:30.541            90.127                 Moscow         11265.875
       152   05 Jun 2027 08:11:42.287   05 Jun 2027 08:16:34.947           292.660                 Moscow         36582.500
       153   05 Jun 2027 08:16:38.919   05 Jun 2027 08:17:47.343            68.424                Norilsk          8553.000
       154   05 Jun 2027 08:18:00.365   05 Jun 2027 08:20:06.584           126.219              Murmansk1         15777.375
       155   05 Jun 2027 08:24:57.175   05 Jun 2027 08:25:51.568            54.393                Anadyr2          6799.125
       156   05 Jun 2027 09:22:28.315   05 Jun 2027 09:29:35.187           426.872               CapeTown         53359.000
       157   05 Jun 2027 09:47:53.110   05 Jun 2027 09:48:23.187            30.077                 Moscow          3759.625
       158   05 Jun 2027 09:51:12.274   05 Jun 2027 09:54:44.676           212.402              Murmansk1         26550.250
       159   05 Jun 2027 09:56:01.782   05 Jun 2027 09:56:03.057             1.275              Murmansk2           159.375
       160   05 Jun 2027 09:58:03.197   05 Jun 2027 10:04:50.662           407.465                Anadyr2         50933.125
       161   05 Jun 2027 13:11:58.873   05 Jun 2027 13:15:04.383           185.510               Magadan2         23188.750
       162   05 Jun 2027 13:15:51.707   05 Jun 2027 13:21:33.565           341.858               Magadan1         42732.250
       163   05 Jun 2027 15:06:59.027   05 Jun 2027 15:11:00.646           241.619                Sumatra         30202.375
       164   05 Jun 2027 15:15:09.730   05 Jun 2027 15:15:55.221            45.491                Sumatra          5686.375
       165   05 Jun 2027 16:42:10.727   05 Jun 2027 16:44:46.680           155.953                  Delhi         19494.125
       166   05 Jun 2027 18:03:12.823   05 Jun 2027 18:03:35.821            22.998                Novosib          2874.750
       167   05 Jun 2027 18:10:32.867   05 Jun 2027 18:12:04.457            91.590                  Delhi         11448.750
       168   05 Jun 2027 18:18:09.577   05 Jun 2027 18:20:09.937           120.360                  Delhi         15045.000
       169   05 Jun 2027 19:45:15.371   05 Jun 2027 19:46:39.371            84.000                 Moscow         10500.000
       170   05 Jun 2027 21:40:40.640   05 Jun 2027 21:42:02.278            81.638               CapeTown         10204.750
       171   05 Jun 2027 21:46:34.633   05 Jun 2027 21:48:31.360           116.727               CapeTown         14121.125
       172   06 Jun 2027 03:37:41.524   06 Jun 2027 03:39:02.835            81.311                Novosib         10163.875
       173   06 Jun 2027 03:39:12.978   06 Jun 2027 03:39:18.421             5.443                Norilsk           680.375
       174   06 Jun 2027 04:47:33.289   06 Jun 2027 04:47:52.207            18.918                Sumatra          2364.750
       175   06 Jun 2027 04:49:35.204   06 Jun 2027 04:51:52.142           136.938                Sumatra         17117.250
       176   06 Jun 2027 05:02:43.595   06 Jun 2027 05:03:30.328            46.733                  Delhi          5841.625
       177   06 Jun 2027 05:13:04.520   06 Jun 2027 05:14:03.232            58.712              Murmansk1          7339.000
       178   06 Jun 2027 05:14:05.341   06 Jun 2027 05:15:04.131            58.790                Novosib          7348.750
       179   06 Jun 2027 05:15:14.180   06 Jun 2027 05:16:04.120            49.940                 Moscow          6242.500
       180   06 Jun 2027 05:16:44.871   06 Jun 2027 05:20:28.661           223.790              Murmansk2         27973.750
       181   06 Jun 2027 06:39:11.241   06 Jun 2027 06:40:59.511           108.270                  Delhi         13533.750
       182   06 Jun 2027 06:41:22.693   06 Jun 2027 06:44:32.607           189.914                Novosib         23739.250
       183   06 Jun 2027 06:49:16.298   06 Jun 2027 06:49:57.520            41.222              Murmansk2          5152.750
       184   06 Jun 2027 06:50:01.291   06 Jun 2027 06:52:36.684           155.393                 Moscow         19424.125
       185   06 Jun 2027 06:52:53.962   06 Jun 2027 06:56:11.533           197.571              Murmansk2         24696.375
       186   06 Jun 2027 08:19:00.383   06 Jun 2027 08:20:28.472            88.089                 Moscow         11011.125
       187   06 Jun 2027 08:22:32.435   06 Jun 2027 08:23:54.858            82.423              Murmansk1         10302.875
       188   06 Jun 2027 08:23:54.858   06 Jun 2027 08:25:44.731           109.873              Murmansk2         13734.125
       189   06 Jun 2027 08:25:52.768   06 Jun 2027 08:27:13.828            81.060                Norilsk         10132.500
       190   06 Jun 2027 08:27:15.636   06 Jun 2027 08:32:08.319           292.683              Murmansk2         36585.375
       191   06 Jun 2027 08:35:39.578   06 Jun 2027 08:39:42.781           243.203                Anadyr2         30400.375
       192   06 Jun 2027 10:19:32.338   06 Jun 2027 10:19:34.160             1.822                Anadyr1           227.750
       193   06 Jun 2027 11:58:04.889   06 Jun 2027 11:58:54.862            49.973               Magadan1          6246.625
       194   06 Jun 2027 13:23:59.159   06 Jun 2027 13:24:19.814            20.655               Magadan1          2581.875
       195   06 Jun 2027 13:25:23.133   06 Jun 2027 13:27:12.475           109.342               Magadan1         13667.750
       196   06 Jun 2027 13:31:08.428   06 Jun 2027 13:33:34.213           145.785               Magadan1         18223.125
       197   06 Jun 2027 15:06:39.788   06 Jun 2027 15:08:08.568            88.780                Irkutsk         11097.500
       198   06 Jun 2027 15:19:23.980   06 Jun 2027 15:25:42.469           378.489                Sumatra         47311.125
       199   06 Jun 2027 16:44:23.411   06 Jun 2027 16:45:05.096            41.685                Novosib          5210.625
       200   06 Jun 2027 16:48:15.023   06 Jun 2027 16:49:14.766            59.743                  Delhi          7467.875
       201   06 Jun 2027 16:52:32.450   06 Jun 2027 16:57:24.858           292.408                  Delhi         36551.000
       202   06 Jun 2027 18:32:16.163   06 Jun 2027 18:32:52.932            36.769                  Delhi          4596.125
       203   06 Jun 2027 19:56:06.021   06 Jun 2027 19:58:02.377           116.356                 Moscow         14544.500
       204   06 Jun 2027 21:38:16.533   06 Jun 2027 21:38:29.524            12.991                 Moscow          1623.875
       205   06 Jun 2027 21:39:43.406   06 Jun 2027 21:41:03.356            79.950                 Moscow          9993.750
       206   06 Jun 2027 21:52:50.240   06 Jun 2027 21:53:35.506            45.266               CapeTown          5658.250
       207   06 Jun 2027 22:02:53.074   06 Jun 2027 22:05:07.757           134.683               CapeTown          3730.250
       208   07 Jun 2027 05:01:27.362   07 Jun 2027 05:03:55.302           147.940                Sumatra         18492.500
       209   07 Jun 2027 05:25:23.495   07 Jun 2027 05:27:03.300            99.805                Novosib         12475.625
       210   07 Jun 2027 05:27:13.991   07 Jun 2027 05:28:12.647            58.656                 Moscow          7332.000
       211   07 Jun 2027 05:28:38.899   07 Jun 2027 05:32:27.063           228.164              Murmansk2         28520.500
       212   07 Jun 2027 06:51:04.585   07 Jun 2027 06:54:36.336           211.751                  Delhi         26468.875
       213   07 Jun 2027 06:55:02.922   07 Jun 2027 06:56:57.402           114.480                 Moscow         14310.000
       214   07 Jun 2027 07:01:34.556   07 Jun 2027 07:02:02.107            27.551              Murmansk1          3443.875
       215   07 Jun 2027 07:02:06.303   07 Jun 2027 07:04:26.741           140.438                Norilsk         17554.750
       216   07 Jun 2027 07:05:05.762   07 Jun 2027 07:08:12.558           186.796              Murmansk2         23349.500
       217   07 Jun 2027 08:30:59.994   07 Jun 2027 08:32:29.236            89.242                 Moscow         11155.250
       218   07 Jun 2027 08:34:34.167   07 Jun 2027 08:36:33.446           119.279              Murmansk1         14909.875
       219   07 Jun 2027 08:36:41.843   07 Jun 2027 08:40:32.758           230.915                 Moscow         28864.375
       220   07 Jun 2027 08:40:46.189   07 Jun 2027 08:44:10.038           203.849              Murmansk1         25481.125
       221   07 Jun 2027 08:47:10.808   07 Jun 2027 08:52:53.625           342.817                Anadyr1         42852.125
       222   07 Jun 2027 12:01:26.499   07 Jun 2027 12:03:14.511           108.012               Magadan2         13501.500
       223   07 Jun 2027 12:09:36.553   07 Jun 2027 12:09:57.589            21.036               Magadan2          2629.500
       224   07 Jun 2027 13:35:59.889   07 Jun 2027 13:36:15.214            15.325               Magadan1          1915.625
       225   07 Jun 2027 13:37:50.364   07 Jun 2027 13:39:17.920            87.556               Magadan2         10944.500
       226   07 Jun 2027 13:39:17.920   07 Jun 2027 13:40:47.559            89.639               Magadan1         11204.875
       227   07 Jun 2027 15:17:11.500   07 Jun 2027 15:21:27.052           255.552                Irkutsk         31944.000
       228   07 Jun 2027 15:34:28.494   07 Jun 2027 15:36:29.540           121.046                Sumatra         15130.750
       229   07 Jun 2027 16:54:25.749   07 Jun 2027 16:56:40.272           134.523                Novosib         16815.375
       230   07 Jun 2027 16:59:45.074   07 Jun 2027 17:07:05.322           440.248                  Delhi         55031.000
       231   07 Jun 2027 20:07:00.894   07 Jun 2027 20:10:12.999           192.105                 Moscow         24013.125
       232   07 Jun 2027 21:51:05.697   07 Jun 2027 21:53:18.419           132.722                 Moscow          3339.375
       233   08 Jun 2027 04:01:20.895   08 Jun 2027 04:01:54.321            33.426                Norilsk          4178.250
       234   08 Jun 2027 05:12:30.876   08 Jun 2027 05:14:11.163           100.287                Sumatra         12535.875
       235   08 Jun 2027 05:24:07.807   08 Jun 2027 05:25:03.708            55.901                  Delhi          6987.625
       236   08 Jun 2027 05:26:53.206   08 Jun 2027 05:29:02.937           129.731                  Delhi         16216.375
       237   08 Jun 2027 05:37:03.079   08 Jun 2027 05:37:54.678            51.599              Murmansk1          6449.875
       238   08 Jun 2027 05:37:57.733   08 Jun 2027 05:39:01.568            63.835                Novosib          7979.375
       239   08 Jun 2027 05:39:21.774   08 Jun 2027 05:40:20.179            58.405                 Moscow          7300.625
       240   08 Jun 2027 05:40:31.824   08 Jun 2027 05:44:25.920           234.096              Murmansk2         29262.000
       241   08 Jun 2027 07:06:27.874   08 Jun 2027 07:08:20.029           112.155                Novosib         14019.375
       242   08 Jun 2027 07:14:29.711   08 Jun 2027 07:16:43.164           133.453                 Moscow         16681.625
       243   08 Jun 2027 07:16:52.934   08 Jun 2027 07:20:13.773           200.839              Murmansk2         25104.875
       244   08 Jun 2027 08:20:39.514   08 Jun 2027 08:26:05.252           325.738               CapeTown         40717.250
       245   08 Jun 2027 08:43:02.781   08 Jun 2027 08:43:27.281            24.500                 Moscow          3062.500
       246   08 Jun 2027 08:46:35.881   08 Jun 2027 08:49:58.169           202.288              Murmansk1         25286.000
       247   08 Jun 2027 08:50:03.988   08 Jun 2027 08:50:30.991            27.003                 Moscow          3375.375
       248   08 Jun 2027 08:51:18.849   08 Jun 2027 08:52:46.980            88.131              Murmansk2         11016.375
       249   08 Jun 2027 08:52:46.980   08 Jun 2027 08:56:11.715           204.735              Murmansk1         25591.875
       250   08 Jun 2027 08:58:53.082   08 Jun 2027 09:02:15.748           202.666                Anadyr1         25333.250
       251   08 Jun 2027 10:34:26.078   08 Jun 2027 10:35:13.700            47.622                Anadyr2          5952.750
       252   08 Jun 2027 10:43:18.896   08 Jun 2027 10:43:32.791            13.895                Anadyr1          1736.875
       253   08 Jun 2027 10:45:08.054   08 Jun 2027 10:45:24.567            16.513                Anadyr1          2064.125
       254   08 Jun 2027 12:12:22.246   08 Jun 2027 12:17:31.241           308.995               Magadan1         38624.375
       255   08 Jun 2027 12:20:43.452   08 Jun 2027 12:21:53.922            70.470               Magadan2          8808.750
       256   08 Jun 2027 14:42:44.457   08 Jun 2027 14:43:50.547            66.090            RioGallegos          8261.250
       257   08 Jun 2027 15:41:33.825   08 Jun 2027 15:47:40.988           367.163                Sumatra         45895.375
       258   08 Jun 2027 17:09:17.879   08 Jun 2027 17:11:56.100           158.221                Novosib         19777.625
       259   08 Jun 2027 17:14:48.830   08 Jun 2027 17:17:51.972           183.142                  Delhi         22892.750
       260   08 Jun 2027 18:49:14.563   08 Jun 2027 18:49:18.425             3.862                  Delhi           482.750
       261   08 Jun 2027 18:52:36.105   08 Jun 2027 18:52:58.878            22.773                  Delhi          2846.625
       262   08 Jun 2027 18:54:33.515   08 Jun 2027 18:56:25.746           112.231                  Delhi         14028.875
       263   08 Jun 2027 20:17:01.414   08 Jun 2027 20:18:14.395            72.981                 Moscow          9122.625
       264   08 Jun 2027 21:52:51.114   08 Jun 2027 21:53:39.935            48.821                 Moscow          6102.625
       265   08 Jun 2027 21:54:10.320   08 Jun 2027 21:54:31.106            20.786              Murmansk1          1642.125
       266   09 Jun 2027 04:13:33.628   09 Jun 2027 04:13:33.817             0.189                Irkutsk            23.625
       267   09 Jun 2027 04:13:41.263   09 Jun 2027 04:14:05.158            23.895                 Moscow          2986.875
       268   09 Jun 2027 05:25:19.925   09 Jun 2027 05:26:19.245            59.320                Sumatra          7415.000
       269   09 Jun 2027 05:31:28.263   09 Jun 2027 05:33:58.207           149.944                  Delhi         18743.000
       270   09 Jun 2027 05:39:07.885   09 Jun 2027 05:42:58.273           230.388                  Delhi         28798.500
       271   09 Jun 2027 05:49:28.273   09 Jun 2027 05:50:09.540            41.267              Murmansk1          5158.375
       272   09 Jun 2027 05:50:14.957   09 Jun 2027 05:50:58.771            43.814                Novosib          5476.750
       273   09 Jun 2027 05:51:20.776   09 Jun 2027 05:52:26.915            66.139                 Moscow          8267.375
       274   09 Jun 2027 05:52:33.649   09 Jun 2027 05:56:25.194           231.545              Murmansk2         28943.125
       275   09 Jun 2027 07:16:01.207   09 Jun 2027 07:16:48.055            46.848                 Moscow          5856.000
       276   09 Jun 2027 07:27:21.059   09 Jun 2027 07:28:45.659            84.600                 Moscow         10575.000
       277   09 Jun 2027 07:28:53.583   09 Jun 2027 07:32:15.135           201.552              Murmansk1         25194.000
       278   09 Jun 2027 08:31:36.720   09 Jun 2027 08:39:24.656           467.936               CapeTown         58492.000
       279   09 Jun 2027 08:55:05.056   09 Jun 2027 08:55:16.508            11.452                 Moscow          1431.500
       280   09 Jun 2027 08:58:34.280   09 Jun 2027 08:59:59.452            85.172              Murmansk2         10646.500
       281   09 Jun 2027 08:59:59.452   09 Jun 2027 09:01:52.640           113.188              Murmansk1         14148.500
       282   09 Jun 2027 09:02:24.301   09 Jun 2027 09:04:26.426           122.125                 Moscow         15265.625
       283   09 Jun 2027 09:04:49.278   09 Jun 2027 09:08:13.311           204.033              Murmansk1         25504.125
       284   09 Jun 2027 09:10:40.949   09 Jun 2027 09:18:41.346           480.397                Anadyr2         60049.625
       285   09 Jun 2027 10:12:50.789   09 Jun 2027 10:15:59.255           188.466               CapeTown         23558.250
       286   09 Jun 2027 10:45:58.261   09 Jun 2027 10:46:24.972            26.711                Anadyr1          3338.875
       287   09 Jun 2027 10:47:47.526   09 Jun 2027 10:48:19.251            31.725                Anadyr2          3965.625
       288   09 Jun 2027 12:24:18.816   09 Jun 2027 12:25:35.307            76.491               Magadan2          9561.375
       289   09 Jun 2027 12:29:22.516   09 Jun 2027 12:30:03.519            41.003               Magadan2          5125.375
       290   09 Jun 2027 12:30:03.519   09 Jun 2027 12:34:08.008           244.489               Magadan1         30561.125
       291   09 Jun 2027 14:53:17.975   09 Jun 2027 14:57:18.348           240.373            RioGallegos         30046.625
       292   09 Jun 2027 15:47:41.500   09 Jun 2027 15:49:13.244            91.744                Irkutsk         11468.000
       293   09 Jun 2027 15:53:23.494   09 Jun 2027 15:56:21.737           178.243                Sumatra         22280.375
       294   09 Jun 2027 17:15:30.148   09 Jun 2027 17:18:09.667           159.519                Novosib         19939.875
       295   09 Jun 2027 17:23:07.906   09 Jun 2027 17:29:07.279           359.373                  Delhi         44921.625
       296   09 Jun 2027 20:31:51.845   09 Jun 2027 20:33:58.094           126.249                 Moscow          6698.875
       297   10 Jun 2027 05:38:40.442   10 Jun 2027 05:40:30.514           110.072                Sumatra         13759.000
       298   10 Jun 2027 05:43:30.620   10 Jun 2027 05:44:52.577            81.957                  Delhi         10244.625
       299   10 Jun 2027 05:47:55.075   10 Jun 2027 05:48:28.997            33.922                  Delhi          4240.250
       300   10 Jun 2027 06:01:18.778   10 Jun 2027 06:02:54.721            95.943                Novosib         11992.875
       301   10 Jun 2027 06:03:17.815   10 Jun 2027 06:04:32.970            75.155                 Moscow          9394.375
       302   10 Jun 2027 06:04:53.059   10 Jun 2027 06:08:24.846           211.787              Murmansk2         26473.375
       303   10 Jun 2027 07:27:56.724   10 Jun 2027 07:29:42.559           105.835                 Moscow         13229.375
       304   10 Jun 2027 07:38:59.574   10 Jun 2027 07:40:47.630           108.056                 Moscow         13507.000
       305   10 Jun 2027 07:40:49.250   10 Jun 2027 07:44:16.633           207.383              Murmansk2         25922.875
       306   10 Jun 2027 08:42:57.119   10 Jun 2027 08:52:18.497           561.378               CapeTown         70172.250
       307   10 Jun 2027 09:07:06.803   10 Jun 2027 09:07:21.326            14.523                 Moscow          1815.375
       308   10 Jun 2027 09:10:39.120   10 Jun 2027 09:19:08.908           509.788              Murmansk2         63723.500
       309   10 Jun 2027 09:20:11.538   10 Jun 2027 09:20:14.793             3.255              Murmansk1           406.875
       310   10 Jun 2027 09:22:32.277   10 Jun 2027 09:31:22.196           529.919                Anadyr2         66239.875
       311   10 Jun 2027 10:20:22.420   10 Jun 2027 10:22:11.467           109.047               CapeTown         13630.875
       312   10 Jun 2027 12:36:16.425   10 Jun 2027 12:36:51.173            34.748               Magadan1          4343.500
       313   10 Jun 2027 12:38:38.179   10 Jun 2027 12:41:15.957           157.778               Magadan2         19722.250
       314   10 Jun 2027 14:12:08.012   10 Jun 2027 14:12:38.123            30.111               Magadan1          3763.875
       315   10 Jun 2027 14:15:43.014   10 Jun 2027 14:16:48.103            65.089               Magadan2          8136.125
       316   10 Jun 2027 14:18:55.851   10 Jun 2027 14:19:02.587             6.736               Magadan2           842.000
       317   10 Jun 2027 14:21:40.191   10 Jun 2027 14:21:41.851             1.660               Magadan1           207.500
       318   10 Jun 2027 15:03:55.892   10 Jun 2027 15:07:18.291           202.399            RioGallegos         25299.875
       319   10 Jun 2027 15:51:38.073   10 Jun 2027 15:53:05.818            87.745                Irkutsk         10968.125
       320   10 Jun 2027 15:56:44.332   10 Jun 2027 15:57:55.454            71.122                Irkutsk          8890.250
       321   10 Jun 2027 16:00:46.228   10 Jun 2027 16:01:10.460            24.232                Irkutsk          3029.000
       322   10 Jun 2027 16:05:18.987   10 Jun 2027 16:08:27.626           188.639                Sumatra         23579.875
       323   10 Jun 2027 17:28:21.182   10 Jun 2027 17:29:06.697            45.515                Novosib          5689.375
       324   10 Jun 2027 17:30:23.721   10 Jun 2027 17:32:26.227           122.506                Novosib         15313.250
       325   10 Jun 2027 17:34:57.201   10 Jun 2027 17:40:36.209           339.008                  Delhi         42376.000
       326   10 Jun 2027 20:40:58.238   10 Jun 2027 20:43:56.114           177.876                 Moscow         12261.000
       327   11 Jun 2027 04:11:18.833   11 Jun 2027 04:14:05.207           166.374                Sumatra         20796.750
       328   11 Jun 2027 04:37:04.033   11 Jun 2027 04:37:19.658            15.625                Norilsk          1953.125
       329   11 Jun 2027 04:37:52.740   11 Jun 2027 04:42:29.033           276.293              Murmansk2         34536.625
       330   11 Jun 2027 05:55:38.484   11 Jun 2027 05:57:58.511           140.027                  Delhi         17503.375
       331   11 Jun 2027 06:01:21.752   11 Jun 2027 06:03:25.303           123.551                  Delhi         15443.875
       332   11 Jun 2027 06:13:38.093   11 Jun 2027 06:14:11.978            33.885              Murmansk2          4235.625
       333   11 Jun 2027 06:15:27.747   11 Jun 2027 06:16:38.434            70.687                 Moscow          8835.875
       334   11 Jun 2027 06:16:40.164   11 Jun 2027 06:20:24.840           224.676              Murmansk2         28084.500
       335   11 Jun 2027 07:39:55.021   11 Jun 2027 07:41:12.906            77.885                 Moscow          9735.625
       336   11 Jun 2027 07:49:50.378   11 Jun 2027 07:52:49.041           178.663                 Moscow         22332.875
       337   11 Jun 2027 07:53:11.666   11 Jun 2027 07:56:18.223           186.557              Murmansk1         23319.625
       338   11 Jun 2027 08:54:52.983   11 Jun 2027 09:04:58.294           605.311               CapeTown         75663.875
       339   11 Jun 2027 09:19:25.194   11 Jun 2027 09:19:54.970            29.776                 Moscow          3722.000
       340   11 Jun 2027 09:22:40.577   11 Jun 2027 09:24:28.040           107.463              Murmansk1         13432.875
       341   11 Jun 2027 09:24:28.249   11 Jun 2027 09:26:19.369           111.120                 Moscow         13890.000
       342   11 Jun 2027 09:27:23.932   11 Jun 2027 09:29:36.211           132.279              Murmansk1         16534.875
       343   11 Jun 2027 09:29:36.211   11 Jun 2027 09:30:59.293            83.082              Murmansk2         10385.250
       344   11 Jun 2027 09:32:13.163   11 Jun 2027 09:32:16.113             2.950              Murmansk1           368.750
       345   11 Jun 2027 09:34:25.975   11 Jun 2027 09:42:43.659           497.684                Anadyr2         62210.500
       346   11 Jun 2027 11:16:46.388   11 Jun 2027 11:18:24.057            97.669                Anadyr2         12208.625
       347   11 Jun 2027 12:48:14.890   11 Jun 2027 12:48:59.675            44.785               Magadan2          5598.125
       348   11 Jun 2027 12:49:42.880   11 Jun 2027 12:54:39.687           296.807               Magadan1         37100.875
       349   11 Jun 2027 15:15:49.957   11 Jun 2027 15:17:59.012           129.055            RioGallegos         16131.875
       350   11 Jun 2027 16:03:35.550   11 Jun 2027 16:06:32.333           176.783                Irkutsk         22097.875
       351   11 Jun 2027 16:17:20.079   11 Jun 2027 16:19:36.069           135.990                Sumatra         16998.750
       352   11 Jun 2027 16:20:27.874   11 Jun 2027 16:22:23.596           115.722                Sumatra         14465.250
       353   11 Jun 2027 17:42:34.384   11 Jun 2027 17:44:21.816           107.432                Novosib         13429.000
       354   11 Jun 2027 17:46:50.564   11 Jun 2027 17:50:03.031           192.467                  Delhi         24058.375
       355   11 Jun 2027 20:52:57.954   11 Jun 2027 20:53:30.574            32.620                 Moscow          4077.500
       356   11 Jun 2027 20:54:09.443   11 Jun 2027 20:56:11.292           121.849                 Moscow         15231.125
       357   11 Jun 2027 21:20:02.693   11 Jun 2027 21:22:14.002           131.309               CapeTown          5825.625
       358   12 Jun 2027 03:13:44.966   12 Jun 2027 03:17:48.105           243.139              Murmansk2         30392.375
       359   12 Jun 2027 04:23:22.735   12 Jun 2027 04:25:11.847           109.112                Sumatra         13639.000
       360   12 Jun 2027 04:31:03.540   12 Jun 2027 04:33:04.512           120.972                Sumatra         15121.500
       361   12 Jun 2027 04:48:24.995   12 Jun 2027 04:49:18.149            53.154                Irkutsk          6644.250
       362   12 Jun 2027 04:49:42.365   12 Jun 2027 04:49:53.856            11.491              Murmansk1          1436.375
       363   12 Jun 2027 04:49:57.742   12 Jun 2027 04:51:08.822            71.080                Norilsk          8885.000
       364   12 Jun 2027 04:51:08.918   12 Jun 2027 04:51:57.841            48.923                 Moscow          6115.375
       365   12 Jun 2027 04:52:18.250   12 Jun 2027 04:56:48.297           270.047              Murmansk2         33755.875
       366   12 Jun 2027 06:15:28.842   12 Jun 2027 06:19:56.023           267.181                  Delhi         33397.625
       367   12 Jun 2027 06:19:56.687   12 Jun 2027 06:20:27.984            31.297                 Moscow          3912.125
       368   12 Jun 2027 06:25:36.540   12 Jun 2027 06:26:00.768            24.228              Murmansk1          3028.500
       369   12 Jun 2027 06:26:01.019   12 Jun 2027 06:28:43.365           162.346                 Moscow         20293.250
       370   12 Jun 2027 06:29:16.916   12 Jun 2027 06:32:25.139           188.223              Murmansk1         23527.875
       371   12 Jun 2027 07:55:03.530   12 Jun 2027 07:55:58.635            55.105                 Moscow          6888.125
       372   12 Jun 2027 07:56:18.309   12 Jun 2027 07:56:30.165            11.856                 Moscow          1482.000
       373   12 Jun 2027 08:00:38.626   12 Jun 2027 08:04:49.829           251.203                 Moscow         31400.375
       374   12 Jun 2027 08:04:59.124   12 Jun 2027 08:08:19.892           200.768              Murmansk1         25096.000
       375   12 Jun 2027 09:09:28.250   12 Jun 2027 09:17:28.279           480.029               CapeTown         60003.625
       376   12 Jun 2027 09:34:41.859   12 Jun 2027 09:35:50.994            69.135              Murmansk1          8641.875
       377   12 Jun 2027 09:36:06.143   12 Jun 2027 09:40:04.757           238.614                 Moscow         29826.750
       378   12 Jun 2027 09:40:16.878   12 Jun 2027 09:43:26.271           189.393              Murmansk2         23674.125
       379   12 Jun 2027 09:44:14.835   12 Jun 2027 09:44:17.227             2.392              Murmansk1           299.000
       380   12 Jun 2027 09:46:21.389   12 Jun 2027 09:53:36.193           434.804                Anadyr1         54350.500
       381   12 Jun 2027 13:00:14.069   12 Jun 2027 13:00:48.776            34.707               Magadan1          4338.375
       382   12 Jun 2027 13:03:06.256   12 Jun 2027 13:07:03.843           237.587               Magadan2         29698.375
       383   12 Jun 2027 14:36:08.267   12 Jun 2027 14:36:54.899            46.632               Magadan2          5829.000
       384   12 Jun 2027 14:56:15.970   12 Jun 2027 14:57:51.296            95.326                Sumatra         11915.750
       385   12 Jun 2027 15:27:45.773   12 Jun 2027 15:29:19.797            94.024            RioGallegos         11753.000
       386   12 Jun 2027 16:18:15.473   12 Jun 2027 16:20:30.794           135.321                Irkutsk         16915.125
       387   12 Jun 2027 16:29:26.846   12 Jun 2027 16:30:51.384            84.538                Sumatra         10567.250
       388   12 Jun 2027 16:31:16.488   12 Jun 2027 16:31:42.335            25.847                  Delhi          3230.875
       389   12 Jun 2027 16:37:09.018   12 Jun 2027 16:39:10.410           121.392                Sumatra         15174.000
       390   12 Jun 2027 17:51:27.238   12 Jun 2027 17:51:57.961            30.723                Novosib          3840.375
       391   12 Jun 2027 17:54:41.830   12 Jun 2027 17:55:45.443            63.613                Novosib          7951.625
       392   12 Jun 2027 17:58:47.549   12 Jun 2027 18:00:59.414           131.865                  Delhi         16483.125
       393   12 Jun 2027 21:03:52.728   12 Jun 2027 21:03:59.230             6.502              Murmansk1           812.750
       394   12 Jun 2027 21:04:58.399   12 Jun 2027 21:06:40.844           102.445                 Moscow         12805.625
       395   12 Jun 2027 21:08:16.311   12 Jun 2027 21:09:47.821            91.510                 Moscow         11438.750
       396   12 Jun 2027 21:30:42.704   12 Jun 2027 21:30:50.308             7.604               CapeTown           950.500
       397   12 Jun 2027 21:32:04.940   12 Jun 2027 21:33:34.015            89.075               CapeTown         11134.375
       398   12 Jun 2027 21:37:52.277   12 Jun 2027 21:38:25.582            33.305               CapeTown          1992.625
       399   13 Jun 2027 03:25:40.366   13 Jun 2027 03:26:33.186            52.820              Murmansk2          6602.500
       400   13 Jun 2027 03:26:35.455   13 Jun 2027 03:27:12.724            37.269                Novosib          4658.625
       401   13 Jun 2027 04:35:32.474   13 Jun 2027 04:36:33.985            61.511                Sumatra          7688.875
       402   13 Jun 2027 04:38:24.753   13 Jun 2027 04:40:09.307           104.554                Sumatra         13069.250
       403   13 Jun 2027 05:00:11.657   13 Jun 2027 05:00:25.605            13.948                Irkutsk          1743.500
       404   13 Jun 2027 05:01:29.778   13 Jun 2027 05:04:09.457           159.679                 Moscow         19959.875
       405   13 Jun 2027 05:04:13.150   13 Jun 2027 05:08:45.679           272.529              Murmansk1         34066.125
       406   13 Jun 2027 06:29:37.740   13 Jun 2027 06:33:03.319           205.579                Novosib         25697.375
       407   13 Jun 2027 06:37:29.637   13 Jun 2027 06:40:47.792           198.155                 Moscow         24769.375
       408   13 Jun 2027 06:41:13.400   13 Jun 2027 06:44:25.716           192.316              Murmansk2         24039.500
       409   13 Jun 2027 08:04:00.238   13 Jun 2027 08:04:28.074            27.836                 Moscow          3479.500
       410   13 Jun 2027 08:07:15.407   13 Jun 2027 08:08:40.528            85.121                 Moscow         10640.125
       411   13 Jun 2027 08:11:59.626   13 Jun 2027 08:16:49.933           290.307                 Moscow         36288.375
       412   13 Jun 2027 08:16:52.339   13 Jun 2027 08:20:21.608           209.269              Murmansk1         26158.625
       413   13 Jun 2027 08:25:07.002   13 Jun 2027 08:26:12.609            65.607                Anadyr2          8200.875
       414   13 Jun 2027 09:22:44.194   13 Jun 2027 09:29:50.569           426.375               CapeTown         53296.875
       415   13 Jun 2027 09:48:07.766   13 Jun 2027 09:48:37.889            30.123                 Moscow          3765.375
       416   13 Jun 2027 09:51:27.131   13 Jun 2027 09:52:45.433            78.302              Murmansk1          9787.750
       417   13 Jun 2027 09:52:45.433   13 Jun 2027 09:55:00.149           134.716              Murmansk2         16839.500
       418   13 Jun 2027 09:56:16.517   13 Jun 2027 09:56:18.069             1.552              Murmansk1           194.000
       419   13 Jun 2027 09:58:18.108   13 Jun 2027 10:01:58.987           220.879                Anadyr1         27609.875
       420   13 Jun 2027 13:12:13.854   13 Jun 2027 13:19:24.357           430.503               Magadan1         53812.875
       421   13 Jun 2027 15:07:09.275   13 Jun 2027 15:11:32.714           263.439                Sumatra         32929.875
       422   13 Jun 2027 15:15:12.850   13 Jun 2027 15:16:09.567            56.717                Sumatra          7089.625
       423   13 Jun 2027 16:42:22.321   13 Jun 2027 16:45:03.004           160.683                  Delhi         20085.375
       424   13 Jun 2027 18:03:27.825   13 Jun 2027 18:03:50.434            22.609                Novosib          2826.125
       425   13 Jun 2027 18:10:47.892   13 Jun 2027 18:12:18.682            90.790                  Delhi         11348.750
       426   13 Jun 2027 18:18:24.694   13 Jun 2027 18:20:25.018           120.324                  Delhi         15040.500
       427   13 Jun 2027 19:45:31.091   13 Jun 2027 19:46:53.884            82.793                 Moscow         10349.125
       428   13 Jun 2027 21:20:18.359   13 Jun 2027 21:21:46.583            88.224                 Moscow         11028.000
       429   13 Jun 2027 21:44:03.928   13 Jun 2027 21:45:46.560           102.632               CapeTown         10611.375
