uniorb/output/strategy_4/Drop/Drop_KinoSat_111601.txt

KinoSat_111601
-------------------------
    Access    *     Start Time (UTCG)     *     Stop Time (UTCG)  *   Duration (s)        *       Station  *  Data (Mbytes)
         1   01 Jun 2027 03:56:07.222   01 Jun 2027 03:57:26.322            79.100                Norilsk          2471.875
         2   01 Jun 2027 03:57:34.342   01 Jun 2027 03:59:52.612           138.270                Novosib          4320.937
         3   01 Jun 2027 04:00:10.216   01 Jun 2027 04:00:30.832            20.616              Murmansk2           644.250
         4   01 Jun 2027 04:01:32.259   01 Jun 2027 04:02:33.184            60.925                 Moscow          1903.906
         5   01 Jun 2027 04:24:02.418   01 Jun 2027 04:24:17.718            15.300               CapeTown           478.125
         6   01 Jun 2027 05:32:55.166   01 Jun 2027 05:33:17.075            21.909                Norilsk           684.656
         7   01 Jun 2027 05:33:21.591   01 Jun 2027 05:34:02.039            40.448              Murmansk2          1264.000
         8   01 Jun 2027 05:34:27.300   01 Jun 2027 05:35:38.367            71.067              Murmansk1          2220.844
         9   01 Jun 2027 05:35:38.367   01 Jun 2027 05:36:00.175            21.808              Murmansk2           681.500
        10   01 Jun 2027 05:38:50.795   01 Jun 2027 05:39:35.402            44.607                 Moscow          1393.969
        11   01 Jun 2027 06:56:27.167   01 Jun 2027 06:58:44.951           137.784                Anadyr1          4305.750
        12   01 Jun 2027 08:32:25.075   01 Jun 2027 08:33:28.263            63.188               Magadan1          1974.625
        13   01 Jun 2027 08:33:35.773   01 Jun 2027 08:34:16.345            40.572                Anadyr2          1267.875
        14   01 Jun 2027 08:34:25.272   01 Jun 2027 08:35:03.357            38.085                Irkutsk          1190.156
        15   01 Jun 2027 08:35:40.871   01 Jun 2027 08:37:09.923            89.052                Anadyr1          2782.875
        16   01 Jun 2027 10:07:24.172   01 Jun 2027 10:07:55.267            31.095               Magadan2           971.719
        17   01 Jun 2027 10:08:29.960   01 Jun 2027 10:11:16.092           166.132               Magadan1          5191.625
        18   01 Jun 2027 10:11:16.092   01 Jun 2027 10:12:29.390            73.298               Magadan2          2290.563
        19   01 Jun 2027 11:44:47.976   01 Jun 2027 11:46:46.351           118.375                Norilsk          3699.219
        20   01 Jun 2027 11:47:01.677   01 Jun 2027 11:48:52.714           111.037                Irkutsk          3469.906
        21   01 Jun 2027 11:49:00.383   01 Jun 2027 11:49:52.098            51.715                Novosib          1616.094
        22   01 Jun 2027 11:51:37.572   01 Jun 2027 11:51:42.208             4.636              Murmansk1           144.875
        23   01 Jun 2027 11:52:05.402   01 Jun 2027 11:52:28.240            22.838              Murmansk1           713.687
        24   01 Jun 2027 12:25:34.384   01 Jun 2027 12:27:21.167           106.783            RioGallegos          3336.969
        25   01 Jun 2027 12:59:48.498   01 Jun 2027 13:04:51.485           302.987                Sumatra          9468.344
        26   01 Jun 2027 13:15:26.987   01 Jun 2027 13:16:28.471            61.484                Irkutsk          1921.375
        27   01 Jun 2027 13:16:45.297   01 Jun 2027 13:17:39.708            54.411                Novosib          1700.344
        28   01 Jun 2027 13:19:05.786   01 Jun 2027 13:20:06.561            60.775                Irkutsk          1899.219
        29   01 Jun 2027 13:22:53.238   01 Jun 2027 13:23:20.521            27.283                Irkutsk           852.594
        30   01 Jun 2027 14:45:12.106   01 Jun 2027 14:49:48.828           276.722                  Delhi          8647.563
        31   01 Jun 2027 14:53:43.161   01 Jun 2027 14:56:32.327           169.166                Novosib          5286.438
        32   01 Jun 2027 14:56:48.088   01 Jun 2027 14:57:11.814            23.726                Norilsk           741.437
        33   01 Jun 2027 14:57:44.478   01 Jun 2027 14:58:07.285            22.807                Novosib           712.719
        34   01 Jun 2027 15:00:18.239   01 Jun 2027 15:00:39.671            21.432                Novosib           669.750
        35   01 Jun 2027 16:07:51.204   01 Jun 2027 16:09:42.844           111.640               CapeTown          3488.750
        36   01 Jun 2027 16:10:48.480   01 Jun 2027 16:12:37.198           108.718               CapeTown          3397.438
        37   01 Jun 2027 16:27:32.309   01 Jun 2027 16:27:44.556            12.247                 Moscow           382.719
        38   01 Jun 2027 16:28:30.362   01 Jun 2027 16:29:04.351            33.989                 Moscow          1062.156
        39   01 Jun 2027 16:30:59.714   01 Jun 2027 16:31:47.187            47.473              Murmansk1          1483.531
        40   01 Jun 2027 16:32:00.417   01 Jun 2027 16:33:25.848            85.431              Murmansk1          2669.719
        41   01 Jun 2027 16:39:39.280   01 Jun 2027 16:40:03.167            23.887              Murmansk1           746.469
        42   01 Jun 2027 16:41:22.649   01 Jun 2027 16:42:12.813            50.164              Murmansk2          1567.625
        43   01 Jun 2027 16:42:58.310   01 Jun 2027 16:43:28.711            30.401              Murmansk1           950.031
        44   01 Jun 2027 16:46:05.849   01 Jun 2027 16:47:02.970            57.121                Anadyr2          1785.031
        45   01 Jun 2027 16:48:23.567   01 Jun 2027 16:48:49.423            25.856                Anadyr2           808.000
        46   01 Jun 2027 16:50:15.629   01 Jun 2027 16:50:32.584            16.955                Anadyr1           529.844
        47   01 Jun 2027 16:50:44.294   01 Jun 2027 16:51:29.804            45.510                Anadyr2          1422.188
        48   01 Jun 2027 17:40:35.048   01 Jun 2027 17:41:19.779            44.731               CapeTown          1397.844
        49   01 Jun 2027 17:44:15.690   01 Jun 2027 17:44:39.755            24.065               CapeTown           752.031
        50   01 Jun 2027 17:46:33.789   01 Jun 2027 17:47:26.618            52.829               CapeTown          1650.906
        51   01 Jun 2027 17:50:08.962   01 Jun 2027 17:50:42.077            33.115               CapeTown          1034.844
        52   01 Jun 2027 18:08:08.523   01 Jun 2027 18:11:56.154           227.631                 Moscow          7113.469
        53   01 Jun 2027 18:16:58.958   01 Jun 2027 18:18:32.694            93.736              Murmansk2          2929.250
        54   01 Jun 2027 18:26:36.903   01 Jun 2027 18:28:20.646           103.743               Magadan2          3241.969
        55   01 Jun 2027 19:17:45.198   01 Jun 2027 19:18:41.945            56.747               CapeTown          1773.344
        56   01 Jun 2027 19:23:00.151   01 Jun 2027 19:23:22.356            22.205               CapeTown           693.906
        57   01 Jun 2027 19:23:29.237   01 Jun 2027 19:24:16.423            47.186               CapeTown          1474.562
        58   01 Jun 2027 19:51:22.247   01 Jun 2027 19:53:47.767           145.520              Murmansk2          4547.500
        59   01 Jun 2027 19:59:37.324   01 Jun 2027 20:01:00.366            83.042               Magadan2          2595.063
        60   01 Jun 2027 20:02:09.667   01 Jun 2027 20:03:04.099            54.432               Magadan1          1701.000
        61   01 Jun 2027 20:05:50.007   01 Jun 2027 20:06:06.433            16.426               Magadan2           513.312
        62   01 Jun 2027 20:07:29.081   01 Jun 2027 20:07:56.035            26.954               Magadan2           842.312
        63   01 Jun 2027 20:08:56.554   01 Jun 2027 20:09:12.346            15.792               Magadan1           493.500
        64   01 Jun 2027 20:10:10.677   01 Jun 2027 20:10:17.133             6.456               Magadan2           201.750
        65   01 Jun 2027 21:33:00.820   01 Jun 2027 21:36:51.587           230.767                Anadyr2          7211.469
        66   01 Jun 2027 21:37:02.242   01 Jun 2027 21:38:57.731           115.489                Norilsk          3609.031
        67   01 Jun 2027 21:39:06.914   01 Jun 2027 21:40:51.649           104.735               Magadan1          3272.969
        68   01 Jun 2027 21:40:51.649   01 Jun 2027 21:40:51.863             0.214               Magadan2             6.688
        69   01 Jun 2027 21:41:57.562   01 Jun 2027 21:42:09.149            11.587               Magadan2           362.094
        70   01 Jun 2027 21:42:15.757   01 Jun 2027 21:42:27.271            11.514               Magadan2           359.812
        71   01 Jun 2027 21:42:40.839   01 Jun 2027 21:42:53.926            13.087               Magadan2           408.969
        72   01 Jun 2027 21:43:40.519   01 Jun 2027 21:44:23.534            43.015               Magadan2          1344.219
        73   01 Jun 2027 21:47:13.598   01 Jun 2027 21:47:33.878            20.280               Magadan1           633.750
        74   01 Jun 2027 22:27:29.342   01 Jun 2027 22:29:33.214           123.872            RioGallegos          3871.000
        75   01 Jun 2027 22:32:46.300   01 Jun 2027 22:32:51.065             4.765            RioGallegos           148.906
        76   01 Jun 2027 22:33:02.678   01 Jun 2027 22:33:44.631            41.953            RioGallegos          1311.031
        77   01 Jun 2027 22:36:07.936   01 Jun 2027 22:36:08.558             0.622            RioGallegos            19.437
        78   01 Jun 2027 22:36:53.387   01 Jun 2027 22:37:15.986            22.599            RioGallegos           706.219
        79   01 Jun 2027 23:08:38.404   01 Jun 2027 23:10:48.140           129.736                Anadyr2          4054.250
        80   01 Jun 2027 23:10:48.140   01 Jun 2027 23:10:53.249             5.109                Anadyr1           159.656
        81   01 Jun 2027 23:11:00.066   01 Jun 2027 23:12:30.070            90.004                Norilsk          2812.625
        82   01 Jun 2027 23:12:36.399   01 Jun 2027 23:13:21.437            45.038               Magadan1          1407.438
        83   01 Jun 2027 23:13:40.491   01 Jun 2027 23:14:27.815            47.324               Magadan1          1478.875
        84   01 Jun 2027 23:15:02.699   01 Jun 2027 23:15:31.863            29.164                Irkutsk           911.375
        85   01 Jun 2027 23:17:14.905   01 Jun 2027 23:17:42.690            27.785                Irkutsk           868.281
        86   01 Jun 2027 23:18:14.264   01 Jun 2027 23:19:41.587            87.323                Novosib          2728.844
        87   01 Jun 2027 23:29:28.279   01 Jun 2027 23:30:53.167            84.888                Sumatra          2652.750
        88   01 Jun 2027 23:38:15.619   01 Jun 2027 23:38:54.868            39.249                Sumatra          1226.531
        89   02 Jun 2027 00:10:21.731   02 Jun 2027 00:10:47.131            25.400            RioGallegos           793.750
        90   02 Jun 2027 00:12:19.153   02 Jun 2027 00:12:49.310            30.157            RioGallegos           942.406
        91   02 Jun 2027 00:14:19.145   02 Jun 2027 00:15:35.846            76.701            RioGallegos          2396.906
        92   02 Jun 2027 00:44:55.404   02 Jun 2027 00:45:09.955            14.551                Anadyr2           454.719
        93   02 Jun 2027 00:45:38.673   02 Jun 2027 00:46:10.393            31.720                Anadyr1           991.250
        94   02 Jun 2027 00:46:47.448   02 Jun 2027 00:48:21.167            93.719                Norilsk          2928.719
        95   02 Jun 2027 00:48:30.408   02 Jun 2027 00:49:43.207            72.799               Magadan1          2274.969
        96   02 Jun 2027 00:50:39.951   02 Jun 2027 00:51:31.284            51.333                Irkutsk          1604.156
        97   02 Jun 2027 00:54:26.923   02 Jun 2027 00:55:02.581            35.658                Novosib          1114.312
        98   02 Jun 2027 00:56:17.496   02 Jun 2027 00:56:28.278            10.782                Irkutsk           336.937
        99   02 Jun 2027 00:56:39.091   02 Jun 2027 00:57:06.463            27.372                Novosib           855.375
       100   02 Jun 2027 00:59:13.467   02 Jun 2027 01:00:02.411            48.944                Novosib          1529.500
       101   02 Jun 2027 01:04:15.231   02 Jun 2027 01:04:41.548            26.317                  Delhi           822.406
       102   02 Jun 2027 01:08:00.506   02 Jun 2027 01:08:23.394            22.888                  Delhi           715.250
       103   02 Jun 2027 01:08:54.564   02 Jun 2027 01:09:20.773            26.209                  Delhi           819.031
       104   02 Jun 2027 01:12:36.987   02 Jun 2027 01:14:51.169           134.182                Sumatra          4193.188
       105   02 Jun 2027 02:18:01.915   02 Jun 2027 02:19:14.916            73.001                Anadyr1          2281.281
       106   02 Jun 2027 02:22:47.342   02 Jun 2027 02:23:49.361            62.019                Norilsk          1938.094
       107   02 Jun 2027 02:24:40.995   02 Jun 2027 02:25:33.273            52.278                Norilsk          1633.688
       108   02 Jun 2027 02:25:35.093   02 Jun 2027 02:26:19.096            44.003              Murmansk1          1375.094
       109   02 Jun 2027 02:26:34.903   02 Jun 2027 02:26:49.914            15.011                Novosib           469.094
       110   02 Jun 2027 02:27:14.360   02 Jun 2027 02:27:44.517            30.157                Irkutsk           942.406
       111   02 Jun 2027 02:28:47.615   02 Jun 2027 02:29:24.417            36.802                Irkutsk          1150.063
       112   02 Jun 2027 02:33:21.471   02 Jun 2027 02:33:29.390             7.919                Irkutsk           247.469
       113   02 Jun 2027 02:33:38.765   02 Jun 2027 02:33:54.870            16.105                Irkutsk           503.281
       114   02 Jun 2027 02:36:00.969   02 Jun 2027 02:36:29.730            28.761                Irkutsk           898.781
       115   02 Jun 2027 02:39:03.254   02 Jun 2027 02:39:12.423             9.169                Novosib           286.531
       116   02 Jun 2027 02:39:46.517   02 Jun 2027 02:41:11.254            84.737                  Delhi          2648.031
       117   02 Jun 2027 04:08:39.683   02 Jun 2027 04:11:06.183           146.500                Novosib          4578.125
       118   02 Jun 2027 04:11:26.626   02 Jun 2027 04:12:57.590            90.964              Murmansk2          2842.625
       119   02 Jun 2027 04:13:36.611   02 Jun 2027 04:15:48.656           132.045                 Moscow          4126.406
       120   02 Jun 2027 04:16:02.693   02 Jun 2027 04:16:40.659            37.966                 Moscow          1186.437
       121   02 Jun 2027 04:28:39.903   02 Jun 2027 04:40:40.138           720.235               CapeTown         22507.344
       122   02 Jun 2027 05:32:42.685   02 Jun 2027 05:33:29.090            46.405                Anadyr2          1450.156
       123   02 Jun 2027 05:33:29.090   02 Jun 2027 05:34:24.149            55.059                Anadyr1          1720.594
       124   02 Jun 2027 05:46:24.845   02 Jun 2027 05:46:36.337            11.492                 Moscow           359.125
       125   02 Jun 2027 05:51:01.365   02 Jun 2027 05:52:36.168            94.803                 Moscow          2962.594
       126   02 Jun 2027 06:14:41.339   02 Jun 2027 06:16:07.011            85.672               CapeTown          2677.250
       127   02 Jun 2027 07:06:04.452   02 Jun 2027 07:06:47.402            42.950                Anadyr1          1342.188
       128   02 Jun 2027 07:07:28.342   02 Jun 2027 07:09:07.640            99.298               Magadan1          3103.062
       129   02 Jun 2027 07:09:29.111   02 Jun 2027 07:10:06.864            37.753               Magadan2          1179.781
       130   02 Jun 2027 07:10:39.090   02 Jun 2027 07:11:47.454            68.364               Magadan1          2136.375
       131   02 Jun 2027 07:11:48.469   02 Jun 2027 07:13:03.992            75.523                Anadyr2          2360.094
       132   02 Jun 2027 08:45:09.548   02 Jun 2027 08:49:04.039           234.491                Anadyr2          7327.844
       133   02 Jun 2027 10:19:17.583   02 Jun 2027 10:20:23.270            65.687                Novosib          2052.719
       134   02 Jun 2027 10:20:26.920   02 Jun 2027 10:20:46.237            19.317               Magadan1           603.656
       135   02 Jun 2027 10:20:58.235   02 Jun 2027 10:21:21.075            22.840               Magadan2           713.750
       136   02 Jun 2027 10:22:25.266   02 Jun 2027 10:22:35.410            10.144                Irkutsk           317.000
       137   02 Jun 2027 10:22:56.133   02 Jun 2027 10:23:31.014            34.881                Irkutsk          1090.031
       138   02 Jun 2027 10:23:50.027   02 Jun 2027 10:24:22.104            32.077                Irkutsk          1002.406
       139   02 Jun 2027 10:25:21.353   02 Jun 2027 10:25:48.287            26.934                Novosib           841.688
       140   02 Jun 2027 10:59:39.492   02 Jun 2027 11:00:36.407            56.915            RioGallegos          1778.594
       141   02 Jun 2027 11:34:43.948   02 Jun 2027 11:37:07.563           143.615                Sumatra          4487.969
       142   02 Jun 2027 11:54:46.630   02 Jun 2027 11:54:51.851             5.221                Irkutsk           163.156
       143   02 Jun 2027 11:55:02.464   02 Jun 2027 11:56:00.692            58.228                Irkutsk          1819.625
       144   02 Jun 2027 11:56:06.558   02 Jun 2027 11:56:20.127            13.569                Norilsk           424.031
       145   02 Jun 2027 11:56:54.956   02 Jun 2027 11:56:57.845             2.889                Norilsk            90.281
       146   02 Jun 2027 11:57:08.285   02 Jun 2027 11:58:11.334            63.049                Novosib          1970.281
       147   02 Jun 2027 11:58:15.703   02 Jun 2027 11:58:55.199            39.496                Irkutsk          1234.250
       148   02 Jun 2027 11:59:05.842   02 Jun 2027 11:59:41.583            35.741                Irkutsk          1116.906
       149   02 Jun 2027 11:59:50.703   02 Jun 2027 12:00:00.101             9.398                Norilsk           293.688
       150   02 Jun 2027 12:00:26.859   02 Jun 2027 12:00:28.853             1.994              Murmansk2            62.313
       151   02 Jun 2027 12:00:32.956   02 Jun 2027 12:01:11.656            38.700                Novosib          1209.375
       152   02 Jun 2027 12:01:45.975   02 Jun 2027 12:02:12.079            26.104                Novosib           815.750
       153   02 Jun 2027 12:04:55.817   02 Jun 2027 12:05:42.124            46.307                Norilsk          1447.094
       154   02 Jun 2027 12:38:19.162   02 Jun 2027 12:39:24.914            65.752            RioGallegos          2054.750
       155   02 Jun 2027 12:44:07.238   02 Jun 2027 12:44:19.632            12.394            RioGallegos           387.313
       156   02 Jun 2027 12:46:32.188   02 Jun 2027 12:47:15.304            43.116            RioGallegos          1347.375
       157   02 Jun 2027 13:12:38.713   02 Jun 2027 13:14:33.345           114.632                Sumatra          3582.250
       158   02 Jun 2027 13:28:29.709   02 Jun 2027 13:31:05.350           155.641                Irkutsk          4863.781
       159   02 Jun 2027 13:41:17.665   02 Jun 2027 13:41:56.920            39.255                Norilsk          1226.719
       160   02 Jun 2027 14:58:30.641   02 Jun 2027 15:01:43.259           192.618                  Delhi          6019.312
       161   02 Jun 2027 15:04:20.427   02 Jun 2027 15:04:29.064             8.637                 Moscow           269.906
       162   02 Jun 2027 15:06:35.019   02 Jun 2027 15:07:30.348            55.329              Murmansk2          1729.031
       163   02 Jun 2027 15:08:31.236   02 Jun 2027 15:10:31.055           119.819                Novosib          3744.344
       164   02 Jun 2027 15:13:37.661   02 Jun 2027 15:13:56.949            19.288                Norilsk           602.750
       165   02 Jun 2027 15:14:05.865   02 Jun 2027 15:14:21.630            15.765                Norilsk           492.656
       166   02 Jun 2027 16:18:50.039   02 Jun 2027 16:20:47.186           117.147               CapeTown          3660.844
       167   02 Jun 2027 16:26:08.023   02 Jun 2027 16:26:42.628            34.605               CapeTown          1081.406
       168   02 Jun 2027 16:39:49.861   02 Jun 2027 16:40:33.036            43.175                 Moscow          1349.219
       169   02 Jun 2027 16:43:48.532   02 Jun 2027 16:44:39.938            51.406              Murmansk2          1606.438
       170   02 Jun 2027 16:47:32.131   02 Jun 2027 16:47:54.658            22.527              Murmansk1           703.969
       171   02 Jun 2027 16:50:08.980   02 Jun 2027 16:50:48.679            39.699                 Moscow          1240.594
       172   02 Jun 2027 16:57:54.553   02 Jun 2027 16:59:46.165           111.612                Anadyr2          3487.875
       173   02 Jun 2027 17:00:37.322   02 Jun 2027 17:00:43.848             6.526                Anadyr2           203.937
       174   02 Jun 2027 17:01:07.829   02 Jun 2027 17:01:20.648            12.819                Anadyr2           400.594
       175   02 Jun 2027 17:05:58.980   02 Jun 2027 17:06:01.009             2.029                Anadyr1            63.406
       176   02 Jun 2027 17:52:34.836   02 Jun 2027 17:55:01.613           146.777               CapeTown          4586.781
       177   02 Jun 2027 18:21:53.134   02 Jun 2027 18:24:23.529           150.395                 Moscow          4699.844
       178   02 Jun 2027 18:25:23.800   02 Jun 2027 18:27:00.928            97.128              Murmansk1          3035.250
       179   02 Jun 2027 18:36:05.236   02 Jun 2027 18:36:12.644             7.408                Anadyr1           231.500
       180   02 Jun 2027 18:37:28.988   02 Jun 2027 18:37:59.426            30.438               Magadan2           951.188
       181   02 Jun 2027 18:38:16.393   02 Jun 2027 18:38:35.022            18.629               Magadan1           582.156
       182   02 Jun 2027 18:38:35.022   02 Jun 2027 18:38:37.173             2.151               Magadan2            67.219
       183   02 Jun 2027 18:41:00.334   02 Jun 2027 18:41:11.995            11.661               Magadan1           364.406
       184   02 Jun 2027 18:41:52.761   02 Jun 2027 18:42:17.179            24.418               Magadan1           763.063
       185   02 Jun 2027 19:30:20.694   02 Jun 2027 19:30:53.523            32.829               CapeTown          1025.906
       186   02 Jun 2027 19:32:21.229   02 Jun 2027 19:33:04.944            43.715               CapeTown          1366.094
       187   02 Jun 2027 20:09:07.302   02 Jun 2027 20:10:45.778            98.476                Anadyr1          3077.375
       188   02 Jun 2027 20:11:08.613   02 Jun 2027 20:13:00.066           111.453                Anadyr2          3482.906
       189   02 Jun 2027 20:13:35.773   02 Jun 2027 20:15:48.533           132.760               Magadan1          4148.750
       190   02 Jun 2027 20:16:33.984   02 Jun 2027 20:17:00.096            26.112               Magadan1           816.000
       191   02 Jun 2027 21:45:01.618   02 Jun 2027 21:47:05.153           123.535                Anadyr1          3860.469
       192   02 Jun 2027 21:47:10.416   02 Jun 2027 21:48:42.957            92.541                Anadyr2          2891.906
       193   02 Jun 2027 21:48:55.240   02 Jun 2027 21:50:52.922           117.682                Norilsk          3677.563
       194   02 Jun 2027 21:51:09.485   02 Jun 2027 21:52:28.678            79.193               Magadan2          2474.781
       195   02 Jun 2027 21:53:42.506   02 Jun 2027 21:54:10.766            28.260               Magadan1           883.125
       196   02 Jun 2027 21:54:10.875   02 Jun 2027 21:54:56.633            45.758                Irkutsk          1429.938
       197   02 Jun 2027 21:55:36.171   02 Jun 2027 21:56:01.609            25.438                Irkutsk           794.938
       198   02 Jun 2027 22:39:19.090   02 Jun 2027 22:41:07.579           108.489            RioGallegos          3390.281
       199   02 Jun 2027 22:41:45.595   02 Jun 2027 22:42:33.845            48.250            RioGallegos          1507.813
       200   02 Jun 2027 23:20:34.923   02 Jun 2027 23:22:50.658           135.735                Anadyr2          4241.719
       201   02 Jun 2027 23:22:51.012   02 Jun 2027 23:23:09.762            18.750                Norilsk           585.937
       202   02 Jun 2027 23:23:23.815   02 Jun 2027 23:24:25.216            61.401               Magadan2          1918.781
       203   02 Jun 2027 23:26:57.621   02 Jun 2027 23:27:53.842            56.221                Irkutsk          1756.906
       204   02 Jun 2027 23:28:26.899   02 Jun 2027 23:30:39.188           132.289                Novosib          4134.031
       205   02 Jun 2027 23:40:39.753   02 Jun 2027 23:43:04.150           144.397                Sumatra          4512.406
       206   03 Jun 2027 00:24:21.878   03 Jun 2027 00:24:40.001            18.123            RioGallegos           566.344
       207   03 Jun 2027 00:26:27.593   03 Jun 2027 00:27:33.096            65.503            RioGallegos          2046.969
       208   03 Jun 2027 00:56:49.831   03 Jun 2027 00:57:14.485            24.654                Anadyr1           770.437
       209   03 Jun 2027 00:57:14.485   03 Jun 2027 00:57:26.688            12.203                Anadyr2           381.344
       210   03 Jun 2027 00:57:43.183   03 Jun 2027 00:57:55.476            12.293                Anadyr1           384.156
       211   03 Jun 2027 00:58:49.760   03 Jun 2027 01:00:32.089           102.329                Norilsk          3197.781
       212   03 Jun 2027 01:02:24.315   03 Jun 2027 01:02:52.509            28.194               Magadan1           881.063
       213   03 Jun 2027 01:03:43.599   03 Jun 2027 01:04:42.266            58.667                Irkutsk          1833.344
       214   03 Jun 2027 01:04:52.467   03 Jun 2027 01:05:59.749            67.282                Novosib          2102.563
       215   03 Jun 2027 01:10:12.697   03 Jun 2027 01:10:41.190            28.493                Novosib           890.406
       216   03 Jun 2027 01:11:05.144   03 Jun 2027 01:11:40.429            35.285                  Delhi          1102.656
       217   03 Jun 2027 01:16:08.255   03 Jun 2027 01:16:41.461            33.206                  Delhi          1037.688
       218   03 Jun 2027 01:19:13.740   03 Jun 2027 01:20:28.413            74.673                Sumatra          2333.531
       219   03 Jun 2027 01:52:29.895   03 Jun 2027 01:52:53.341            23.446            RioGallegos           732.688
       220   03 Jun 2027 01:55:07.108   03 Jun 2027 01:55:19.370            12.262            RioGallegos           383.188
       221   03 Jun 2027 01:56:07.605   03 Jun 2027 01:56:54.871            47.266            RioGallegos          1477.062
       222   03 Jun 2027 02:28:39.043   03 Jun 2027 02:28:50.004            10.961                Anadyr2           342.531
       223   03 Jun 2027 02:30:01.244   03 Jun 2027 02:31:18.870            77.626                Anadyr2          2425.812
       224   03 Jun 2027 02:34:48.907   03 Jun 2027 02:35:44.614            55.707                Norilsk          1740.844
       225   03 Jun 2027 02:36:03.901   03 Jun 2027 02:36:21.830            17.929                Norilsk           560.281
       226   03 Jun 2027 02:37:06.776   03 Jun 2027 02:38:23.323            76.547              Murmansk1          2392.094
       227   03 Jun 2027 02:38:38.145   03 Jun 2027 02:39:07.928            29.783                Novosib           930.719
       228   03 Jun 2027 02:39:26.173   03 Jun 2027 02:39:33.938             7.765                Irkutsk           242.656
       229   03 Jun 2027 02:39:50.899   03 Jun 2027 02:40:14.447            23.548                Novosib           735.875
       230   03 Jun 2027 02:44:00.282   03 Jun 2027 02:44:25.555            25.273                Novosib           789.781
       231   03 Jun 2027 02:46:26.545   03 Jun 2027 02:47:06.782            40.237                  Delhi          1257.406
       232   03 Jun 2027 02:52:16.334   03 Jun 2027 02:53:43.950            87.616                  Delhi          2738.000
       233   03 Jun 2027 04:20:45.025   03 Jun 2027 04:21:55.162            70.137                Novosib          2191.781
       234   03 Jun 2027 04:22:16.228   03 Jun 2027 04:23:59.361           103.133                Novosib          3222.906
       235   03 Jun 2027 04:24:36.621   03 Jun 2027 04:28:50.787           254.166                 Moscow          7942.687
       236   03 Jun 2027 04:46:43.135   03 Jun 2027 04:47:45.345            62.210               CapeTown          1944.063
       237   03 Jun 2027 04:48:41.488   03 Jun 2027 04:49:50.138            68.650               CapeTown          2145.312
       238   03 Jun 2027 04:50:06.345   03 Jun 2027 04:50:41.258            34.913               CapeTown          1091.031
       239   03 Jun 2027 04:52:05.780   03 Jun 2027 04:52:48.474            42.694               CapeTown          1334.187
       240   03 Jun 2027 05:43:53.247   03 Jun 2027 05:45:18.034            84.787                Anadyr1          2649.594
       241   03 Jun 2027 05:49:07.131   03 Jun 2027 05:49:13.989             6.858               Magadan2           214.313
       242   03 Jun 2027 07:17:53.129   03 Jun 2027 07:18:06.141            13.012                Anadyr2           406.625
       243   03 Jun 2027 07:18:06.141   03 Jun 2027 07:18:58.427            52.286                Anadyr1          1633.937
       244   03 Jun 2027 07:19:22.163   03 Jun 2027 07:19:57.086            34.923               Magadan2          1091.344
       245   03 Jun 2027 07:20:15.403   03 Jun 2027 07:21:06.911            51.508               Magadan2          1609.625
       246   03 Jun 2027 07:21:06.911   03 Jun 2027 07:21:32.054            25.143               Magadan1           785.719
       247   03 Jun 2027 07:21:47.425   03 Jun 2027 07:22:10.491            23.066               Magadan1           720.813
       248   03 Jun 2027 07:22:27.800   03 Jun 2027 07:23:15.018            47.218               Magadan1          1475.563
       249   03 Jun 2027 07:28:43.201   03 Jun 2027 07:30:06.726            83.525                 Moscow          2610.156
       250   03 Jun 2027 08:52:45.001   03 Jun 2027 08:52:50.860             5.859               Magadan1           183.094
       251   03 Jun 2027 08:52:53.734   03 Jun 2027 08:53:10.357            16.623                Anadyr1           519.469
       252   03 Jun 2027 08:53:10.357   03 Jun 2027 08:53:52.489            42.132                Anadyr2          1316.625
       253   03 Jun 2027 08:54:22.534   03 Jun 2027 08:54:48.739            26.205               Magadan2           818.906
       254   03 Jun 2027 08:55:16.037   03 Jun 2027 08:55:29.931            13.894               Magadan2           434.187
       255   03 Jun 2027 08:55:49.522   03 Jun 2027 08:56:23.312            33.790                Anadyr1          1055.937
       256   03 Jun 2027 08:56:51.157   03 Jun 2027 08:57:29.712            38.555                Anadyr2          1204.844
       257   03 Jun 2027 08:57:30.282   03 Jun 2027 08:57:50.023            19.741               Magadan2           616.906
       258   03 Jun 2027 08:58:21.734   03 Jun 2027 08:58:28.113             6.379               Magadan1           199.344
       259   03 Jun 2027 08:58:34.262   03 Jun 2027 08:59:27.396            53.134               Magadan1          1660.438
       260   03 Jun 2027 08:59:41.245   03 Jun 2027 09:00:55.812            74.567                Anadyr2          2330.219
       261   03 Jun 2027 10:31:25.266   03 Jun 2027 10:32:50.752            85.486               Magadan1          2671.438
       262   03 Jun 2027 10:33:03.668   03 Jun 2027 10:33:05.810             2.142               Magadan1            66.937
       263   03 Jun 2027 10:34:00.663   03 Jun 2027 10:34:18.406            17.743                Irkutsk           554.469
       264   03 Jun 2027 10:34:36.737   03 Jun 2027 10:34:57.310            20.573                Irkutsk           642.906
       265   03 Jun 2027 10:35:03.567   03 Jun 2027 10:35:41.550            37.983                Irkutsk          1186.969
       266   03 Jun 2027 10:36:14.396   03 Jun 2027 10:37:00.460            46.064                Irkutsk          1439.500
       267   03 Jun 2027 11:11:46.083   03 Jun 2027 11:12:31.038            44.955            RioGallegos          1404.844
       268   03 Jun 2027 11:18:30.544   03 Jun 2027 11:18:32.056             1.512            RioGallegos            47.250
       269   03 Jun 2027 11:18:48.875   03 Jun 2027 11:18:49.992             1.117            RioGallegos            34.906
       270   03 Jun 2027 11:46:37.025   03 Jun 2027 11:48:13.709            96.684                Sumatra          3021.375
       271   03 Jun 2027 12:05:53.612   03 Jun 2027 12:06:06.484            12.872                Irkutsk           402.250
       272   03 Jun 2027 12:07:49.474   03 Jun 2027 12:08:07.382            17.908                Novosib           559.625
       273   03 Jun 2027 12:10:03.896   03 Jun 2027 12:10:23.225            19.329                Irkutsk           604.031
       274   03 Jun 2027 12:16:36.778   03 Jun 2027 12:16:56.690            19.912                Norilsk           622.250
       275   03 Jun 2027 12:51:06.170   03 Jun 2027 12:52:34.454            88.284            RioGallegos          2758.875
       276   03 Jun 2027 12:54:42.612   03 Jun 2027 12:55:43.751            61.139            RioGallegos          1910.594
       277   03 Jun 2027 12:58:29.629   03 Jun 2027 12:58:38.564             8.935            RioGallegos           279.219
       278   03 Jun 2027 13:26:01.835   03 Jun 2027 13:27:11.747            69.912                Sumatra          2184.750
       279   03 Jun 2027 13:29:27.096   03 Jun 2027 13:30:00.773            33.677                Sumatra          1052.406
       280   03 Jun 2027 13:39:39.537   03 Jun 2027 13:40:34.566            55.029                Novosib          1719.656
       281   03 Jun 2027 13:42:00.256   03 Jun 2027 13:43:03.772            63.516                Irkutsk          1984.875
       282   03 Jun 2027 13:43:47.410   03 Jun 2027 13:45:01.375            73.965                Irkutsk          2311.406
       283   03 Jun 2027 15:15:13.499   03 Jun 2027 15:16:20.710            67.211                 Moscow          2100.344
       284   03 Jun 2027 15:17:54.400   03 Jun 2027 15:18:28.256            33.856                 Moscow          1058.000
       285   03 Jun 2027 15:20:47.893   03 Jun 2027 15:20:57.811             9.918              Murmansk2           309.937
       286   03 Jun 2027 15:21:05.615   03 Jun 2027 15:22:27.792            82.177                Novosib          2568.031
       287   03 Jun 2027 15:25:53.864   03 Jun 2027 15:27:28.000            94.136                Norilsk          2941.750
       288   03 Jun 2027 16:30:11.347   03 Jun 2027 16:33:00.694           169.347               CapeTown          5292.094
       289   03 Jun 2027 16:52:11.362   03 Jun 2027 16:52:35.136            23.774                 Moscow           742.937
       290   03 Jun 2027 16:55:27.669   03 Jun 2027 16:55:30.781             3.112              Murmansk1            97.250
       291   03 Jun 2027 16:55:49.601   03 Jun 2027 16:56:04.420            14.819              Murmansk2           463.094
       292   03 Jun 2027 16:56:24.612   03 Jun 2027 16:57:00.157            35.545                 Moscow          1110.781
       293   03 Jun 2027 16:58:22.514   03 Jun 2027 16:59:32.167            69.653              Murmansk2          2176.656
       294   03 Jun 2027 17:06:48.917   03 Jun 2027 17:07:32.510            43.593              Murmansk1          1362.281
       295   03 Jun 2027 17:09:46.557   03 Jun 2027 17:10:11.614            25.057                Anadyr1           783.031
       296   03 Jun 2027 17:10:11.614   03 Jun 2027 17:10:12.221             0.607                Anadyr2            18.969
       297   03 Jun 2027 17:10:37.172   03 Jun 2027 17:11:00.273            23.101                Anadyr1           721.906
       298   03 Jun 2027 17:12:03.578   03 Jun 2027 17:12:23.955            20.377                Anadyr1           636.781
       299   03 Jun 2027 17:14:32.165   03 Jun 2027 17:14:44.915            12.750                Anadyr1           398.437
       300   03 Jun 2027 17:18:18.399   03 Jun 2027 17:18:41.822            23.423                Anadyr1           731.969
       301   03 Jun 2027 18:04:37.417   03 Jun 2027 18:04:42.617             5.200               CapeTown           162.500
       302   03 Jun 2027 18:06:51.924   03 Jun 2027 18:07:07.573            15.649               CapeTown           489.031
       303   03 Jun 2027 18:08:27.672   03 Jun 2027 18:08:35.194             7.522               CapeTown           235.063
       304   03 Jun 2027 18:10:06.132   03 Jun 2027 18:10:26.800            20.668               CapeTown           645.875
       305   03 Jun 2027 18:12:57.550   03 Jun 2027 18:13:39.297            41.747               CapeTown          1304.594
       306   03 Jun 2027 18:34:29.523   03 Jun 2027 18:39:39.531           310.008              Murmansk2          9687.750
       307   03 Jun 2027 18:48:57.126   03 Jun 2027 18:49:59.978            62.852               Magadan2          1964.125
       308   03 Jun 2027 19:44:23.303   03 Jun 2027 19:44:27.773             4.470               CapeTown           139.688
       309   03 Jun 2027 19:44:42.734   03 Jun 2027 19:47:05.026           142.292               CapeTown          4446.625
       310   03 Jun 2027 20:21:09.060   03 Jun 2027 20:23:09.477           120.417                Anadyr2          3763.031
       311   03 Jun 2027 20:23:32.354   03 Jun 2027 20:24:32.141            59.787               Magadan2          1868.344
       312   03 Jun 2027 20:24:32.141   03 Jun 2027 20:25:23.833            51.692               Magadan1          1615.375
       313   03 Jun 2027 20:25:40.438   03 Jun 2027 20:25:54.011            13.573               Magadan2           424.156
       314   03 Jun 2027 20:26:21.540   03 Jun 2027 20:26:22.013             0.473               Magadan1            14.781
       315   03 Jun 2027 20:29:26.674   03 Jun 2027 20:29:27.902             1.228               Magadan1            38.375
       316   03 Jun 2027 20:33:11.291   03 Jun 2027 20:33:13.365             2.074               Magadan1            64.813
       317   03 Jun 2027 20:34:11.321   03 Jun 2027 20:34:32.852            21.531               Magadan1           672.844
       318   03 Jun 2027 21:57:02.100   03 Jun 2027 22:00:42.454           220.354                Anadyr2          6886.063
       319   03 Jun 2027 22:00:44.137   03 Jun 2027 22:03:20.438           156.301                Norilsk          4884.406
       320   03 Jun 2027 22:03:43.106   03 Jun 2027 22:04:13.985            30.879                Anadyr2           964.969
       321   03 Jun 2027 22:04:57.683   03 Jun 2027 22:05:24.317            26.634               Magadan2           832.312
       322   03 Jun 2027 22:05:44.570   03 Jun 2027 22:06:09.329            24.759                Irkutsk           773.719
       323   03 Jun 2027 22:06:28.512   03 Jun 2027 22:06:35.695             7.183               Magadan2           224.469
       324   03 Jun 2027 22:07:25.448   03 Jun 2027 22:07:40.286            14.838                Irkutsk           463.688
       325   03 Jun 2027 22:08:22.533   03 Jun 2027 22:09:43.039            80.506                Irkutsk          2515.813
       326   03 Jun 2027 22:22:32.150   03 Jun 2027 22:24:07.184            95.034                Sumatra          2969.812
       327   03 Jun 2027 22:59:14.227   03 Jun 2027 22:59:23.510             9.283            RioGallegos           290.094
       328   03 Jun 2027 23:00:18.277   03 Jun 2027 23:00:41.332            23.055            RioGallegos           720.469
       329   03 Jun 2027 23:32:30.532   03 Jun 2027 23:32:32.318             1.786                Anadyr1            55.813
       330   03 Jun 2027 23:32:32.318   03 Jun 2027 23:33:49.291            76.973                Anadyr2          2405.406
       331   03 Jun 2027 23:34:49.440   03 Jun 2027 23:34:51.325             1.885                Anadyr1            58.906
       332   03 Jun 2027 23:34:52.346   03 Jun 2027 23:36:34.268           101.922                Norilsk          3185.062
       333   03 Jun 2027 23:36:44.120   03 Jun 2027 23:37:40.470            56.350               Magadan2          1760.937
       334   03 Jun 2027 23:38:26.170   03 Jun 2027 23:38:44.085            17.915               Magadan1           559.844
       335   03 Jun 2027 23:39:16.101   03 Jun 2027 23:39:29.064            12.963                Irkutsk           405.094
       336   03 Jun 2027 23:39:57.710   03 Jun 2027 23:40:45.452            47.742                Irkutsk          1491.937
       337   03 Jun 2027 23:40:47.712   03 Jun 2027 23:41:42.891            55.179                Novosib          1724.344
       338   03 Jun 2027 23:42:32.340   03 Jun 2027 23:42:59.839            27.499                Novosib           859.344
       339   03 Jun 2027 23:45:20.086   03 Jun 2027 23:45:36.474            16.388                Novosib           512.125
       340   03 Jun 2027 23:52:35.731   03 Jun 2027 23:53:00.923            25.192                Sumatra           787.250
       341   03 Jun 2027 23:56:49.117   03 Jun 2027 23:58:36.676           107.559                Sumatra          3361.219
       342   04 Jun 2027 00:37:38.817   04 Jun 2027 00:38:24.282            45.465            RioGallegos          1420.781
       343   04 Jun 2027 01:06:57.518   04 Jun 2027 01:07:30.035            32.517                Anadyr1          1016.156
       344   04 Jun 2027 01:08:04.703   04 Jun 2027 01:08:42.180            37.477                Anadyr1          1171.156
       345   04 Jun 2027 01:09:14.239   04 Jun 2027 01:09:42.589            28.350                Anadyr1           885.938
       346   04 Jun 2027 01:10:52.060   04 Jun 2027 01:12:33.641           101.581                Norilsk          3174.406
       347   04 Jun 2027 01:14:44.597   04 Jun 2027 01:17:26.643           162.046                Novosib          5063.937
       348   04 Jun 2027 01:22:13.308   04 Jun 2027 01:23:02.200            48.892                  Delhi          1527.875
       349   04 Jun 2027 01:28:54.718   04 Jun 2027 01:28:57.976             3.258                  Delhi           101.813
       350   04 Jun 2027 01:30:14.298   04 Jun 2027 01:30:34.104            19.806                  Delhi           618.937
       351   04 Jun 2027 01:33:32.533   04 Jun 2027 01:35:17.807           105.274                Sumatra          3289.812
       352   04 Jun 2027 02:07:03.083   04 Jun 2027 02:07:07.150             4.067            RioGallegos           127.094
       353   04 Jun 2027 02:09:05.279   04 Jun 2027 02:09:45.785            40.506            RioGallegos          1265.813
       354   04 Jun 2027 02:40:20.116   04 Jun 2027 02:40:38.799            18.683                Anadyr1           583.844
       355   04 Jun 2027 02:42:22.573   04 Jun 2027 02:43:10.470            47.897                Anadyr2          1496.781
       356   04 Jun 2027 02:46:34.209   04 Jun 2027 02:47:22.101            47.892               Magadan2          1496.625
       357   04 Jun 2027 02:47:38.822   04 Jun 2027 02:48:12.137            33.315                Norilsk          1041.094
       358   04 Jun 2027 02:49:05.946   04 Jun 2027 02:49:56.923            50.977              Murmansk2          1593.031
       359   04 Jun 2027 02:50:25.979   04 Jun 2027 02:50:41.218            15.239              Murmansk1           476.219
       360   04 Jun 2027 02:50:41.880   04 Jun 2027 02:51:19.855            37.975                Novosib          1186.719
       361   04 Jun 2027 02:51:38.458   04 Jun 2027 02:52:00.082            21.624                Novosib           675.750
       362   04 Jun 2027 02:52:09.611   04 Jun 2027 02:52:40.238            30.627                Irkutsk           957.094
       363   04 Jun 2027 02:56:10.172   04 Jun 2027 02:56:42.082            31.910                Irkutsk           997.187
       364   04 Jun 2027 02:59:16.911   04 Jun 2027 02:59:46.703            29.792                  Delhi           931.000
       365   04 Jun 2027 04:32:53.822   04 Jun 2027 04:33:36.015            42.193                Novosib          1318.531
       366   04 Jun 2027 04:33:37.722   04 Jun 2027 04:34:18.668            40.946                Norilsk          1279.563
       367   04 Jun 2027 04:35:15.775   04 Jun 2027 04:36:53.616            97.841                 Moscow          3057.531
       368   04 Jun 2027 04:37:17.550   04 Jun 2027 04:37:25.997             8.447              Murmansk1           263.969
       369   04 Jun 2027 04:37:33.868   04 Jun 2027 04:39:11.287            97.419                 Moscow          3044.344
       370   04 Jun 2027 04:39:31.761   04 Jun 2027 04:40:02.429            30.668                 Moscow           958.375
       371   04 Jun 2027 04:52:14.127   04 Jun 2027 04:55:50.711           216.584               CapeTown          6768.250
       372   04 Jun 2027 04:56:22.688   04 Jun 2027 04:58:24.541           121.853               CapeTown          3807.906
       373   04 Jun 2027 05:52:15.034   04 Jun 2027 05:53:28.295            73.261               Magadan2          2289.406
       374   04 Jun 2027 05:55:21.134   04 Jun 2027 05:57:01.827           100.693               Magadan2          3146.656
       375   04 Jun 2027 07:29:43.659   04 Jun 2027 07:30:27.728            44.069               Magadan1          1377.156
       376   04 Jun 2027 07:31:11.801   04 Jun 2027 07:31:42.640            30.839                Anadyr1           963.719
       377   04 Jun 2027 07:31:56.405   04 Jun 2027 07:32:39.289            42.884                Anadyr2          1340.125
       378   04 Jun 2027 07:33:05.465   04 Jun 2027 07:33:29.940            24.475               Magadan1           764.844
       379   04 Jun 2027 07:33:34.855   04 Jun 2027 07:33:57.159            22.304               Magadan2           697.000
       380   04 Jun 2027 07:34:06.840   04 Jun 2027 07:34:12.417             5.577               Magadan1           174.281
       381   04 Jun 2027 07:35:05.018   04 Jun 2027 07:35:21.411            16.393                Anadyr2           512.281
       382   04 Jun 2027 07:35:21.411   04 Jun 2027 07:35:35.098            13.687                Anadyr1           427.719
       383   04 Jun 2027 07:40:52.994   04 Jun 2027 07:41:31.788            38.794                 Moscow          1212.312
       384   04 Jun 2027 08:18:40.273   04 Jun 2027 08:19:35.847            55.574            RioGallegos          1736.688
       385   04 Jun 2027 09:04:23.431   04 Jun 2027 09:04:35.125            11.694               Magadan2           365.438
       386   04 Jun 2027 09:05:32.394   04 Jun 2027 09:05:44.933            12.539               Magadan1           391.844
       387   04 Jun 2027 09:05:46.555   04 Jun 2027 09:07:50.209           123.654                Anadyr1          3864.188
       388   04 Jun 2027 09:08:09.642   04 Jun 2027 09:09:30.576            80.934               Magadan1          2529.188
       389   04 Jun 2027 09:10:13.041   04 Jun 2027 09:10:22.258             9.217                Anadyr1           288.031
       390   04 Jun 2027 09:10:42.074   04 Jun 2027 09:10:52.034             9.960               Magadan2           311.250
       391   04 Jun 2027 09:10:52.034   04 Jun 2027 09:11:29.444            37.410               Magadan1          1169.063
       392   04 Jun 2027 09:11:34.760   04 Jun 2027 09:12:07.580            32.820               Magadan2          1025.625
       393   04 Jun 2027 09:48:26.014   04 Jun 2027 09:49:06.835            40.821            RioGallegos          1275.656
       394   04 Jun 2027 09:50:52.686   04 Jun 2027 09:51:41.688            49.002            RioGallegos          1531.312
       395   04 Jun 2027 10:27:01.533   04 Jun 2027 10:27:34.216            32.683                Sumatra          1021.344
       396   04 Jun 2027 10:42:32.265   04 Jun 2027 10:42:36.875             4.610                Irkutsk           144.063
       397   04 Jun 2027 10:43:14.638   04 Jun 2027 10:43:17.371             2.733                Irkutsk            85.406
       398   04 Jun 2027 10:43:24.930   04 Jun 2027 10:44:40.619            75.689               Magadan2          2365.281
       399   04 Jun 2027 10:44:40.619   04 Jun 2027 10:45:28.929            48.310               Magadan1          1509.687
       400   04 Jun 2027 10:45:46.579   04 Jun 2027 10:47:11.165            84.586               Magadan2          2643.313
       401   04 Jun 2027 10:47:36.717   04 Jun 2027 10:47:40.110             3.393                Novosib           106.031
       402   04 Jun 2027 10:47:55.847   04 Jun 2027 10:48:04.093             8.246                Irkutsk           257.688
       403   04 Jun 2027 10:48:46.018   04 Jun 2027 10:49:04.062            18.044                Irkutsk           563.875
       404   04 Jun 2027 11:23:56.321   04 Jun 2027 11:23:57.282             0.961            RioGallegos            30.031
       405   04 Jun 2027 11:24:23.604   04 Jun 2027 11:25:04.263            40.659            RioGallegos          1270.594
       406   04 Jun 2027 11:26:54.579   04 Jun 2027 11:27:36.001            41.422            RioGallegos          1294.438
       407   04 Jun 2027 11:58:35.839   04 Jun 2027 11:59:06.352            30.513                Sumatra           953.531
       408   04 Jun 2027 12:01:04.666   04 Jun 2027 12:01:23.695            19.029                Sumatra           594.656
       409   04 Jun 2027 12:11:18.029   04 Jun 2027 12:11:21.399             3.370                  Delhi           105.312
       410   04 Jun 2027 12:11:46.255   04 Jun 2027 12:12:33.768            47.513                  Delhi          1484.781
       411   04 Jun 2027 12:12:53.044   04 Jun 2027 12:13:35.604            42.560                Irkutsk          1330.000
       412   04 Jun 2027 12:18:18.852   04 Jun 2027 12:18:33.316            14.464                Norilsk           452.000
       413   04 Jun 2027 12:20:24.373   04 Jun 2027 12:21:13.880            49.507                Norilsk          1547.094
       414   04 Jun 2027 13:04:11.899   04 Jun 2027 13:06:42.093           150.194            RioGallegos          4693.563
       415   04 Jun 2027 13:45:54.353   04 Jun 2027 13:47:20.396            86.043                  Delhi          2688.844
       416   04 Jun 2027 13:50:45.848   04 Jun 2027 13:50:48.333             2.485                Novosib            77.656
       417   04 Jun 2027 13:51:47.706   04 Jun 2027 13:52:34.220            46.514                Novosib          1453.563
       418   04 Jun 2027 13:53:30.013   04 Jun 2027 13:54:54.054            84.041                Novosib          2626.281
       419   04 Jun 2027 14:00:40.338   04 Jun 2027 14:01:04.695            24.357                Novosib           761.156
       420   04 Jun 2027 14:04:07.989   04 Jun 2027 14:04:17.257             9.268                Norilsk           289.625
       421   04 Jun 2027 15:27:12.052   04 Jun 2027 15:30:30.478           198.426                 Moscow          6200.813
       422   04 Jun 2027 15:30:38.901   04 Jun 2027 15:31:53.506            74.605              Murmansk2          2331.406
       423   04 Jun 2027 15:34:44.096   04 Jun 2027 15:36:24.750           100.654                Norilsk          3145.437
       424   04 Jun 2027 15:38:19.059   04 Jun 2027 15:39:22.534            63.475                Norilsk          1983.594
       425   04 Jun 2027 16:41:44.237   04 Jun 2027 16:42:11.992            27.755               CapeTown           867.344
       426   04 Jun 2027 16:45:34.667   04 Jun 2027 16:46:16.867            42.200               CapeTown          1318.750
       427   04 Jun 2027 17:04:37.226   04 Jun 2027 17:05:00.698            23.472                 Moscow           733.500
       428   04 Jun 2027 17:05:26.979   04 Jun 2027 17:06:03.371            36.392                 Moscow          1137.250
       429   04 Jun 2027 17:07:44.651   04 Jun 2027 17:08:57.059            72.408              Murmansk2          2262.750
       430   04 Jun 2027 17:14:29.333   04 Jun 2027 17:15:09.965            40.632              Murmansk2          1269.750
       431   04 Jun 2027 17:21:40.846   04 Jun 2027 17:23:00.285            79.439                Anadyr1          2482.469
       432   04 Jun 2027 17:23:18.194   04 Jun 2027 17:23:22.746             4.552                Anadyr1           142.250
       433   04 Jun 2027 17:24:09.376   04 Jun 2027 17:24:12.044             2.668                Anadyr2            83.375
       434   04 Jun 2027 17:24:18.747   04 Jun 2027 17:24:28.267             9.520                Anadyr1           297.500
       435   04 Jun 2027 17:24:28.267   04 Jun 2027 17:25:14.449            46.182                Anadyr2          1443.188
       436   04 Jun 2027 17:31:12.788   04 Jun 2027 17:31:17.933             5.145                Anadyr2           160.781
       437   04 Jun 2027 18:16:42.779   04 Jun 2027 18:17:00.999            18.220               CapeTown           569.375
       438   04 Jun 2027 18:19:41.391   04 Jun 2027 18:20:16.639            35.248               CapeTown          1101.500
       439   04 Jun 2027 18:27:03.007   04 Jun 2027 18:28:17.619            74.612               CapeTown          2331.625
       440   04 Jun 2027 18:47:06.874   04 Jun 2027 18:49:03.808           116.934              Murmansk1          3654.187
       441   04 Jun 2027 18:50:17.173   04 Jun 2027 18:51:39.108            81.935              Murmansk1          2560.469
       442   04 Jun 2027 19:00:36.569   04 Jun 2027 19:00:53.188            16.619                Anadyr2           519.344
       443   04 Jun 2027 19:01:28.242   04 Jun 2027 19:03:26.764           118.522               Magadan1          3703.812
       444   04 Jun 2027 20:33:10.784   04 Jun 2027 20:36:55.300           224.516                Anadyr1          7016.125
       445   04 Jun 2027 20:37:43.072   04 Jun 2027 20:40:23.333           160.261               Magadan1          5008.156
       446   04 Jun 2027 20:42:21.517   04 Jun 2027 20:42:34.568            13.051               Magadan1           407.844
       447   04 Jun 2027 20:46:01.327   04 Jun 2027 20:46:14.325            12.998               Magadan1           406.188
       448   04 Jun 2027 20:47:12.803   04 Jun 2027 20:47:19.613             6.810               Magadan2           212.813
       449   04 Jun 2027 21:30:43.185   04 Jun 2027 21:32:15.087            91.902            RioGallegos          2871.938
       450   04 Jun 2027 22:09:02.220   04 Jun 2027 22:11:02.150           119.930                Anadyr2          3747.812
       451   04 Jun 2027 22:11:12.746   04 Jun 2027 22:12:46.034            93.288                Norilsk          2915.250
       452   04 Jun 2027 22:13:38.086   04 Jun 2027 22:15:10.511            92.425               Magadan1          2888.281
       453   04 Jun 2027 22:16:28.817   04 Jun 2027 22:17:13.453            44.636                Irkutsk          1394.875
       454   04 Jun 2027 22:17:50.134   04 Jun 2027 22:18:28.245            38.111                Irkutsk          1190.969
       455   04 Jun 2027 22:19:08.246   04 Jun 2027 22:19:24.783            16.537                Irkutsk           516.781
       456   04 Jun 2027 22:22:05.624   04 Jun 2027 22:22:43.414            37.790                Irkutsk          1180.938
       457   04 Jun 2027 22:32:10.925   04 Jun 2027 22:33:26.399            75.474                Sumatra          2358.562
       458   04 Jun 2027 22:36:32.390   04 Jun 2027 22:37:11.469            39.079                Sumatra          1221.219
       459   04 Jun 2027 23:14:26.159   04 Jun 2027 23:15:13.140            46.981            RioGallegos          1468.156
       460   04 Jun 2027 23:44:25.145   04 Jun 2027 23:44:52.915            27.770                Anadyr1           867.812
       461   04 Jun 2027 23:44:58.911   04 Jun 2027 23:45:21.051            22.140                Anadyr2           691.875
       462   04 Jun 2027 23:45:50.243   04 Jun 2027 23:47:03.526            73.283                Anadyr2          2290.094
       463   04 Jun 2027 23:47:20.535   04 Jun 2027 23:47:44.045            23.510                Norilsk           734.687
       464   04 Jun 2027 23:48:19.766   04 Jun 2027 23:48:22.238             2.472                Norilsk            77.250
       465   04 Jun 2027 23:48:23.918   04 Jun 2027 23:49:16.381            52.463               Magadan2          1639.469
       466   04 Jun 2027 23:50:12.487   04 Jun 2027 23:50:26.771            14.284               Magadan2           446.375
       467   04 Jun 2027 23:50:52.081   04 Jun 2027 23:51:58.303            66.222                Irkutsk          2069.437
       468   04 Jun 2027 23:52:22.543   04 Jun 2027 23:52:31.691             9.148                Novosib           285.875
       469   04 Jun 2027 23:53:41.602   04 Jun 2027 23:53:46.245             4.643                Novosib           145.094
       470   04 Jun 2027 23:53:50.626   04 Jun 2027 23:54:41.045            50.419                Novosib          1575.594
       471   04 Jun 2027 23:58:02.122   04 Jun 2027 23:58:06.194             4.072                Novosib           127.250
       472   05 Jun 2027 00:00:41.520   05 Jun 2027 00:00:58.302            16.782                Novosib           524.437
       473   05 Jun 2027 00:04:37.370   05 Jun 2027 00:04:41.644             4.274                Sumatra           133.562
       474   05 Jun 2027 00:06:34.984   05 Jun 2027 00:07:12.995            38.011                Sumatra          1187.844
       475   05 Jun 2027 00:09:16.330   05 Jun 2027 00:10:29.489            73.159                Sumatra          2286.219
       476   05 Jun 2027 00:43:48.185   05 Jun 2027 00:43:56.771             8.586            RioGallegos           268.312
       477   05 Jun 2027 00:45:04.267   05 Jun 2027 00:45:08.359             4.092            RioGallegos           127.875
       478   05 Jun 2027 00:45:36.888   05 Jun 2027 00:46:37.615            60.727            RioGallegos          1897.719
       479   05 Jun 2027 01:19:25.443   05 Jun 2027 01:20:04.198            38.755                Anadyr1          1211.094
       480   05 Jun 2027 01:20:31.575   05 Jun 2027 01:20:52.603            21.028                Anadyr2           657.125
       481   05 Jun 2027 01:21:06.667   05 Jun 2027 01:21:18.206            11.539                Anadyr2           360.594
       482   05 Jun 2027 01:22:54.336   05 Jun 2027 01:24:53.107           118.771                Norilsk          3711.594
