uniorb/output/strategy_4/Drop/Drop_KinoSat_111703.txt

KinoSat_111703
-------------------------
    Access    *     Start Time (UTCG)     *     Stop Time (UTCG)  *   Duration (s)        *       Station  *  Data (Mbytes)
         1   01 Jun 2027 03:32:06.175   01 Jun 2027 03:35:27.622           201.447                 Moscow          6295.219
         2   01 Jun 2027 03:35:28.146   01 Jun 2027 03:35:55.241            27.095                Novosib           846.719
         3   01 Jun 2027 03:36:07.368   01 Jun 2027 03:37:32.954            85.586                  Delhi          2674.563
         4   01 Jun 2027 03:39:03.334   01 Jun 2027 03:39:27.647            24.313                Novosib           759.781
         5   01 Jun 2027 03:44:48.185   01 Jun 2027 03:45:02.945            14.760                  Delhi           461.250
         6   01 Jun 2027 05:09:04.734   01 Jun 2027 05:10:43.715            98.981                 Moscow          3093.156
         7   01 Jun 2027 05:11:05.331   01 Jun 2027 05:11:10.040             4.709                Norilsk           147.156
         8   01 Jun 2027 05:11:18.015   01 Jun 2027 05:11:40.632            22.617                Novosib           706.781
         9   01 Jun 2027 05:11:44.526   01 Jun 2027 05:14:29.664           165.138              Murmansk2          5160.562
        10   01 Jun 2027 05:14:38.962   01 Jun 2027 05:16:29.061           110.099                 Moscow          3440.594
        11   01 Jun 2027 06:32:37.375   01 Jun 2027 06:33:42.349            64.974                Anadyr1          2030.437
        12   01 Jun 2027 08:09:54.802   01 Jun 2027 08:13:17.708           202.906               Magadan2          6340.812
        13   01 Jun 2027 08:13:38.579   01 Jun 2027 08:14:29.263            50.684                Anadyr2          1583.875
        14   01 Jun 2027 09:43:27.640   01 Jun 2027 09:49:20.026           352.386                Anadyr1         11012.062
        15   01 Jun 2027 11:19:23.426   01 Jun 2027 11:23:23.992           240.566               Magadan2          7517.687
        16   01 Jun 2027 11:23:23.992   01 Jun 2027 11:23:56.460            32.468               Magadan1          1014.625
        17   01 Jun 2027 12:01:02.657   01 Jun 2027 12:03:44.704           162.047            RioGallegos          5063.969
        18   01 Jun 2027 12:36:50.190   01 Jun 2027 12:38:35.351           105.161                Sumatra          3286.281
        19   01 Jun 2027 12:50:07.943   01 Jun 2027 12:51:04.204            56.261                Irkutsk          1758.156
        20   01 Jun 2027 12:51:28.979   01 Jun 2027 12:51:59.841            30.862                Irkutsk           964.438
        21   01 Jun 2027 12:54:11.893   01 Jun 2027 12:55:16.557            64.664                Norilsk          2020.750
        22   01 Jun 2027 12:56:58.534   01 Jun 2027 12:57:11.850            13.316                Norilsk           416.125
        23   01 Jun 2027 12:57:57.315   01 Jun 2027 12:58:19.697            22.382                Irkutsk           699.437
        24   01 Jun 2027 12:59:56.023   01 Jun 2027 13:00:03.787             7.764                Irkutsk           242.625
        25   01 Jun 2027 13:42:42.948   01 Jun 2027 13:46:01.558           198.610            RioGallegos          6206.563
        26   01 Jun 2027 14:28:04.831   01 Jun 2027 14:28:38.022            33.191                Novosib          1037.219
        27   01 Jun 2027 14:28:39.093   01 Jun 2027 14:29:52.794            73.701                  Delhi          2303.156
        28   01 Jun 2027 14:31:40.507   01 Jun 2027 14:33:11.953            91.446                Novosib          2857.687
        29   01 Jun 2027 14:33:44.312   01 Jun 2027 14:34:49.181            64.869                Norilsk          2027.156
        30   01 Jun 2027 14:37:23.838   01 Jun 2027 14:38:04.002            40.164                Novosib          1255.125
        31   01 Jun 2027 16:04:05.801   01 Jun 2027 16:06:56.817           171.016                 Moscow          5344.250
        32   01 Jun 2027 16:07:35.485   01 Jun 2027 16:08:32.681            57.196              Murmansk2          1787.375
        33   01 Jun 2027 16:09:30.355   01 Jun 2027 16:09:39.247             8.892              Murmansk2           277.875
        34   01 Jun 2027 16:11:07.838   01 Jun 2027 16:11:50.668            42.830                 Moscow          1338.437
        35   01 Jun 2027 16:12:22.125   01 Jun 2027 16:18:23.590           361.465                Norilsk         11295.781
        36   01 Jun 2027 17:42:00.143   01 Jun 2027 17:43:02.559            62.416                 Moscow          1950.500
        37   01 Jun 2027 17:44:55.897   01 Jun 2027 17:46:24.126            88.229              Murmansk1          2757.156
        38   01 Jun 2027 17:48:41.255   01 Jun 2027 17:49:18.510            37.255              Murmansk2          1164.219
        39   01 Jun 2027 17:59:15.116   01 Jun 2027 17:59:53.787            38.671                Anadyr1          1208.469
        40   01 Jun 2027 18:53:43.450   01 Jun 2027 18:55:30.016           106.566               CapeTown          3330.188
        41   01 Jun 2027 18:56:22.505   01 Jun 2027 18:57:58.608            96.103               CapeTown          3003.219
        42   01 Jun 2027 19:24:39.759   01 Jun 2027 19:26:16.220            96.461              Murmansk2          3014.406
        43   01 Jun 2027 19:27:53.414   01 Jun 2027 19:30:18.908           145.494              Murmansk1          4546.687
        44   01 Jun 2027 19:30:24.641   01 Jun 2027 19:32:04.433            99.792              Murmansk2          3118.500
        45   01 Jun 2027 21:10:04.839   01 Jun 2027 21:11:40.768            95.929                Anadyr1          2997.781
        46   01 Jun 2027 21:11:48.057   01 Jun 2027 21:13:50.414           122.357                Anadyr2          3823.656
        47   01 Jun 2027 21:14:19.085   01 Jun 2027 21:16:04.976           105.891               Magadan1          3309.094
        48   01 Jun 2027 21:16:04.976   01 Jun 2027 21:17:43.095            98.119               Magadan2          3066.219
        49   01 Jun 2027 21:19:53.615   01 Jun 2027 21:20:23.553            29.938               Magadan2           935.563
        50   01 Jun 2027 21:20:42.883   01 Jun 2027 21:20:45.562             2.679               Magadan2            83.719
        51   01 Jun 2027 21:20:48.015   01 Jun 2027 21:20:54.928             6.913               Magadan2           216.031
        52   01 Jun 2027 21:22:13.862   01 Jun 2027 21:22:37.171            23.309               Magadan2           728.406
        53   01 Jun 2027 21:23:10.194   01 Jun 2027 21:23:32.823            22.629               Magadan2           707.156
        54   01 Jun 2027 22:06:14.083   01 Jun 2027 22:08:44.775           150.692            RioGallegos          4709.125
        55   01 Jun 2027 22:45:54.447   01 Jun 2027 22:50:05.018           250.571                Anadyr1          7830.344
        56   01 Jun 2027 22:50:12.109   01 Jun 2027 22:51:17.400            65.291               Magadan1          2040.344
        57   01 Jun 2027 22:51:17.400   01 Jun 2027 22:51:42.766            25.366               Magadan2           792.687
        58   01 Jun 2027 22:52:57.107   01 Jun 2027 22:53:32.592            35.485                Irkutsk          1108.906
        59   01 Jun 2027 22:57:00.341   01 Jun 2027 22:57:11.894            11.553                Irkutsk           361.031
        60   01 Jun 2027 22:58:48.537   01 Jun 2027 22:59:29.742            41.205                Irkutsk          1287.656
        61   01 Jun 2027 23:07:55.726   01 Jun 2027 23:09:52.927           117.201                Sumatra          3662.531
        62   01 Jun 2027 23:11:26.977   01 Jun 2027 23:11:43.624            16.647                Sumatra           520.219
        63   01 Jun 2027 23:46:56.496   01 Jun 2027 23:47:16.494            19.998            RioGallegos           624.937
        64   01 Jun 2027 23:48:09.628   01 Jun 2027 23:48:35.584            25.956            RioGallegos           811.125
        65   02 Jun 2027 00:21:11.345   02 Jun 2027 00:23:04.538           113.193                Anadyr1          3537.281
        66   02 Jun 2027 00:23:04.538   02 Jun 2027 00:23:12.834             8.296                Anadyr2           259.250
        67   02 Jun 2027 00:23:47.961   02 Jun 2027 00:24:55.938            67.977                Norilsk          2124.281
        68   02 Jun 2027 00:25:26.814   02 Jun 2027 00:25:57.723            30.909               Magadan1           965.906
        69   02 Jun 2027 00:26:28.245   02 Jun 2027 00:26:49.603            21.358               Magadan2           667.437
        70   02 Jun 2027 00:27:16.258   02 Jun 2027 00:27:36.671            20.413               Magadan2           637.906
        71   02 Jun 2027 00:27:43.456   02 Jun 2027 00:28:49.515            66.059                Irkutsk          2064.344
        72   02 Jun 2027 00:29:44.235   02 Jun 2027 00:30:35.400            51.165                Novosib          1598.906
        73   02 Jun 2027 00:33:00.261   02 Jun 2027 00:33:23.970            23.709                Novosib           740.906
        74   02 Jun 2027 00:33:58.259   02 Jun 2027 00:34:12.140            13.881                Novosib           433.781
        75   02 Jun 2027 00:38:22.253   02 Jun 2027 00:39:38.594            76.341                  Delhi          2385.656
        76   02 Jun 2027 00:39:51.290   02 Jun 2027 00:40:25.509            34.219                  Delhi          1069.344
        77   02 Jun 2027 00:51:21.676   02 Jun 2027 00:51:26.259             4.583                Sumatra           143.219
        78   02 Jun 2027 01:15:49.081   02 Jun 2027 01:16:33.924            44.843            RioGallegos          1401.344
        79   02 Jun 2027 01:18:10.903   02 Jun 2027 01:18:33.587            22.684            RioGallegos           708.875
        80   02 Jun 2027 01:21:24.980   02 Jun 2027 01:21:32.055             7.075            RioGallegos           221.094
        81   02 Jun 2027 01:21:39.874   02 Jun 2027 01:22:12.733            32.859            RioGallegos          1026.844
        82   02 Jun 2027 01:27:49.165   02 Jun 2027 01:27:56.573             7.408            RioGallegos           231.500
        83   02 Jun 2027 01:55:18.726   02 Jun 2027 01:55:53.080            34.354                Anadyr1          1073.562
        84   02 Jun 2027 01:56:48.881   02 Jun 2027 01:57:16.154            27.273                Anadyr1           852.281
        85   02 Jun 2027 01:57:25.308   02 Jun 2027 01:57:51.684            26.376                Anadyr1           824.250
        86   02 Jun 2027 01:59:48.835   02 Jun 2027 02:01:41.909           113.074                Norilsk          3533.562
        87   02 Jun 2027 02:02:42.131   02 Jun 2027 02:03:49.621            67.490              Murmansk2          2109.062
        88   02 Jun 2027 02:03:50.985   02 Jun 2027 02:04:55.309            64.324                Irkutsk          2010.125
        89   02 Jun 2027 02:08:02.751   02 Jun 2027 02:09:26.490            83.739                Novosib          2616.844
        90   02 Jun 2027 02:14:17.313   02 Jun 2027 02:14:46.612            29.299                  Delhi           915.594
        91   02 Jun 2027 02:19:43.902   02 Jun 2027 02:20:01.559            17.657                  Delhi           551.781
        92   02 Jun 2027 02:52:53.254   02 Jun 2027 02:56:46.535           233.281            RioGallegos          7290.031
        93   02 Jun 2027 03:44:38.747   02 Jun 2027 03:46:28.003           109.256                Irkutsk          3414.250
        94   02 Jun 2027 03:46:52.784   02 Jun 2027 03:48:23.959            91.175                Norilsk          2849.219
        95   02 Jun 2027 03:48:32.926   02 Jun 2027 03:51:06.601           153.675                Novosib          4802.344
        96   02 Jun 2027 03:51:30.629   02 Jun 2027 03:53:39.787           129.158                  Delhi          4036.187
        97   02 Jun 2027 03:54:16.179   02 Jun 2027 03:56:05.907           109.728                  Delhi          3429.000
        98   02 Jun 2027 05:22:29.100   02 Jun 2027 05:23:11.367            42.267              Murmansk1          1320.844
        99   02 Jun 2027 05:26:06.606   02 Jun 2027 05:29:47.328           220.722                 Moscow          6897.562
       100   02 Jun 2027 06:44:28.341   02 Jun 2027 06:47:58.210           209.869               Magadan2          6558.406
       101   02 Jun 2027 06:48:34.632   02 Jun 2027 06:49:19.293            44.661                Anadyr2          1395.656
       102   02 Jun 2027 08:24:02.113   02 Jun 2027 08:26:28.193           146.080                Anadyr2          4565.000
       103   02 Jun 2027 08:33:27.057   02 Jun 2027 08:33:49.672            22.615                 Moscow           706.719
       104   02 Jun 2027 09:54:33.374   02 Jun 2027 09:55:25.209            51.835               Magadan2          1619.844
       105   02 Jun 2027 09:55:52.420   02 Jun 2027 09:55:57.404             4.984               Magadan1           155.750
       106   02 Jun 2027 09:56:15.353   02 Jun 2027 09:56:58.593            43.240               Magadan2          1351.250
       107   02 Jun 2027 09:56:58.593   02 Jun 2027 09:58:19.534            80.941               Magadan1          2529.406
       108   02 Jun 2027 09:59:16.463   02 Jun 2027 10:00:15.071            58.608               Magadan1          1831.500
       109   02 Jun 2027 10:00:20.635   02 Jun 2027 10:00:42.879            22.244                Anadyr1           695.125
       110   02 Jun 2027 10:01:13.451   02 Jun 2027 10:01:57.661            44.210               Magadan2          1381.562
       111   02 Jun 2027 10:36:55.665   02 Jun 2027 10:37:53.511            57.846            RioGallegos          1807.687
       112   02 Jun 2027 11:13:30.895   02 Jun 2027 11:15:23.447           112.552                Sumatra          3517.250
       113   02 Jun 2027 11:32:10.495   02 Jun 2027 11:33:02.999            52.504                Irkutsk          1640.750
       114   02 Jun 2027 11:33:14.634   02 Jun 2027 11:33:54.692            40.058                Irkutsk          1251.813
       115   02 Jun 2027 11:34:10.669   02 Jun 2027 11:34:42.969            32.300                Irkutsk          1009.375
       116   02 Jun 2027 11:34:55.200   02 Jun 2027 11:34:56.060             0.860                Norilsk            26.875
       117   02 Jun 2027 11:35:03.701   02 Jun 2027 11:35:12.248             8.547                Norilsk           267.094
       118   02 Jun 2027 11:35:21.602   02 Jun 2027 11:35:56.967            35.365                Norilsk          1105.156
       119   02 Jun 2027 11:36:12.566   02 Jun 2027 11:36:44.865            32.299                Novosib          1009.344
       120   02 Jun 2027 11:36:51.981   02 Jun 2027 11:37:14.000            22.019                Novosib           688.094
       121   02 Jun 2027 11:37:21.709   02 Jun 2027 11:37:35.932            14.223                Norilsk           444.469
       122   02 Jun 2027 11:37:52.682   02 Jun 2027 11:38:01.253             8.571                Irkutsk           267.844
       123   02 Jun 2027 12:13:20.971   02 Jun 2027 12:14:34.079            73.108            RioGallegos          2284.625
       124   02 Jun 2027 12:47:43.120   02 Jun 2027 12:49:39.669           116.549                Sumatra          3642.156
       125   02 Jun 2027 13:02:35.708   02 Jun 2027 13:03:14.460            38.752                Irkutsk          1211.000
       126   02 Jun 2027 13:03:52.770   02 Jun 2027 13:06:13.433           140.663                Irkutsk          4395.719
       127   02 Jun 2027 14:32:23.489   02 Jun 2027 14:33:22.980            59.491                  Delhi          1859.094
       128   02 Jun 2027 14:34:28.844   02 Jun 2027 14:36:52.123           143.279                  Delhi          4477.469
       129   02 Jun 2027 14:40:36.816   02 Jun 2027 14:43:39.180           182.364                Novosib          5698.875
       130   02 Jun 2027 14:44:28.880   02 Jun 2027 14:45:00.588            31.708                Norilsk           990.875
       131   02 Jun 2027 14:47:16.178   02 Jun 2027 14:48:24.515            68.337                Norilsk          2135.531
       132   02 Jun 2027 16:16:10.235   02 Jun 2027 16:19:23.838           193.603                 Moscow          6050.094
       133   02 Jun 2027 16:20:29.750   02 Jun 2027 16:20:52.608            22.858              Murmansk2           714.313
       134   02 Jun 2027 16:21:30.022   02 Jun 2027 16:21:50.859            20.837              Murmansk1           651.156
       135   02 Jun 2027 16:25:14.199   02 Jun 2027 16:29:43.185           268.986                Norilsk          8405.813
       136   02 Jun 2027 17:39:29.149   02 Jun 2027 17:39:50.771            21.622               CapeTown           675.688
       137   02 Jun 2027 17:54:36.783   02 Jun 2027 17:56:43.417           126.634                 Moscow          3957.312
       138   02 Jun 2027 17:57:17.223   02 Jun 2027 17:58:54.193            96.970              Murmansk2          3030.312
       139   02 Jun 2027 18:06:57.304   02 Jun 2027 18:07:25.957            28.653              Murmansk2           895.406
       140   02 Jun 2027 18:10:26.129   02 Jun 2027 18:10:33.704             7.575                Anadyr2           236.719
       141   02 Jun 2027 18:11:51.732   02 Jun 2027 18:12:22.951            31.219                Anadyr2           975.594
       142   02 Jun 2027 18:15:39.320   02 Jun 2027 18:15:44.691             5.371                Anadyr1           167.844
       143   02 Jun 2027 18:15:56.647   02 Jun 2027 18:16:12.531            15.884                Anadyr1           496.375
       144   02 Jun 2027 18:17:27.362   02 Jun 2027 18:17:36.237             8.875                Anadyr1           277.344
       145   02 Jun 2027 19:05:55.018   02 Jun 2027 19:07:29.748            94.730               CapeTown          2960.313
       146   02 Jun 2027 19:14:19.954   02 Jun 2027 19:15:29.574            69.620               CapeTown          2175.625
       147   02 Jun 2027 19:37:25.284   02 Jun 2027 19:43:23.941           358.657              Murmansk1         11208.031
       148   02 Jun 2027 21:22:06.462   02 Jun 2027 21:25:51.602           225.140                Anadyr1          7035.625
       149   02 Jun 2027 21:25:52.920   02 Jun 2027 21:28:33.147           160.227               Magadan2          5007.094
       150   02 Jun 2027 21:29:09.045   02 Jun 2027 21:29:35.300            26.255               Magadan2           820.469
       151   02 Jun 2027 21:35:05.494   02 Jun 2027 21:35:41.897            36.403               Magadan1          1137.594
       152   02 Jun 2027 22:17:35.021   02 Jun 2027 22:20:28.309           173.288            RioGallegos          5415.250
       153   02 Jun 2027 22:22:32.389   02 Jun 2027 22:22:47.155            14.766            RioGallegos           461.438
       154   02 Jun 2027 22:57:53.711   02 Jun 2027 22:59:33.018            99.307                Anadyr1          3103.344
       155   02 Jun 2027 22:59:38.279   02 Jun 2027 23:00:21.155            42.876                Anadyr2          1339.875
       156   02 Jun 2027 23:00:21.294   02 Jun 2027 23:01:25.537            64.243               Magadan2          2007.594
       157   02 Jun 2027 23:02:58.066   02 Jun 2027 23:03:08.669            10.603               Magadan1           331.344
       158   02 Jun 2027 23:03:28.527   02 Jun 2027 23:04:12.314            43.787               Magadan2          1368.344
       159   02 Jun 2027 23:04:40.160   02 Jun 2027 23:05:30.710            50.550                Irkutsk          1579.687
       160   02 Jun 2027 23:10:25.971   02 Jun 2027 23:11:00.095            34.124                Irkutsk          1066.375
       161   02 Jun 2027 23:14:03.877   02 Jun 2027 23:14:04.233             0.356                Irkutsk            11.125
       162   02 Jun 2027 23:19:10.022   02 Jun 2027 23:20:46.784            96.762                Sumatra          3023.813
       163   02 Jun 2027 23:21:49.812   02 Jun 2027 23:22:22.898            33.086                Sumatra          1033.937
       164   02 Jun 2027 23:25:05.627   02 Jun 2027 23:25:08.582             2.955                Sumatra            92.344
       165   02 Jun 2027 23:28:15.826   02 Jun 2027 23:28:17.547             1.721                Sumatra            53.781
       166   02 Jun 2027 23:28:51.875   02 Jun 2027 23:28:58.417             6.542                Sumatra           204.437
       167   02 Jun 2027 23:57:46.564   02 Jun 2027 23:58:15.945            29.381            RioGallegos           918.156
       168   03 Jun 2027 00:00:16.833   03 Jun 2027 00:00:17.973             1.140            RioGallegos            35.625
       169   03 Jun 2027 00:02:31.382   03 Jun 2027 00:02:51.265            19.883            RioGallegos           621.344
       170   03 Jun 2027 00:33:03.723   03 Jun 2027 00:33:16.339            12.616                Anadyr1           394.250
       171   03 Jun 2027 00:33:16.364   03 Jun 2027 00:35:11.762           115.398                Anadyr2          3606.187
       172   03 Jun 2027 00:36:20.444   03 Jun 2027 00:37:33.849            73.405                Norilsk          2293.906
       173   03 Jun 2027 00:37:45.774   03 Jun 2027 00:38:03.357            17.583               Magadan2           549.469
       174   03 Jun 2027 00:38:50.980   03 Jun 2027 00:39:07.114            16.134               Magadan2           504.187
       175   03 Jun 2027 00:39:43.647   03 Jun 2027 00:41:52.639           128.992                Irkutsk          4031.000
       176   03 Jun 2027 00:42:33.311   03 Jun 2027 00:43:03.325            30.014                Novosib           937.937
       177   03 Jun 2027 00:49:17.085   03 Jun 2027 00:51:41.498           144.413                  Delhi          4512.906
       178   03 Jun 2027 01:00:46.063   03 Jun 2027 01:01:41.128            55.065                Sumatra          1720.781
       179   03 Jun 2027 01:32:31.896   03 Jun 2027 01:32:55.917            24.021            RioGallegos           750.656
       180   03 Jun 2027 01:34:21.454   03 Jun 2027 01:34:58.848            37.394            RioGallegos          1168.562
       181   03 Jun 2027 02:07:49.019   03 Jun 2027 02:08:14.649            25.630                Anadyr1           800.938
       182   03 Jun 2027 02:09:10.385   03 Jun 2027 02:09:44.866            34.481                Anadyr1          1077.531
       183   03 Jun 2027 02:11:38.020   03 Jun 2027 02:12:01.470            23.450                Anadyr2           732.812
       184   03 Jun 2027 02:12:11.759   03 Jun 2027 02:13:44.374            92.615                Norilsk          2894.219
       185   03 Jun 2027 02:14:31.502   03 Jun 2027 02:15:45.211            73.709              Murmansk1          2303.406
       186   03 Jun 2027 02:15:57.765   03 Jun 2027 02:16:57.886            60.121                Irkutsk          1878.781
       187   03 Jun 2027 02:20:40.782   03 Jun 2027 02:22:06.631            85.849                Irkutsk          2682.781
       188   03 Jun 2027 02:34:36.408   03 Jun 2027 02:34:44.913             8.505                  Delhi           265.781
       189   03 Jun 2027 03:05:15.759   03 Jun 2027 03:08:25.887           190.128            RioGallegos          5941.500
       190   03 Jun 2027 03:09:09.403   03 Jun 2027 03:09:43.078            33.675            RioGallegos          1052.344
       191   03 Jun 2027 03:10:23.326   03 Jun 2027 03:10:32.753             9.427            RioGallegos           294.594
       192   03 Jun 2027 03:56:24.763   03 Jun 2027 03:57:17.718            52.955                Novosib          1654.844
       193   03 Jun 2027 03:58:20.273   03 Jun 2027 03:58:59.528            39.255                Novosib          1226.719
       194   03 Jun 2027 03:59:14.571   03 Jun 2027 03:59:34.513            19.942              Murmansk2           623.188
       195   03 Jun 2027 03:59:50.493   03 Jun 2027 04:00:47.204            56.711                 Moscow          1772.219
       196   03 Jun 2027 04:01:09.911   03 Jun 2027 04:01:10.364             0.453              Murmansk1            14.156
       197   03 Jun 2027 04:01:17.973   03 Jun 2027 04:02:24.929            66.956                Novosib          2092.375
       198   03 Jun 2027 04:03:10.744   03 Jun 2027 04:06:43.382           212.638                  Delhi          6644.937
       199   03 Jun 2027 05:19:09.463   03 Jun 2027 05:19:25.795            16.332                Anadyr1           510.375
       200   03 Jun 2027 05:22:36.246   03 Jun 2027 05:22:58.930            22.684                Anadyr1           708.875
       201   03 Jun 2027 05:23:12.844   03 Jun 2027 05:23:35.449            22.605                Anadyr1           706.406
       202   03 Jun 2027 05:24:24.411   03 Jun 2027 05:24:41.902            17.491                Anadyr1           546.594
       203   03 Jun 2027 05:34:12.400   03 Jun 2027 05:34:14.382             1.982                Novosib            61.937
       204   03 Jun 2027 05:34:17.915   03 Jun 2027 05:34:54.728            36.813                 Moscow          1150.406
       205   03 Jun 2027 05:36:10.960   03 Jun 2027 05:36:46.836            35.876                 Moscow          1121.125
       206   03 Jun 2027 05:53:06.095   03 Jun 2027 05:55:02.201           116.106               CapeTown          3628.312
       207   03 Jun 2027 06:55:34.802   03 Jun 2027 06:56:52.614            77.812                Anadyr1          2431.625
       208   03 Jun 2027 06:57:08.754   03 Jun 2027 06:58:13.701            64.947               Magadan2          2029.594
       209   03 Jun 2027 06:58:13.701   03 Jun 2027 06:58:14.909             1.208               Magadan1            37.750
       210   03 Jun 2027 06:59:33.436   03 Jun 2027 07:00:35.056            61.620                Anadyr2          1925.625
       211   03 Jun 2027 08:32:28.732   03 Jun 2027 08:32:41.946            13.214                Anadyr2           412.937
       212   03 Jun 2027 08:32:47.793   03 Jun 2027 08:33:14.233            26.440               Magadan1           826.250
       213   03 Jun 2027 08:33:31.375   03 Jun 2027 08:33:35.146             3.771               Magadan2           117.844
       214   03 Jun 2027 08:33:35.146   03 Jun 2027 08:33:37.037             1.891               Magadan1            59.094
       215   03 Jun 2027 08:33:40.664   03 Jun 2027 08:34:45.475            64.811                Anadyr1          2025.344
       216   03 Jun 2027 08:35:02.735   03 Jun 2027 08:36:16.853            74.118               Magadan2          2316.187
       217   03 Jun 2027 08:36:39.339   03 Jun 2027 08:37:42.778            63.439                Anadyr2          1982.469
       218   03 Jun 2027 10:07:49.921   03 Jun 2027 10:08:01.750            11.829               Magadan2           369.656
       219   03 Jun 2027 10:08:12.275   03 Jun 2027 10:09:05.736            53.461               Magadan2          1670.656
       220   03 Jun 2027 10:09:36.969   03 Jun 2027 10:11:00.991            84.022               Magadan1          2625.688
       221   03 Jun 2027 10:11:58.290   03 Jun 2027 10:12:05.683             7.393                Irkutsk           231.031
       222   03 Jun 2027 10:12:16.151   03 Jun 2027 10:12:59.269            43.118               Magadan2          1347.438
       223   03 Jun 2027 10:13:11.506   03 Jun 2027 10:13:38.664            27.158                Irkutsk           848.687
       224   03 Jun 2027 10:14:14.164   03 Jun 2027 10:14:31.665            17.501                Norilsk           546.906
       225   03 Jun 2027 10:48:49.128   03 Jun 2027 10:49:53.592            64.464            RioGallegos          2014.500
       226   03 Jun 2027 10:57:59.826   03 Jun 2027 10:58:20.532            20.706            RioGallegos           647.062
       227   03 Jun 2027 11:25:58.003   03 Jun 2027 11:27:42.194           104.191                Sumatra          3255.969
       228   03 Jun 2027 11:44:13.702   03 Jun 2027 11:45:09.329            55.627                Novosib          1738.344
       229   03 Jun 2027 11:45:20.128   03 Jun 2027 11:45:36.858            16.730                Irkutsk           522.813
       230   03 Jun 2027 11:46:13.928   03 Jun 2027 11:46:46.057            32.129                Irkutsk          1004.031
       231   03 Jun 2027 11:47:05.847   03 Jun 2027 11:47:12.467             6.620                Norilsk           206.875
       232   03 Jun 2027 11:47:16.290   03 Jun 2027 11:47:22.128             5.838                Norilsk           182.438
       233   03 Jun 2027 11:47:23.133   03 Jun 2027 11:47:30.657             7.524                Novosib           235.125
       234   03 Jun 2027 11:47:45.747   03 Jun 2027 11:47:50.499             4.752                Irkutsk           148.500
       235   03 Jun 2027 11:47:55.205   03 Jun 2027 11:48:09.459            14.254                Norilsk           445.438
       236   03 Jun 2027 11:48:19.342   03 Jun 2027 11:48:27.297             7.955                Novosib           248.594
       237   03 Jun 2027 11:48:43.292   03 Jun 2027 11:48:54.958            11.666                Novosib           364.562
       238   03 Jun 2027 11:48:56.498   03 Jun 2027 11:49:58.438            61.940                Irkutsk          1935.625
       239   03 Jun 2027 12:25:43.886   03 Jun 2027 12:26:01.050            17.164            RioGallegos           536.375
       240   03 Jun 2027 12:27:35.514   03 Jun 2027 12:29:50.883           135.369            RioGallegos          4230.281
       241   03 Jun 2027 13:05:57.058   03 Jun 2027 13:07:32.654            95.596                Sumatra          2987.375
       242   03 Jun 2027 13:15:09.293   03 Jun 2027 13:16:51.999           102.706                Irkutsk          3209.562
       243   03 Jun 2027 14:44:52.529   03 Jun 2027 14:50:00.022           307.493                  Delhi          9609.156
       244   03 Jun 2027 14:53:14.837   03 Jun 2027 14:55:36.763           141.926                Novosib          4435.187
       245   03 Jun 2027 14:56:07.165   03 Jun 2027 14:57:36.519            89.354                Novosib          2792.313
       246   03 Jun 2027 16:29:06.697   03 Jun 2027 16:30:08.894            62.197                 Moscow          1943.656
       247   03 Jun 2027 16:31:25.874   03 Jun 2027 16:31:55.996            30.122                 Moscow           941.313
       248   03 Jun 2027 16:32:54.492   03 Jun 2027 16:33:31.157            36.665              Murmansk2          1145.781
       249   03 Jun 2027 16:38:15.368   03 Jun 2027 16:42:00.184           224.816                Norilsk          7025.500
       250   03 Jun 2027 17:42:07.853   03 Jun 2027 17:42:38.981            31.128               CapeTown           972.750
       251   03 Jun 2027 17:46:05.223   03 Jun 2027 17:47:03.250            58.027               CapeTown          1813.344
       252   03 Jun 2027 18:07:20.593   03 Jun 2027 18:09:04.485           103.892                 Moscow          3246.625
       253   03 Jun 2027 18:09:40.853   03 Jun 2027 18:10:02.391            21.538              Murmansk1           673.062
       254   03 Jun 2027 18:12:17.727   03 Jun 2027 18:12:52.064            34.337              Murmansk2          1073.031
       255   03 Jun 2027 18:13:31.184   03 Jun 2027 18:14:38.418            67.234              Murmansk1          2101.063
       256   03 Jun 2027 18:25:13.485   03 Jun 2027 18:25:20.862             7.377                Anadyr2           230.531
       257   03 Jun 2027 18:27:00.163   03 Jun 2027 18:27:03.879             3.716                Anadyr1           116.125
       258   03 Jun 2027 18:27:11.453   03 Jun 2027 18:27:26.569            15.116                Anadyr1           472.375
       259   03 Jun 2027 18:27:45.895   03 Jun 2027 18:28:02.458            16.563                Anadyr1           517.594
       260   03 Jun 2027 19:18:10.347   03 Jun 2027 19:19:32.297            81.950               CapeTown          2560.937
       261   03 Jun 2027 19:22:05.776   03 Jun 2027 19:22:42.890            37.114               CapeTown          1159.812
       262   03 Jun 2027 19:26:06.693   03 Jun 2027 19:27:54.725           108.032               CapeTown          3376.000
       263   03 Jun 2027 19:50:16.600   03 Jun 2027 19:54:46.973           270.373              Murmansk2          8449.156
       264   03 Jun 2027 20:06:27.073   03 Jun 2027 20:06:56.396            29.323               Magadan1           916.344
       265   03 Jun 2027 20:10:53.843   03 Jun 2027 20:11:23.435            29.592               Magadan1           924.750
       266   03 Jun 2027 21:34:07.950   03 Jun 2027 21:39:18.395           310.445                Anadyr2          9701.406
       267   03 Jun 2027 21:39:38.313   03 Jun 2027 21:41:53.528           135.215               Magadan1          4225.469
       268   03 Jun 2027 21:47:24.758   03 Jun 2027 21:47:32.667             7.909               Magadan2           247.156
       269   03 Jun 2027 22:29:09.383   03 Jun 2027 22:31:33.334           143.951            RioGallegos          4498.469
       270   03 Jun 2027 22:31:36.713   03 Jun 2027 22:32:16.112            39.399            RioGallegos          1231.219
       271   03 Jun 2027 23:09:52.402   03 Jun 2027 23:11:18.021            85.619                Anadyr2          2675.594
       272   03 Jun 2027 23:11:43.814   03 Jun 2027 23:12:09.023            25.209                Anadyr2           787.781
       273   03 Jun 2027 23:12:09.955   03 Jun 2027 23:13:35.420            85.465                Norilsk          2670.781
       274   03 Jun 2027 23:13:39.417   03 Jun 2027 23:14:57.755            78.338               Magadan1          2448.062
       275   03 Jun 2027 23:16:27.652   03 Jun 2027 23:17:06.276            38.624                Irkutsk          1207.000
       276   03 Jun 2027 23:18:36.583   03 Jun 2027 23:19:51.762            75.179                Irkutsk          2349.344
       277   03 Jun 2027 23:25:52.243   03 Jun 2027 23:26:18.982            26.739                Irkutsk           835.594
       278   03 Jun 2027 23:30:37.336   03 Jun 2027 23:31:11.115            33.779                Sumatra          1055.594
       279   03 Jun 2027 23:31:51.068   03 Jun 2027 23:33:36.202           105.134                Sumatra          3285.437
       280   04 Jun 2027 00:14:25.565   04 Jun 2027 00:15:15.325            49.760            RioGallegos          1555.000
       281   04 Jun 2027 00:44:54.851   04 Jun 2027 00:44:59.777             4.926                Anadyr1           153.938
       282   04 Jun 2027 00:45:12.663   04 Jun 2027 00:45:29.092            16.429                Anadyr2           513.406
       283   04 Jun 2027 00:46:08.687   04 Jun 2027 00:47:12.544            63.857                Anadyr2          1995.531
       284   04 Jun 2027 00:47:52.242   04 Jun 2027 00:48:48.197            55.955                Norilsk          1748.594
       285   04 Jun 2027 00:49:24.450   04 Jun 2027 00:49:48.011            23.561               Magadan1           736.281
       286   04 Jun 2027 00:50:06.039   04 Jun 2027 00:50:39.325            33.286               Magadan1          1040.187
       287   04 Jun 2027 00:51:44.779   04 Jun 2027 00:52:34.851            50.072                Irkutsk          1564.750
       288   04 Jun 2027 00:52:38.432   04 Jun 2027 00:53:23.366            44.934                Novosib          1404.188
       289   04 Jun 2027 00:54:28.441   04 Jun 2027 00:54:39.923            11.482                Novosib           358.812
       290   04 Jun 2027 00:55:03.061   04 Jun 2027 00:55:43.276            40.215                Irkutsk          1256.719
       291   04 Jun 2027 00:58:08.446   04 Jun 2027 00:58:13.718             5.272                Novosib           164.750
       292   04 Jun 2027 00:58:30.486   04 Jun 2027 00:59:36.585            66.099                Novosib          2065.594
       293   04 Jun 2027 01:05:28.057   04 Jun 2027 01:07:29.517           121.460                  Delhi          3795.625
       294   04 Jun 2027 01:42:09.117   04 Jun 2027 01:42:43.434            34.317            RioGallegos          1072.406
       295   04 Jun 2027 01:48:11.172   04 Jun 2027 01:48:26.681            15.509            RioGallegos           484.656
       296   04 Jun 2027 01:50:39.752   04 Jun 2027 01:50:49.937            10.185            RioGallegos           318.281
       297   04 Jun 2027 02:18:43.613   04 Jun 2027 02:19:06.460            22.847                Anadyr2           713.969
       298   04 Jun 2027 02:20:49.651   04 Jun 2027 02:21:12.977            23.326                Anadyr1           728.938
       299   04 Jun 2027 02:21:39.173   04 Jun 2027 02:21:54.714            15.541                Anadyr1           485.656
       300   04 Jun 2027 02:23:53.097   04 Jun 2027 02:25:31.077            97.980                Norilsk          3061.875
       301   04 Jun 2027 02:26:24.650   04 Jun 2027 02:26:33.154             8.504              Murmansk1           265.750
       302   04 Jun 2027 02:26:58.637   04 Jun 2027 02:27:53.000            54.363              Murmansk2          1698.844
       303   04 Jun 2027 02:27:58.109   04 Jun 2027 02:29:39.596           101.487                Novosib          3171.469
       304   04 Jun 2027 02:35:02.306   04 Jun 2027 02:36:50.908           108.602                  Delhi          3393.812
       305   04 Jun 2027 03:17:48.223   04 Jun 2027 03:20:27.767           159.544            RioGallegos          4985.750
       306   04 Jun 2027 04:09:19.891   04 Jun 2027 04:11:32.929           133.038                Norilsk          4157.437
       307   04 Jun 2027 04:11:35.994   04 Jun 2027 04:13:31.806           115.812              Murmansk1          3619.125
       308   04 Jun 2027 04:13:33.809   04 Jun 2027 04:14:18.063            44.254                Novosib          1382.938
       309   04 Jun 2027 05:44:18.100   04 Jun 2027 05:45:21.121            63.021                Novosib          1969.406
       310   04 Jun 2027 05:50:01.304   04 Jun 2027 05:50:15.767            14.463                 Moscow           451.969
       311   04 Jun 2027 05:51:03.174   04 Jun 2027 05:51:10.216             7.042                 Moscow           220.063
       312   04 Jun 2027 05:51:35.080   04 Jun 2027 05:52:33.610            58.530                 Moscow          1829.063
       313   04 Jun 2027 06:05:16.420   04 Jun 2027 06:07:09.923           113.503               CapeTown          3546.969
       314   04 Jun 2027 07:08:08.751   04 Jun 2027 07:08:32.722            23.971               Magadan2           749.094
       315   04 Jun 2027 07:08:33.977   04 Jun 2027 07:09:04.940            30.963               Magadan2           967.594
       316   04 Jun 2027 07:09:21.443   04 Jun 2027 07:10:14.599            53.156               Magadan1          1661.125
       317   04 Jun 2027 07:10:16.631   04 Jun 2027 07:10:31.934            15.303                Anadyr1           478.219
       318   04 Jun 2027 07:10:41.548   04 Jun 2027 07:11:09.957            28.409               Magadan2           887.781
       319   04 Jun 2027 07:11:43.137   04 Jun 2027 07:12:35.060            51.923                Anadyr1          1622.594
       320   04 Jun 2027 08:44:23.556   04 Jun 2027 08:45:04.088            40.532                Anadyr1          1266.625
       321   04 Jun 2027 08:45:19.863   04 Jun 2027 08:47:42.423           142.560                Anadyr1          4455.000
       322   04 Jun 2027 10:19:39.811   04 Jun 2027 10:20:35.710            55.899               Magadan2          1746.844
       323   04 Jun 2027 10:20:44.413   04 Jun 2027 10:22:15.096            90.683               Magadan1          2833.844
       324   04 Jun 2027 10:22:38.739   04 Jun 2027 10:24:16.750            98.011               Magadan2          3062.844
       325   04 Jun 2027 10:24:29.807   04 Jun 2027 10:25:36.218            66.411                Irkutsk          2075.344
       326   04 Jun 2027 10:25:45.539   04 Jun 2027 10:25:46.829             1.290               Magadan1            40.312
       327   04 Jun 2027 10:30:24.982   04 Jun 2027 10:30:42.978            17.996                Norilsk           562.375
       328   04 Jun 2027 11:00:45.834   04 Jun 2027 11:01:36.542            50.708            RioGallegos          1584.625
       329   04 Jun 2027 11:09:46.803   04 Jun 2027 11:09:54.072             7.269            RioGallegos           227.156
       330   04 Jun 2027 11:36:24.634   04 Jun 2027 11:37:33.094            68.460                Sumatra          2139.375
       331   04 Jun 2027 11:56:11.064   04 Jun 2027 11:57:07.378            56.314                Norilsk          1759.813
       332   04 Jun 2027 11:57:22.197   04 Jun 2027 11:57:41.587            19.390                Irkutsk           605.937
       333   04 Jun 2027 11:57:53.318   04 Jun 2027 11:59:08.035            74.717                Norilsk          2334.906
       334   04 Jun 2027 11:59:20.122   04 Jun 2027 11:59:41.004            20.882                Irkutsk           652.562
       335   04 Jun 2027 11:59:53.797   04 Jun 2027 11:59:58.551             4.754                Norilsk           148.563
       336   04 Jun 2027 12:00:23.764   04 Jun 2027 12:00:58.226            34.462                Norilsk          1076.938
       337   04 Jun 2027 12:02:02.024   04 Jun 2027 12:03:01.102            59.078                Novosib          1846.188
       338   04 Jun 2027 12:38:11.987   04 Jun 2027 12:39:05.642            53.655            RioGallegos          1676.719
       339   04 Jun 2027 12:41:50.098   04 Jun 2027 12:42:39.605            49.507            RioGallegos          1547.094
       340   04 Jun 2027 12:45:15.120   04 Jun 2027 12:45:29.307            14.187            RioGallegos           443.344
       341   04 Jun 2027 12:47:33.977   04 Jun 2027 12:48:12.795            38.818            RioGallegos          1213.063
       342   04 Jun 2027 13:13:30.927   04 Jun 2027 13:13:51.051            20.124                Sumatra           628.875
       343   04 Jun 2027 13:16:01.508   04 Jun 2027 13:16:40.605            39.097                Sumatra          1221.781
       344   04 Jun 2027 13:17:39.248   04 Jun 2027 13:17:58.350            19.102                Sumatra           596.937
       345   04 Jun 2027 13:20:12.388   04 Jun 2027 13:22:13.080           120.692                Sumatra          3771.625
       346   04 Jun 2027 13:32:38.343   04 Jun 2027 13:33:53.400            75.057                Irkutsk          2345.531
       347   04 Jun 2027 13:35:56.421   04 Jun 2027 13:36:51.175            54.754                Irkutsk          1711.063
       348   04 Jun 2027 14:57:31.769   04 Jun 2027 14:59:53.299           141.530                  Delhi          4422.812
       349   04 Jun 2027 15:02:24.119   04 Jun 2027 15:04:11.849           107.730                  Delhi          3366.562
       350   04 Jun 2027 15:06:00.425   04 Jun 2027 15:07:33.046            92.621                Novosib          2894.406
       351   04 Jun 2027 15:10:45.690   04 Jun 2027 15:12:26.112           100.422                Novosib          3138.187
       352   04 Jun 2027 16:40:28.514   04 Jun 2027 16:41:01.500            32.986                 Moscow          1030.813
       353   04 Jun 2027 16:43:25.421   04 Jun 2027 16:44:34.248            68.827                 Moscow          2150.844
       354   04 Jun 2027 16:47:09.861   04 Jun 2027 16:47:29.193            19.332              Murmansk2           604.125
       355   04 Jun 2027 16:49:34.411   04 Jun 2027 16:50:12.833            38.422              Murmansk1          1200.687
       356   04 Jun 2027 16:51:41.318   04 Jun 2027 16:53:20.294            98.976                Norilsk          3093.000
       357   04 Jun 2027 16:59:29.805   04 Jun 2027 17:00:12.617            42.812                Anadyr2          1337.875
       358   04 Jun 2027 17:04:31.119   04 Jun 2027 17:04:48.590            17.471                Anadyr1           545.969
       359   04 Jun 2027 17:53:47.138   04 Jun 2027 17:54:27.910            40.772               CapeTown          1274.125
       360   04 Jun 2027 17:55:17.394   04 Jun 2027 17:55:44.516            27.122               CapeTown           847.563
       361   04 Jun 2027 18:00:40.156   04 Jun 2027 18:01:02.011            21.855               CapeTown           682.969
       362   04 Jun 2027 18:03:18.902   04 Jun 2027 18:04:05.960            47.058               CapeTown          1470.562
       363   04 Jun 2027 18:20:14.058   04 Jun 2027 18:24:25.043           250.985                 Moscow          7843.281
       364   04 Jun 2027 18:41:00.534   04 Jun 2027 18:41:16.170            15.636                Anadyr2           488.625
       365   04 Jun 2027 18:42:41.223   04 Jun 2027 18:43:57.390            76.167                Anadyr2          2380.219
       366   04 Jun 2027 19:30:30.389   04 Jun 2027 19:31:37.640            67.251               CapeTown          2101.594
       367   04 Jun 2027 19:34:37.215   04 Jun 2027 19:35:31.267            54.052               CapeTown          1689.125
       368   04 Jun 2027 20:03:16.747   04 Jun 2027 20:07:30.170           253.423              Murmansk1          7919.469
       369   04 Jun 2027 20:16:19.214   04 Jun 2027 20:16:37.116            17.902               Magadan1           559.437
       370   04 Jun 2027 20:17:14.209   04 Jun 2027 20:17:18.745             4.536               Magadan1           141.750
       371   04 Jun 2027 20:18:33.869   04 Jun 2027 20:18:48.358            14.489               Magadan1           452.781
       372   04 Jun 2027 20:19:00.235   04 Jun 2027 20:19:26.287            26.052               Magadan1           814.125
       373   04 Jun 2027 20:21:50.883   04 Jun 2027 20:22:21.288            30.405               Magadan2           950.156
       374   04 Jun 2027 21:46:09.265   04 Jun 2027 21:49:53.228           223.963                Anadyr2          6998.844
       375   04 Jun 2027 21:50:10.995   04 Jun 2027 21:51:15.812            64.817                Anadyr1          2025.531
       376   04 Jun 2027 21:51:29.081   04 Jun 2027 21:51:49.748            20.667                Norilsk           645.844
       377   04 Jun 2027 21:52:31.493   04 Jun 2027 21:54:30.247           118.754               Magadan2          3711.062
       378   04 Jun 2027 21:58:07.006   04 Jun 2027 21:58:17.698            10.692               Magadan2           334.125
       379   04 Jun 2027 21:58:17.698   04 Jun 2027 21:58:27.936            10.238               Magadan1           319.938
       380   04 Jun 2027 21:58:59.364   04 Jun 2027 21:59:01.535             2.171               Magadan1            67.844
       381   04 Jun 2027 21:59:05.687   04 Jun 2027 21:59:18.793            13.106               Magadan1           409.563
       382   04 Jun 2027 21:59:18.793   04 Jun 2027 21:59:25.049             6.256               Magadan2           195.500
       383   04 Jun 2027 22:40:51.124   04 Jun 2027 22:43:09.685           138.561            RioGallegos          4330.031
       384   04 Jun 2027 22:45:20.076   04 Jun 2027 22:45:39.646            19.570            RioGallegos           611.563
       385   04 Jun 2027 22:50:12.566   04 Jun 2027 22:50:14.431             1.865            RioGallegos            58.281
       386   04 Jun 2027 23:21:50.459   04 Jun 2027 23:23:35.146           104.687                Anadyr1          3271.469
       387   04 Jun 2027 23:23:35.146   04 Jun 2027 23:23:57.932            22.786                Anadyr2           712.062
       388   04 Jun 2027 23:23:58.622   04 Jun 2027 23:25:37.357            98.735                Norilsk          3085.469
       389   04 Jun 2027 23:25:41.647   04 Jun 2027 23:26:15.244            33.597               Magadan1          1049.906
       390   04 Jun 2027 23:26:44.711   04 Jun 2027 23:27:56.522            71.811               Magadan2          2244.094
       391   04 Jun 2027 23:30:15.515   04 Jun 2027 23:30:29.744            14.229                Irkutsk           444.656
       392   04 Jun 2027 23:31:44.645   04 Jun 2027 23:32:42.915            58.270                Novosib          1820.937
       393   04 Jun 2027 23:42:13.987   04 Jun 2027 23:42:42.995            29.008                Sumatra           906.500
       394   04 Jun 2027 23:43:41.541   04 Jun 2027 23:44:18.038            36.497                Sumatra          1140.531
       395   04 Jun 2027 23:45:28.770   04 Jun 2027 23:46:02.990            34.220                Sumatra          1069.375
       396   04 Jun 2027 23:52:13.844   04 Jun 2027 23:53:31.696            77.852                Sumatra          2432.875
       397   05 Jun 2027 00:27:21.715   05 Jun 2027 00:27:32.462            10.747            RioGallegos           335.844
       398   05 Jun 2027 00:56:44.665   05 Jun 2027 00:57:08.179            23.514                Anadyr1           734.813
       399   05 Jun 2027 00:57:08.179   05 Jun 2027 00:58:09.988            61.809                Anadyr2          1931.531
       400   05 Jun 2027 00:59:00.717   05 Jun 2027 00:59:30.043            29.326                Anadyr1           916.438
       401   05 Jun 2027 00:59:54.532   05 Jun 2027 01:01:37.938           103.406                Norilsk          3231.438
       402   05 Jun 2027 01:01:48.019   05 Jun 2027 01:02:08.721            20.702               Magadan1           646.937
       403   05 Jun 2027 01:02:08.721   05 Jun 2027 01:02:09.220             0.499               Magadan2            15.594
       404   05 Jun 2027 01:03:46.767   05 Jun 2027 01:05:47.225           120.458                Irkutsk          3764.312
       405   05 Jun 2027 01:06:13.809   05 Jun 2027 01:06:20.845             7.036                Novosib           219.875
       406   05 Jun 2027 01:10:49.416   05 Jun 2027 01:12:22.205            92.789                Novosib          2899.656
       407   05 Jun 2027 01:17:36.421   05 Jun 2027 01:18:37.307            60.886                  Delhi          1902.688
       408   05 Jun 2027 01:21:29.747   05 Jun 2027 01:22:40.370            70.623                Sumatra          2206.969
       409   05 Jun 2027 01:58:46.627   05 Jun 2027 01:59:07.822            21.195            RioGallegos           662.344
       410   05 Jun 2027 02:01:49.992   05 Jun 2027 02:02:11.497            21.505            RioGallegos           672.031
       411   05 Jun 2027 02:31:07.817   05 Jun 2027 02:31:12.133             4.316                Anadyr1           134.875
       412   05 Jun 2027 02:31:25.535   05 Jun 2027 02:31:52.304            26.769                Anadyr1           836.531
       413   05 Jun 2027 02:34:52.299   05 Jun 2027 02:35:12.755            20.456                Anadyr1           639.250
       414   05 Jun 2027 02:35:55.038   05 Jun 2027 02:37:31.473            96.435                Norilsk          3013.594
       415   05 Jun 2027 02:38:20.200   05 Jun 2027 02:40:03.576           103.376              Murmansk1          3230.500
       416   05 Jun 2027 02:40:14.447   05 Jun 2027 02:40:53.344            38.897                Irkutsk          1215.531
       417   05 Jun 2027 02:43:25.468   05 Jun 2027 02:43:44.757            19.289                Irkutsk           602.781
       418   05 Jun 2027 02:44:20.141   05 Jun 2027 02:45:30.644            70.503                Irkutsk          2203.219
       419   05 Jun 2027 02:56:53.100   05 Jun 2027 02:57:17.896            24.796                  Delhi           774.875
       420   05 Jun 2027 03:31:00.114   05 Jun 2027 03:31:39.522            39.408            RioGallegos          1231.500
       421   05 Jun 2027 03:31:54.398   05 Jun 2027 03:32:13.593            19.195            RioGallegos           599.844
       422   05 Jun 2027 04:20:10.774   05 Jun 2027 04:21:28.187            77.413                Novosib          2419.156
       423   05 Jun 2027 04:22:14.695   05 Jun 2027 04:22:50.146            35.451              Murmansk2          1107.844
       424   05 Jun 2027 04:22:50.146   05 Jun 2027 04:23:46.035            55.889              Murmansk1          1746.531
       425   05 Jun 2027 04:24:05.106   05 Jun 2027 04:25:40.802            95.696                Novosib          2990.500
       426   05 Jun 2027 04:25:51.814   05 Jun 2027 04:27:00.916            69.102                 Moscow          2159.437
       427   05 Jun 2027 05:59:00.027   05 Jun 2027 05:59:36.747            36.720              Murmansk2          1147.500
       428   05 Jun 2027 06:01:55.841   05 Jun 2027 06:02:22.788            26.947              Murmansk2           842.094
       429   05 Jun 2027 07:20:36.543   05 Jun 2027 07:21:03.484            26.941               Magadan2           841.906
       430   05 Jun 2027 07:21:27.835   05 Jun 2027 07:22:37.657            69.822                Anadyr2          2181.937
       431   05 Jun 2027 07:22:53.818   05 Jun 2027 07:22:58.293             4.475                Anadyr2           139.844
       432   05 Jun 2027 07:22:58.293   05 Jun 2027 07:23:55.121            56.828                Anadyr1          1775.875
       433   05 Jun 2027 07:34:48.305   05 Jun 2027 07:34:56.898             8.593                 Moscow           268.531
       434   05 Jun 2027 07:38:14.268   05 Jun 2027 07:39:13.945            59.677                 Moscow          1864.906
       435   05 Jun 2027 08:56:16.312   05 Jun 2027 08:57:46.938            90.626                Anadyr1          2832.062
       436   05 Jun 2027 08:57:58.266   05 Jun 2027 08:58:09.829            11.563               Magadan1           361.344
       437   05 Jun 2027 08:58:09.829   05 Jun 2027 08:58:35.634            25.805               Magadan2           806.406
       438   05 Jun 2027 08:58:43.252   05 Jun 2027 09:00:41.436           118.184                Anadyr1          3693.250
       439   05 Jun 2027 09:01:08.434   05 Jun 2027 09:02:19.212            70.778                Anadyr2          2211.813
       440   05 Jun 2027 10:31:25.985   05 Jun 2027 10:33:03.085            97.100               Magadan2          3034.375
       441   05 Jun 2027 10:33:28.431   05 Jun 2027 10:33:35.034             6.603               Magadan2           206.344
       442   05 Jun 2027 10:34:00.399   05 Jun 2027 10:34:54.624            54.225                Irkutsk          1694.531
       443   05 Jun 2027 10:35:09.828   05 Jun 2027 10:35:15.071             5.243                Irkutsk           163.844
       444   05 Jun 2027 10:35:42.289   05 Jun 2027 10:36:12.566            30.277                Norilsk           946.156
       445   05 Jun 2027 10:36:16.786   05 Jun 2027 10:37:38.347            81.561               Magadan1          2548.781
       446   05 Jun 2027 10:39:05.226   05 Jun 2027 10:39:07.596             2.370                Novosib            74.063
       447   05 Jun 2027 11:12:45.834   05 Jun 2027 11:13:45.058            59.224            RioGallegos          1850.750
       448   05 Jun 2027 11:14:15.626   05 Jun 2027 11:15:09.293            53.667            RioGallegos          1677.094
       449   05 Jun 2027 11:48:05.195   05 Jun 2027 11:48:41.217            36.022                Sumatra          1125.688
       450   05 Jun 2027 11:50:28.273   05 Jun 2027 11:51:23.246            54.973                Sumatra          1717.906
       451   05 Jun 2027 12:11:34.380   05 Jun 2027 12:12:01.537            27.157                Irkutsk           848.656
       452   05 Jun 2027 12:17:00.444   05 Jun 2027 12:17:05.523             5.079                Norilsk           158.719
       453   05 Jun 2027 12:18:08.089   05 Jun 2027 12:18:25.959            17.870                Norilsk           558.438
       454   05 Jun 2027 12:51:17.608   05 Jun 2027 12:52:42.242            84.634            RioGallegos          2644.813
       455   05 Jun 2027 13:25:00.789   05 Jun 2027 13:28:38.719           217.930                Sumatra          6810.313
       456   05 Jun 2027 13:40:39.896   05 Jun 2027 13:41:34.184            54.288                Irkutsk          1696.500
       457   05 Jun 2027 13:54:54.771   05 Jun 2027 13:55:04.439             9.668                Norilsk           302.125
       458   05 Jun 2027 15:10:25.729   05 Jun 2027 15:14:56.929           271.200                  Delhi          8475.000
       459   05 Jun 2027 15:18:56.474   05 Jun 2027 15:22:51.791           235.317                Novosib          7353.656
       460   05 Jun 2027 16:52:42.698   05 Jun 2027 16:53:02.750            20.052                 Moscow           626.625
       461   05 Jun 2027 16:55:24.050   05 Jun 2027 16:56:07.654            43.604                 Moscow          1362.625
       462   05 Jun 2027 16:56:57.851   05 Jun 2027 16:57:38.091            40.240              Murmansk1          1257.500
       463   05 Jun 2027 16:59:02.376   05 Jun 2027 17:00:25.815            83.439              Murmansk2          2607.469
       464   05 Jun 2027 17:11:13.822   05 Jun 2027 17:12:10.892            57.070                Anadyr2          1783.438
       465   05 Jun 2027 17:12:43.165   05 Jun 2027 17:13:09.882            26.717                Anadyr2           834.906
       466   05 Jun 2027 17:15:28.184   05 Jun 2027 17:15:51.425            23.241                Anadyr1           726.281
       467   05 Jun 2027 17:16:58.371   05 Jun 2027 17:17:09.205            10.834                Anadyr2           338.563
       468   05 Jun 2027 17:17:17.703   05 Jun 2027 17:17:32.956            15.253                Anadyr1           476.656
       469   05 Jun 2027 18:08:00.664   05 Jun 2027 18:08:19.850            19.186               CapeTown           599.563
       470   05 Jun 2027 18:09:23.308   05 Jun 2027 18:09:30.663             7.355               CapeTown           229.844
       471   05 Jun 2027 18:09:42.523   05 Jun 2027 18:11:40.485           117.962               CapeTown          3686.312
       472   05 Jun 2027 18:33:22.897   05 Jun 2027 18:36:53.150           210.253                 Moscow          6570.406
       473   05 Jun 2027 18:51:36.479   05 Jun 2027 18:51:53.554            17.075               Magadan1           533.594
       474   05 Jun 2027 18:51:53.554   05 Jun 2027 18:52:33.599            40.045               Magadan2          1251.406
       475   05 Jun 2027 18:53:25.945   05 Jun 2027 18:53:38.122            12.177               Magadan2           380.531
       476   05 Jun 2027 18:56:53.346   05 Jun 2027 18:56:58.085             4.739                Anadyr2           148.094
       477   05 Jun 2027 19:42:56.873   05 Jun 2027 19:43:45.901            49.028               CapeTown          1532.125
       478   05 Jun 2027 19:46:26.419   05 Jun 2027 19:48:08.046           101.627               CapeTown          3175.844
       479   05 Jun 2027 20:16:37.097   05 Jun 2027 20:18:54.878           137.781              Murmansk2          4305.656
       480   05 Jun 2027 20:24:46.267   05 Jun 2027 20:26:23.878            97.611               Magadan2          3050.344
       481   05 Jun 2027 20:26:39.798   05 Jun 2027 20:27:17.432            37.634               Magadan1          1176.062
       482   05 Jun 2027 20:30:32.477   05 Jun 2027 20:30:43.164            10.687               Magadan1           333.969
