uniorb/output/strategy_4/Drop/Drop_KinoSat_111701.txt

KinoSat_111701
-------------------------
    Access    *     Start Time (UTCG)     *     Stop Time (UTCG)  *   Duration (s)        *       Station  *  Data (Mbytes)
         1   01 Jun 2027 03:51:22.759   01 Jun 2027 03:52:19.985            57.226                Irkutsk          1788.312
         2   01 Jun 2027 03:52:32.163   01 Jun 2027 03:53:42.087            69.924              Murmansk1          2185.125
         3   01 Jun 2027 03:53:45.065   01 Jun 2027 03:56:09.370           144.305              Murmansk1          4509.531
         4   01 Jun 2027 03:56:26.362   01 Jun 2027 03:58:28.280           121.918                  Delhi          3809.938
         5   01 Jun 2027 05:29:05.790   01 Jun 2027 05:30:05.645            59.855                 Moscow          1870.469
         6   01 Jun 2027 05:30:28.346   01 Jun 2027 05:33:52.519           204.173              Murmansk1          6380.406
         7   01 Jun 2027 05:33:53.174   01 Jun 2027 05:35:45.209           112.035                 Moscow          3501.094
         8   01 Jun 2027 05:48:11.967   01 Jun 2027 05:50:34.965           142.998               CapeTown          4468.688
         9   01 Jun 2027 06:51:38.676   01 Jun 2027 06:52:53.941            75.265               Magadan2          2352.031
        10   01 Jun 2027 06:53:14.196   01 Jun 2027 06:55:05.473           111.277               Magadan2          3477.406
        11   01 Jun 2027 06:55:05.473   01 Jun 2027 06:57:26.055           140.582               Magadan1          4393.187
        12   01 Jun 2027 08:27:39.037   01 Jun 2027 08:28:15.709            36.672                Anadyr1          1146.000
        13   01 Jun 2027 08:29:39.630   01 Jun 2027 08:33:28.263           228.633               Magadan1          7144.781
        14   01 Jun 2027 10:01:41.989   01 Jun 2027 10:02:54.588            72.599               Magadan1          2268.719
        15   01 Jun 2027 10:03:01.925   01 Jun 2027 10:04:08.135            66.210               Magadan2          2069.062
        16   01 Jun 2027 10:04:37.858   01 Jun 2027 10:07:32.585           174.727                Anadyr1          5460.219
        17   01 Jun 2027 10:08:29.960   01 Jun 2027 10:08:56.126            26.166               Magadan2           817.687
        18   01 Jun 2027 11:40:16.911   01 Jun 2027 11:41:52.941            96.030                Irkutsk          3000.937
        19   01 Jun 2027 11:42:40.443   01 Jun 2027 11:42:59.771            19.328              Murmansk1           604.000
        20   01 Jun 2027 11:43:04.678   01 Jun 2027 11:44:16.368            71.690                Norilsk          2240.312
        21   01 Jun 2027 11:44:18.168   01 Jun 2027 11:45:21.654            63.486                Norilsk          1983.937
        22   01 Jun 2027 11:45:58.049   01 Jun 2027 11:46:02.841             4.792              Murmansk2           149.750
        23   01 Jun 2027 11:47:44.049   01 Jun 2027 11:47:56.793            12.744              Murmansk1           398.250
        24   01 Jun 2027 11:49:01.906   01 Jun 2027 11:49:26.354            24.448              Murmansk2           764.000
        25   01 Jun 2027 11:49:49.496   01 Jun 2027 11:50:07.542            18.046                Norilsk           563.937
        26   01 Jun 2027 11:51:27.773   01 Jun 2027 11:51:37.572             9.799              Murmansk2           306.219
        27   01 Jun 2027 11:52:05.402   01 Jun 2027 11:52:19.382            13.980              Murmansk1           436.875
        28   01 Jun 2027 11:52:28.240   01 Jun 2027 11:52:51.863            23.623              Murmansk1           738.219
        29   01 Jun 2027 12:20:42.352   01 Jun 2027 12:20:47.716             5.364            RioGallegos           167.625
        30   01 Jun 2027 12:22:24.497   01 Jun 2027 12:24:59.329           154.832            RioGallegos          4838.500
        31   01 Jun 2027 12:55:00.821   01 Jun 2027 12:55:22.606            21.785                Sumatra           680.781
        32   01 Jun 2027 12:57:28.085   01 Jun 2027 12:59:41.937           133.852                Sumatra          4182.875
        33   01 Jun 2027 13:02:48.045   01 Jun 2027 13:03:34.074            46.029                Sumatra          1438.406
        34   01 Jun 2027 13:06:13.879   01 Jun 2027 13:06:29.419            15.540                Sumatra           485.625
        35   01 Jun 2027 13:10:03.144   01 Jun 2027 13:11:19.220            76.076                Irkutsk          2377.375
        36   01 Jun 2027 13:13:20.966   01 Jun 2027 13:14:04.516            43.550                Irkutsk          1360.937
        37   01 Jun 2027 13:15:05.835   01 Jun 2027 13:16:07.712            61.877                Norilsk          1933.656
        38   01 Jun 2027 14:39:47.964   01 Jun 2027 14:41:45.799           117.835                  Delhi          3682.344
        39   01 Jun 2027 14:44:01.396   01 Jun 2027 14:45:00.676            59.280                  Delhi          1852.500
        40   01 Jun 2027 14:48:06.812   01 Jun 2027 14:49:55.160           108.348                Novosib          3385.875
        41   01 Jun 2027 14:50:59.280   01 Jun 2027 14:51:57.594            58.314              Murmansk2          1822.312
        42   01 Jun 2027 14:52:30.132   01 Jun 2027 14:53:52.065            81.933                Norilsk          2560.406
        43   01 Jun 2027 14:56:13.455   01 Jun 2027 14:56:48.088            34.633                Norilsk          1082.281
        44   01 Jun 2027 14:59:51.566   01 Jun 2027 15:00:05.076            13.510                Norilsk           422.188
        45   01 Jun 2027 15:01:50.504   01 Jun 2027 15:01:56.528             6.024                Norilsk           188.250
        46   01 Jun 2027 16:23:22.818   01 Jun 2027 16:27:32.309           249.491                 Moscow          7796.594
        47   01 Jun 2027 16:27:36.275   01 Jun 2027 16:29:16.550           100.275              Murmansk2          3133.594
        48   01 Jun 2027 16:32:57.015   01 Jun 2027 16:37:17.110           260.095                Norilsk          8127.969
        49   01 Jun 2027 17:37:05.281   01 Jun 2027 17:37:33.298            28.017               CapeTown           875.531
        50   01 Jun 2027 17:39:31.676   01 Jun 2027 17:40:31.460            59.784               CapeTown          1868.250
        51   01 Jun 2027 17:46:33.789   01 Jun 2027 17:47:26.618            52.829               CapeTown          1650.906
        52   01 Jun 2027 18:02:09.985   01 Jun 2027 18:06:57.965           287.980                 Moscow          8999.375
        53   01 Jun 2027 18:20:33.394   01 Jun 2027 18:20:51.572            18.178                Anadyr1           568.062
        54   01 Jun 2027 18:26:01.804   01 Jun 2027 18:26:05.695             3.891                Anadyr1           121.594
        55   01 Jun 2027 18:27:06.780   01 Jun 2027 18:28:26.553            79.773                Anadyr1          2492.906
        56   01 Jun 2027 19:13:46.872   01 Jun 2027 19:14:39.358            52.486               CapeTown          1640.187
        57   01 Jun 2027 19:17:31.866   01 Jun 2027 19:17:45.198            13.332               CapeTown           416.625
        58   01 Jun 2027 19:20:21.990   01 Jun 2027 19:21:21.372            59.382               CapeTown          1855.687
        59   01 Jun 2027 19:45:03.022   01 Jun 2027 19:51:00.798           357.776              Murmansk1         11180.500
        60   01 Jun 2027 21:29:15.920   01 Jun 2027 21:33:00.820           224.900                Anadyr2          7028.125
        61   01 Jun 2027 21:33:11.059   01 Jun 2027 21:34:28.052            76.993                Anadyr1          2406.031
        62   01 Jun 2027 21:34:43.833   01 Jun 2027 21:37:35.433           171.600               Magadan2          5362.500
        63   01 Jun 2027 21:38:37.184   01 Jun 2027 21:39:06.914            29.730               Magadan2           929.063
        64   01 Jun 2027 21:42:27.271   01 Jun 2027 21:42:40.839            13.568               Magadan2           424.000
        65   01 Jun 2027 21:43:40.519   01 Jun 2027 21:44:23.534            43.015               Magadan2          1344.219
        66   01 Jun 2027 22:24:27.458   01 Jun 2027 22:25:56.614            89.156            RioGallegos          2786.125
        67   01 Jun 2027 22:26:31.188   01 Jun 2027 22:26:50.919            19.731            RioGallegos           616.594
        68   01 Jun 2027 22:28:28.396   01 Jun 2027 22:29:33.214            64.818            RioGallegos          2025.562
        69   01 Jun 2027 23:05:01.589   01 Jun 2027 23:06:06.639            65.050                Anadyr2          2032.812
        70   01 Jun 2027 23:06:10.096   01 Jun 2027 23:06:33.172            23.076                Anadyr1           721.125
        71   01 Jun 2027 23:07:05.860   01 Jun 2027 23:07:22.825            16.965                Anadyr1           530.156
        72   01 Jun 2027 23:07:23.700   01 Jun 2027 23:08:43.408            79.708                Norilsk          2490.875
        73   01 Jun 2027 23:08:46.149   01 Jun 2027 23:09:12.167            26.018               Magadan1           813.062
        74   01 Jun 2027 23:09:12.948   01 Jun 2027 23:09:23.787            10.839               Magadan2           338.719
        75   01 Jun 2027 23:10:11.110   01 Jun 2027 23:10:31.003            19.893               Magadan2           621.656
        76   01 Jun 2027 23:11:02.190   01 Jun 2027 23:11:11.784             9.594               Magadan1           299.812
        77   01 Jun 2027 23:11:40.959   01 Jun 2027 23:13:47.345           126.386                Irkutsk          3949.563
        78   01 Jun 2027 23:17:42.690   01 Jun 2027 23:17:55.799            13.109                Irkutsk           409.656
        79   01 Jun 2027 23:25:58.178   01 Jun 2027 23:28:49.667           171.489                Sumatra          5359.031
        80   02 Jun 2027 00:03:30.598   02 Jun 2027 00:04:38.859            68.261            RioGallegos          2133.156
        81   02 Jun 2027 00:40:07.263   02 Jun 2027 00:41:17.257            69.994                Anadyr2          2187.312
        82   02 Jun 2027 00:41:17.257   02 Jun 2027 00:42:21.078            63.821                Anadyr1          1994.406
        83   02 Jun 2027 00:42:59.877   02 Jun 2027 00:44:43.831           103.954                Norilsk          3248.563
        84   02 Jun 2027 00:45:14.035   02 Jun 2027 00:45:29.511            15.476               Magadan2           483.625
        85   02 Jun 2027 00:46:23.440   02 Jun 2027 00:46:50.884            27.444               Magadan1           857.625
        86   02 Jun 2027 00:46:52.769   02 Jun 2027 00:48:58.940           126.171                Irkutsk          3942.844
        87   02 Jun 2027 00:49:39.617   02 Jun 2027 00:49:58.701            19.084                Novosib           596.375
        88   02 Jun 2027 00:51:46.082   02 Jun 2027 00:52:42.348            56.266                Novosib          1758.313
        89   02 Jun 2027 00:55:59.693   02 Jun 2027 00:55:59.952             0.259                  Delhi             8.094
        90   02 Jun 2027 00:56:32.244   02 Jun 2027 00:56:55.864            23.620                  Delhi           738.125
        91   02 Jun 2027 01:00:08.820   02 Jun 2027 01:01:06.690            57.870                  Delhi          1808.438
        92   02 Jun 2027 01:01:10.575   02 Jun 2027 01:02:11.700            61.125                Sumatra          1910.156
        93   02 Jun 2027 01:09:30.808   02 Jun 2027 01:11:04.542            93.734                Sumatra          2929.187
        94   02 Jun 2027 01:46:01.605   02 Jun 2027 01:46:24.467            22.862            RioGallegos           714.438
        95   02 Jun 2027 02:13:59.704   02 Jun 2027 02:14:14.924            15.220                Anadyr2           475.625
        96   02 Jun 2027 02:14:23.450   02 Jun 2027 02:14:59.618            36.168                Anadyr2          1130.250
        97   02 Jun 2027 02:19:00.816   02 Jun 2027 02:20:09.505            68.689                Norilsk          2146.531
        98   02 Jun 2027 02:20:29.415   02 Jun 2027 02:20:29.645             0.230               Magadan2             7.188
        99   02 Jun 2027 02:21:35.693   02 Jun 2027 02:23:01.328            85.635              Murmansk1          2676.094
       100   02 Jun 2027 02:23:10.758   02 Jun 2027 02:24:06.267            55.509                Irkutsk          1734.656
       101   02 Jun 2027 02:24:39.002   02 Jun 2027 02:25:01.798            22.796                Irkutsk           712.375
       102   02 Jun 2027 02:29:24.417   02 Jun 2027 02:30:13.246            48.829                Irkutsk          1525.906
       103   02 Jun 2027 02:34:50.454   02 Jun 2027 02:35:55.649            65.195                  Delhi          2037.344
       104   02 Jun 2027 03:12:41.525   02 Jun 2027 03:17:35.748           294.223            RioGallegos          9194.469
       105   02 Jun 2027 04:01:35.043   02 Jun 2027 04:02:35.918            60.875                Irkutsk          1902.344
       106   02 Jun 2027 04:03:45.195   02 Jun 2027 04:04:27.201            42.006                Norilsk          1312.688
       107   02 Jun 2027 04:04:39.937   02 Jun 2027 04:04:54.412            14.475              Murmansk1           452.344
       108   02 Jun 2027 04:05:03.304   02 Jun 2027 04:05:55.020            51.716                Norilsk          1616.125
       109   02 Jun 2027 04:06:22.672   02 Jun 2027 04:07:23.071            60.399                Norilsk          1887.469
       110   02 Jun 2027 04:07:26.600   02 Jun 2027 04:08:11.748            45.148              Murmansk2          1410.875
       111   02 Jun 2027 04:08:11.748   02 Jun 2027 04:08:31.751            20.003              Murmansk1           625.094
       112   02 Jun 2027 05:45:24.797   02 Jun 2027 05:46:08.543            43.746                 Moscow          1367.063
       113   02 Jun 2027 07:03:48.198   02 Jun 2027 07:04:14.914            26.716               Magadan1           834.875
       114   02 Jun 2027 07:04:14.914   02 Jun 2027 07:06:13.464           118.550               Magadan2          3704.688
       115   02 Jun 2027 08:41:41.714   02 Jun 2027 08:43:27.026           105.312               Magadan2          3291.000
       116   02 Jun 2027 08:43:27.026   02 Jun 2027 08:44:12.023            44.997               Magadan1          1406.156
       117   02 Jun 2027 08:44:13.858   02 Jun 2027 08:45:21.772            67.914               Magadan2          2122.312
       118   02 Jun 2027 10:17:24.876   02 Jun 2027 10:18:10.166            45.290               Magadan1          1415.313
       119   02 Jun 2027 10:18:18.918   02 Jun 2027 10:18:27.486             8.568                Norilsk           267.750
       120   02 Jun 2027 10:18:53.712   02 Jun 2027 10:20:06.200            72.488                Norilsk          2265.250
       121   02 Jun 2027 10:20:26.920   02 Jun 2027 10:20:46.237            19.317               Magadan2           603.656
       122   02 Jun 2027 10:20:46.237   02 Jun 2027 10:20:58.235            11.998               Magadan1           374.937
       123   02 Jun 2027 10:25:36.034   02 Jun 2027 10:25:43.167             7.133                Norilsk           222.906
       124   02 Jun 2027 10:55:55.371   02 Jun 2027 10:57:01.815            66.444            RioGallegos          2076.375
       125   02 Jun 2027 11:07:12.262   02 Jun 2027 11:07:59.878            47.616            RioGallegos          1488.000
       126   02 Jun 2027 11:31:43.585   02 Jun 2027 11:32:25.152            41.567                Sumatra          1298.969
       127   02 Jun 2027 11:51:18.114   02 Jun 2027 11:52:02.954            44.840                Irkutsk          1401.250
       128   02 Jun 2027 11:52:36.221   02 Jun 2027 11:52:36.372             0.151                Irkutsk             4.719
       129   02 Jun 2027 11:52:37.458   02 Jun 2027 11:53:00.087            22.629                Norilsk           707.156
       130   02 Jun 2027 11:53:23.971   02 Jun 2027 11:53:57.980            34.009                Irkutsk          1062.781
       131   02 Jun 2027 11:54:15.882   02 Jun 2027 11:54:21.333             5.451                Norilsk           170.344
       132   02 Jun 2027 11:54:31.046   02 Jun 2027 11:54:38.195             7.149                Norilsk           223.406
       133   02 Jun 2027 11:54:42.493   02 Jun 2027 11:55:45.795            63.302                Novosib          1978.188
       134   02 Jun 2027 11:56:00.137   02 Jun 2027 11:56:08.642             8.505                Novosib           265.781
       135   02 Jun 2027 11:56:20.127   02 Jun 2027 11:56:54.956            34.829                Norilsk          1088.406
       136   02 Jun 2027 11:56:57.845   02 Jun 2027 11:58:02.796            64.951                Norilsk          2029.719
       137   02 Jun 2027 12:33:08.215   02 Jun 2027 12:33:45.387            37.172            RioGallegos          1161.625
       138   02 Jun 2027 12:38:15.411   02 Jun 2027 12:39:24.914            69.503            RioGallegos          2171.969
       139   02 Jun 2027 12:43:06.961   02 Jun 2027 12:43:37.948            30.987            RioGallegos           968.344
       140   02 Jun 2027 13:07:28.612   02 Jun 2027 13:08:39.315            70.703                Sumatra          2209.469
       141   02 Jun 2027 13:17:16.159   02 Jun 2027 13:18:14.524            58.365                Sumatra          1823.906
       142   02 Jun 2027 13:22:40.668   02 Jun 2027 13:25:18.338           157.670                Irkutsk          4927.188
       143   02 Jun 2027 13:36:00.648   02 Jun 2027 13:36:06.285             5.637                Norilsk           176.156
       144   02 Jun 2027 13:36:51.602   02 Jun 2027 13:37:40.365            48.763                Norilsk          1523.844
       145   02 Jun 2027 14:52:22.606   02 Jun 2027 14:55:27.066           184.460                  Delhi          5764.375
       146   02 Jun 2027 14:56:00.102   02 Jun 2027 14:57:21.654            81.552                  Delhi          2548.500
       147   02 Jun 2027 15:00:49.015   02 Jun 2027 15:02:58.916           129.901                Novosib          4059.406
       148   02 Jun 2027 15:05:47.253   02 Jun 2027 15:08:31.236           163.983                Novosib          5124.469
       149   02 Jun 2027 16:35:32.211   02 Jun 2027 16:36:34.051            61.840                 Moscow          1932.500
       150   02 Jun 2027 16:38:34.282   02 Jun 2027 16:39:26.466            52.184                 Moscow          1630.750
       151   02 Jun 2027 16:41:41.132   02 Jun 2027 16:42:07.945            26.813              Murmansk1           837.906
       152   02 Jun 2027 16:45:54.808   02 Jun 2027 16:46:49.636            54.828              Murmansk1          1713.375
       153   02 Jun 2027 16:47:24.765   02 Jun 2027 16:48:51.313            86.548                Norilsk          2704.625
       154   02 Jun 2027 16:54:57.734   02 Jun 2027 16:55:15.204            17.470                Anadyr1           545.937
       155   02 Jun 2027 17:48:57.803   02 Jun 2027 17:50:08.817            71.014               CapeTown          2219.187
       156   02 Jun 2027 17:51:48.782   02 Jun 2027 17:51:53.004             4.222               CapeTown           131.937
       157   02 Jun 2027 17:55:10.734   02 Jun 2027 17:55:31.869            21.135               CapeTown           660.469
       158   02 Jun 2027 17:58:48.924   02 Jun 2027 17:59:19.330            30.406               CapeTown           950.188
       159   02 Jun 2027 18:14:59.017   02 Jun 2027 18:15:57.749            58.732                 Moscow          1835.375
       160   02 Jun 2027 18:17:04.353   02 Jun 2027 18:18:04.520            60.167              Murmansk2          1880.219
       161   02 Jun 2027 18:19:23.428   02 Jun 2027 18:19:29.337             5.909              Murmansk2           184.656
       162   02 Jun 2027 18:19:31.185   02 Jun 2027 18:19:34.517             3.332                 Moscow           104.125
       163   02 Jun 2027 18:20:01.705   02 Jun 2027 18:21:07.139            65.434              Murmansk2          2044.812
       164   02 Jun 2027 18:21:46.860   02 Jun 2027 18:22:15.320            28.460              Murmansk1           889.375
       165   02 Jun 2027 18:23:05.375   02 Jun 2027 18:23:26.177            20.802              Murmansk1           650.063
       166   02 Jun 2027 18:29:42.231   02 Jun 2027 18:29:53.605            11.374                Anadyr1           355.437
       167   02 Jun 2027 18:31:00.730   02 Jun 2027 18:31:46.130            45.400                Anadyr1          1418.750
       168   02 Jun 2027 18:36:05.236   02 Jun 2027 18:36:12.644             7.408                Anadyr1           231.500
       169   02 Jun 2027 18:36:15.386   02 Jun 2027 18:36:56.675            41.289                Anadyr1          1290.281
       170   02 Jun 2027 18:40:40.551   02 Jun 2027 18:40:58.281            17.730                Anadyr1           554.063
       171   02 Jun 2027 19:25:29.987   02 Jun 2027 19:26:10.622            40.635               CapeTown          1269.844
       172   02 Jun 2027 19:29:21.489   02 Jun 2027 19:29:48.661            27.172               CapeTown           849.125
       173   02 Jun 2027 19:33:04.944   02 Jun 2027 19:33:46.875            41.931               CapeTown          1310.344
       174   02 Jun 2027 19:57:58.912   02 Jun 2027 20:02:47.045           288.133              Murmansk1          9004.156
       175   02 Jun 2027 20:11:34.716   02 Jun 2027 20:11:47.958            13.242               Magadan2           413.813
       176   02 Jun 2027 20:12:23.683   02 Jun 2027 20:12:36.157            12.474               Magadan2           389.813
       177   02 Jun 2027 20:13:44.112   02 Jun 2027 20:13:55.771            11.659               Magadan2           364.344
       178   02 Jun 2027 20:14:02.294   02 Jun 2027 20:14:11.854             9.560               Magadan2           298.750
       179   02 Jun 2027 20:16:21.202   02 Jun 2027 20:16:33.984            12.782               Magadan1           399.437
       180   02 Jun 2027 21:41:17.314   02 Jun 2027 21:45:01.618           224.304                Anadyr1          7009.500
       181   02 Jun 2027 21:45:02.839   02 Jun 2027 21:49:04.014           241.175               Magadan2          7536.719
       182   02 Jun 2027 22:36:06.562   02 Jun 2027 22:39:19.090           192.528            RioGallegos          6016.500
       183   02 Jun 2027 22:45:13.851   02 Jun 2027 22:45:28.409            14.558            RioGallegos           454.937
       184   02 Jun 2027 23:16:59.923   02 Jun 2027 23:17:59.076            59.153                Anadyr2          1848.531
       185   02 Jun 2027 23:18:01.836   02 Jun 2027 23:18:17.524            15.688                Anadyr1           490.250
       186   02 Jun 2027 23:18:38.261   02 Jun 2027 23:19:11.490            33.229                Anadyr2          1038.406
       187   02 Jun 2027 23:19:12.065   02 Jun 2027 23:20:45.285            93.220                Norilsk          2913.125
       188   02 Jun 2027 23:20:49.437   02 Jun 2027 23:21:22.813            33.376               Magadan2          1043.000
       189   02 Jun 2027 23:21:29.297   02 Jun 2027 23:22:22.812            53.515               Magadan1          1672.344
       190   02 Jun 2027 23:22:30.472   02 Jun 2027 23:23:17.845            47.373               Magadan1          1480.406
       191   02 Jun 2027 23:24:34.874   02 Jun 2027 23:24:38.736             3.862                Irkutsk           120.688
       192   02 Jun 2027 23:25:36.637   02 Jun 2027 23:26:57.621            80.984                Irkutsk          2530.750
       193   02 Jun 2027 23:38:43.221   02 Jun 2027 23:38:57.417            14.196                Sumatra           443.625
       194   02 Jun 2027 23:41:17.851   02 Jun 2027 23:43:04.150           106.299                Sumatra          3321.844
       195   03 Jun 2027 00:20:53.391   03 Jun 2027 00:20:58.398             5.007            RioGallegos           156.469
       196   03 Jun 2027 00:21:29.327   03 Jun 2027 00:22:27.719            58.392            RioGallegos          1824.750
       197   03 Jun 2027 00:52:38.771   03 Jun 2027 00:53:18.532            39.761                Anadyr2          1242.531
       198   03 Jun 2027 00:54:15.133   03 Jun 2027 00:54:22.999             7.866                Anadyr2           245.812
       199   03 Jun 2027 00:54:25.642   03 Jun 2027 00:54:26.933             1.291                Anadyr1            40.344
       200   03 Jun 2027 00:54:41.429   03 Jun 2027 00:54:49.075             7.646                Anadyr2           238.937
       201   03 Jun 2027 00:55:02.137   03 Jun 2027 00:56:08.606            66.469                Norilsk          2077.156
       202   03 Jun 2027 00:56:14.796   03 Jun 2027 00:56:57.220            42.424               Magadan2          1325.750
       203   03 Jun 2027 00:57:16.720   03 Jun 2027 00:57:18.755             2.035               Magadan2            63.594
       204   03 Jun 2027 00:58:54.405   03 Jun 2027 01:00:56.371           121.966                Irkutsk          3811.438
       205   03 Jun 2027 01:00:56.804   03 Jun 2027 01:01:33.125            36.321                Novosib          1135.031
       206   03 Jun 2027 01:07:26.545   03 Jun 2027 01:07:52.703            26.158                  Delhi           817.437
       207   03 Jun 2027 01:09:57.417   03 Jun 2027 01:10:29.482            32.065                Irkutsk          1002.031
       208   03 Jun 2027 01:11:40.429   03 Jun 2027 01:12:36.082            55.653                  Delhi          1739.156
       209   03 Jun 2027 01:17:49.126   03 Jun 2027 01:18:49.156            60.030                Sumatra          1875.937
       210   03 Jun 2027 01:48:33.491   03 Jun 2027 01:48:53.871            20.380            RioGallegos           636.875
       211   03 Jun 2027 01:51:58.422   03 Jun 2027 01:52:29.895            31.473            RioGallegos           983.531
       212   03 Jun 2027 01:54:11.530   03 Jun 2027 01:54:31.437            19.907            RioGallegos           622.094
       213   03 Jun 2027 01:56:07.605   03 Jun 2027 01:56:54.871            47.266            RioGallegos          1477.062
       214   03 Jun 2027 02:31:02.815   03 Jun 2027 02:32:40.092            97.277                Norilsk          3039.906
       215   03 Jun 2027 02:33:30.369   03 Jun 2027 02:33:42.693            12.324              Murmansk2           385.125
       216   03 Jun 2027 02:34:12.600   03 Jun 2027 02:35:02.956            50.356              Murmansk1          1573.625
       217   03 Jun 2027 02:35:19.169   03 Jun 2027 02:37:09.704           110.535                Irkutsk          3454.219
       218   03 Jun 2027 02:42:14.976   03 Jun 2027 02:42:19.317             4.341                  Delhi           135.656
       219   03 Jun 2027 02:43:23.519   03 Jun 2027 02:44:13.233            49.714                  Delhi          1553.562
       220   03 Jun 2027 02:50:13.341   03 Jun 2027 02:50:39.131            25.790                  Delhi           805.937
       221   03 Jun 2027 03:25:27.096   03 Jun 2027 03:27:08.762           101.666            RioGallegos          3177.063
       222   03 Jun 2027 04:15:47.301   03 Jun 2027 04:18:23.822           156.521                Norilsk          4891.281
       223   03 Jun 2027 04:18:25.966   03 Jun 2027 04:20:27.548           121.582              Murmansk2          3799.437
       224   03 Jun 2027 04:20:45.025   03 Jun 2027 04:21:24.589            39.564                Novosib          1236.375
       225   03 Jun 2027 05:53:06.621   03 Jun 2027 05:53:59.714            53.093              Murmansk2          1659.156
       226   03 Jun 2027 07:15:32.068   03 Jun 2027 07:15:44.129            12.061               Magadan1           376.906
       227   03 Jun 2027 07:16:02.560   03 Jun 2027 07:17:31.642            89.082                Anadyr2          2783.812
       228   03 Jun 2027 07:17:40.506   03 Jun 2027 07:18:08.363            27.857               Magadan1           870.531
       229   03 Jun 2027 07:18:08.363   03 Jun 2027 07:18:27.488            19.125               Magadan2           597.656
       230   03 Jun 2027 07:18:58.427   03 Jun 2027 07:19:43.514            45.087                Anadyr2          1408.969
       231   03 Jun 2027 08:51:28.239   03 Jun 2027 08:52:43.777            75.538                Anadyr1          2360.562
       232   03 Jun 2027 08:52:50.860   03 Jun 2027 08:53:43.504            52.644               Magadan1          1645.125
       233   03 Jun 2027 08:53:52.489   03 Jun 2027 08:55:49.522           117.033                Anadyr2          3657.281
       234   03 Jun 2027 10:26:40.886   03 Jun 2027 10:27:59.689            78.803               Magadan2          2462.594
       235   03 Jun 2027 10:28:21.576   03 Jun 2027 10:28:31.124             9.548               Magadan1           298.375
       236   03 Jun 2027 10:29:21.478   03 Jun 2027 10:29:28.961             7.483               Magadan2           233.844
       237   03 Jun 2027 10:30:11.490   03 Jun 2027 10:30:25.318            13.828                Irkutsk           432.125
       238   03 Jun 2027 10:30:46.012   03 Jun 2027 10:31:12.301            26.289                Irkutsk           821.531
       239   03 Jun 2027 10:31:25.266   03 Jun 2027 10:32:50.752            85.486               Magadan1          2671.438
       240   03 Jun 2027 10:33:01.138   03 Jun 2027 10:33:06.720             5.582                Irkutsk           174.437
       241   03 Jun 2027 11:07:53.996   03 Jun 2027 11:09:00.069            66.073            RioGallegos          2064.781
       242   03 Jun 2027 11:12:59.025   03 Jun 2027 11:13:47.913            48.888            RioGallegos          1527.750
       243   03 Jun 2027 11:43:20.930   03 Jun 2027 11:43:44.886            23.956                Sumatra           748.625
       244   03 Jun 2027 11:59:40.993   03 Jun 2027 11:59:41.590             0.597                  Delhi            18.656
       245   03 Jun 2027 12:03:15.984   03 Jun 2027 12:03:44.012            28.028                Irkutsk           875.875
       246   03 Jun 2027 12:05:53.612   03 Jun 2027 12:06:06.484            12.872                Irkutsk           402.250
       247   03 Jun 2027 12:06:46.049   03 Jun 2027 12:07:07.914            21.865                Irkutsk           683.281
       248   03 Jun 2027 12:07:49.474   03 Jun 2027 12:08:07.382            17.908                Novosib           559.625
       249   03 Jun 2027 12:48:57.538   03 Jun 2027 12:49:36.655            39.117            RioGallegos          1222.406
       250   03 Jun 2027 12:51:30.664   03 Jun 2027 12:51:52.490            21.826            RioGallegos           682.062
       251   03 Jun 2027 12:52:34.454   03 Jun 2027 12:54:42.612           128.158            RioGallegos          4004.938
       252   03 Jun 2027 13:23:48.657   03 Jun 2027 13:24:58.560            69.903                Sumatra          2184.469
       253   03 Jun 2027 13:35:26.390   03 Jun 2027 13:37:04.422            98.032                Irkutsk          3063.500
       254   03 Jun 2027 13:42:53.794   03 Jun 2027 13:43:03.401             9.607                Novosib           300.219
       255   03 Jun 2027 13:46:55.623   03 Jun 2027 13:47:31.033            35.410                Norilsk          1106.562
       256   03 Jun 2027 13:49:36.815   03 Jun 2027 13:50:12.082            35.267                Norilsk          1102.094
       257   03 Jun 2027 15:05:09.634   03 Jun 2027 15:07:55.247           165.613                  Delhi          5175.406
       258   03 Jun 2027 15:09:50.579   03 Jun 2027 15:11:11.905            81.326                  Delhi          2541.438
       259   03 Jun 2027 15:13:40.214   03 Jun 2027 15:14:15.668            35.454                Novosib          1107.938
       260   03 Jun 2027 15:14:38.647   03 Jun 2027 15:18:04.722           206.075                Novosib          6439.844
       261   03 Jun 2027 16:48:06.282   03 Jun 2027 16:48:37.585            31.303                 Moscow           978.219
       262   03 Jun 2027 16:51:13.505   03 Jun 2027 16:52:05.907            52.402              Murmansk1          1637.562
       263   03 Jun 2027 16:53:40.038   03 Jun 2027 16:54:09.180            29.142              Murmansk2           910.687
       264   03 Jun 2027 16:54:09.180   03 Jun 2027 16:54:32.533            23.353              Murmansk1           729.781
       265   03 Jun 2027 16:57:19.133   03 Jun 2027 16:57:56.744            37.611              Murmansk2          1175.344
       266   03 Jun 2027 17:03:12.948   03 Jun 2027 17:03:46.017            33.069              Murmansk2          1033.406
       267   03 Jun 2027 17:06:28.233   03 Jun 2027 17:07:20.238            52.005                Anadyr1          1625.156
       268   03 Jun 2027 17:08:22.668   03 Jun 2027 17:08:32.696            10.028                Anadyr1           313.375
       269   03 Jun 2027 17:08:50.863   03 Jun 2027 17:09:19.296            28.433                Anadyr1           888.531
       270   03 Jun 2027 17:11:31.573   03 Jun 2027 17:12:03.578            32.005                Anadyr1          1000.156
       271   03 Jun 2027 18:01:04.205   03 Jun 2027 18:01:42.755            38.550               CapeTown          1204.687
       272   03 Jun 2027 18:06:51.924   03 Jun 2027 18:07:07.573            15.649               CapeTown           489.031
       273   03 Jun 2027 18:08:52.643   03 Jun 2027 18:09:29.345            36.702               CapeTown          1146.937
       274   03 Jun 2027 18:28:00.345   03 Jun 2027 18:32:18.193           257.848                 Moscow          8057.750
       275   03 Jun 2027 18:37:43.452   03 Jun 2027 18:39:39.531           116.079              Murmansk1          3627.469
       276   03 Jun 2027 19:37:53.508   03 Jun 2027 19:38:50.543            57.035               CapeTown          1782.344
       277   03 Jun 2027 19:44:42.734   03 Jun 2027 19:47:05.026           142.292               CapeTown          4446.625
       278   03 Jun 2027 20:11:07.917   03 Jun 2027 20:14:22.247           194.330              Murmansk1          6072.812
       279   03 Jun 2027 20:25:23.833   03 Jun 2027 20:25:40.438            16.605               Magadan2           518.906
       280   03 Jun 2027 20:26:04.532   03 Jun 2027 20:26:21.540            17.008               Magadan2           531.500
       281   03 Jun 2027 20:29:54.842   03 Jun 2027 20:30:11.555            16.713               Magadan2           522.281
       282   03 Jun 2027 20:30:30.900   03 Jun 2027 20:30:33.581             2.681               Magadan2            83.781
       283   03 Jun 2027 21:53:18.499   03 Jun 2027 21:57:09.254           230.755                Anadyr1          7211.094
       284   03 Jun 2027 21:57:36.425   03 Jun 2027 21:58:54.336            77.911               Magadan2          2434.719
       285   03 Jun 2027 21:58:54.336   03 Jun 2027 22:00:54.490           120.154               Magadan1          3754.812
       286   03 Jun 2027 22:05:51.637   03 Jun 2027 22:06:02.367            10.730               Magadan2           335.312
       287   03 Jun 2027 22:06:28.512   03 Jun 2027 22:06:35.695             7.183               Magadan1           224.469
       288   03 Jun 2027 22:47:51.336   03 Jun 2027 22:50:39.522           168.186            RioGallegos          5255.812
       289   03 Jun 2027 23:28:57.559   03 Jun 2027 23:31:06.379           128.820                Anadyr1          4025.625
       290   03 Jun 2027 23:31:07.463   03 Jun 2027 23:32:47.300            99.837                Norilsk          3119.906
       291   03 Jun 2027 23:32:50.216   03 Jun 2027 23:32:55.715             5.499               Magadan1           171.844
       292   03 Jun 2027 23:33:03.558   03 Jun 2027 23:33:59.699            56.141               Magadan2          1754.406
       293   03 Jun 2027 23:34:34.194   03 Jun 2027 23:34:39.120             4.926                Norilsk           153.937
       294   03 Jun 2027 23:34:47.704   03 Jun 2027 23:35:14.959            27.255               Magadan2           851.719
       295   03 Jun 2027 23:36:02.581   03 Jun 2027 23:36:25.774            23.193                Irkutsk           724.781
       296   03 Jun 2027 23:37:33.103   03 Jun 2027 23:38:18.386            45.283                Irkutsk          1415.094
       297   03 Jun 2027 23:41:42.891   03 Jun 2027 23:41:47.593             4.702                Novosib           146.937
       298   03 Jun 2027 23:43:35.964   03 Jun 2027 23:43:40.013             4.049                Irkutsk           126.531
       299   03 Jun 2027 23:49:12.438   03 Jun 2027 23:50:47.175            94.737                Sumatra          2960.531
       300   03 Jun 2027 23:51:38.390   03 Jun 2027 23:52:35.731            57.341                Sumatra          1791.906
       301   04 Jun 2027 00:27:46.212   04 Jun 2027 00:28:33.294            47.082            RioGallegos          1471.312
       302   04 Jun 2027 01:03:46.667   04 Jun 2027 01:04:39.640            52.973                Anadyr1          1655.406
       303   04 Jun 2027 01:04:39.640   04 Jun 2027 01:06:01.474            81.834                Anadyr2          2557.312
       304   04 Jun 2027 01:07:04.462   04 Jun 2027 01:08:43.930            99.468                Norilsk          3108.375
       305   04 Jun 2027 01:10:56.875   04 Jun 2027 01:12:55.073           118.198                Irkutsk          3693.687
       306   04 Jun 2027 01:14:43.145   04 Jun 2027 01:14:44.597             1.452                Novosib            45.375
       307   04 Jun 2027 01:15:59.688   04 Jun 2027 01:16:08.028             8.340                Irkutsk           260.625
       308   04 Jun 2027 01:17:30.484   04 Jun 2027 01:17:41.251            10.767                Novosib           336.469
       309   04 Jun 2027 01:18:19.123   04 Jun 2027 01:18:38.109            18.986                Novosib           593.313
       310   04 Jun 2027 01:19:02.891   04 Jun 2027 01:19:46.554            43.663                  Delhi          1364.469
       311   04 Jun 2027 01:21:51.001   04 Jun 2027 01:22:13.308            22.307                  Delhi           697.094
       312   04 Jun 2027 01:24:52.584   04 Jun 2027 01:25:35.052            42.468                  Delhi          1327.125
       313   04 Jun 2027 01:26:26.018   04 Jun 2027 01:27:49.823            83.805                Sumatra          2618.906
       314   04 Jun 2027 02:03:50.172   04 Jun 2027 02:04:49.243            59.071            RioGallegos          1845.969
       315   04 Jun 2027 02:09:45.785   04 Jun 2027 02:09:54.470             8.685            RioGallegos           271.406
       316   04 Jun 2027 02:37:22.722   04 Jun 2027 02:37:26.029             3.307                Anadyr1           103.344
       317   04 Jun 2027 02:38:00.476   04 Jun 2027 02:38:17.644            17.168                Anadyr1           536.500
       318   04 Jun 2027 02:39:59.936   04 Jun 2027 02:40:03.229             3.293                Anadyr2           102.906
       319   04 Jun 2027 02:43:04.675   04 Jun 2027 02:44:59.100           114.425                Norilsk          3575.781
       320   04 Jun 2027 02:45:26.947   04 Jun 2027 02:46:19.647            52.700              Murmansk2          1646.875
       321   04 Jun 2027 02:46:51.853   04 Jun 2027 02:47:38.846            46.993                Novosib          1468.531
       322   04 Jun 2027 02:47:48.404   04 Jun 2027 02:47:58.069             9.665                Irkutsk           302.031
       323   04 Jun 2027 02:48:24.333   04 Jun 2027 02:49:16.568            52.235                Irkutsk          1632.344
       324   04 Jun 2027 02:54:20.052   04 Jun 2027 02:56:10.172           110.120                Irkutsk          3441.250
       325   04 Jun 2027 04:27:52.271   04 Jun 2027 04:28:34.132            41.861              Murmansk1          1308.156
       326   04 Jun 2027 04:28:53.232   04 Jun 2027 04:32:53.822           240.590                Novosib          7518.438
       327   04 Jun 2027 04:33:47.658   04 Jun 2027 04:35:42.517           114.859                 Moscow          3589.344
       328   04 Jun 2027 04:49:04.521   04 Jun 2027 04:52:14.127           189.606               CapeTown          5925.187
       329   04 Jun 2027 06:05:35.608   04 Jun 2027 06:06:05.522            29.914                 Moscow           934.813
       330   04 Jun 2027 06:06:10.414   04 Jun 2027 06:06:21.632            11.218                 Moscow           350.563
       331   04 Jun 2027 06:09:01.424   04 Jun 2027 06:09:24.118            22.694              Murmansk1           709.187
       332   04 Jun 2027 06:10:27.806   04 Jun 2027 06:10:32.598             4.792                 Moscow           149.750
       333   04 Jun 2027 06:24:53.530   04 Jun 2027 06:26:12.037            78.507               CapeTown          2453.344
       334   04 Jun 2027 06:29:25.520   04 Jun 2027 06:30:14.880            49.360               CapeTown          1542.500
       335   04 Jun 2027 07:27:41.450   04 Jun 2027 07:27:46.585             5.135               Magadan1           160.469
       336   04 Jun 2027 07:28:02.942   04 Jun 2027 07:29:17.984            75.042                Anadyr1          2345.063
       337   04 Jun 2027 07:29:23.890   04 Jun 2027 07:29:43.659            19.769               Magadan1           617.781
       338   04 Jun 2027 07:30:07.696   04 Jun 2027 07:31:11.801            64.105                Anadyr2          2003.281
       339   04 Jun 2027 09:03:19.413   04 Jun 2027 09:05:12.808           113.395                Anadyr2          3543.594
       340   04 Jun 2027 09:05:27.013   04 Jun 2027 09:05:40.871            13.858                Anadyr2           433.062
       341   04 Jun 2027 09:05:44.933   04 Jun 2027 09:07:13.221            88.288               Magadan2          2759.000
       342   04 Jun 2027 09:07:50.209   04 Jun 2027 09:08:10.218            20.009                Anadyr2           625.281
       343   04 Jun 2027 09:45:27.455   04 Jun 2027 09:45:41.014            13.559            RioGallegos           423.719
       344   04 Jun 2027 09:46:49.656   04 Jun 2027 09:47:45.945            56.289            RioGallegos          1759.031
       345   04 Jun 2027 10:38:09.759   04 Jun 2027 10:38:38.079            28.320                Irkutsk           885.000
       346   04 Jun 2027 10:39:31.575   04 Jun 2027 10:40:29.568            57.993               Magadan1          1812.281
       347   04 Jun 2027 10:40:45.679   04 Jun 2027 10:41:02.236            16.557               Magadan1           517.406
       348   04 Jun 2027 10:41:03.305   04 Jun 2027 10:41:13.310            10.005                Irkutsk           312.656
       349   04 Jun 2027 10:41:16.682   04 Jun 2027 10:43:24.930           128.248               Magadan2          4007.750
       350   04 Jun 2027 10:43:46.251   04 Jun 2027 10:44:08.796            22.545                Irkutsk           704.531
       351   04 Jun 2027 10:44:10.807   04 Jun 2027 10:44:27.982            17.175                Norilsk           536.719
       352   04 Jun 2027 10:44:34.681   04 Jun 2027 10:45:43.291            68.610                Novosib          2144.062
       353   04 Jun 2027 11:20:56.945   04 Jun 2027 11:21:08.557            11.612            RioGallegos           362.875
       354   04 Jun 2027 11:27:36.001   04 Jun 2027 11:28:13.667            37.666            RioGallegos          1177.062
       355   04 Jun 2027 11:55:05.634   04 Jun 2027 11:55:45.966            40.332                Sumatra          1260.375
       356   04 Jun 2027 12:07:06.284   04 Jun 2027 12:07:20.979            14.695                  Delhi           459.219
       357   04 Jun 2027 12:08:34.412   04 Jun 2027 12:09:10.264            35.852                Irkutsk          1120.375
       358   04 Jun 2027 12:10:20.992   04 Jun 2027 12:11:36.564            75.572                Irkutsk          2361.625
       359   04 Jun 2027 12:58:18.052   04 Jun 2027 13:00:54.676           156.624            RioGallegos          4894.500
       360   04 Jun 2027 13:32:37.037   04 Jun 2027 13:32:48.777            11.740                Sumatra           366.875
       361   04 Jun 2027 13:35:43.425   04 Jun 2027 13:37:23.515           100.090                Sumatra          3127.813
       362   04 Jun 2027 13:48:23.633   04 Jun 2027 13:52:29.520           245.887                Irkutsk          7683.969
       363   04 Jun 2027 15:18:16.834   04 Jun 2027 15:19:46.446            89.612                  Delhi          2800.375
       364   04 Jun 2027 15:23:37.851   04 Jun 2027 15:24:20.581            42.730                 Moscow          1335.312
       365   04 Jun 2027 15:26:45.103   04 Jun 2027 15:30:26.138           221.035                Novosib          6907.344
       366   04 Jun 2027 15:34:21.806   04 Jun 2027 15:34:44.096            22.290                Norilsk           696.562
       367   04 Jun 2027 16:39:25.207   04 Jun 2027 16:40:47.818            82.611               CapeTown          2581.594
       368   04 Jun 2027 17:00:01.246   04 Jun 2027 17:00:40.602            39.356                 Moscow          1229.875
       369   04 Jun 2027 17:03:05.765   04 Jun 2027 17:04:36.628            90.863                 Moscow          2839.469
       370   04 Jun 2027 17:10:24.914   04 Jun 2027 17:11:31.591            66.677              Murmansk1          2083.656
       371   04 Jun 2027 17:18:15.523   04 Jun 2027 17:19:18.000            62.477                Anadyr1          1952.406
       372   04 Jun 2027 17:20:41.956   04 Jun 2027 17:20:57.725            15.769                Anadyr1           492.781
       373   04 Jun 2027 17:20:57.725   04 Jun 2027 17:21:15.328            17.603                Anadyr2           550.094
       374   04 Jun 2027 18:12:52.517   04 Jun 2027 18:13:28.745            36.228               CapeTown          1132.125
       375   04 Jun 2027 18:17:08.855   04 Jun 2027 18:17:58.714            49.859               CapeTown          1558.094
       376   04 Jun 2027 18:41:25.734   04 Jun 2027 18:44:16.523           170.789                 Moscow          5337.156
       377   04 Jun 2027 18:45:44.078   04 Jun 2027 18:47:06.874            82.796              Murmansk1          2587.375
       378   04 Jun 2027 18:47:19.705   04 Jun 2027 18:47:26.551             6.846              Murmansk2           213.937
       379   04 Jun 2027 18:53:58.673   04 Jun 2027 18:54:30.572            31.899                Anadyr2           996.844
       380   04 Jun 2027 18:58:37.997   04 Jun 2027 18:59:39.933            61.936               Magadan2          1935.500
       381   04 Jun 2027 18:59:39.933   04 Jun 2027 19:00:03.896            23.963               Magadan1           748.844
       382   04 Jun 2027 19:50:25.220   04 Jun 2027 19:51:00.631            35.411               CapeTown          1106.594
       383   04 Jun 2027 19:54:11.192   04 Jun 2027 19:55:28.905            77.713               CapeTown          2428.531
       384   04 Jun 2027 20:29:24.646   04 Jun 2027 20:31:08.828           104.182                Anadyr1          3255.688
       385   04 Jun 2027 20:31:16.210   04 Jun 2027 20:32:07.428            51.218                Anadyr1          1600.563
       386   04 Jun 2027 20:32:20.752   04 Jun 2027 20:33:37.628            76.876               Magadan1          2402.375
       387   04 Jun 2027 20:33:45.980   04 Jun 2027 20:34:15.788            29.808               Magadan1           931.500
       388   04 Jun 2027 20:34:59.431   04 Jun 2027 20:35:32.519            33.088               Magadan2          1034.000
       389   04 Jun 2027 22:05:19.445   04 Jun 2027 22:07:17.308           117.863                Anadyr2          3683.219
       390   04 Jun 2027 22:07:34.678   04 Jun 2027 22:09:02.220            87.542                Anadyr1          2735.687
       391   04 Jun 2027 22:09:37.753   04 Jun 2027 22:11:39.214           121.461               Magadan2          3795.656
       392   04 Jun 2027 22:11:39.214   04 Jun 2027 22:13:38.086           118.872               Magadan1          3714.750
       393   04 Jun 2027 22:15:27.976   04 Jun 2027 22:16:27.910            59.934                Irkutsk          1872.937
       394   04 Jun 2027 22:59:40.043   04 Jun 2027 23:01:33.462           113.419            RioGallegos          3544.344
       395   04 Jun 2027 23:02:09.279   04 Jun 2027 23:02:45.010            35.731            RioGallegos          1116.594
       396   04 Jun 2027 23:05:31.572   04 Jun 2027 23:05:49.852            18.280            RioGallegos           571.250
       397   04 Jun 2027 23:40:54.421   04 Jun 2027 23:41:40.203            45.782                Anadyr1          1430.687
       398   04 Jun 2027 23:42:04.808   04 Jun 2027 23:42:45.168            40.360                Anadyr1          1261.250
       399   04 Jun 2027 23:43:08.337   04 Jun 2027 23:44:21.958            73.621                Norilsk          2300.656
       400   04 Jun 2027 23:44:36.313   04 Jun 2027 23:44:40.409             4.096               Magadan1           128.000
       401   04 Jun 2027 23:44:48.562   04 Jun 2027 23:44:58.345             9.783               Magadan2           305.719
       402   04 Jun 2027 23:46:27.370   04 Jun 2027 23:46:36.421             9.051                Norilsk           282.844
       403   04 Jun 2027 23:47:03.339   04 Jun 2027 23:47:35.772            32.433               Magadan2          1013.531
       404   04 Jun 2027 23:48:10.993   04 Jun 2027 23:49:15.849            64.856                Irkutsk          2026.750
       405   04 Jun 2027 23:50:48.532   04 Jun 2027 23:52:22.543            94.011                Novosib          2937.844
       406   05 Jun 2027 00:01:00.414   05 Jun 2027 00:03:52.890           172.476                Sumatra          5389.875
       407   05 Jun 2027 00:40:53.430   05 Jun 2027 00:41:05.233            11.803            RioGallegos           368.844
       408   05 Jun 2027 00:42:53.766   05 Jun 2027 00:43:48.185            54.419            RioGallegos          1700.594
       409   05 Jun 2027 01:15:53.441   05 Jun 2027 01:16:12.886            19.445                Anadyr2           607.656
       410   05 Jun 2027 01:16:40.284   05 Jun 2027 01:17:21.201            40.917                Anadyr1          1278.656
       411   05 Jun 2027 01:17:48.286   05 Jun 2027 01:18:19.346            31.060                Anadyr2           970.625
       412   05 Jun 2027 01:19:06.820   05 Jun 2027 01:20:49.614           102.794                Norilsk          3212.312
       413   05 Jun 2027 01:20:55.193   05 Jun 2027 01:21:01.939             6.746               Magadan2           210.813
       414   05 Jun 2027 01:21:22.015   05 Jun 2027 01:21:51.136            29.121               Magadan2           910.031
       415   05 Jun 2027 01:23:00.137   05 Jun 2027 01:24:54.880           114.743                Irkutsk          3585.719
       416   05 Jun 2027 01:27:51.764   05 Jun 2027 01:28:18.223            26.459                Novosib           826.844
       417   05 Jun 2027 01:31:03.803   05 Jun 2027 01:31:12.675             8.872                  Delhi           277.250
       418   05 Jun 2027 01:31:24.054   05 Jun 2027 01:32:03.256            39.202                  Delhi          1225.063
       419   05 Jun 2027 01:39:06.674   05 Jun 2027 01:41:38.582           151.908                Sumatra          4747.125
       420   05 Jun 2027 02:20:42.500   05 Jun 2027 02:21:10.333            27.833            RioGallegos           869.781
       421   05 Jun 2027 02:50:19.053   05 Jun 2027 02:51:07.996            48.943                Anadyr1          1529.469
       422   05 Jun 2027 02:55:00.639   05 Jun 2027 02:55:05.402             4.763                Anadyr2           148.844
       423   05 Jun 2027 02:55:06.355   05 Jun 2027 02:56:05.307            58.952                Norilsk          1842.250
       424   05 Jun 2027 02:56:40.174   05 Jun 2027 02:56:48.720             8.546                Norilsk           267.063
       425   05 Jun 2027 02:57:01.281   05 Jun 2027 02:57:01.426             0.145                Norilsk             4.531
       426   05 Jun 2027 02:57:24.890   05 Jun 2027 02:58:55.786            90.896              Murmansk2          2840.500
       427   05 Jun 2027 02:58:57.538   05 Jun 2027 02:59:16.407            18.869                Novosib           589.656
       428   05 Jun 2027 02:59:40.123   05 Jun 2027 03:00:41.915            61.792                Irkutsk          1931.000
       429   05 Jun 2027 03:00:54.009   05 Jun 2027 03:01:50.273            56.264                Novosib          1758.250
       430   05 Jun 2027 03:01:56.221   05 Jun 2027 03:02:27.122            30.901              Murmansk1           965.656
       431   05 Jun 2027 03:02:41.597   05 Jun 2027 03:03:09.991            28.394              Murmansk1           887.313
       432   05 Jun 2027 03:03:38.933   05 Jun 2027 03:04:37.588            58.655                Norilsk          1832.969
       433   05 Jun 2027 03:04:37.693   05 Jun 2027 03:04:54.399            16.706                 Moscow           522.062
       434   05 Jun 2027 03:05:04.012   05 Jun 2027 03:06:00.503            56.491                 Moscow          1765.344
       435   05 Jun 2027 03:06:14.169   05 Jun 2027 03:06:14.910             0.741                Norilsk            23.156
       436   05 Jun 2027 03:08:39.617   05 Jun 2027 03:11:11.437           151.820                  Delhi          4744.375
       437   05 Jun 2027 04:40:34.230   05 Jun 2027 04:42:26.145           111.915              Murmansk2          3497.344
       438   05 Jun 2027 04:43:28.803   05 Jun 2027 04:44:30.975            62.172                 Moscow          1942.875
       439   05 Jun 2027 04:44:43.062   05 Jun 2027 04:47:16.900           153.838                 Moscow          4807.438
       440   05 Jun 2027 05:00:47.099   05 Jun 2027 05:02:24.463            97.364               CapeTown          3042.625
       441   05 Jun 2027 05:57:08.035   05 Jun 2027 05:59:32.388           144.353                Anadyr1          4511.031
       442   05 Jun 2027 05:59:32.388   05 Jun 2027 05:59:57.278            24.890                Anadyr2           777.813
       443   05 Jun 2027 06:04:24.026   05 Jun 2027 06:05:30.715            66.689               Magadan1          2084.031
       444   05 Jun 2027 06:05:33.152   05 Jun 2027 06:05:48.080            14.928                Anadyr2           466.500
       445   05 Jun 2027 06:17:15.451   05 Jun 2027 06:17:49.995            34.544              Murmansk1          1079.500
       446   05 Jun 2027 06:37:20.567   05 Jun 2027 06:38:14.560            53.993               CapeTown          1687.281
       447   05 Jun 2027 06:41:26.334   05 Jun 2027 06:42:30.946            64.612               CapeTown          2019.125
       448   05 Jun 2027 07:38:05.121   05 Jun 2027 07:38:18.282            13.161                Anadyr1           411.281
       449   05 Jun 2027 07:38:37.585   05 Jun 2027 07:39:06.031            28.446               Magadan1           888.938
       450   05 Jun 2027 07:39:48.815   05 Jun 2027 07:40:14.872            26.057               Magadan2           814.281
       451   05 Jun 2027 07:40:37.498   05 Jun 2027 07:41:10.852            33.354                Anadyr2          1042.313
       452   05 Jun 2027 07:41:23.476   05 Jun 2027 07:41:46.710            23.234               Magadan2           726.063
       453   05 Jun 2027 07:42:07.221   05 Jun 2027 07:42:30.284            23.063               Magadan2           720.719
       454   05 Jun 2027 07:42:40.499   05 Jun 2027 07:43:05.119            24.620               Magadan2           769.375
       455   05 Jun 2027 07:44:22.525   05 Jun 2027 07:44:41.010            18.485                Anadyr2           577.656
       456   05 Jun 2027 08:26:07.596   05 Jun 2027 08:26:23.418            15.822            RioGallegos           494.438
       457   05 Jun 2027 09:14:16.661   05 Jun 2027 09:14:34.970            18.309               Magadan2           572.156
       458   05 Jun 2027 09:15:35.911   05 Jun 2027 09:16:19.729            43.818               Magadan2          1369.312
       459   05 Jun 2027 09:17:45.960   05 Jun 2027 09:17:59.450            13.490               Magadan2           421.563
       460   05 Jun 2027 09:18:21.545   05 Jun 2027 09:18:46.779            25.234               Magadan1           788.562
       461   05 Jun 2027 09:19:02.039   05 Jun 2027 09:19:35.144            33.105               Magadan1          1034.531
       462   05 Jun 2027 09:19:50.483   05 Jun 2027 09:20:22.451            31.968                Anadyr2           999.000
       463   05 Jun 2027 09:57:06.690   05 Jun 2027 09:57:40.413            33.723            RioGallegos          1053.844
       464   05 Jun 2027 09:59:22.932   05 Jun 2027 10:00:13.023            50.091            RioGallegos          1565.344
       465   05 Jun 2027 10:49:59.357   05 Jun 2027 10:53:03.403           184.046               Magadan2          5751.437
       466   05 Jun 2027 10:53:28.579   05 Jun 2027 10:54:21.625            53.046                Irkutsk          1657.688
       467   05 Jun 2027 10:54:32.086   05 Jun 2027 10:55:01.104            29.018               Magadan1           906.813
       468   05 Jun 2027 10:55:02.593   05 Jun 2027 10:55:16.154            13.561                Irkutsk           423.781
       469   05 Jun 2027 10:55:19.112   05 Jun 2027 10:56:31.829            72.717                Novosib          2272.406
       470   05 Jun 2027 10:56:39.580   05 Jun 2027 10:57:33.283            53.703                Novosib          1678.219
       471   05 Jun 2027 11:32:52.220   05 Jun 2027 11:33:04.645            12.425            RioGallegos           388.281
       472   05 Jun 2027 11:35:13.718   05 Jun 2027 11:35:35.476            21.758            RioGallegos           679.938
       473   05 Jun 2027 12:06:56.701   05 Jun 2027 12:07:34.476            37.775                Sumatra          1180.469
       474   05 Jun 2027 12:14:01.051   05 Jun 2027 12:14:55.575            54.524                Sumatra          1703.875
       475   05 Jun 2027 12:20:47.342   05 Jun 2027 12:22:19.968            92.626                Irkutsk          2894.563
       476   05 Jun 2027 12:28:39.473   05 Jun 2027 12:28:52.479            13.006                Norilsk           406.438
       477   05 Jun 2027 12:30:34.823   05 Jun 2027 12:31:04.878            30.055                Norilsk           939.219
       478   05 Jun 2027 12:38:07.838   05 Jun 2027 12:38:24.885            17.047              Murmansk1           532.719
       479   05 Jun 2027 13:11:05.094   05 Jun 2027 13:12:30.682            85.588            RioGallegos          2674.625
       480   05 Jun 2027 13:45:44.924   05 Jun 2027 13:49:58.932           254.008                Sumatra          7937.750
       481   05 Jun 2027 13:58:34.610   05 Jun 2027 13:59:10.665            36.055                Novosib          1126.719
       482   05 Jun 2027 14:01:41.111   05 Jun 2027 14:04:12.186           151.075                Irkutsk          4721.094
