uniorb/output/strategy_4/Drop/Drop_KinoSat_110702.txt

KinoSat_110702
-------------------------
    Access    *     Start Time (UTCG)     *     Stop Time (UTCG)  *   Duration (s)        *       Station  *  Data (Mbytes)
         1   01 Jun 2027 04:10:23.040   01 Jun 2027 04:13:21.893           178.853                Anadyr1          5589.156
         2   01 Jun 2027 04:13:31.568   01 Jun 2027 04:14:53.444            81.876               Magadan2          2558.625
         3   01 Jun 2027 05:45:15.502   01 Jun 2027 05:45:40.724            25.222                Irkutsk           788.187
         4   01 Jun 2027 05:46:09.922   01 Jun 2027 05:47:19.736            69.814               Magadan1          2181.687
         5   01 Jun 2027 05:47:29.728   01 Jun 2027 05:47:38.634             8.906                Novosib           278.312
         6   01 Jun 2027 05:47:46.847   01 Jun 2027 05:49:30.861           104.014               Magadan1          3250.438
         7   01 Jun 2027 05:49:39.095   01 Jun 2027 05:50:23.507            44.412               Magadan2          1387.875
         8   01 Jun 2027 05:50:43.853   01 Jun 2027 05:50:53.210             9.357                Novosib           292.406
         9   01 Jun 2027 06:25:21.413   01 Jun 2027 06:27:33.799           132.386            RioGallegos          4137.063
        10   01 Jun 2027 06:27:49.948   01 Jun 2027 06:28:32.990            43.042            RioGallegos          1345.063
        11   01 Jun 2027 07:01:20.819   01 Jun 2027 07:02:13.707            52.888                Sumatra          1652.750
        12   01 Jun 2027 07:02:24.146   01 Jun 2027 07:02:30.723             6.577                Sumatra           205.531
        13   01 Jun 2027 07:07:32.271   01 Jun 2027 07:08:26.539            54.268                Sumatra          1695.875
        14   01 Jun 2027 07:22:08.622   01 Jun 2027 07:22:13.162             4.540                Novosib           141.875
        15   01 Jun 2027 07:22:31.324   01 Jun 2027 07:22:41.154             9.830                Norilsk           307.187
        16   01 Jun 2027 07:22:49.137   01 Jun 2027 07:24:27.515            98.378                Novosib          3074.313
        17   01 Jun 2027 07:24:39.211   01 Jun 2027 07:24:44.823             5.612                Novosib           175.375
        18   01 Jun 2027 07:24:45.387   01 Jun 2027 07:26:03.897            78.510              Murmansk2          2453.438
        19   01 Jun 2027 07:26:09.793   01 Jun 2027 07:28:11.523           121.730                Norilsk          3804.063
        20   01 Jun 2027 07:28:38.571   01 Jun 2027 07:30:46.145           127.574              Murmansk1          3986.687
        21   01 Jun 2027 07:30:46.145   01 Jun 2027 07:31:03.934            17.789              Murmansk2           555.906
        22   01 Jun 2027 08:02:22.104   01 Jun 2027 08:02:33.806            11.702            RioGallegos           365.687
        23   01 Jun 2027 08:03:26.944   01 Jun 2027 08:04:06.272            39.328            RioGallegos          1229.000
        24   01 Jun 2027 08:05:48.570   01 Jun 2027 08:05:57.680             9.110            RioGallegos           284.687
        25   01 Jun 2027 08:06:11.531   01 Jun 2027 08:07:04.536            53.005            RioGallegos          1656.406
        26   01 Jun 2027 08:36:36.534   01 Jun 2027 08:37:35.291            58.757                Sumatra          1836.156
        27   01 Jun 2027 08:40:03.595   01 Jun 2027 08:41:09.384            65.789                Sumatra          2055.906
        28   01 Jun 2027 08:44:47.718   01 Jun 2027 08:46:32.802           105.084                  Delhi          3283.875
        29   01 Jun 2027 08:47:22.030   01 Jun 2027 08:48:40.297            78.267                  Delhi          2445.844
        30   01 Jun 2027 09:00:56.522   01 Jun 2027 09:01:18.913            22.391                Novosib           699.719
        31   01 Jun 2027 09:01:34.347   01 Jun 2027 09:01:49.634            15.287                Norilsk           477.719
        32   01 Jun 2027 09:01:54.624   01 Jun 2027 09:02:13.277            18.653                Novosib           582.906
        33   01 Jun 2027 09:03:24.451   01 Jun 2027 09:03:32.094             7.643              Murmansk2           238.844
        34   01 Jun 2027 09:03:55.702   01 Jun 2027 09:04:34.525            38.823              Murmansk1          1213.219
        35   01 Jun 2027 09:04:34.525   01 Jun 2027 09:05:17.244            42.719              Murmansk2          1334.969
        36   01 Jun 2027 09:06:00.578   01 Jun 2027 09:06:25.110            24.532              Murmansk1           766.625
        37   01 Jun 2027 09:09:21.379   01 Jun 2027 09:09:26.668             5.289              Murmansk2           165.281
        38   01 Jun 2027 10:21:31.636   01 Jun 2027 10:26:03.965           272.329                  Delhi          8510.281
        39   01 Jun 2027 10:28:40.327   01 Jun 2027 10:29:06.138            25.811                  Delhi           806.594
        40   01 Jun 2027 10:34:35.291   01 Jun 2027 10:36:21.974           106.683                 Moscow          3333.844
        41   01 Jun 2027 10:37:45.640   01 Jun 2027 10:37:48.771             3.131              Murmansk1            97.844
        42   01 Jun 2027 10:37:59.439   01 Jun 2027 10:39:13.959            74.520              Murmansk1          2328.750
        43   01 Jun 2027 10:39:17.922   01 Jun 2027 10:39:24.726             6.804                Norilsk           212.625
        44   01 Jun 2027 10:41:38.915   01 Jun 2027 10:41:53.528            14.613              Murmansk1           456.656
        45   01 Jun 2027 10:42:41.609   01 Jun 2027 10:42:50.894             9.285              Murmansk1           290.156
        46   01 Jun 2027 12:04:52.717   01 Jun 2027 12:07:46.596           173.879                 Moscow          5433.719
        47   01 Jun 2027 12:08:26.483   01 Jun 2027 12:08:47.413            20.930                 Moscow           654.062
        48   01 Jun 2027 12:09:22.444   01 Jun 2027 12:09:28.198             5.754              Murmansk1           179.812
        49   01 Jun 2027 12:09:33.193   01 Jun 2027 12:09:52.273            19.080                 Moscow           596.250
        50   01 Jun 2027 12:10:30.784   01 Jun 2027 12:10:45.572            14.788              Murmansk1           462.125
        51   01 Jun 2027 12:10:55.722   01 Jun 2027 12:11:27.232            31.510              Murmansk1           984.687
        52   01 Jun 2027 12:12:49.512   01 Jun 2027 12:13:13.230            23.718              Murmansk2           741.188
        53   01 Jun 2027 12:15:09.813   01 Jun 2027 12:15:34.436            24.623                Norilsk           769.469
        54   01 Jun 2027 12:24:30.116   01 Jun 2027 12:27:49.794           199.678                Anadyr1          6239.937
        55   01 Jun 2027 12:28:24.679   01 Jun 2027 12:29:07.372            42.693                Anadyr2          1334.156
        56   01 Jun 2027 13:21:06.805   01 Jun 2027 13:21:35.543            28.738               CapeTown           898.062
        57   01 Jun 2027 13:50:13.883   01 Jun 2027 13:50:27.845            13.962              Murmansk2           436.312
        58   01 Jun 2027 13:50:49.643   01 Jun 2027 13:50:58.313             8.670              Murmansk1           270.937
        59   01 Jun 2027 13:51:39.493   01 Jun 2027 13:52:03.460            23.967              Murmansk1           748.969
        60   01 Jun 2027 13:55:08.115   01 Jun 2027 13:55:49.283            41.168              Murmansk1          1286.500
        61   01 Jun 2027 13:58:58.977   01 Jun 2027 14:02:15.400           196.423                Anadyr2          6138.219
        62   01 Jun 2027 14:05:37.081   01 Jun 2027 14:06:51.889            74.808                Anadyr1          2337.750
        63   01 Jun 2027 15:30:26.888   01 Jun 2027 15:30:35.823             8.935              Murmansk2           279.219
        64   01 Jun 2027 15:34:45.295   01 Jun 2027 15:36:07.918            82.623                Anadyr1          2581.969
        65   01 Jun 2027 15:37:28.664   01 Jun 2027 15:37:59.412            30.748                Anadyr1           960.875
        66   01 Jun 2027 15:38:00.632   01 Jun 2027 15:40:18.326           137.694               Magadan2          4302.937
        67   01 Jun 2027 15:40:31.162   01 Jun 2027 15:41:29.828            58.666               Magadan1          1833.313
        68   01 Jun 2027 15:43:09.018   01 Jun 2027 15:43:37.330            28.312               Magadan1           884.750
        69   01 Jun 2027 15:45:18.824   01 Jun 2027 15:46:54.088            95.264               Magadan1          2977.000
        70   01 Jun 2027 17:12:35.041   01 Jun 2027 17:13:02.540            27.499                Anadyr2           859.344
        71   01 Jun 2027 17:13:31.943   01 Jun 2027 17:14:27.833            55.890               Magadan1          1746.562
        72   01 Jun 2027 17:16:32.781   01 Jun 2027 17:16:37.420             4.639               Magadan1           144.969
        73   01 Jun 2027 17:18:24.846   01 Jun 2027 17:18:56.283            31.437               Magadan2           982.406
        74   01 Jun 2027 17:20:31.223   01 Jun 2027 17:21:20.155            48.932               Magadan1          1529.125
        75   01 Jun 2027 17:22:24.731   01 Jun 2027 17:22:32.755             8.024               Magadan1           250.750
        76   01 Jun 2027 17:24:28.083   01 Jun 2027 17:25:32.284            64.201               Magadan1          2006.281
        77   01 Jun 2027 18:05:41.786   01 Jun 2027 18:08:05.780           143.994            RioGallegos          4499.812
        78   01 Jun 2027 18:10:16.630   01 Jun 2027 18:12:19.357           122.727            RioGallegos          3835.219
        79   01 Jun 2027 18:49:16.592   01 Jun 2027 18:52:48.324           211.732                Norilsk          6616.625
        80   01 Jun 2027 18:53:44.067   01 Jun 2027 18:54:38.591            54.524                Irkutsk          1703.875
        81   01 Jun 2027 18:56:00.942   01 Jun 2027 18:56:50.265            49.323                Irkutsk          1541.344
        82   01 Jun 2027 19:02:27.650   01 Jun 2027 19:03:22.284            54.634                Irkutsk          1707.313
        83   01 Jun 2027 19:07:06.512   01 Jun 2027 19:08:21.190            74.678                Sumatra          2333.687
        84   01 Jun 2027 19:10:25.436   01 Jun 2027 19:10:33.037             7.601                Sumatra           237.531
        85   01 Jun 2027 19:11:02.306   01 Jun 2027 19:11:43.643            41.337                Sumatra          1291.781
        86   01 Jun 2027 19:12:19.173   01 Jun 2027 19:13:56.731            97.558                Sumatra          3048.687
        87   01 Jun 2027 20:29:48.209   01 Jun 2027 20:30:09.194            20.985                Novosib           655.781
        88   01 Jun 2027 20:30:38.250   01 Jun 2027 20:31:16.850            38.600                Novosib          1206.250
        89   01 Jun 2027 20:34:25.010   01 Jun 2027 20:34:26.136             1.126                Novosib            35.188
        90   01 Jun 2027 20:35:09.771   01 Jun 2027 20:36:30.867            81.096                Novosib          2534.250
        91   01 Jun 2027 20:38:03.084   01 Jun 2027 20:42:08.471           245.387                  Delhi          7668.344
        92   01 Jun 2027 22:03:00.827   01 Jun 2027 22:08:48.864           348.037              Murmansk2         10876.156
        93   01 Jun 2027 23:34:05.640   01 Jun 2027 23:34:38.886            33.246               Magadan1          1038.938
        94   01 Jun 2027 23:35:13.294   01 Jun 2027 23:36:00.000            46.705               Magadan1          1459.531
        95   01 Jun 2027 23:38:35.256   01 Jun 2027 23:40:16.172           100.916              Murmansk1          3153.625
        96   01 Jun 2027 23:41:48.792   01 Jun 2027 23:42:52.841            64.049              Murmansk1          2001.531
        97   01 Jun 2027 23:43:09.292   01 Jun 2027 23:44:00.090            50.798                 Moscow          1587.438
        98   01 Jun 2027 23:45:09.672   01 Jun 2027 23:46:10.724            61.052                 Moscow          1907.875
        99   01 Jun 2027 23:49:35.457   01 Jun 2027 23:50:14.615            39.158                 Moscow          1223.688
       100   01 Jun 2027 23:52:32.390   01 Jun 2027 23:52:34.481             2.091                 Moscow            65.344
       101   02 Jun 2027 00:07:03.597   02 Jun 2027 00:09:50.664           167.067               CapeTown          5220.844
       102   02 Jun 2027 00:12:14.482   02 Jun 2027 00:12:40.074            25.592               CapeTown           799.750
       103   02 Jun 2027 01:06:48.113   02 Jun 2027 01:08:22.171            94.058               Magadan2          2939.312
       104   02 Jun 2027 01:14:32.498   02 Jun 2027 01:15:44.388            71.890              Murmansk2          2246.562
       105   02 Jun 2027 01:17:39.869   02 Jun 2027 01:17:47.874             8.005              Murmansk1           250.156
       106   02 Jun 2027 01:17:53.822   02 Jun 2027 01:19:01.323            67.501                 Moscow          2109.406
       107   02 Jun 2027 01:24:51.719   02 Jun 2027 01:26:27.243            95.524                 Moscow          2985.125
       108   02 Jun 2027 01:50:15.695   02 Jun 2027 01:50:34.199            18.504               CapeTown           578.250
       109   02 Jun 2027 01:54:07.104   02 Jun 2027 01:54:10.400             3.296               CapeTown           103.000
       110   02 Jun 2027 02:38:35.774   02 Jun 2027 02:40:41.149           125.375                Anadyr2          3917.969
       111   02 Jun 2027 02:40:49.295   02 Jun 2027 02:41:43.746            54.451               Magadan1          1701.594
       112   02 Jun 2027 02:42:28.900   02 Jun 2027 02:42:32.258             3.358               Magadan1           104.938
       113   02 Jun 2027 02:44:08.598   02 Jun 2027 02:44:14.341             5.743               Magadan2           179.469
       114   02 Jun 2027 02:44:25.241   02 Jun 2027 02:44:32.493             7.252               Magadan1           226.625
       115   02 Jun 2027 02:45:20.819   02 Jun 2027 02:45:40.376            19.557               Magadan2           611.156
       116   02 Jun 2027 02:46:38.189   02 Jun 2027 02:47:11.072            32.883                Norilsk          1027.594
       117   02 Jun 2027 02:50:27.062   02 Jun 2027 02:51:05.386            38.324              Murmansk2          1197.625
       118   02 Jun 2027 02:51:05.386   02 Jun 2027 02:51:39.413            34.027              Murmansk1          1063.344
       119   02 Jun 2027 02:53:35.064   02 Jun 2027 02:53:41.164             6.100              Murmansk1           190.625
       120   02 Jun 2027 02:53:48.662   02 Jun 2027 02:53:48.747             0.085              Murmansk1             2.656
       121   02 Jun 2027 02:54:02.257   02 Jun 2027 02:54:57.181            54.924                 Moscow          1716.375
       122   02 Jun 2027 02:57:50.881   02 Jun 2027 02:57:54.996             4.115                 Moscow           128.594
       123   02 Jun 2027 02:58:38.577   02 Jun 2027 02:59:17.812            39.235                 Moscow          1226.094
       124   02 Jun 2027 04:21:13.210   02 Jun 2027 04:22:15.195            61.985                Irkutsk          1937.031
       125   02 Jun 2027 04:23:36.578   02 Jun 2027 04:25:50.379           133.801                Norilsk          4181.281
       126   02 Jun 2027 04:25:57.072   02 Jun 2027 04:26:10.180            13.108               Magadan1           409.625
       127   02 Jun 2027 04:26:13.092   02 Jun 2027 04:26:24.481            11.389                Anadyr1           355.906
       128   02 Jun 2027 05:03:26.301   02 Jun 2027 05:06:31.039           184.738            RioGallegos          5773.063
       129   02 Jun 2027 05:57:19.736   02 Jun 2027 05:58:01.291            41.555                Irkutsk          1298.594
       130   02 Jun 2027 05:58:16.969   02 Jun 2027 05:58:30.408            13.439                Irkutsk           419.969
       131   02 Jun 2027 05:58:34.128   02 Jun 2027 05:59:08.588            34.460                Irkutsk          1076.875
       132   02 Jun 2027 06:00:04.295   02 Jun 2027 06:01:31.012            86.717               Magadan2          2709.906
       133   02 Jun 2027 06:01:48.586   02 Jun 2027 06:02:29.598            41.012                Irkutsk          1281.625
       134   02 Jun 2027 07:14:16.787   02 Jun 2027 07:16:31.063           134.276                Sumatra          4196.125
       135   02 Jun 2027 07:35:26.973   02 Jun 2027 07:38:15.605           168.632                Irkutsk          5269.750
       136   02 Jun 2027 07:38:26.749   02 Jun 2027 07:39:16.479            49.730                Novosib          1554.062
       137   02 Jun 2027 08:49:02.373   02 Jun 2027 08:49:29.288            26.915                Sumatra           841.094
       138   02 Jun 2027 09:14:04.083   02 Jun 2027 09:14:17.317            13.234                Norilsk           413.562
       139   02 Jun 2027 09:14:30.613   02 Jun 2027 09:14:59.877            29.264                Novosib           914.500
       140   02 Jun 2027 10:34:12.393   02 Jun 2027 10:36:49.852           157.459                  Delhi          4920.594
       141   02 Jun 2027 10:46:57.684   02 Jun 2027 10:47:07.112             9.428              Murmansk2           294.625
       142   02 Jun 2027 10:47:12.554   02 Jun 2027 10:47:15.438             2.884                Novosib            90.125
       143   02 Jun 2027 10:47:32.152   02 Jun 2027 10:48:28.056            55.904                Norilsk          1747.000
       144   02 Jun 2027 10:49:19.633   02 Jun 2027 10:50:22.246            62.613                Novosib          1956.656
       145   02 Jun 2027 10:54:00.656   02 Jun 2027 10:54:28.744            28.088                Norilsk           877.750
       146   02 Jun 2027 12:20:33.525   02 Jun 2027 12:21:29.499            55.974              Murmansk1          1749.187
       147   02 Jun 2027 12:22:39.938   02 Jun 2027 12:25:30.236           170.298              Murmansk2          5321.813
       148   02 Jun 2027 12:36:04.708   02 Jun 2027 12:39:41.969           217.261                Anadyr1          6789.406
       149   02 Jun 2027 12:40:45.462   02 Jun 2027 12:42:11.697            86.235                Anadyr2          2694.844
       150   02 Jun 2027 13:58:45.619   02 Jun 2027 13:59:19.367            33.748              Murmansk2          1054.625
       151   02 Jun 2027 13:59:27.191   02 Jun 2027 14:00:40.809            73.618              Murmansk1          2300.562
       152   02 Jun 2027 14:02:29.638   02 Jun 2027 14:02:49.825            20.187              Murmansk2           630.844
       153   02 Jun 2027 14:07:04.305   02 Jun 2027 14:07:42.130            37.825              Murmansk1          1182.031
       154   02 Jun 2027 14:10:57.604   02 Jun 2027 14:13:06.056           128.452                Anadyr2          4014.125
       155   02 Jun 2027 14:14:16.329   02 Jun 2027 14:15:10.382            54.053                Anadyr2          1689.156
       156   02 Jun 2027 14:19:31.467   02 Jun 2027 14:20:58.350            86.883                Anadyr2          2715.094
       157   02 Jun 2027 15:40:08.324   02 Jun 2027 15:42:17.461           129.137              Murmansk1          4035.531
       158   02 Jun 2027 15:46:46.523   02 Jun 2027 15:48:08.122            81.599                Anadyr1          2549.969
       159   02 Jun 2027 15:48:55.806   02 Jun 2027 15:49:57.199            61.393                Anadyr2          1918.531
       160   02 Jun 2027 15:50:31.713   02 Jun 2027 15:52:33.704           121.991               Magadan1          3812.219
       161   02 Jun 2027 15:52:33.704   02 Jun 2027 15:53:27.692            53.988               Magadan2          1687.125
       162   02 Jun 2027 15:54:56.312   02 Jun 2027 15:55:56.229            59.917               Magadan2          1872.406
       163   02 Jun 2027 15:58:33.733   02 Jun 2027 15:58:44.477            10.744               Magadan2           335.750
       164   02 Jun 2027 17:22:41.379   02 Jun 2027 17:23:03.964            22.585                Anadyr2           705.781
       165   02 Jun 2027 17:23:22.896   02 Jun 2027 17:24:02.050            39.154                Anadyr2          1223.563
       166   02 Jun 2027 17:24:58.419   02 Jun 2027 17:26:58.725           120.306               Magadan1          3759.562
       167   02 Jun 2027 17:28:03.081   02 Jun 2027 17:28:15.191            12.110                Norilsk           378.438
       168   02 Jun 2027 18:17:23.752   02 Jun 2027 18:20:06.655           162.903            RioGallegos          5090.719
       169   02 Jun 2027 18:20:36.254   02 Jun 2027 18:23:39.086           182.832            RioGallegos          5713.500
       170   02 Jun 2027 19:02:07.204   02 Jun 2027 19:04:27.628           140.424                Norilsk          4388.250
       171   02 Jun 2027 19:04:51.430   02 Jun 2027 19:05:45.005            53.575                Irkutsk          1674.219
       172   02 Jun 2027 19:06:45.859   02 Jun 2027 19:07:51.910            66.051                Irkutsk          2064.094
       173   02 Jun 2027 19:08:03.915   02 Jun 2027 19:09:52.898           108.983                Novosib          3405.719
       174   02 Jun 2027 19:18:44.215   02 Jun 2027 19:20:10.885            86.670                Sumatra          2708.437
       175   02 Jun 2027 19:22:30.484   02 Jun 2027 19:23:47.451            76.967                Sumatra          2405.219
       176   02 Jun 2027 20:40:34.581   02 Jun 2027 20:41:35.721            61.140                Novosib          1910.625
       177   02 Jun 2027 20:47:01.435   02 Jun 2027 20:47:39.609            38.174                Novosib          1192.937
       178   02 Jun 2027 20:47:57.545   02 Jun 2027 20:48:44.742            47.197                Novosib          1474.906
       179   02 Jun 2027 20:49:22.999   02 Jun 2027 20:51:36.999           134.000                  Delhi          4187.500
       180   02 Jun 2027 20:52:43.485   02 Jun 2027 20:53:52.377            68.892                  Delhi          2152.875
       181   02 Jun 2027 22:14:55.843   02 Jun 2027 22:19:02.746           246.903              Murmansk1          7715.719
       182   02 Jun 2027 22:19:03.552   02 Jun 2027 22:20:36.905            93.353              Murmansk2          2917.281
       183   02 Jun 2027 22:21:21.517   02 Jun 2027 22:25:12.041           230.524                 Moscow          7203.875
       184   02 Jun 2027 23:50:36.327   02 Jun 2027 23:50:45.240             8.913              Murmansk1           278.531
       185   02 Jun 2027 23:50:51.501   02 Jun 2027 23:51:51.987            60.486              Murmansk2          1890.188
       186   02 Jun 2027 23:52:36.478   02 Jun 2027 23:52:51.953            15.475              Murmansk2           483.594
       187   02 Jun 2027 23:54:02.113   02 Jun 2027 23:55:09.913            67.800                 Moscow          2118.750
       188   02 Jun 2027 23:56:15.616   02 Jun 2027 23:57:31.248            75.632                 Moscow          2363.500
       189   03 Jun 2027 00:18:37.616   03 Jun 2027 00:22:06.618           209.002               CapeTown          6531.313
       190   03 Jun 2027 01:24:58.000   03 Jun 2027 01:25:37.939            39.939               Magadan2          1248.094
       191   03 Jun 2027 01:26:34.116   03 Jun 2027 01:28:53.320           139.204              Murmansk2          4350.125
       192   03 Jun 2027 01:34:11.073   03 Jun 2027 01:34:15.070             3.997                 Moscow           124.906
       193   03 Jun 2027 01:34:17.856   03 Jun 2027 01:34:48.082            30.226                 Moscow           944.563
       194   03 Jun 2027 01:42:24.084   03 Jun 2027 01:42:25.240             1.156                 Moscow            36.125
       195   03 Jun 2027 01:54:08.424   03 Jun 2027 01:55:05.337            56.913               CapeTown          1778.531
       196   03 Jun 2027 01:59:00.928   03 Jun 2027 01:59:06.894             5.966               CapeTown           186.438
       197   03 Jun 2027 02:02:14.491   03 Jun 2027 02:03:33.390            78.899               CapeTown          2465.594
       198   03 Jun 2027 02:50:37.560   03 Jun 2027 02:53:22.016           164.456               Magadan2          5139.250
       199   03 Jun 2027 02:58:44.331   03 Jun 2027 02:58:50.791             6.460                Norilsk           201.875
       200   03 Jun 2027 02:59:08.969   03 Jun 2027 02:59:23.003            14.034                Norilsk           438.563
       201   03 Jun 2027 04:34:11.848   03 Jun 2027 04:35:12.195            60.347                Irkutsk          1885.844
       202   03 Jun 2027 04:35:56.643   03 Jun 2027 04:36:54.226            57.583                Irkutsk          1799.469
       203   03 Jun 2027 05:15:00.599   03 Jun 2027 05:17:03.784           123.185            RioGallegos          3849.531
       204   03 Jun 2027 06:09:23.220   03 Jun 2027 06:10:32.551            69.331                Irkutsk          2166.594
       205   03 Jun 2027 06:11:09.280   03 Jun 2027 06:11:38.623            29.343                Novosib           916.969
       206   03 Jun 2027 06:12:06.224   03 Jun 2027 06:13:09.148            62.924               Magadan1          1966.375
       207   03 Jun 2027 06:13:13.675   03 Jun 2027 06:13:49.222            35.547               Magadan2          1110.844
       208   03 Jun 2027 06:14:03.395   03 Jun 2027 06:14:06.813             3.418               Magadan2           106.813
       209   03 Jun 2027 06:18:46.723   03 Jun 2027 06:18:49.747             3.024                Norilsk            94.500
       210   03 Jun 2027 06:21:55.291   03 Jun 2027 06:22:28.459            33.168              Murmansk2          1036.500
       211   03 Jun 2027 07:46:01.431   03 Jun 2027 07:46:27.889            26.458                Irkutsk           826.812
       212   03 Jun 2027 07:46:29.879   03 Jun 2027 07:46:53.707            23.828                Novosib           744.625
       213   03 Jun 2027 07:47:08.136   03 Jun 2027 07:47:31.596            23.460              Murmansk2           733.125
       214   03 Jun 2027 07:47:51.986   03 Jun 2027 07:48:31.903            39.917                Irkutsk          1247.406
       215   03 Jun 2027 07:48:45.783   03 Jun 2027 07:48:54.793             9.010                Irkutsk           281.563
       216   03 Jun 2027 07:49:43.099   03 Jun 2027 07:49:56.379            13.280                Norilsk           415.000
       217   03 Jun 2027 07:51:11.616   03 Jun 2027 07:51:13.183             1.567              Murmansk2            48.969
       218   03 Jun 2027 07:51:30.417   03 Jun 2027 07:52:07.425            37.008              Murmansk1          1156.500
       219   03 Jun 2027 08:27:25.734   03 Jun 2027 08:27:46.385            20.651            RioGallegos           645.344
       220   03 Jun 2027 08:28:04.753   03 Jun 2027 08:28:18.719            13.966            RioGallegos           436.437
       221   03 Jun 2027 08:29:46.372   03 Jun 2027 08:30:27.595            41.223            RioGallegos          1288.219
       222   03 Jun 2027 09:04:38.013   03 Jun 2027 09:05:29.905            51.892                Sumatra          1621.625
       223   03 Jun 2027 09:22:21.854   03 Jun 2027 09:22:28.817             6.963                Novosib           217.594
       224   03 Jun 2027 09:22:48.676   03 Jun 2027 09:23:32.851            44.175              Murmansk1          1380.469
       225   03 Jun 2027 09:23:55.406   03 Jun 2027 09:24:45.456            50.050                Novosib          1564.063
       226   03 Jun 2027 09:25:12.598   03 Jun 2027 09:25:21.989             9.391                Novosib           293.469
       227   03 Jun 2027 09:25:32.606   03 Jun 2027 09:25:33.574             0.968                Norilsk            30.250
       228   03 Jun 2027 09:26:17.905   03 Jun 2027 09:26:30.127            12.222                Novosib           381.937
       229   03 Jun 2027 10:47:08.953   03 Jun 2027 10:50:04.509           175.556                  Delhi          5486.125
       230   03 Jun 2027 10:59:26.278   03 Jun 2027 10:59:45.074            18.796                Novosib           587.375
       231   03 Jun 2027 11:04:56.596   03 Jun 2027 11:04:56.704             0.108                Norilsk             3.375
       232   03 Jun 2027 12:30:04.697   03 Jun 2027 12:30:26.568            21.871                 Moscow           683.469
       233   03 Jun 2027 12:30:59.542   03 Jun 2027 12:31:55.400            55.858                 Moscow          1745.562
       234   03 Jun 2027 12:32:44.463   03 Jun 2027 12:32:59.155            14.692                 Moscow           459.125
       235   03 Jun 2027 12:33:17.300   03 Jun 2027 12:35:34.437           137.137              Murmansk1          4285.531
       236   03 Jun 2027 12:35:40.292   03 Jun 2027 12:36:14.379            34.087              Murmansk2          1065.219
       237   03 Jun 2027 12:36:52.482   03 Jun 2027 12:37:17.975            25.493              Murmansk2           796.656
       238   03 Jun 2027 12:37:44.305   03 Jun 2027 12:37:45.910             1.605              Murmansk2            50.156
       239   03 Jun 2027 12:37:56.002   03 Jun 2027 12:38:34.528            38.526              Murmansk1          1203.937
       240   03 Jun 2027 12:47:48.495   03 Jun 2027 12:55:04.316           435.821                Anadyr1         13619.406
       241   03 Jun 2027 14:22:56.847   03 Jun 2027 14:26:17.041           200.194                Anadyr1          6256.063
       242   03 Jun 2027 14:28:05.872   03 Jun 2027 14:30:29.109           143.237               Magadan2          4476.156
       243   03 Jun 2027 15:58:47.837   03 Jun 2027 16:00:48.409           120.572                Anadyr1          3767.875
       244   03 Jun 2027 16:01:19.739   03 Jun 2027 16:04:36.342           196.603               Magadan1          6143.844
       245   03 Jun 2027 16:06:41.559   03 Jun 2027 16:06:58.584            17.025               Magadan1           532.031
       246   03 Jun 2027 16:09:23.178   03 Jun 2027 16:09:33.194            10.016               Magadan2           313.000
       247   03 Jun 2027 16:09:46.477   03 Jun 2027 16:09:52.628             6.151               Magadan2           192.219
       248   03 Jun 2027 17:34:41.989   03 Jun 2027 17:36:03.427            81.438                Anadyr2          2544.937
       249   03 Jun 2027 17:36:40.900   03 Jun 2027 17:36:59.219            18.319                Anadyr1           572.469
       250   03 Jun 2027 17:36:59.557   03 Jun 2027 17:38:48.155           108.598               Magadan1          3393.688
       251   03 Jun 2027 17:40:19.367   03 Jun 2027 17:40:23.906             4.539               Magadan2           141.844
       252   03 Jun 2027 17:40:41.807   03 Jun 2027 17:40:45.929             4.122               Magadan1           128.812
       253   03 Jun 2027 17:41:10.220   03 Jun 2027 17:41:37.192            26.972                Norilsk           842.875
       254   03 Jun 2027 17:46:14.033   03 Jun 2027 17:48:12.738           118.705               Magadan2          3709.531
       255   03 Jun 2027 18:29:10.309   03 Jun 2027 18:30:46.407            96.098            RioGallegos          3003.063
       256   03 Jun 2027 18:32:08.449   03 Jun 2027 18:33:00.137            51.688            RioGallegos          1615.250
       257   03 Jun 2027 18:39:26.212   03 Jun 2027 18:39:51.767            25.555            RioGallegos           798.594
       258   03 Jun 2027 19:12:34.037   03 Jun 2027 19:13:54.811            80.774                Norilsk          2524.187
       259   03 Jun 2027 19:16:44.378   03 Jun 2027 19:20:06.575           202.197                Irkutsk          6318.656
       260   03 Jun 2027 19:20:08.887   03 Jun 2027 19:23:59.036           230.149                Novosib          7192.156
       261   03 Jun 2027 19:31:54.200   03 Jun 2027 19:33:11.542            77.342                Sumatra          2416.938
       262   03 Jun 2027 19:42:40.260   03 Jun 2027 19:42:54.825            14.565                Sumatra           455.156
       263   03 Jun 2027 20:53:48.951   03 Jun 2027 20:54:35.587            46.636                Novosib          1457.375
       264   03 Jun 2027 20:56:12.177   03 Jun 2027 20:56:40.232            28.055                Novosib           876.719
       265   03 Jun 2027 20:57:39.658   03 Jun 2027 20:58:57.121            77.463                Novosib          2420.719
       266   03 Jun 2027 21:00:17.581   03 Jun 2027 21:03:53.004           215.423                  Delhi          6731.969
       267   03 Jun 2027 21:05:54.740   03 Jun 2027 21:06:38.202            43.462                  Delhi          1358.187
       268   03 Jun 2027 22:26:52.527   03 Jun 2027 22:31:02.288           249.761              Murmansk2          7805.031
       269   03 Jun 2027 22:31:42.861   03 Jun 2027 22:36:27.133           284.272                 Moscow          8883.500
       270   03 Jun 2027 22:38:12.253   03 Jun 2027 22:38:26.646            14.393                 Moscow           449.781
       271   04 Jun 2027 00:03:37.872   04 Jun 2027 00:03:59.991            22.119              Murmansk1           691.219
       272   04 Jun 2027 00:05:59.159   04 Jun 2027 00:07:53.757           114.598                 Moscow          3581.188
       273   04 Jun 2027 00:10:09.771   04 Jun 2027 00:11:53.048           103.277                 Moscow          3227.406
       274   04 Jun 2027 00:30:17.667   04 Jun 2027 00:31:58.120           100.453               CapeTown          3139.156
       275   04 Jun 2027 00:34:02.817   04 Jun 2027 00:34:36.243            33.426               CapeTown          1044.562
       276   04 Jun 2027 01:31:26.878   04 Jun 2027 01:32:02.369            35.491               Magadan1          1109.094
       277   04 Jun 2027 01:38:35.657   04 Jun 2027 01:39:43.347            67.690              Murmansk1          2115.313
       278   04 Jun 2027 01:40:48.983   04 Jun 2027 01:41:33.188            44.205              Murmansk2          1381.406
       279   04 Jun 2027 01:41:33.188   04 Jun 2027 01:41:56.618            23.430              Murmansk1           732.188
       280   04 Jun 2027 01:41:59.721   04 Jun 2027 01:42:17.918            18.197                 Moscow           568.656
       281   04 Jun 2027 01:45:11.592   04 Jun 2027 01:46:05.528            53.936                 Moscow          1685.500
       282   04 Jun 2027 01:52:42.599   04 Jun 2027 01:53:57.268            74.669                 Moscow          2333.406
       283   04 Jun 2027 02:14:10.357   04 Jun 2027 02:14:50.483            40.126               CapeTown          1253.938
       284   04 Jun 2027 03:02:27.979   04 Jun 2027 03:02:34.616             6.637               Magadan1           207.406
       285   04 Jun 2027 03:02:34.616   04 Jun 2027 03:04:20.360           105.744               Magadan2          3304.500
       286   04 Jun 2027 03:07:42.156   04 Jun 2027 03:12:11.291           269.135               Magadan2          8410.469
       287   04 Jun 2027 03:12:11.291   04 Jun 2027 03:13:56.484           105.193               Magadan1          3287.281
       288   04 Jun 2027 04:46:49.982   04 Jun 2027 04:47:13.368            23.386                Anadyr2           730.813
       289   04 Jun 2027 04:47:42.779   04 Jun 2027 04:50:02.844           140.065               Magadan1          4377.031
       290   04 Jun 2027 04:50:27.289   04 Jun 2027 04:50:41.463            14.174                Anadyr1           442.938
       291   04 Jun 2027 06:21:33.049   04 Jun 2027 06:21:41.679             8.630               Magadan1           269.687
       292   04 Jun 2027 06:22:16.236   04 Jun 2027 06:22:25.815             9.579               Magadan2           299.344
       293   04 Jun 2027 06:22:43.850   04 Jun 2027 06:23:42.985            59.135                Novosib          1847.969
       294   04 Jun 2027 06:24:08.632   04 Jun 2027 06:24:18.837            10.205               Magadan1           318.906
       295   04 Jun 2027 06:24:45.259   04 Jun 2027 06:24:51.396             6.137              Murmansk2           191.781
       296   04 Jun 2027 06:24:53.341   04 Jun 2027 06:25:01.562             8.221               Magadan1           256.906
       297   04 Jun 2027 06:25:03.181   04 Jun 2027 06:25:52.554            49.373               Magadan1          1542.906
       298   04 Jun 2027 06:28:12.547   04 Jun 2027 06:28:24.643            12.096              Murmansk2           378.000
       299   04 Jun 2027 07:57:02.044   04 Jun 2027 07:57:21.880            19.836                Irkutsk           619.875
       300   04 Jun 2027 07:58:25.279   04 Jun 2027 07:58:28.449             3.170                Irkutsk            99.063
       301   04 Jun 2027 07:58:55.185   04 Jun 2027 07:59:55.205            60.020                Novosib          1875.625
       302   04 Jun 2027 08:00:07.404   04 Jun 2027 08:00:39.648            32.244                Irkutsk          1007.625
       303   04 Jun 2027 08:00:42.889   04 Jun 2027 08:01:28.383            45.494                Irkutsk          1421.687
       304   04 Jun 2027 08:01:32.729   04 Jun 2027 08:02:15.989            43.260                Irkutsk          1351.875
       305   04 Jun 2027 08:03:29.832   04 Jun 2027 08:03:48.793            18.961              Murmansk1           592.531
       306   04 Jun 2027 08:40:08.407   04 Jun 2027 08:40:17.562             9.155            RioGallegos           286.094
       307   04 Jun 2027 08:41:28.539   04 Jun 2027 08:42:46.063            77.524            RioGallegos          2422.625
       308   04 Jun 2027 09:14:33.245   04 Jun 2027 09:15:42.772            69.527                Sumatra          2172.719
       309   04 Jun 2027 09:34:22.147   04 Jun 2027 09:35:13.464            51.317                Novosib          1603.656
       310   04 Jun 2027 09:35:20.585   04 Jun 2027 09:35:28.841             8.256              Murmansk1           258.000
       311   04 Jun 2027 09:35:55.129   04 Jun 2027 09:36:55.583            60.454                Novosib          1889.187
       312   04 Jun 2027 09:37:30.321   04 Jun 2027 09:37:38.814             8.493                Norilsk           265.406
       313   04 Jun 2027 09:37:40.104   04 Jun 2027 09:37:55.449            15.345                Novosib           479.531
       314   04 Jun 2027 09:38:00.773   04 Jun 2027 09:38:10.297             9.524                Novosib           297.625
       315   04 Jun 2027 11:00:37.269   04 Jun 2027 11:02:33.954           116.685                  Delhi          3646.406
       316   04 Jun 2027 11:02:49.705   04 Jun 2027 11:03:21.279            31.574                  Delhi           986.687
       317   04 Jun 2027 11:15:17.796   04 Jun 2027 11:15:20.837             3.041                Norilsk            95.031
       318   04 Jun 2027 12:41:36.243   04 Jun 2027 12:42:06.530            30.287                 Moscow           946.469
       319   04 Jun 2027 12:43:06.334   04 Jun 2027 12:43:50.505            44.171                 Moscow          1380.344
       320   04 Jun 2027 12:44:08.056   04 Jun 2027 12:44:23.683            15.627                 Moscow           488.344
       321   04 Jun 2027 12:44:51.927   04 Jun 2027 12:45:24.633            32.706                 Moscow          1022.062
       322   04 Jun 2027 12:45:44.918   04 Jun 2027 12:46:29.056            44.138                 Moscow          1379.312
       323   04 Jun 2027 12:46:41.084   04 Jun 2027 12:48:47.597           126.513              Murmansk1          3953.531
       324   04 Jun 2027 12:59:37.233   04 Jun 2027 13:02:37.843           180.610                Anadyr1          5644.062
       325   04 Jun 2027 13:57:47.699   04 Jun 2027 13:58:47.915            60.216               CapeTown          1881.750
       326   04 Jun 2027 14:23:45.859   04 Jun 2027 14:24:43.678            57.819              Murmansk1          1806.844
       327   04 Jun 2027 14:25:12.327   04 Jun 2027 14:26:33.253            80.926              Murmansk2          2528.938
       328   04 Jun 2027 14:34:56.594   04 Jun 2027 14:36:30.201            93.607                Anadyr2          2925.219
       329   04 Jun 2027 14:36:34.983   04 Jun 2027 14:38:17.507           102.524                Anadyr1          3203.875
       330   04 Jun 2027 14:39:07.472   04 Jun 2027 14:44:25.777           318.305               Magadan2          9947.031
       331   04 Jun 2027 16:10:49.188   04 Jun 2027 16:11:05.910            16.722                Anadyr2           522.562
       332   04 Jun 2027 16:13:16.522   04 Jun 2027 16:16:39.041           202.519               Magadan1          6328.719
       333   04 Jun 2027 16:21:25.590   04 Jun 2027 16:21:47.393            21.803               Magadan1           681.344
       334   04 Jun 2027 17:46:42.329   04 Jun 2027 17:48:01.467            79.138                Anadyr1          2473.063
       335   04 Jun 2027 17:48:28.160   04 Jun 2027 17:48:58.402            30.242                Anadyr1           945.062
       336   04 Jun 2027 17:49:01.006   04 Jun 2027 17:50:23.646            82.640               Magadan1          2582.500
       337   04 Jun 2027 17:50:35.485   04 Jun 2027 17:52:19.188           103.703               Magadan2          3240.719
       338   04 Jun 2027 17:53:06.139   04 Jun 2027 17:54:34.430            88.291                Norilsk          2759.094
       339   04 Jun 2027 17:55:39.561   04 Jun 2027 17:57:55.902           136.341                Irkutsk          4260.656
       340   04 Jun 2027 18:42:53.422   04 Jun 2027 18:44:09.055            75.633            RioGallegos          2363.531
       341   04 Jun 2027 19:25:04.735   04 Jun 2027 19:25:34.482            29.747               Magadan2           929.594
       342   04 Jun 2027 19:25:34.482   04 Jun 2027 19:26:13.904            39.422               Magadan1          1231.938
       343   04 Jun 2027 19:29:10.960   04 Jun 2027 19:29:46.098            35.138                Irkutsk          1098.063
       344   04 Jun 2027 19:30:05.801   04 Jun 2027 19:37:08.614           422.813                Novosib         13212.906
       345   04 Jun 2027 19:52:23.865   04 Jun 2027 19:52:38.774            14.909                Sumatra           465.906
       346   04 Jun 2027 21:04:27.916   04 Jun 2027 21:05:02.842            34.926                Novosib          1091.437
       347   04 Jun 2027 21:06:31.136   04 Jun 2027 21:08:04.496            93.360                Novosib          2917.500
       348   04 Jun 2027 21:12:03.241   04 Jun 2027 21:16:09.210           245.969                  Delhi          7686.531
       349   04 Jun 2027 22:38:50.409   04 Jun 2027 22:40:44.831           114.422              Murmansk1          3575.687
       350   04 Jun 2027 22:42:11.797   04 Jun 2027 22:44:23.786           131.989              Murmansk2          4124.656
       351   04 Jun 2027 22:45:06.593   04 Jun 2027 22:45:33.297            26.704              Murmansk1           834.500
       352   04 Jun 2027 22:45:37.367   04 Jun 2027 22:50:30.384           293.017                 Moscow          9156.781
       353   04 Jun 2027 23:12:48.254   04 Jun 2027 23:14:27.343            99.089               CapeTown          3096.531
       354   05 Jun 2027 00:15:31.921   05 Jun 2027 00:16:19.527            47.606              Murmansk1          1487.687
       355   05 Jun 2027 00:17:57.286   05 Jun 2027 00:20:12.039           134.753                 Moscow          4211.031
       356   05 Jun 2027 00:42:03.179   05 Jun 2027 00:43:51.461           108.282               CapeTown          3383.813
       357   05 Jun 2027 00:44:51.644   05 Jun 2027 00:45:06.144            14.500               CapeTown           453.125
       358   05 Jun 2027 01:40:32.088   05 Jun 2027 01:40:43.776            11.688               Magadan2           365.250
       359   05 Jun 2027 01:40:43.776   05 Jun 2027 01:41:12.576            28.800               Magadan1           900.000
       360   05 Jun 2027 01:41:21.011   05 Jun 2027 01:41:56.244            35.233               Magadan1          1101.031
       361   05 Jun 2027 01:45:09.695   05 Jun 2027 01:45:26.619            16.924               Magadan1           528.875
       362   05 Jun 2027 01:50:37.094   05 Jun 2027 01:51:07.548            30.454              Murmansk2           951.687
       363   05 Jun 2027 01:51:07.787   05 Jun 2027 01:51:23.135            15.348              Murmansk1           479.625
       364   05 Jun 2027 01:52:43.445   05 Jun 2027 01:53:36.053            52.608              Murmansk2          1644.000
       365   05 Jun 2027 01:53:53.282   05 Jun 2027 01:54:48.548            55.266                 Moscow          1727.062
       366   05 Jun 2027 01:56:18.539   05 Jun 2027 01:56:37.372            18.833                 Moscow           588.531
       367   05 Jun 2027 01:58:36.399   05 Jun 2027 01:59:26.693            50.294                 Moscow          1571.687
       368   05 Jun 2027 02:19:03.059   05 Jun 2027 02:20:05.636            62.577               CapeTown          1955.531
       369   05 Jun 2027 02:27:43.869   05 Jun 2027 02:27:54.807            10.938               CapeTown           341.813
       370   05 Jun 2027 02:28:55.286   05 Jun 2027 02:29:09.772            14.486               CapeTown           452.688
       371   05 Jun 2027 03:14:20.578   05 Jun 2027 03:15:49.011            88.433               Magadan1          2763.531
       372   05 Jun 2027 03:19:05.791   05 Jun 2027 03:20:01.826            56.035                Anadyr2          1751.094
       373   05 Jun 2027 03:20:04.962   05 Jun 2027 03:20:30.560            25.598                Anadyr2           799.938
       374   05 Jun 2027 03:21:07.226   05 Jun 2027 03:25:19.282           252.056               Magadan2          7876.750
       375   05 Jun 2027 04:57:32.957   05 Jun 2027 04:58:23.315            50.358                Anadyr2          1573.687
       376   05 Jun 2027 04:58:23.315   05 Jun 2027 04:58:41.486            18.171                Anadyr1           567.844
       377   05 Jun 2027 04:58:46.296   05 Jun 2027 04:59:21.200            34.904                Anadyr2          1090.750
       378   05 Jun 2027 04:59:21.200   05 Jun 2027 05:00:09.824            48.624                Anadyr1          1519.500
       379   05 Jun 2027 05:00:09.902   05 Jun 2027 05:02:02.628           112.726                Irkutsk          3522.687
       380   05 Jun 2027 05:02:28.505   05 Jun 2027 05:02:31.915             3.410                Anadyr1           106.562
       381   05 Jun 2027 06:32:33.895   05 Jun 2027 06:33:31.213            57.318               Magadan2          1791.187
       382   05 Jun 2027 06:34:09.024   05 Jun 2027 06:34:18.830             9.806               Magadan1           306.437
       383   05 Jun 2027 06:34:48.822   05 Jun 2027 06:35:47.282            58.460                Novosib          1826.875
       384   05 Jun 2027 06:36:07.883   05 Jun 2027 06:36:34.927            27.044               Magadan2           845.125
       385   05 Jun 2027 06:36:38.574   05 Jun 2027 06:37:18.882            40.308              Murmansk2          1259.625
       386   05 Jun 2027 06:37:23.088   05 Jun 2027 06:37:36.356            13.268               Magadan2           414.625
       387   05 Jun 2027 06:39:59.806   05 Jun 2027 06:40:12.612            12.806              Murmansk2           400.188
       388   05 Jun 2027 06:44:53.856   05 Jun 2027 06:45:18.227            24.371              Murmansk2           761.594
       389   05 Jun 2027 08:10:23.602   05 Jun 2027 08:10:56.055            32.453                Novosib          1014.156
       390   05 Jun 2027 08:11:04.903   05 Jun 2027 08:11:26.485            21.582              Murmansk2           674.437
       391   05 Jun 2027 08:11:46.189   05 Jun 2027 08:11:54.728             8.539                Irkutsk           266.844
       392   05 Jun 2027 08:11:58.902   05 Jun 2027 08:12:06.645             7.743                Novosib           241.969
       393   05 Jun 2027 08:12:09.241   05 Jun 2027 08:12:17.793             8.552                Irkutsk           267.250
       394   05 Jun 2027 08:12:19.226   05 Jun 2027 08:12:30.012            10.786                Novosib           337.063
       395   05 Jun 2027 08:12:43.139   05 Jun 2027 08:13:27.894            44.755                Irkutsk          1398.594
       396   05 Jun 2027 08:13:35.651   05 Jun 2027 08:14:27.251            51.600                Irkutsk          1612.500
       397   05 Jun 2027 08:15:29.602   05 Jun 2027 08:15:49.613            20.011              Murmansk1           625.344
       398   05 Jun 2027 08:53:01.669   05 Jun 2027 08:53:35.568            33.899            RioGallegos          1059.344
       399   05 Jun 2027 08:53:38.919   05 Jun 2027 08:54:35.070            56.151            RioGallegos          1754.719
       400   05 Jun 2027 09:28:09.230   05 Jun 2027 09:30:02.029           112.799                Sumatra          3524.969
       401   05 Jun 2027 09:47:01.312   05 Jun 2027 09:47:19.123            17.811                Novosib           556.594
       402   05 Jun 2027 09:47:54.031   05 Jun 2027 09:48:41.225            47.194                Novosib          1474.813
       403   05 Jun 2027 09:49:00.768   05 Jun 2027 09:49:02.416             1.648                Norilsk            51.500
       404   05 Jun 2027 09:49:04.444   05 Jun 2027 09:49:23.861            19.417                Novosib           606.781
       405   05 Jun 2027 09:49:30.520   05 Jun 2027 09:49:36.779             6.259                Novosib           195.594
       406   05 Jun 2027 09:49:40.450   05 Jun 2027 09:49:45.627             5.177                Norilsk           161.781
       407   05 Jun 2027 09:50:02.223   05 Jun 2027 09:50:15.109            12.886                Novosib           402.687
       408   05 Jun 2027 09:50:30.836   05 Jun 2027 09:51:14.443            43.607                Novosib          1362.719
       409   05 Jun 2027 11:30:40.197   05 Jun 2027 11:30:45.313             5.116                Norilsk           159.875
       410   05 Jun 2027 12:53:58.336   05 Jun 2027 12:54:11.326            12.990                 Moscow           405.938
       411   05 Jun 2027 12:54:27.052   05 Jun 2027 12:55:10.685            43.633                 Moscow          1363.531
       412   05 Jun 2027 12:55:47.827   05 Jun 2027 12:55:58.714            10.887                 Moscow           340.219
       413   05 Jun 2027 12:56:14.408   05 Jun 2027 12:56:55.371            40.963                 Moscow          1280.094
       414   05 Jun 2027 12:57:13.020   05 Jun 2027 12:58:05.196            52.176              Murmansk1          1630.500
       415   05 Jun 2027 12:58:39.689   05 Jun 2027 12:58:42.917             3.228                 Moscow           100.875
       416   05 Jun 2027 12:58:47.150   05 Jun 2027 12:59:16.129            28.979              Murmansk1           905.594
       417   05 Jun 2027 13:00:34.966   05 Jun 2027 13:01:31.325            56.359              Murmansk1          1761.219
       418   05 Jun 2027 13:11:29.122   05 Jun 2027 13:14:06.843           157.721                Anadyr1          4928.781
       419   05 Jun 2027 14:06:19.434   05 Jun 2027 14:07:16.445            57.011               CapeTown          1781.594
       420   05 Jun 2027 14:11:44.529   05 Jun 2027 14:11:45.091             0.562               CapeTown            17.563
       421   05 Jun 2027 14:36:20.397   05 Jun 2027 14:38:35.011           134.614              Murmansk1          4206.688
       422   05 Jun 2027 14:39:24.161   05 Jun 2027 14:40:14.027            49.866              Murmansk2          1558.313
       423   05 Jun 2027 14:46:56.738   05 Jun 2027 14:49:37.169           160.431                Anadyr1          5013.469
       424   05 Jun 2027 14:50:17.677   05 Jun 2027 14:50:32.985            15.308                Anadyr1           478.375
       425   05 Jun 2027 14:50:37.308   05 Jun 2027 14:57:30.851           413.543               Magadan1         12923.219
       426   05 Jun 2027 16:25:14.295   05 Jun 2027 16:27:32.787           138.492               Magadan2          4327.875
       427   05 Jun 2027 17:58:42.351   05 Jun 2027 18:00:05.930            83.579                Anadyr1          2611.844
       428   05 Jun 2027 18:00:14.171   05 Jun 2027 18:01:36.098            81.927                Anadyr2          2560.219
       429   05 Jun 2027 18:01:37.744   05 Jun 2027 18:06:56.989           319.245                Norilsk          9976.406
       430   05 Jun 2027 18:08:02.978   05 Jun 2027 18:09:39.814            96.836                Irkutsk          3026.125
       431   05 Jun 2027 18:12:48.663   05 Jun 2027 18:12:55.600             6.937                Irkutsk           216.781
       432   05 Jun 2027 18:23:26.228   05 Jun 2027 18:26:57.006           210.778                Sumatra          6586.813
       433   05 Jun 2027 19:36:35.523   05 Jun 2027 19:38:01.730            86.207                Norilsk          2693.969
       434   05 Jun 2027 19:41:41.595   05 Jun 2027 19:48:18.516           396.921                Novosib         12403.781
       435   05 Jun 2027 21:16:26.239   05 Jun 2027 21:18:40.256           134.017                Novosib          4188.031
       436   05 Jun 2027 21:23:53.510   05 Jun 2027 21:25:33.145            99.635                  Delhi          3113.594
       437   05 Jun 2027 21:26:40.066   05 Jun 2027 21:27:09.762            29.696                  Delhi           928.000
       438   05 Jun 2027 22:49:44.572   05 Jun 2027 22:49:54.492             9.920               Magadan1           310.000
       439   05 Jun 2027 22:50:10.555   05 Jun 2027 22:50:20.599            10.044               Magadan1           313.875
       440   05 Jun 2027 22:50:49.205   05 Jun 2027 22:56:24.973           335.768              Murmansk1         10492.750
       441   05 Jun 2027 22:57:08.407   05 Jun 2027 23:02:15.947           307.540                 Moscow          9610.625
       442   05 Jun 2027 23:22:35.788   05 Jun 2027 23:23:59.933            84.145               CapeTown          2629.531
       443   05 Jun 2027 23:24:43.172   05 Jun 2027 23:26:31.841           108.669               CapeTown          3395.906
       444   06 Jun 2027 00:29:20.464   06 Jun 2027 00:29:21.348             0.884              Murmansk2            27.625
       445   06 Jun 2027 00:29:56.324   06 Jun 2027 00:29:57.565             1.241                 Moscow            38.781
       446   06 Jun 2027 00:31:35.608   06 Jun 2027 00:31:38.189             2.581                 Moscow            80.656
       447   06 Jun 2027 00:53:53.827   06 Jun 2027 00:55:41.192           107.365               CapeTown          3355.156
       448   06 Jun 2027 00:56:58.217   06 Jun 2027 00:57:02.287             4.070               CapeTown           127.188
       449   06 Jun 2027 00:58:10.205   06 Jun 2027 00:58:50.447            40.242               CapeTown          1257.562
       450   06 Jun 2027 01:51:22.368   06 Jun 2027 01:51:45.492            23.124                Anadyr2           722.625
       451   06 Jun 2027 01:52:10.650   06 Jun 2027 01:53:05.535            54.885               Magadan1          1715.156
       452   06 Jun 2027 01:53:53.491   06 Jun 2027 01:54:17.656            24.165               Magadan2           755.156
       453   06 Jun 2027 01:54:26.439   06 Jun 2027 01:54:37.330            10.891               Magadan2           340.344
       454   06 Jun 2027 01:59:21.443   06 Jun 2027 01:59:45.852            24.409               Magadan2           762.781
       455   06 Jun 2027 02:01:26.838   06 Jun 2027 02:01:48.926            22.088               Magadan1           690.250
       456   06 Jun 2027 02:02:38.404   06 Jun 2027 02:03:56.002            77.598              Murmansk2          2424.937
       457   06 Jun 2027 02:05:57.037   06 Jun 2027 02:07:09.342            72.305                 Moscow          2259.531
       458   06 Jun 2027 02:12:46.608   06 Jun 2027 02:14:17.840            91.232                 Moscow          2851.000
       459   06 Jun 2027 02:39:27.902   06 Jun 2027 02:39:52.698            24.796               CapeTown           774.875
       460   06 Jun 2027 03:28:24.968   06 Jun 2027 03:28:29.204             4.236               Magadan2           132.375
       461   06 Jun 2027 03:29:30.922   06 Jun 2027 03:29:43.105            12.183                Anadyr1           380.719
       462   06 Jun 2027 03:30:49.561   06 Jun 2027 03:31:40.569            51.008               Magadan1          1594.000
       463   06 Jun 2027 03:31:45.169   06 Jun 2027 03:36:18.018           272.849                Anadyr2          8526.531
       464   06 Jun 2027 03:36:43.573   06 Jun 2027 03:37:21.313            37.740                Anadyr1          1179.375
       465   06 Jun 2027 03:38:19.725   06 Jun 2027 03:38:34.198            14.473                Anadyr1           452.281
       466   06 Jun 2027 03:39:04.627   06 Jun 2027 03:39:17.192            12.565                Anadyr2           392.656
       467   06 Jun 2027 04:24:38.207   06 Jun 2027 04:25:13.384            35.177            RioGallegos          1099.281
       468   06 Jun 2027 05:08:40.601   06 Jun 2027 05:09:03.778            23.177                Anadyr2           724.281
       469   06 Jun 2027 05:09:20.946   06 Jun 2027 05:14:08.314           287.368               Magadan1          8980.250
       470   06 Jun 2027 05:14:34.233   06 Jun 2027 05:14:50.377            16.144               Magadan2           504.500
       471   06 Jun 2027 06:44:18.859   06 Jun 2027 06:44:36.889            18.030               Magadan1           563.437
       472   06 Jun 2027 06:45:22.933   06 Jun 2027 06:45:59.421            36.488               Magadan1          1140.250
       473   06 Jun 2027 06:46:20.441   06 Jun 2027 06:46:32.407            11.966               Magadan1           373.937
       474   06 Jun 2027 06:46:32.407   06 Jun 2027 06:46:47.623            15.216               Magadan2           475.500
       475   06 Jun 2027 06:46:53.290   06 Jun 2027 06:48:01.008            67.718                Novosib          2116.188
       476   06 Jun 2027 06:48:14.413   06 Jun 2027 06:48:53.207            38.794               Magadan1          1212.312
       477   06 Jun 2027 06:50:56.370   06 Jun 2027 06:50:57.596             1.226                Novosib            38.313
       478   06 Jun 2027 06:54:53.209   06 Jun 2027 06:55:28.124            34.915                Norilsk          1091.094
       479   06 Jun 2027 08:21:13.637   06 Jun 2027 08:21:50.112            36.475                Novosib          1139.844
       480   06 Jun 2027 08:22:38.259   06 Jun 2027 08:22:56.257            17.998                Novosib           562.438
       481   06 Jun 2027 08:23:07.835   06 Jun 2027 08:23:28.155            20.320                Irkutsk           635.000
       482   06 Jun 2027 08:23:45.051   06 Jun 2027 08:24:02.115            17.064                Novosib           533.250
