uniorb/output/strategy_4/Drop/Drop_KinoSat_110601.txt

KinoSat_110601
-------------------------
    Access    *     Start Time (UTCG)     *     Stop Time (UTCG)  *   Duration (s)        *       Station  *  Data (Mbytes)
         1   01 Jun 2027 04:21:35.416   01 Jun 2027 04:22:37.746            62.330               Magadan1          1947.812
         2   01 Jun 2027 04:22:43.954   01 Jun 2027 04:24:22.622            98.668                Anadyr2          3083.375
         3   01 Jun 2027 04:24:23.920   01 Jun 2027 04:25:34.934            71.014                Anadyr2          2219.187
         4   01 Jun 2027 04:25:38.608   01 Jun 2027 04:27:21.644           103.036               Magadan2          3219.875
         5   01 Jun 2027 04:27:48.975   01 Jun 2027 04:28:07.825            18.850                Anadyr1           589.063
         6   01 Jun 2027 05:05:52.068   01 Jun 2027 05:06:17.719            25.651            RioGallegos           801.594
         7   01 Jun 2027 05:06:39.366   01 Jun 2027 05:07:35.813            56.447            RioGallegos          1763.969
         8   01 Jun 2027 05:59:35.708   01 Jun 2027 06:02:06.920           151.212               Magadan2          4725.375
         9   01 Jun 2027 06:02:23.899   01 Jun 2027 06:02:41.693            17.794              Murmansk2           556.062
        10   01 Jun 2027 06:02:41.693   01 Jun 2027 06:03:24.584            42.891              Murmansk1          1340.344
        11   01 Jun 2027 06:03:26.780   01 Jun 2027 06:04:30.977            64.197                Irkutsk          2006.156
        12   01 Jun 2027 06:06:10.037   01 Jun 2027 06:06:20.720            10.683                Norilsk           333.844
        13   01 Jun 2027 06:39:16.899   01 Jun 2027 06:40:32.516            75.617            RioGallegos          2363.031
        14   01 Jun 2027 06:44:13.168   01 Jun 2027 06:44:26.385            13.217            RioGallegos           413.031
        15   01 Jun 2027 07:14:06.225   01 Jun 2027 07:14:48.586            42.361                Sumatra          1323.781
        16   01 Jun 2027 07:15:07.921   01 Jun 2027 07:16:12.878            64.957                Sumatra          2029.906
        17   01 Jun 2027 07:17:12.572   01 Jun 2027 07:17:15.979             3.407                Sumatra           106.469
        18   01 Jun 2027 07:22:05.637   01 Jun 2027 07:23:39.603            93.966                Sumatra          2936.437
        19   01 Jun 2027 07:24:49.317   01 Jun 2027 07:26:34.902           105.585                  Delhi          3299.531
        20   01 Jun 2027 07:29:20.120   01 Jun 2027 07:29:35.198            15.078                  Delhi           471.188
        21   01 Jun 2027 07:32:54.728   01 Jun 2027 07:32:54.879             0.151                  Delhi             4.719
        22   01 Jun 2027 07:36:09.878   01 Jun 2027 07:37:28.334            78.456                Irkutsk          2451.750
        23   01 Jun 2027 07:38:06.758   01 Jun 2027 07:39:06.421            59.663                 Moscow          1864.469
        24   01 Jun 2027 07:39:19.110   01 Jun 2027 07:39:26.061             6.951                Norilsk           217.219
        25   01 Jun 2027 07:39:27.876   01 Jun 2027 07:41:33.132           125.256                 Moscow          3914.250
        26   01 Jun 2027 07:41:35.720   01 Jun 2027 07:42:15.051            39.331                Norilsk          1229.094
        27   01 Jun 2027 07:44:18.532   01 Jun 2027 07:44:37.627            19.095                Norilsk           596.719
        28   01 Jun 2027 08:18:44.961   01 Jun 2027 08:20:01.971            77.010            RioGallegos          2406.563
        29   01 Jun 2027 08:20:51.541   01 Jun 2027 08:21:55.906            64.365            RioGallegos          2011.406
        30   01 Jun 2027 08:53:45.728   01 Jun 2027 08:55:26.967           101.239                Sumatra          3163.719
        31   01 Jun 2027 08:58:17.795   01 Jun 2027 08:59:51.671            93.876                  Delhi          2933.625
        32   01 Jun 2027 09:14:57.835   01 Jun 2027 09:16:15.747            77.912                Norilsk          2434.750
        33   01 Jun 2027 09:16:25.267   01 Jun 2027 09:18:41.308           136.041                 Moscow          4251.281
        34   01 Jun 2027 10:48:28.544   01 Jun 2027 10:52:28.338           239.794              Murmansk1          7493.563
        35   01 Jun 2027 10:52:36.375   01 Jun 2027 10:53:18.721            42.346                Norilsk          1323.312
        36   01 Jun 2027 10:54:26.513   01 Jun 2027 10:54:55.838            29.325                 Moscow           916.406
        37   01 Jun 2027 11:57:38.719   01 Jun 2027 12:05:02.002           443.283               CapeTown         13852.594
        38   01 Jun 2027 12:22:59.838   01 Jun 2027 12:25:25.500           145.662              Murmansk1          4551.937
        39   01 Jun 2027 12:27:19.403   01 Jun 2027 12:27:49.076            29.673              Murmansk1           927.281
        40   01 Jun 2027 12:37:17.883   01 Jun 2027 12:46:14.132           536.249                Anadyr2         16757.781
        41   01 Jun 2027 14:12:44.853   01 Jun 2027 14:15:24.047           159.194                Anadyr1          4974.812
        42   01 Jun 2027 14:16:27.530   01 Jun 2027 14:23:14.130           406.600               Magadan1         12706.250
        43   01 Jun 2027 15:51:02.583   01 Jun 2027 15:53:27.228           144.645               Magadan2          4520.156
        44   01 Jun 2027 15:53:27.228   01 Jun 2027 15:54:55.005            87.777               Magadan1          2743.031
        45   01 Jun 2027 15:55:04.400   01 Jun 2027 15:55:20.454            16.054               Magadan1           501.687
        46   01 Jun 2027 15:56:05.293   01 Jun 2027 15:56:12.497             7.204               Magadan1           225.125
        47   01 Jun 2027 17:24:30.448   01 Jun 2027 17:25:41.038            70.590                Anadyr2          2205.938
        48   01 Jun 2027 17:26:24.448   01 Jun 2027 17:27:31.459            67.011                Anadyr1          2094.094
        49   01 Jun 2027 17:28:03.945   01 Jun 2027 17:33:08.099           304.154                Norilsk          9504.813
        50   01 Jun 2027 17:34:22.037   01 Jun 2027 17:38:37.616           255.579                Irkutsk          7986.844
        51   01 Jun 2027 17:49:30.064   01 Jun 2027 17:52:30.075           180.011                Sumatra          5625.344
        52   01 Jun 2027 19:07:31.469   01 Jun 2027 19:14:59.331           447.862                Novosib         13995.688
        53   01 Jun 2027 20:42:22.990   01 Jun 2027 20:44:20.929           117.939              Murmansk1          3685.594
        54   01 Jun 2027 20:49:42.279   01 Jun 2027 20:51:30.623           108.344                  Delhi          3385.750
        55   01 Jun 2027 20:58:55.049   01 Jun 2027 20:59:11.634            16.585                  Delhi           518.281
        56   01 Jun 2027 21:00:38.641   01 Jun 2027 21:02:02.147            83.506                  Delhi          2609.563
        57   01 Jun 2027 22:16:37.448   01 Jun 2027 22:18:13.422            95.974              Murmansk2          2999.187
        58   01 Jun 2027 22:19:00.032   01 Jun 2027 22:22:21.646           201.614              Murmansk1          6300.437
        59   01 Jun 2027 22:22:27.408   01 Jun 2027 22:27:06.002           278.594                 Moscow          8706.062
        60   01 Jun 2027 22:48:31.056   01 Jun 2027 22:53:56.419           325.363               CapeTown         10167.594
        61   02 Jun 2027 00:19:42.516   02 Jun 2027 00:21:39.726           117.210               CapeTown          3662.813
        62   02 Jun 2027 01:27:34.078   02 Jun 2027 01:27:36.210             2.132               Magadan1            66.625
        63   02 Jun 2027 01:28:26.413   02 Jun 2027 01:29:32.082            65.669              Murmansk1          2052.156
        64   02 Jun 2027 01:30:36.624   02 Jun 2027 01:31:34.658            58.034              Murmansk2          1813.562
        65   02 Jun 2027 01:31:44.801   02 Jun 2027 01:32:44.549            59.748                 Moscow          1867.125
        66   02 Jun 2027 01:37:38.531   02 Jun 2027 01:38:16.618            38.087                 Moscow          1190.219
        67   02 Jun 2027 01:57:28.847   02 Jun 2027 01:58:44.096            75.249               CapeTown          2351.531
        68   02 Jun 2027 02:52:03.854   02 Jun 2027 02:55:16.487           192.633               Magadan1          6019.781
        69   02 Jun 2027 02:55:41.090   02 Jun 2027 02:55:52.087            10.997               Magadan2           343.656
        70   02 Jun 2027 02:56:17.848   02 Jun 2027 02:56:21.540             3.692               Magadan1           115.375
        71   02 Jun 2027 02:57:06.480   02 Jun 2027 02:57:22.602            16.122               Magadan1           503.813
        72   02 Jun 2027 03:00:04.636   02 Jun 2027 03:00:18.807            14.171                Anadyr1           442.844
        73   02 Jun 2027 03:00:19.390   02 Jun 2027 03:01:02.078            42.688               Magadan1          1334.000
        74   02 Jun 2027 03:01:15.941   02 Jun 2027 03:03:21.191           125.250               Magadan2          3914.062
        75   02 Jun 2027 03:03:21.191   02 Jun 2027 03:03:33.309            12.118               Magadan1           378.688
        76   02 Jun 2027 03:03:39.478   02 Jun 2027 03:03:51.792            12.314               Magadan1           384.812
        77   02 Jun 2027 04:30:44.360   02 Jun 2027 04:31:05.986            21.626                Irkutsk           675.812
        78   02 Jun 2027 04:31:46.801   02 Jun 2027 04:32:42.025            55.224                Irkutsk          1725.750
        79   02 Jun 2027 04:33:35.476   02 Jun 2027 04:35:02.476            87.000                Irkutsk          2718.750
        80   02 Jun 2027 04:35:08.055   02 Jun 2027 04:37:06.469           118.414                Irkutsk          3700.437
        81   02 Jun 2027 04:37:33.781   02 Jun 2027 04:39:25.934           112.153                Irkutsk          3504.781
        82   02 Jun 2027 04:39:50.097   02 Jun 2027 04:40:07.761            17.664                Anadyr1           552.000
        83   02 Jun 2027 04:40:21.884   02 Jun 2027 04:40:38.654            16.770               Magadan2           524.062
        84   02 Jun 2027 05:15:53.141   02 Jun 2027 05:16:14.763            21.622            RioGallegos           675.687
        85   02 Jun 2027 05:17:52.708   02 Jun 2027 05:19:09.454            76.746            RioGallegos          2398.312
        86   02 Jun 2027 05:54:17.503   02 Jun 2027 05:59:09.410           291.907                Sumatra          9122.094
        87   02 Jun 2027 06:12:08.412   02 Jun 2027 06:12:55.437            47.025                Irkutsk          1469.531
        88   02 Jun 2027 06:13:24.919   02 Jun 2027 06:15:44.200           139.281                Irkutsk          4352.531
        89   02 Jun 2027 06:16:08.550   02 Jun 2027 06:16:25.273            16.723                Novosib           522.594
        90   02 Jun 2027 06:17:10.165   02 Jun 2027 06:17:27.118            16.953                Novosib           529.781
        91   02 Jun 2027 07:26:05.335   02 Jun 2027 07:27:39.468            94.133                Sumatra          2941.656
        92   02 Jun 2027 07:49:05.122   02 Jun 2027 07:50:05.830            60.708              Murmansk1          1897.125
        93   02 Jun 2027 07:50:08.297   02 Jun 2027 07:51:07.125            58.828                 Moscow          1838.375
        94   02 Jun 2027 07:52:19.939   02 Jun 2027 07:53:27.706            67.767                Norilsk          2117.719
        95   02 Jun 2027 07:54:16.393   02 Jun 2027 07:55:37.664            81.271              Murmansk1          2539.719
        96   02 Jun 2027 08:32:19.302   02 Jun 2027 08:32:30.418            11.116            RioGallegos           347.375
        97   02 Jun 2027 08:33:01.916   02 Jun 2027 08:33:30.975            29.059            RioGallegos           908.094
        98   02 Jun 2027 09:27:55.173   02 Jun 2027 09:28:14.547            19.374                Novosib           605.438
        99   02 Jun 2027 11:06:26.556   02 Jun 2027 11:06:39.077            12.521                Norilsk           391.281
       100   02 Jun 2027 12:12:41.729   02 Jun 2027 12:12:47.341             5.612               CapeTown           175.375
       101   02 Jun 2027 12:14:50.284   02 Jun 2027 12:15:52.460            62.176               CapeTown          1943.000
       102   02 Jun 2027 12:33:20.065   02 Jun 2027 12:34:16.011            55.946                 Moscow          1748.312
       103   02 Jun 2027 12:35:00.620   02 Jun 2027 12:35:03.136             2.516                 Moscow            78.625
       104   02 Jun 2027 12:35:16.785   02 Jun 2027 12:38:48.570           211.785              Murmansk2          6618.281
       105   02 Jun 2027 12:44:01.277   02 Jun 2027 12:44:45.290            44.013              Murmansk1          1375.406
       106   02 Jun 2027 12:49:11.796   02 Jun 2027 12:51:45.469           153.673                Anadyr1          4802.281
       107   02 Jun 2027 12:52:28.927   02 Jun 2027 12:54:50.369           141.442                Anadyr2          4420.062
       108   02 Jun 2027 12:55:40.825   02 Jun 2027 12:58:49.523           188.698                Anadyr1          5896.813
       109   02 Jun 2027 14:24:45.293   02 Jun 2027 14:26:00.369            75.076                Anadyr2          2346.125
       110   02 Jun 2027 14:27:24.888   02 Jun 2027 14:27:37.491            12.603                Anadyr2           393.844
       111   02 Jun 2027 14:28:06.972   02 Jun 2027 14:36:06.953           479.981               Magadan1         14999.406
       112   02 Jun 2027 16:04:19.215   02 Jun 2027 16:04:49.959            30.744               Magadan2           960.750
       113   02 Jun 2027 16:05:34.976   02 Jun 2027 16:06:57.238            82.262               Magadan2          2570.688
       114   02 Jun 2027 16:58:05.997   02 Jun 2027 17:00:50.006           164.009            RioGallegos          5125.281
       115   02 Jun 2027 17:38:45.233   02 Jun 2027 17:39:41.972            56.739                Norilsk          1773.094
       116   02 Jun 2027 17:43:57.872   02 Jun 2027 17:51:39.068           461.196                Irkutsk         14412.375
       117   02 Jun 2027 17:59:31.104   02 Jun 2027 18:06:21.927           410.823                Sumatra         12838.219
       118   02 Jun 2027 19:21:16.275   02 Jun 2027 19:25:27.663           251.388                Novosib          7855.875
       119   02 Jun 2027 20:53:42.273   02 Jun 2027 20:57:45.587           243.314              Murmansk1          7603.563
       120   02 Jun 2027 22:28:36.870   02 Jun 2027 22:30:24.105           107.235              Murmansk1          3351.094
       121   02 Jun 2027 22:30:36.321   02 Jun 2027 22:34:00.190           203.869              Murmansk1          6370.906
       122   02 Jun 2027 22:34:03.074   02 Jun 2027 22:40:35.002           391.928                 Moscow         12247.750
       123   02 Jun 2027 22:59:17.634   02 Jun 2027 23:06:46.274           448.640               CapeTown         14020.000
       124   03 Jun 2027 02:10:23.923   03 Jun 2027 02:11:45.951            82.028               CapeTown          2563.375
       125   03 Jun 2027 03:04:00.787   03 Jun 2027 03:04:16.443            15.656               Magadan1           489.250
       126   03 Jun 2027 03:04:51.623   03 Jun 2027 03:05:22.851            31.228               Magadan1           975.875
       127   03 Jun 2027 03:05:57.282   03 Jun 2027 03:06:18.456            21.174                Anadyr1           661.688
       128   03 Jun 2027 03:08:19.404   03 Jun 2027 03:08:43.188            23.784                Anadyr2           743.250
       129   03 Jun 2027 03:10:14.910   03 Jun 2027 03:10:30.264            15.354                Anadyr1           479.812
       130   03 Jun 2027 03:10:55.365   03 Jun 2027 03:12:32.690            97.325                Anadyr1          3041.406
       131   03 Jun 2027 03:12:32.690   03 Jun 2027 03:15:10.629           157.939                Anadyr2          4935.594
       132   03 Jun 2027 03:15:11.599   03 Jun 2027 03:15:25.565            13.966               Magadan1           436.437
       133   03 Jun 2027 03:16:24.996   03 Jun 2027 03:17:04.317            39.321                Anadyr1          1228.781
       134   03 Jun 2027 04:45:55.019   03 Jun 2027 04:47:07.143            72.124                Irkutsk          2253.875
       135   03 Jun 2027 04:47:21.978   03 Jun 2027 04:48:31.443            69.465                Irkutsk          2170.781
       136   03 Jun 2027 04:48:52.537   03 Jun 2027 04:51:25.402           152.865                Irkutsk          4777.031
       137   03 Jun 2027 06:23:31.448   03 Jun 2027 06:23:40.691             9.243               Magadan1           288.844
       138   03 Jun 2027 06:23:51.558   03 Jun 2027 06:24:19.919            28.361               Magadan1           886.281
       139   03 Jun 2027 06:25:34.368   03 Jun 2027 06:25:39.820             5.452               Magadan1           170.375
       140   03 Jun 2027 06:25:40.902   03 Jun 2027 06:26:09.197            28.295               Magadan1           884.219
       141   03 Jun 2027 06:28:28.459   03 Jun 2027 06:28:34.113             5.654                Norilsk           176.688
       142   03 Jun 2027 08:02:02.199   03 Jun 2027 08:02:20.459            18.260              Murmansk2           570.625
       143   03 Jun 2027 08:06:14.577   03 Jun 2027 08:06:36.418            21.841              Murmansk2           682.531
       144   03 Jun 2027 08:45:46.718   03 Jun 2027 08:46:26.097            39.379            RioGallegos          1230.594
       145   03 Jun 2027 09:28:34.069   03 Jun 2027 09:28:45.873            11.804                  Delhi           368.875
       146   03 Jun 2027 09:40:40.646   03 Jun 2027 09:40:45.730             5.084                Novosib           158.875
       147   03 Jun 2027 11:20:47.087   03 Jun 2027 11:20:57.084             9.997                Norilsk           312.406
       148   03 Jun 2027 12:44:41.793   03 Jun 2027 12:45:19.337            37.544                 Moscow          1173.250
       149   03 Jun 2027 12:46:59.867   03 Jun 2027 12:47:51.950            52.083                 Moscow          1627.594
       150   03 Jun 2027 12:48:09.843   03 Jun 2027 12:49:28.045            78.202              Murmansk2          2443.812
       151   03 Jun 2027 12:49:28.045   03 Jun 2027 12:49:30.863             2.818              Murmansk1            88.062
       152   03 Jun 2027 12:50:34.109   03 Jun 2027 12:51:08.234            34.125              Murmansk1          1066.406
       153   03 Jun 2027 12:51:08.234   03 Jun 2027 12:52:04.174            55.940              Murmansk2          1748.125
       154   03 Jun 2027 12:52:23.446   03 Jun 2027 12:52:53.927            30.481              Murmansk2           952.531
       155   03 Jun 2027 12:53:14.616   03 Jun 2027 12:53:17.267             2.651              Murmansk2            82.844
       156   03 Jun 2027 12:55:48.732   03 Jun 2027 12:56:08.035            19.303              Murmansk1           603.219
       157   03 Jun 2027 13:01:07.350   03 Jun 2027 13:07:10.046           362.696                Anadyr2         11334.250
       158   03 Jun 2027 13:08:51.942   03 Jun 2027 13:10:39.254           107.312                Anadyr2          3353.500
       159   03 Jun 2027 14:36:46.004   03 Jun 2027 14:37:59.874            73.870                Anadyr2          2308.438
       160   03 Jun 2027 14:39:23.872   03 Jun 2027 14:39:54.045            30.173                Anadyr1           942.906
       161   03 Jun 2027 14:40:44.110   03 Jun 2027 14:41:09.883            25.773                Anadyr2           805.406
       162   03 Jun 2027 14:41:29.309   03 Jun 2027 14:48:51.084           441.775               Magadan1         13805.469
       163   03 Jun 2027 16:15:00.311   03 Jun 2027 16:16:27.990            87.679               Magadan1          2739.969
       164   03 Jun 2027 16:17:22.807   03 Jun 2027 16:17:56.758            33.951               Magadan2          1060.969
       165   03 Jun 2027 17:08:50.235   03 Jun 2027 17:14:37.913           347.678            RioGallegos         10864.938
       166   03 Jun 2027 17:50:41.273   03 Jun 2027 17:52:39.412           118.139                Norilsk          3691.844
       167   03 Jun 2027 17:55:34.306   03 Jun 2027 18:03:10.443           456.137                Irkutsk         14254.281
       168   03 Jun 2027 18:10:27.021   03 Jun 2027 18:19:19.948           532.927                Sumatra         16653.969
       169   03 Jun 2027 19:34:30.737   03 Jun 2027 19:36:59.356           148.619                Novosib          4644.344
       170   03 Jun 2027 19:40:52.816   03 Jun 2027 19:46:43.798           350.982                  Delhi         10968.187
       171   03 Jun 2027 21:05:23.341   03 Jun 2027 21:10:46.416           323.075              Murmansk2         10096.094
       172   03 Jun 2027 22:43:38.517   03 Jun 2027 22:45:58.651           140.134              Murmansk1          4379.187
       173   03 Jun 2027 22:51:37.454   03 Jun 2027 22:52:38.414            60.960                 Moscow          1905.000
       174   03 Jun 2027 23:10:23.859   03 Jun 2027 23:18:23.569           479.710               CapeTown         14990.937
       175   04 Jun 2027 03:21:26.239   04 Jun 2027 03:21:44.467            18.228               Magadan1           569.625
       176   04 Jun 2027 03:22:54.978   04 Jun 2027 03:26:56.996           242.018               Magadan2          7563.062
       177   04 Jun 2027 03:27:00.580   04 Jun 2027 03:27:55.026            54.446                Anadyr2          1701.438
       178   04 Jun 2027 03:27:58.073   04 Jun 2027 03:28:55.274            57.201               Magadan2          1787.531
       179   04 Jun 2027 04:11:59.921   04 Jun 2027 04:12:34.131            34.210            RioGallegos          1069.062
       180   04 Jun 2027 04:59:34.694   04 Jun 2027 05:00:56.122            81.428                Irkutsk          2544.625
       181   04 Jun 2027 05:01:08.242   04 Jun 2027 05:03:00.528           112.286                Irkutsk          3508.937
       182   04 Jun 2027 05:04:01.323   04 Jun 2027 05:04:18.724            17.401                Irkutsk           543.781
       183   04 Jun 2027 05:04:19.831   04 Jun 2027 05:04:31.963            12.132               Magadan1           379.125
       184   04 Jun 2027 06:43:08.065   04 Jun 2027 06:43:12.370             4.305              Murmansk1           134.531
       185   04 Jun 2027 07:56:01.816   04 Jun 2027 07:56:11.801             9.985                Sumatra           312.031
       186   04 Jun 2027 08:13:26.090   04 Jun 2027 08:13:50.049            23.959              Murmansk1           748.719
       187   04 Jun 2027 08:13:59.160   04 Jun 2027 08:14:07.754             8.594              Murmansk1           268.563
       188   04 Jun 2027 08:18:13.224   04 Jun 2027 08:19:02.801            49.577              Murmansk2          1549.281
       189   04 Jun 2027 09:39:57.726   04 Jun 2027 09:41:29.403            91.677                  Delhi          2864.906
       190   04 Jun 2027 09:56:33.131   04 Jun 2027 09:56:35.470             2.339                Norilsk            73.094
       191   04 Jun 2027 12:57:18.867   04 Jun 2027 12:58:27.251            68.384                 Moscow          2137.000
       192   04 Jun 2027 12:59:57.070   04 Jun 2027 13:01:48.206           111.136              Murmansk1          3473.000
       193   04 Jun 2027 13:02:10.738   04 Jun 2027 13:02:35.797            25.059              Murmansk2           783.094
       194   04 Jun 2027 13:04:05.740   04 Jun 2027 13:04:17.355            11.615              Murmansk2           362.969
       195   04 Jun 2027 13:04:41.767   04 Jun 2027 13:05:43.902            62.135              Murmansk1          1941.719
       196   04 Jun 2027 13:08:58.631   04 Jun 2027 13:09:26.649            28.018              Murmansk1           875.563
       197   04 Jun 2027 13:13:04.164   04 Jun 2027 13:18:34.418           330.254                Anadyr2         10320.438
       198   04 Jun 2027 14:40:10.910   04 Jun 2027 14:40:34.268            23.358              Murmansk1           729.937
       199   04 Jun 2027 14:42:17.005   04 Jun 2027 14:42:45.194            28.189              Murmansk2           880.906
       200   04 Jun 2027 14:48:46.930   04 Jun 2027 14:49:58.930            72.000                Anadyr1          2250.000
       201   04 Jun 2027 14:50:02.374   04 Jun 2027 14:51:21.062            78.688                Anadyr2          2459.000
       202   04 Jun 2027 14:51:41.566   04 Jun 2027 14:57:33.617           352.051               Magadan2         11001.594
       203   04 Jun 2027 14:57:47.684   04 Jun 2027 15:01:28.712           221.028               Magadan1          6907.125
       204   04 Jun 2027 16:27:00.112   04 Jun 2027 16:27:44.579            44.467               Magadan2          1389.594
       205   04 Jun 2027 17:20:11.740   04 Jun 2027 17:27:45.368           453.628            RioGallegos         14175.875
       206   04 Jun 2027 18:07:17.218   04 Jun 2027 18:13:28.276           371.058                Irkutsk         11595.563
       207   04 Jun 2027 18:21:42.955   04 Jun 2027 18:21:46.418             3.463                Sumatra           108.219
       208   04 Jun 2027 18:23:47.417   04 Jun 2027 18:29:20.042           332.625                Sumatra         10394.531
       209   04 Jun 2027 19:46:17.589   04 Jun 2027 19:48:08.999           111.410                Novosib          3481.562
       210   04 Jun 2027 19:51:50.577   04 Jun 2027 19:59:58.521           487.944                  Delhi         15248.250
       211   04 Jun 2027 21:17:11.780   04 Jun 2027 21:17:41.755            29.975              Murmansk2           936.719
       212   04 Jun 2027 21:18:26.854   04 Jun 2027 21:23:37.821           310.967              Murmansk1          9717.719
       213   04 Jun 2027 22:57:35.074   04 Jun 2027 22:57:44.148             9.074                 Moscow           283.562
       214   04 Jun 2027 22:58:25.588   04 Jun 2027 22:58:57.291            31.703                 Moscow           990.719
       215   04 Jun 2027 23:03:02.702   04 Jun 2027 23:03:05.390             2.688                 Moscow            84.000
       216   04 Jun 2027 23:21:41.825   04 Jun 2027 23:24:02.916           141.091               CapeTown          4409.094
       217   04 Jun 2027 23:25:34.716   04 Jun 2027 23:28:59.345           204.629               CapeTown          6394.656
       218   05 Jun 2027 00:59:09.693   05 Jun 2027 00:59:39.608            29.915               CapeTown           934.844
       219   05 Jun 2027 01:52:30.088   05 Jun 2027 01:52:39.508             9.420                Anadyr1           294.375
       220   05 Jun 2027 01:53:06.840   05 Jun 2027 01:54:28.083            81.243               Magadan2          2538.844
       221   05 Jun 2027 01:54:45.629   05 Jun 2027 01:55:19.637            34.008               Magadan1          1062.750
       222   05 Jun 2027 01:59:02.459   05 Jun 2027 01:59:07.771             5.312               Magadan2           166.000
       223   05 Jun 2027 02:00:50.537   05 Jun 2027 02:00:58.047             7.510                Norilsk           234.688
       224   05 Jun 2027 02:01:16.540   05 Jun 2027 02:01:36.825            20.285               Magadan2           633.906
       225   05 Jun 2027 02:04:01.383   05 Jun 2027 02:04:21.403            20.020               Magadan2           625.625
       226   05 Jun 2027 02:04:29.299   05 Jun 2027 02:05:10.273            40.974              Murmansk2          1280.438
       227   05 Jun 2027 02:05:34.435   05 Jun 2027 02:05:37.031             2.596              Murmansk1            81.125
       228   05 Jun 2027 02:06:10.009   05 Jun 2027 02:06:56.388            46.379              Murmansk2          1449.344
       229   05 Jun 2027 02:07:58.830   05 Jun 2027 02:08:57.481            58.651                 Moscow          1832.844
       230   05 Jun 2027 02:11:47.617   05 Jun 2027 02:11:53.882             6.265                 Moscow           195.781
       231   05 Jun 2027 02:12:40.508   05 Jun 2027 02:13:35.303            54.795                 Moscow          1712.344
       232   05 Jun 2027 03:28:01.772   05 Jun 2027 03:28:17.191            15.419               Magadan2           481.844
       233   05 Jun 2027 03:29:21.645   05 Jun 2027 03:29:33.199            11.554               Magadan2           361.063
       234   05 Jun 2027 03:30:17.725   05 Jun 2027 03:30:31.279            13.554               Magadan2           423.562
       235   05 Jun 2027 03:30:57.405   05 Jun 2027 03:31:27.650            30.245                Anadyr2           945.156
       236   05 Jun 2027 03:34:17.772   05 Jun 2027 03:34:29.850            12.078                Anadyr2           377.437
       237   05 Jun 2027 03:34:48.449   05 Jun 2027 03:35:51.076            62.627               Magadan2          1957.094
       238   05 Jun 2027 03:35:57.755   05 Jun 2027 03:38:58.657           180.902                Anadyr1          5653.187
       239   05 Jun 2027 03:38:58.657   05 Jun 2027 03:39:17.381            18.724                Anadyr2           585.125
       240   05 Jun 2027 03:39:29.307   05 Jun 2027 03:39:45.992            16.685               Magadan1           521.406
       241   05 Jun 2027 03:39:58.871   05 Jun 2027 03:40:23.211            24.340                Anadyr1           760.625
       242   05 Jun 2027 03:40:23.211   05 Jun 2027 03:40:34.733            11.522                Anadyr2           360.062
       243   05 Jun 2027 04:22:44.165   05 Jun 2027 04:23:24.590            40.425            RioGallegos          1263.281
       244   05 Jun 2027 04:24:27.548   05 Jun 2027 04:24:46.835            19.287            RioGallegos           602.719
       245   05 Jun 2027 05:10:18.899   05 Jun 2027 05:11:04.965            46.066                Irkutsk          1439.563
       246   05 Jun 2027 05:11:33.275   05 Jun 2027 05:12:47.151            73.876                Irkutsk          2308.625
       247   05 Jun 2027 05:13:28.130   05 Jun 2027 05:13:34.967             6.837                Irkutsk           213.656
       248   05 Jun 2027 05:14:38.917   05 Jun 2027 05:15:34.855            55.938                Irkutsk          1748.062
       249   05 Jun 2027 05:16:11.402   05 Jun 2027 05:16:26.676            15.274               Magadan2           477.312
       250   05 Jun 2027 06:48:20.834   05 Jun 2027 06:48:27.595             6.761                Norilsk           211.281
       251   05 Jun 2027 06:48:50.414   05 Jun 2027 06:49:11.047            20.633                Norilsk           644.781
       252   05 Jun 2027 06:52:04.237   05 Jun 2027 06:52:10.488             6.251                Norilsk           195.344
       253   05 Jun 2027 06:52:25.440   05 Jun 2027 06:53:03.422            37.982                Norilsk          1186.938
       254   05 Jun 2027 08:27:48.532   05 Jun 2027 08:28:05.841            17.309                Novosib           540.906
       255   05 Jun 2027 08:30:57.674   05 Jun 2027 08:31:07.229             9.555                 Moscow           298.594
       256   05 Jun 2027 09:51:28.972   05 Jun 2027 09:53:14.808           105.836                  Delhi          3307.375
       257   05 Jun 2027 09:54:38.694   05 Jun 2027 09:55:28.718            50.024                  Delhi          1563.250
       258   05 Jun 2027 10:02:42.093   05 Jun 2027 10:03:09.609            27.516                Norilsk           859.875
       259   05 Jun 2027 10:05:14.885   05 Jun 2027 10:05:41.204            26.319                Norilsk           822.469
       260   05 Jun 2027 12:55:47.561   05 Jun 2027 12:56:43.366            55.805               CapeTown          1743.906
       261   05 Jun 2027 13:10:55.551   05 Jun 2027 13:11:29.030            33.479                 Moscow          1046.219
       262   05 Jun 2027 13:12:20.610   05 Jun 2027 13:13:14.836            54.226              Murmansk2          1694.562
       263   05 Jun 2027 13:13:14.836   05 Jun 2027 13:13:39.173            24.337              Murmansk1           760.531
       264   05 Jun 2027 13:14:11.397   05 Jun 2027 13:14:59.948            48.551              Murmansk2          1517.219
       265   05 Jun 2027 13:16:04.961   05 Jun 2027 13:17:16.731            71.770              Murmansk1          2242.813
       266   05 Jun 2027 13:25:01.948   05 Jun 2027 13:28:51.206           229.258                Anadyr2          7164.313
       267   05 Jun 2027 13:30:31.986   05 Jun 2027 13:31:38.551            66.565                Anadyr2          2080.156
       268   05 Jun 2027 14:53:03.464   05 Jun 2027 14:55:10.422           126.958              Murmansk2          3967.437
       269   05 Jun 2027 15:00:48.024   05 Jun 2027 15:01:58.530            70.506                Anadyr2          2203.312
       270   05 Jun 2027 15:02:52.095   05 Jun 2027 15:03:35.318            43.223                Anadyr1          1350.719
       271   05 Jun 2027 15:04:01.084   05 Jun 2027 15:06:24.980           143.896               Magadan2          4496.750
       272   05 Jun 2027 15:07:02.983   05 Jun 2027 15:09:35.568           152.585               Magadan1          4768.281
       273   05 Jun 2027 15:10:58.584   05 Jun 2027 15:14:01.068           182.484               Magadan1          5702.625
       274   05 Jun 2027 16:39:00.418   05 Jun 2027 16:39:28.133            27.715               Magadan2           866.094
       275   05 Jun 2027 16:41:18.989   05 Jun 2027 16:42:14.690            55.701               Magadan2          1740.656
       276   05 Jun 2027 16:45:24.912   05 Jun 2027 16:46:41.910            76.998               Magadan2          2406.188
       277   05 Jun 2027 17:31:46.126   05 Jun 2027 17:38:28.448           402.322            RioGallegos         12572.562
       278   05 Jun 2027 18:14:37.414   05 Jun 2027 18:15:38.176            60.762                Norilsk          1898.812
       279   05 Jun 2027 18:16:51.828   05 Jun 2027 18:19:43.534           171.706                Norilsk          5365.813
       280   05 Jun 2027 18:20:20.127   05 Jun 2027 18:20:57.027            36.900                Irkutsk          1153.125
       281   05 Jun 2027 18:22:24.847   05 Jun 2027 18:23:24.478            59.631                Irkutsk          1863.469
       282   05 Jun 2027 18:25:31.158   05 Jun 2027 18:27:19.462           108.304                Irkutsk          3384.500
       283   05 Jun 2027 18:33:11.157   05 Jun 2027 18:34:30.573            79.416                Sumatra          2481.750
       284   05 Jun 2027 18:36:42.040   05 Jun 2027 18:37:42.037            59.997                Sumatra          1874.906
       285   05 Jun 2027 18:37:52.073   05 Jun 2027 18:40:05.682           133.609                Sumatra          4175.281
       286   05 Jun 2027 19:54:43.304   05 Jun 2027 19:56:10.087            86.783                Novosib          2711.969
       287   05 Jun 2027 19:56:56.026   05 Jun 2027 19:57:19.102            23.076                Novosib           721.125
       288   05 Jun 2027 20:03:10.454   05 Jun 2027 20:10:43.471           453.017                  Delhi         14156.781
       289   05 Jun 2027 21:29:04.164   05 Jun 2027 21:30:52.342           108.178              Murmansk2          3380.563
       290   05 Jun 2027 21:32:40.970   05 Jun 2027 21:34:49.115           128.145              Murmansk1          4004.531
       291   05 Jun 2027 21:34:49.408   05 Jun 2027 21:36:23.211            93.803              Murmansk2          2931.344
       292   05 Jun 2027 23:09:30.698   05 Jun 2027 23:10:26.928            56.230                 Moscow          1757.188
       293   05 Jun 2027 23:14:57.163   05 Jun 2027 23:15:18.556            21.393                 Moscow           668.531
       294   05 Jun 2027 23:33:08.403   05 Jun 2027 23:36:22.653           194.250               CapeTown          6070.312
       295   05 Jun 2027 23:38:27.819   05 Jun 2027 23:40:00.567            92.748               CapeTown          2898.375
       296   06 Jun 2027 00:45:48.083   06 Jun 2027 00:47:03.291            75.208                 Moscow          2350.250
       297   06 Jun 2027 01:07:53.568   06 Jun 2027 01:09:09.834            76.266               CapeTown          2383.313
       298   06 Jun 2027 02:04:37.963   06 Jun 2027 02:04:46.948             8.985                Anadyr2           280.781
       299   06 Jun 2027 02:04:47.374   06 Jun 2027 02:04:59.219            11.845                Anadyr2           370.156
       300   06 Jun 2027 02:05:26.133   06 Jun 2027 02:05:59.387            33.254                Anadyr1          1039.188
       301   06 Jun 2027 02:06:02.723   06 Jun 2027 02:07:37.410            94.687               Magadan1          2958.969
       302   06 Jun 2027 02:10:14.773   06 Jun 2027 02:10:33.538            18.765               Magadan1           586.406
       303   06 Jun 2027 02:12:41.576   06 Jun 2027 02:12:46.782             5.206                Norilsk           162.688
       304   06 Jun 2027 02:12:49.067   06 Jun 2027 02:12:51.790             2.723                Norilsk            85.094
       305   06 Jun 2027 02:13:50.018   06 Jun 2027 02:13:56.463             6.445               Magadan2           201.406
       306   06 Jun 2027 02:14:43.586   06 Jun 2027 02:14:55.715            12.129                Norilsk           379.031
       307   06 Jun 2027 02:16:20.256   06 Jun 2027 02:16:28.673             8.417                Norilsk           263.031
       308   06 Jun 2027 02:16:29.816   06 Jun 2027 02:17:11.095            41.279              Murmansk2          1289.969
       309   06 Jun 2027 02:17:59.484   06 Jun 2027 02:18:35.461            35.977              Murmansk2          1124.281
       310   06 Jun 2027 02:19:11.644   06 Jun 2027 02:19:21.510             9.866              Murmansk1           308.313
       311   06 Jun 2027 02:20:04.581   06 Jun 2027 02:20:54.010            49.429                 Moscow          1544.656
       312   06 Jun 2027 02:23:40.780   06 Jun 2027 02:23:45.223             4.443                 Moscow           138.844
       313   06 Jun 2027 02:23:48.526   06 Jun 2027 02:24:21.124            32.598                 Moscow          1018.688
       314   06 Jun 2027 02:27:23.378   06 Jun 2027 02:28:04.683            41.305                 Moscow          1290.781
       315   06 Jun 2027 03:43:01.180   06 Jun 2027 03:43:24.924            23.744                Anadyr2           742.000
       316   06 Jun 2027 03:44:14.868   06 Jun 2027 03:44:22.515             7.647                Anadyr2           238.969
       317   06 Jun 2027 03:44:45.177   06 Jun 2027 03:46:19.130            93.953                Anadyr2          2936.031
       318   06 Jun 2027 03:47:13.492   06 Jun 2027 03:49:19.710           126.218                Anadyr2          3944.313
       319   06 Jun 2027 03:49:36.339   06 Jun 2027 03:52:56.713           200.374               Magadan1          6261.688
       320   06 Jun 2027 04:32:45.410   06 Jun 2027 04:36:07.000           201.590            RioGallegos          6299.688
       321   06 Jun 2027 05:24:46.903   06 Jun 2027 05:28:05.152           198.249                Irkutsk          6195.281
       322   06 Jun 2027 07:02:39.925   06 Jun 2027 07:02:58.131            18.206                Irkutsk           568.938
       323   06 Jun 2027 07:04:27.155   06 Jun 2027 07:04:28.531             1.376                Norilsk            43.000
       324   06 Jun 2027 07:45:28.484   06 Jun 2027 07:45:53.647            25.163            RioGallegos           786.344
       325   06 Jun 2027 08:18:24.772   06 Jun 2027 08:18:34.173             9.401                Sumatra           293.781
       326   06 Jun 2027 08:19:37.553   06 Jun 2027 08:20:57.807            80.254                Sumatra          2507.937
       327   06 Jun 2027 08:40:43.995   06 Jun 2027 08:40:47.800             3.805                Novosib           118.906
       328   06 Jun 2027 10:01:15.382   06 Jun 2027 10:03:47.336           151.954                  Delhi          4748.563
       329   06 Jun 2027 10:08:54.168   06 Jun 2027 10:09:09.926            15.758                  Delhi           492.438
       330   06 Jun 2027 10:18:25.736   06 Jun 2027 10:18:26.480             0.744                Norilsk            23.250
       331   06 Jun 2027 12:57:54.918   06 Jun 2027 12:58:09.182            14.264               CapeTown           445.750
       332   06 Jun 2027 12:59:22.138   06 Jun 2027 13:00:43.376            81.238               CapeTown          2538.687
       333   06 Jun 2027 13:05:44.353   06 Jun 2027 13:06:26.258            41.905               CapeTown          1309.531
       334   06 Jun 2027 13:22:57.958   06 Jun 2027 13:23:29.026            31.068                 Moscow           970.875
       335   06 Jun 2027 13:24:28.012   06 Jun 2027 13:25:47.518            79.506                 Moscow          2484.563
       336   06 Jun 2027 13:26:12.310   06 Jun 2027 13:27:35.327            83.017              Murmansk1          2594.281
       337   06 Jun 2027 13:28:18.880   06 Jun 2027 13:29:10.651            51.771              Murmansk2          1617.844
       338   06 Jun 2027 13:32:03.509   06 Jun 2027 13:32:09.285             5.776              Murmansk1           180.500
       339   06 Jun 2027 13:32:49.470   06 Jun 2027 13:33:49.816            60.346              Murmansk1          1885.812
       340   06 Jun 2027 13:37:00.511   06 Jun 2027 13:38:33.621            93.110                Anadyr2          2909.688
       341   06 Jun 2027 13:39:12.793   06 Jun 2027 13:40:52.469            99.676                Anadyr1          3114.875
       342   06 Jun 2027 13:44:05.068   06 Jun 2027 13:44:28.954            23.886                Anadyr1           746.437
       343   06 Jun 2027 13:45:49.741   06 Jun 2027 13:47:17.257            87.516                Anadyr2          2734.875
       344   06 Jun 2027 15:06:06.406   06 Jun 2027 15:06:19.087            12.681              Murmansk1           396.281
       345   06 Jun 2027 15:08:18.946   06 Jun 2027 15:08:45.773            26.827              Murmansk2           838.344
       346   06 Jun 2027 15:12:49.232   06 Jun 2027 15:14:56.446           127.214                Anadyr1          3975.438
       347   06 Jun 2027 15:14:56.446   06 Jun 2027 15:15:10.326            13.880                Anadyr2           433.750
       348   06 Jun 2027 15:15:27.366   06 Jun 2027 15:21:21.384           354.018               Magadan1         11063.062
       349   06 Jun 2027 15:24:02.307   06 Jun 2027 15:26:28.905           146.598               Magadan1          4581.188
       350   06 Jun 2027 16:51:20.827   06 Jun 2027 16:52:16.913            56.086               Magadan1          1752.687
       351   06 Jun 2027 17:43:27.684   06 Jun 2027 17:49:43.074           375.390            RioGallegos         11730.937
       352   06 Jun 2027 18:26:36.828   06 Jun 2027 18:30:15.255           218.427                Norilsk          6825.844
       353   06 Jun 2027 18:30:54.833   06 Jun 2027 18:32:05.959            71.126                Irkutsk          2222.687
       354   06 Jun 2027 18:33:03.427   06 Jun 2027 18:33:59.532            56.105                Irkutsk          1753.281
       355   06 Jun 2027 18:34:20.862   06 Jun 2027 18:35:48.651            87.789                Novosib          2743.406
       356   06 Jun 2027 18:44:48.307   06 Jun 2027 18:46:23.536            95.229                Sumatra          2975.906
       357   06 Jun 2027 18:48:39.993   06 Jun 2027 18:50:35.540           115.547                Sumatra          3610.844
       358   06 Jun 2027 18:51:00.699   06 Jun 2027 18:51:16.447            15.748                Sumatra           492.125
       359   06 Jun 2027 20:06:37.731   06 Jun 2027 20:08:35.294           117.563                Novosib          3673.844
       360   06 Jun 2027 20:14:42.100   06 Jun 2027 20:18:06.096           203.996                  Delhi          6374.875
       361   06 Jun 2027 20:18:18.487   06 Jun 2027 20:21:28.097           189.610                  Delhi          5925.312
       362   06 Jun 2027 21:40:59.017   06 Jun 2027 21:49:04.052           485.035              Murmansk1         15157.344
       363   06 Jun 2027 21:50:50.200   06 Jun 2027 21:51:08.356            18.156                 Moscow           567.375
       364   06 Jun 2027 23:19:51.509   06 Jun 2027 23:20:38.135            46.626              Murmansk1          1457.062
       365   06 Jun 2027 23:44:41.982   06 Jun 2027 23:48:15.529           213.547               CapeTown          6673.344
       366   07 Jun 2027 00:52:36.801   07 Jun 2027 00:53:41.944            65.143              Murmansk1          2035.719
       367   07 Jun 2027 00:55:08.587   07 Jun 2027 00:55:40.712            32.125              Murmansk1          1003.906
       368   07 Jun 2027 00:55:49.811   07 Jun 2027 00:55:59.715             9.904                 Moscow           309.500
       369   07 Jun 2027 01:00:12.139   07 Jun 2027 01:00:20.897             8.758                 Moscow           273.687
       370   07 Jun 2027 01:01:23.394   07 Jun 2027 01:01:31.722             8.328              Murmansk1           260.250
       371   07 Jun 2027 01:02:47.279   07 Jun 2027 01:04:25.353            98.074                 Moscow          3064.812
       372   07 Jun 2027 01:26:00.187   07 Jun 2027 01:26:18.098            17.911               CapeTown           559.719
       373   07 Jun 2027 01:29:12.797   07 Jun 2027 01:30:02.065            49.268               CapeTown          1539.625
       374   07 Jun 2027 02:16:41.070   07 Jun 2027 02:17:55.651            74.581               Magadan2          2330.656
       375   07 Jun 2027 02:18:23.998   07 Jun 2027 02:19:17.863            53.865               Magadan2          1683.281
       376   07 Jun 2027 02:20:29.954   07 Jun 2027 02:20:37.646             7.692               Magadan2           240.375
       377   07 Jun 2027 02:21:43.841   07 Jun 2027 02:22:47.891            64.050               Magadan1          2001.563
       378   07 Jun 2027 02:28:30.056   07 Jun 2027 02:29:12.231            42.175              Murmansk1          1317.969
       379   07 Jun 2027 02:31:58.425   07 Jun 2027 02:32:48.798            50.373              Murmansk1          1574.156
       380   07 Jun 2027 02:34:43.848   07 Jun 2027 02:35:24.858            41.010                 Moscow          1281.562
       381   07 Jun 2027 02:36:19.099   07 Jun 2027 02:36:58.402            39.303                 Moscow          1228.219
       382   07 Jun 2027 03:11:36.412   07 Jun 2027 03:13:19.210           102.798            RioGallegos          3212.438
       383   07 Jun 2027 03:56:34.311   07 Jun 2027 03:57:15.239            40.928               Magadan2          1279.000
       384   07 Jun 2027 03:59:01.865   07 Jun 2027 03:59:19.641            17.776               Magadan1           555.500
       385   07 Jun 2027 03:59:19.641   07 Jun 2027 04:01:00.621           100.980               Magadan2          3155.625
       386   07 Jun 2027 04:01:00.621   07 Jun 2027 04:03:35.019           154.398               Magadan1          4824.937
       387   07 Jun 2027 04:04:01.805   07 Jun 2027 04:04:23.303            21.498                Anadyr1           671.812
       388   07 Jun 2027 04:04:47.615   07 Jun 2027 04:04:51.515             3.900                Anadyr1           121.875
       389   07 Jun 2027 04:43:33.840   07 Jun 2027 04:44:58.119            84.279            RioGallegos          2633.719
       390   07 Jun 2027 04:46:59.979   07 Jun 2027 04:47:31.937            31.958            RioGallegos           998.688
       391   07 Jun 2027 04:49:03.030   07 Jun 2027 04:50:21.342            78.312            RioGallegos          2447.250
       392   07 Jun 2027 05:36:49.872   07 Jun 2027 05:38:22.457            92.585                Irkutsk          2893.281
       393   07 Jun 2027 05:38:49.202   07 Jun 2027 05:40:10.270            81.068               Magadan2          2533.375
       394   07 Jun 2027 05:41:26.882   07 Jun 2027 05:41:46.258            19.376                Novosib           605.500
       395   07 Jun 2027 05:45:03.313   07 Jun 2027 05:45:46.448            43.135                Norilsk          1347.969
       396   07 Jun 2027 07:16:28.953   07 Jun 2027 07:16:55.977            27.024                Norilsk           844.500
       397   07 Jun 2027 07:58:23.935   07 Jun 2027 07:58:49.077            25.142            RioGallegos           785.687
       398   07 Jun 2027 08:27:38.901   07 Jun 2027 08:28:23.095            44.194                Sumatra          1381.063
       399   07 Jun 2027 08:34:13.192   07 Jun 2027 08:35:01.960            48.768                Sumatra          1524.000
       400   07 Jun 2027 08:49:24.388   07 Jun 2027 08:49:29.445             5.057              Murmansk2           158.031
       401   07 Jun 2027 08:49:36.271   07 Jun 2027 08:49:53.255            16.984              Murmansk2           530.750
       402   07 Jun 2027 08:49:56.020   07 Jun 2027 08:50:21.230            25.210              Murmansk2           787.813
       403   07 Jun 2027 08:52:20.901   07 Jun 2027 08:52:28.316             7.415                Norilsk           231.719
       404   07 Jun 2027 10:13:07.144   07 Jun 2027 10:16:00.897           173.753                  Delhi          5429.781
       405   07 Jun 2027 10:31:52.853   07 Jun 2027 10:32:16.521            23.668                Norilsk           739.625
       406   07 Jun 2027 12:13:52.329   07 Jun 2027 12:17:00.671           188.342                Anadyr2          5885.688
       407   07 Jun 2027 12:17:32.519   07 Jun 2027 12:19:33.304           120.785                Anadyr1          3774.531
       408   07 Jun 2027 12:20:19.855   07 Jun 2027 12:21:03.641            43.786                Anadyr2          1368.312
       409   07 Jun 2027 13:37:15.112   07 Jun 2027 13:38:40.437            85.325              Murmansk2          2666.406
       410   07 Jun 2027 13:40:10.887   07 Jun 2027 13:40:21.952            11.065              Murmansk2           345.781
       411   07 Jun 2027 13:40:27.396   07 Jun 2027 13:40:52.618            25.222              Murmansk1           788.188
       412   07 Jun 2027 13:42:34.482   07 Jun 2027 13:42:50.490            16.008              Murmansk2           500.250
       413   07 Jun 2027 13:42:58.111   07 Jun 2027 13:43:29.894            31.783              Murmansk1           993.219
       414   07 Jun 2027 13:44:45.923   07 Jun 2027 13:45:44.072            58.149              Murmansk2          1817.156
       415   07 Jun 2027 13:48:59.700   07 Jun 2027 13:49:50.497            50.797                Anadyr1          1587.406
       416   07 Jun 2027 13:49:50.497   07 Jun 2027 13:51:04.683            74.186                Anadyr2          2318.312
       417   07 Jun 2027 13:52:53.039   07 Jun 2027 13:53:20.409            27.370                Anadyr1           855.312
       418   07 Jun 2027 13:54:16.242   07 Jun 2027 13:56:42.038           145.796               Magadan2          4556.125
       419   07 Jun 2027 15:24:50.528   07 Jun 2027 15:25:58.946            68.418                Anadyr1          2138.062
       420   07 Jun 2027 15:26:24.439   07 Jun 2027 15:27:02.531            38.092                Anadyr2          1190.375
       421   07 Jun 2027 15:27:22.827   07 Jun 2027 15:31:35.736           252.909               Magadan1          7903.406
       422   07 Jun 2027 15:33:05.197   07 Jun 2027 15:34:22.341            77.144               Magadan2          2410.750
       423   07 Jun 2027 15:34:22.341   07 Jun 2027 15:35:54.070            91.729               Magadan1          2866.531
       424   07 Jun 2027 17:03:02.249   07 Jun 2027 17:05:01.379           119.130               Magadan1          3722.813
       425   07 Jun 2027 17:07:08.029   07 Jun 2027 17:07:33.057            25.028                Norilsk           782.125
       426   07 Jun 2027 17:55:13.953   07 Jun 2027 17:58:32.458           198.505            RioGallegos          6203.281
       427   07 Jun 2027 17:59:24.870   07 Jun 2027 18:01:14.265           109.395            RioGallegos          3418.594
       428   07 Jun 2027 18:40:15.379   07 Jun 2027 18:42:37.373           141.994                Norilsk          4437.313
       429   07 Jun 2027 18:42:47.621   07 Jun 2027 18:45:06.499           138.878                Irkutsk          4339.937
       430   07 Jun 2027 18:46:28.785   07 Jun 2027 18:49:55.929           207.144                Novosib          6473.250
       431   07 Jun 2027 18:59:13.384   07 Jun 2027 19:00:43.530            90.146                Sumatra          2817.063
       432   07 Jun 2027 19:08:12.350   07 Jun 2027 19:08:57.006            44.656                Sumatra          1395.500
       433   07 Jun 2027 20:22:25.482   07 Jun 2027 20:24:06.396           100.914                Novosib          3153.563
       434   07 Jun 2027 20:26:21.576   07 Jun 2027 20:30:09.989           228.413                  Delhi          7137.906
       435   07 Jun 2027 20:31:37.712   07 Jun 2027 20:32:42.648            64.936                  Delhi          2029.250
       436   07 Jun 2027 21:52:55.581   07 Jun 2027 21:58:27.149           331.568              Murmansk1         10361.500
       437   07 Jun 2027 21:58:39.936   07 Jun 2027 22:01:41.123           181.187              Murmansk2          5662.094
       438   07 Jun 2027 22:02:56.706   07 Jun 2027 22:04:24.919            88.213                 Moscow          2756.656
       439   07 Jun 2027 23:32:02.130   07 Jun 2027 23:33:29.011            86.881                 Moscow          2715.031
       440   07 Jun 2027 23:37:16.009   07 Jun 2027 23:38:38.014            82.005                 Moscow          2562.656
       441   07 Jun 2027 23:56:21.636   07 Jun 2027 23:57:30.038            68.402               CapeTown          2137.562
       442   07 Jun 2027 23:58:13.008   08 Jun 2027 00:00:12.175           119.167               CapeTown          3723.969
       443   08 Jun 2027 01:04:38.334   08 Jun 2027 01:05:30.759            52.425              Murmansk2          1638.281
       444   08 Jun 2027 01:07:52.553   08 Jun 2027 01:08:58.101            65.548                 Moscow          2048.375
       445   08 Jun 2027 01:12:10.540   08 Jun 2027 01:12:25.208            14.668                 Moscow           458.375
       446   08 Jun 2027 01:13:24.371   08 Jun 2027 01:14:31.780            67.409                 Moscow          2106.531
       447   08 Jun 2027 01:32:32.706   08 Jun 2027 01:32:52.457            19.751               CapeTown           617.219
       448   08 Jun 2027 01:36:50.062   08 Jun 2027 01:37:10.580            20.518               CapeTown           641.188
       449   08 Jun 2027 01:41:23.714   08 Jun 2027 01:41:30.286             6.572               CapeTown           205.375
       450   08 Jun 2027 02:28:31.336   08 Jun 2027 02:31:26.997           175.661               Magadan1          5489.406
       451   08 Jun 2027 02:32:27.325   08 Jun 2027 02:32:43.947            16.622               Magadan1           519.438
       452   08 Jun 2027 02:33:12.035   08 Jun 2027 02:33:37.938            25.903               Magadan2           809.469
       453   08 Jun 2027 02:38:40.750   08 Jun 2027 02:38:55.285            14.535                Norilsk           454.219
       454   08 Jun 2027 02:40:19.841   08 Jun 2027 02:40:27.122             7.281                Norilsk           227.531
       455   08 Jun 2027 02:40:29.994   08 Jun 2027 02:41:13.614            43.620              Murmansk2          1363.125
       456   08 Jun 2027 02:41:36.532   08 Jun 2027 02:41:41.138             4.606              Murmansk1           143.937
       457   08 Jun 2027 02:42:39.763   08 Jun 2027 02:43:12.152            32.389              Murmansk2          1012.156
       458   08 Jun 2027 02:44:18.085   08 Jun 2027 02:45:01.698            43.613                 Moscow          1362.906
       459   08 Jun 2027 02:45:24.924   08 Jun 2027 02:46:27.328            62.404              Murmansk2          1950.125
       460   08 Jun 2027 03:22:02.685   08 Jun 2027 03:23:01.570            58.885            RioGallegos          1840.156
       461   08 Jun 2027 03:23:35.702   08 Jun 2027 03:24:19.422            43.720            RioGallegos          1366.250
       462   08 Jun 2027 03:24:55.589   08 Jun 2027 03:26:13.535            77.946            RioGallegos          2435.813
       463   08 Jun 2027 04:09:25.331   08 Jun 2027 04:09:34.776             9.445               Magadan1           295.156
       464   08 Jun 2027 04:10:21.488   08 Jun 2027 04:10:31.900            10.412                Anadyr2           325.375
       465   08 Jun 2027 04:10:39.812   08 Jun 2027 04:12:02.172            82.360               Magadan2          2573.750
       466   08 Jun 2027 04:12:04.678   08 Jun 2027 04:13:49.015           104.337                Irkutsk          3260.531
       467   08 Jun 2027 04:14:01.123   08 Jun 2027 04:15:37.862            96.739               Magadan1          3023.094
       468   08 Jun 2027 04:52:42.560   08 Jun 2027 04:54:25.668           103.108            RioGallegos          3222.125
       469   08 Jun 2027 04:55:09.894   08 Jun 2027 04:56:12.244            62.350            RioGallegos          1948.438
       470   08 Jun 2027 05:47:35.615   08 Jun 2027 05:48:28.201            52.586                Irkutsk          1643.313
       471   08 Jun 2027 05:48:33.935   08 Jun 2027 05:48:42.939             9.004                Novosib           281.375
       472   08 Jun 2027 05:48:47.340   08 Jun 2027 05:52:41.893           234.553                Irkutsk          7329.781
       473   08 Jun 2027 07:29:52.673   08 Jun 2027 07:30:03.655            10.982              Murmansk2           343.188
       474   08 Jun 2027 07:30:36.186   08 Jun 2027 07:30:49.556            13.370              Murmansk1           417.813
       475   08 Jun 2027 08:08:30.665   08 Jun 2027 08:09:14.966            44.301            RioGallegos          1384.406
       476   08 Jun 2027 08:40:31.412   08 Jun 2027 08:41:35.738            64.326                Sumatra          2010.188
       477   08 Jun 2027 09:03:55.266   08 Jun 2027 09:03:59.734             4.468                Novosib           139.625
       478   08 Jun 2027 09:04:11.756   08 Jun 2027 09:04:43.765            32.009                Novosib          1000.281
       479   08 Jun 2027 10:26:32.000   08 Jun 2027 10:28:50.981           138.981                  Delhi          4343.156
       480   08 Jun 2027 10:42:38.586   08 Jun 2027 10:42:40.587             2.001                Norilsk            62.531
       481   08 Jun 2027 12:10:59.745   08 Jun 2027 12:11:53.263            53.518              Murmansk1          1672.437
       482   08 Jun 2027 12:12:58.576   08 Jun 2027 12:13:38.669            40.093              Murmansk2          1252.906
