uniorb/output/strategy_4/Drop/Drop_KinoSat_111410.txt

KinoSat_111410
-------------------------
    Access    *     Start Time (UTCG)     *     Stop Time (UTCG)  *   Duration (s)        *       Station  *  Data (Mbytes)
         1   01 Jun 2027 04:14:27.528   01 Jun 2027 04:14:58.743            31.215                Norilsk           975.469
         2   01 Jun 2027 04:15:35.489   01 Jun 2027 04:18:46.545           191.056              Murmansk1          5970.500
         3   01 Jun 2027 04:18:48.136   01 Jun 2027 04:20:48.343           120.207                 Moscow          3756.469
         4   01 Jun 2027 04:34:48.216   01 Jun 2027 04:35:38.764            50.548               CapeTown          1579.625
         5   01 Jun 2027 04:43:02.607   01 Jun 2027 04:43:31.738            29.131               CapeTown           910.344
         6   01 Jun 2027 04:45:02.814   01 Jun 2027 04:45:51.495            48.681               CapeTown          1521.281
         7   01 Jun 2027 05:36:55.582   01 Jun 2027 05:37:17.567            21.985               Magadan2           687.031
         8   01 Jun 2027 05:37:17.567   01 Jun 2027 05:38:08.425            50.858               Magadan1          1589.313
         9   01 Jun 2027 05:38:08.425   01 Jun 2027 05:38:28.502            20.077               Magadan2           627.406
        10   01 Jun 2027 05:38:40.003   01 Jun 2027 05:40:30.946           110.943                Anadyr1          3466.969
        11   01 Jun 2027 05:42:24.408   01 Jun 2027 05:42:45.793            21.385                Anadyr1           668.281
        12   01 Jun 2027 07:14:24.998   01 Jun 2027 07:15:14.136            49.138                Irkutsk          1535.563
        13   01 Jun 2027 07:15:37.272   01 Jun 2027 07:18:30.637           173.365                Anadyr2          5417.656
        14   01 Jun 2027 07:19:03.454   01 Jun 2027 07:19:16.664            13.210              Murmansk1           412.812
        15   01 Jun 2027 07:19:16.664   01 Jun 2027 07:19:41.213            24.549              Murmansk2           767.156
        16   01 Jun 2027 07:19:41.213   01 Jun 2027 07:21:03.425            82.212              Murmansk1          2569.125
        17   01 Jun 2027 07:23:13.804   01 Jun 2027 07:23:17.453             3.649                 Moscow           114.031
        18   01 Jun 2027 08:47:57.087   01 Jun 2027 08:48:51.312            54.225               Magadan2          1694.531
        19   01 Jun 2027 08:49:18.662   01 Jun 2027 08:53:36.469           257.807               Magadan2          8056.469
        20   01 Jun 2027 08:53:54.050   01 Jun 2027 08:53:59.050             5.000               Magadan2           156.250
        21   01 Jun 2027 10:25:37.600   01 Jun 2027 10:29:12.674           215.074                Norilsk          6721.063
        22   01 Jun 2027 10:29:12.877   01 Jun 2027 10:29:39.266            26.389                Irkutsk           824.656
        23   01 Jun 2027 10:29:56.653   01 Jun 2027 10:30:07.356            10.703                Novosib           334.469
        24   01 Jun 2027 10:30:10.009   01 Jun 2027 10:31:46.272            96.263              Murmansk2          3008.219
        25   01 Jun 2027 11:05:34.421   01 Jun 2027 11:07:42.216           127.795            RioGallegos          3993.594
        26   01 Jun 2027 11:08:05.027   01 Jun 2027 11:08:58.768            53.741            RioGallegos          1679.406
        27   01 Jun 2027 11:39:53.408   01 Jun 2027 11:40:13.212            19.804                Sumatra           618.875
        28   01 Jun 2027 11:40:27.297   01 Jun 2027 11:41:47.801            80.504                Sumatra          2515.750
        29   01 Jun 2027 11:48:30.985   01 Jun 2027 11:49:01.959            30.974                  Delhi           967.938
        30   01 Jun 2027 15:17:21.616   01 Jun 2027 15:17:34.877            13.261                 Moscow           414.406
        31   01 Jun 2027 15:17:45.748   01 Jun 2027 15:22:12.022           266.274                Norilsk          8321.063
        32   01 Jun 2027 15:31:04.396   01 Jun 2027 15:31:35.368            30.972                Anadyr1           967.875
        33   01 Jun 2027 16:29:20.027   01 Jun 2027 16:31:29.405           129.378               CapeTown          4043.062
        34   01 Jun 2027 16:32:48.981   01 Jun 2027 16:33:20.695            31.714               CapeTown           991.063
        35   01 Jun 2027 16:55:04.433   01 Jun 2027 16:56:00.796            56.363              Murmansk1          1761.344
        36   01 Jun 2027 16:56:49.527   01 Jun 2027 16:57:29.023            39.496              Murmansk2          1234.250
        37   01 Jun 2027 16:58:22.674   01 Jun 2027 16:59:17.824            55.150              Murmansk2          1723.438
        38   01 Jun 2027 17:06:30.017   01 Jun 2027 17:06:46.339            16.322                Anadyr2           510.063
        39   01 Jun 2027 17:07:08.417   01 Jun 2027 17:07:38.509            30.092                Anadyr2           940.375
        40   01 Jun 2027 17:08:36.929   01 Jun 2027 17:08:49.813            12.884                Anadyr2           402.625
        41   01 Jun 2027 17:09:42.927   01 Jun 2027 17:09:53.535            10.608                Anadyr1           331.500
        42   01 Jun 2027 17:10:40.547   01 Jun 2027 17:11:18.980            38.433                Anadyr2          1201.031
        43   01 Jun 2027 17:12:02.774   01 Jun 2027 17:12:24.964            22.190                Anadyr1           693.437
        44   01 Jun 2027 17:13:02.540   01 Jun 2027 17:13:25.803            23.263                Anadyr1           726.969
        45   01 Jun 2027 18:08:12.660   01 Jun 2027 18:08:45.645            32.985               CapeTown          1030.781
        46   01 Jun 2027 18:29:52.276   01 Jun 2027 18:34:47.551           295.275              Murmansk2          9227.344
        47   01 Jun 2027 18:35:44.709   01 Jun 2027 18:35:55.605            10.896              Murmansk2           340.500
        48   01 Jun 2027 18:46:02.266   01 Jun 2027 18:47:12.767            70.501               Magadan1          2203.156
        49   01 Jun 2027 18:50:22.972   01 Jun 2027 18:50:33.383            10.411               Magadan1           325.344
        50   01 Jun 2027 20:14:10.672   01 Jun 2027 20:16:16.959           126.287                Anadyr1          3946.469
        51   01 Jun 2027 20:16:27.508   01 Jun 2027 20:19:46.618           199.110               Magadan2          6222.187
        52   01 Jun 2027 20:20:45.778   01 Jun 2027 20:21:40.109            54.331               Magadan2          1697.844
        53   01 Jun 2027 20:23:25.219   01 Jun 2027 20:24:09.948            44.729               Magadan1          1397.781
        54   01 Jun 2027 20:24:34.468   01 Jun 2027 20:24:37.800             3.332               Magadan1           104.125
        55   01 Jun 2027 20:24:41.090   01 Jun 2027 20:25:02.984            21.894               Magadan2           684.187
        56   01 Jun 2027 20:26:13.556   01 Jun 2027 20:26:32.582            19.026               Magadan1           594.563
        57   01 Jun 2027 20:28:23.672   01 Jun 2027 20:28:35.130            11.458               Magadan1           358.063
        58   01 Jun 2027 21:09:27.628   01 Jun 2027 21:10:42.806            75.178            RioGallegos          2349.313
        59   01 Jun 2027 21:11:31.672   01 Jun 2027 21:12:11.580            39.908            RioGallegos          1247.125
        60   01 Jun 2027 21:14:53.868   01 Jun 2027 21:15:49.064            55.196            RioGallegos          1724.875
        61   01 Jun 2027 21:16:12.759   01 Jun 2027 21:16:17.290             4.531            RioGallegos           141.594
        62   01 Jun 2027 21:49:56.350   01 Jun 2027 21:51:55.766           119.416                Anadyr1          3731.750
        63   01 Jun 2027 21:52:03.854   01 Jun 2027 21:53:10.937            67.083                Norilsk          2096.344
        64   01 Jun 2027 21:55:08.139   01 Jun 2027 21:55:09.336             1.197               Magadan1            37.406
        65   01 Jun 2027 21:55:26.762   01 Jun 2027 21:56:15.907            49.145               Magadan2          1535.781
        66   01 Jun 2027 21:59:07.946   01 Jun 2027 21:59:26.083            18.137                Irkutsk           566.781
        67   01 Jun 2027 21:59:58.920   01 Jun 2027 22:00:34.037            35.117                Irkutsk          1097.406
        68   01 Jun 2027 22:01:45.921   01 Jun 2027 22:02:40.549            54.628                Irkutsk          1707.125
        69   01 Jun 2027 22:10:58.422   01 Jun 2027 22:11:35.185            36.763                Sumatra          1148.844
        70   01 Jun 2027 22:16:07.141   01 Jun 2027 22:17:14.057            66.916                Sumatra          2091.125
        71   01 Jun 2027 22:20:23.586   01 Jun 2027 22:21:18.474            54.888                Sumatra          1715.250
        72   01 Jun 2027 22:55:52.134   01 Jun 2027 22:56:13.002            20.868            RioGallegos           652.125
        73   01 Jun 2027 23:25:02.798   01 Jun 2027 23:25:56.090            53.292                Anadyr1          1665.375
        74   01 Jun 2027 23:26:14.464   01 Jun 2027 23:27:28.164            73.700                Anadyr2          2303.125
        75   01 Jun 2027 23:27:55.197   01 Jun 2027 23:28:06.615            11.418                Norilsk           356.813
        76   01 Jun 2027 23:28:33.257   01 Jun 2027 23:29:20.956            47.699               Magadan2          1490.594
        77   01 Jun 2027 23:30:08.790   01 Jun 2027 23:30:20.988            12.198               Magadan1           381.188
        78   01 Jun 2027 23:31:00.463   01 Jun 2027 23:31:21.001            20.538               Magadan2           641.813
        79   01 Jun 2027 23:31:47.849   01 Jun 2027 23:32:01.372            13.523                Irkutsk           422.594
        80   01 Jun 2027 23:32:26.965   01 Jun 2027 23:32:37.475            10.510                Novosib           328.438
        81   01 Jun 2027 23:33:19.071   01 Jun 2027 23:33:32.311            13.240                Novosib           413.750
        82   01 Jun 2027 23:34:59.681   01 Jun 2027 23:35:45.837            46.156                Novosib          1442.375
        83   01 Jun 2027 23:38:00.686   01 Jun 2027 23:38:18.134            17.448                Novosib           545.250
        84   01 Jun 2027 23:38:31.291   01 Jun 2027 23:39:44.654            73.363                Novosib          2292.594
        85   01 Jun 2027 23:41:45.423   01 Jun 2027 23:44:06.191           140.768                  Delhi          4399.000
        86   02 Jun 2027 00:29:58.614   02 Jun 2027 00:31:02.197            63.583            RioGallegos          1986.969
        87   02 Jun 2027 00:58:56.665   02 Jun 2027 00:59:25.846            29.181                Anadyr1           911.906
        88   02 Jun 2027 01:00:28.388   02 Jun 2027 01:01:15.583            47.195                Anadyr2          1474.844
        89   02 Jun 2027 01:01:34.165   02 Jun 2027 01:01:36.334             2.169                Anadyr2            67.781
        90   02 Jun 2027 01:03:55.771   02 Jun 2027 01:05:12.473            76.702                Norilsk          2396.937
        91   02 Jun 2027 01:05:13.452   02 Jun 2027 01:06:18.032            64.580               Magadan1          2018.125
        92   02 Jun 2027 01:06:33.557   02 Jun 2027 01:08:07.374            93.817              Murmansk2          2931.781
        93   02 Jun 2027 01:11:38.091   02 Jun 2027 01:12:36.488            58.397              Murmansk1          1824.906
        94   02 Jun 2027 01:18:02.922   02 Jun 2027 01:18:14.778            11.856                Novosib           370.500
        95   02 Jun 2027 01:18:51.804   02 Jun 2027 01:18:54.080             2.276                Irkutsk            71.125
        96   02 Jun 2027 01:19:03.053   02 Jun 2027 01:19:18.658            15.605                Novosib           487.656
        97   02 Jun 2027 01:19:34.768   02 Jun 2027 01:19:57.053            22.285                  Delhi           696.406
        98   02 Jun 2027 01:21:31.721   02 Jun 2027 01:24:05.124           153.403                  Delhi          4793.844
        99   02 Jun 2027 02:01:41.430   02 Jun 2027 02:01:49.930             8.500            RioGallegos           265.625
       100   02 Jun 2027 02:02:18.777   02 Jun 2027 02:02:42.454            23.677            RioGallegos           739.906
       101   02 Jun 2027 02:32:13.765   02 Jun 2027 02:32:20.768             7.003                Anadyr1           218.844
       102   02 Jun 2027 02:33:29.371   02 Jun 2027 02:33:34.820             5.449                Anadyr2           170.281
       103   02 Jun 2027 02:34:59.273   02 Jun 2027 02:35:18.012            18.739                Anadyr1           585.594
       104   02 Jun 2027 02:35:27.580   02 Jun 2027 02:35:36.555             8.975                Anadyr2           280.469
       105   02 Jun 2027 02:35:51.035   02 Jun 2027 02:35:55.370             4.335                Anadyr2           135.469
       106   02 Jun 2027 02:37:31.074   02 Jun 2027 02:38:22.314            51.240                Anadyr2          1601.250
       107   02 Jun 2027 02:38:29.373   02 Jun 2027 02:38:54.262            24.889               Magadan1           777.781
       108   02 Jun 2027 02:39:49.002   02 Jun 2027 02:40:06.572            17.570                Norilsk           549.063
       109   02 Jun 2027 02:40:17.305   02 Jun 2027 02:40:30.535            13.230               Magadan1           413.438
       110   02 Jun 2027 02:40:50.998   02 Jun 2027 02:41:19.629            28.631                Norilsk           894.719
       111   02 Jun 2027 02:42:04.109   02 Jun 2027 02:42:19.768            15.659              Murmansk1           489.344
       112   02 Jun 2027 02:42:19.768   02 Jun 2027 02:43:13.972            54.204              Murmansk2          1693.875
       113   02 Jun 2027 02:45:13.071   02 Jun 2027 02:45:25.696            12.625                Novosib           394.531
       114   02 Jun 2027 02:46:13.256   02 Jun 2027 02:46:42.754            29.498                Irkutsk           921.812
       115   02 Jun 2027 02:48:47.609   02 Jun 2027 02:48:48.695             1.086                Irkutsk            33.937
       116   02 Jun 2027 02:49:39.332   02 Jun 2027 02:49:39.848             0.516                Novosib            16.125
       117   02 Jun 2027 02:49:51.089   02 Jun 2027 02:50:42.374            51.285                Novosib          1602.656
       118   02 Jun 2027 02:54:34.776   02 Jun 2027 02:57:14.674           159.898                  Delhi          4996.812
       119   02 Jun 2027 04:27:37.432   02 Jun 2027 04:30:04.830           147.398              Murmansk2          4606.187
       120   02 Jun 2027 04:30:23.146   02 Jun 2027 04:30:43.600            20.454                 Moscow           639.187
       121   02 Jun 2027 04:45:13.665   02 Jun 2027 04:47:26.363           132.698               CapeTown          4146.813
       122   02 Jun 2027 05:48:53.480   02 Jun 2027 05:51:44.286           170.806               Magadan2          5337.687
       123   02 Jun 2027 05:51:53.865   02 Jun 2027 05:52:11.057            17.192               Magadan2           537.250
       124   02 Jun 2027 09:02:16.750   02 Jun 2027 09:03:14.064            57.314                Irkutsk          1791.062
       125   02 Jun 2027 09:03:17.800   02 Jun 2027 09:05:52.904           155.104               Magadan2          4847.000
       126   02 Jun 2027 10:37:46.737   02 Jun 2027 10:37:47.569             0.832                Novosib            26.000
       127   02 Jun 2027 10:37:58.929   02 Jun 2027 10:38:31.349            32.420                Norilsk          1013.125
       128   02 Jun 2027 10:38:40.224   02 Jun 2027 10:38:59.918            19.694                Norilsk           615.437
       129   02 Jun 2027 10:39:11.727   02 Jun 2027 10:39:41.192            29.465                Novosib           920.781
       130   02 Jun 2027 10:39:43.119   02 Jun 2027 10:40:15.129            32.010                Novosib          1000.312
       131   02 Jun 2027 10:40:18.601   02 Jun 2027 10:41:51.113            92.512                Irkutsk          2891.000
       132   02 Jun 2027 11:17:59.388   02 Jun 2027 11:18:38.228            38.840            RioGallegos          1213.750
       133   02 Jun 2027 11:19:00.260   02 Jun 2027 11:19:35.686            35.426            RioGallegos          1107.063
       134   02 Jun 2027 11:22:51.475   02 Jun 2027 11:23:03.736            12.261            RioGallegos           383.156
       135   02 Jun 2027 11:52:13.517   02 Jun 2027 11:53:44.271            90.754                Sumatra          2836.063
       136   02 Jun 2027 12:07:30.156   02 Jun 2027 12:07:53.592            23.436                Irkutsk           732.375
       137   02 Jun 2027 12:08:42.812   02 Jun 2027 12:09:17.983            35.171                Irkutsk          1099.094
       138   02 Jun 2027 12:15:32.090   02 Jun 2027 12:16:18.111            46.021                Norilsk          1438.156
       139   02 Jun 2027 13:37:11.902   02 Jun 2027 13:40:16.265           184.363                  Delhi          5761.344
       140   02 Jun 2027 13:45:37.914   02 Jun 2027 13:45:44.703             6.789                Novosib           212.156
       141   02 Jun 2027 13:46:52.426   02 Jun 2027 13:47:47.497            55.071                Novosib          1720.969
       142   02 Jun 2027 13:47:51.277   02 Jun 2027 13:48:43.314            52.037              Murmansk1          1626.156
       143   02 Jun 2027 13:49:13.725   02 Jun 2027 13:49:25.870            12.145                Norilsk           379.531
       144   02 Jun 2027 13:50:02.555   02 Jun 2027 13:50:31.204            28.649                Novosib           895.281
       145   02 Jun 2027 13:50:47.754   02 Jun 2027 13:51:32.817            45.063                Norilsk          1408.219
       146   02 Jun 2027 13:57:21.959   02 Jun 2027 13:59:00.009            98.050                Norilsk          3064.063
       147   02 Jun 2027 15:20:25.803   02 Jun 2027 15:22:20.930           115.127                 Moscow          3597.719
       148   02 Jun 2027 15:23:56.822   02 Jun 2027 15:25:01.039            64.217              Murmansk2          2006.781
       149   02 Jun 2027 15:27:02.529   02 Jun 2027 15:27:14.189            11.660              Murmansk1           364.375
       150   02 Jun 2027 15:27:19.280   02 Jun 2027 15:27:29.249             9.969              Murmansk2           311.531
       151   02 Jun 2027 15:29:05.767   02 Jun 2027 15:29:22.619            16.852                 Moscow           526.625
       152   02 Jun 2027 15:30:54.909   02 Jun 2027 15:31:19.533            24.624                Norilsk           769.500
       153   02 Jun 2027 15:31:34.161   02 Jun 2027 15:33:01.685            87.524                Norilsk          2735.125
       154   02 Jun 2027 15:39:48.496   02 Jun 2027 15:40:24.501            36.005                Anadyr1          1125.156
       155   02 Jun 2027 15:40:48.094   02 Jun 2027 15:41:01.889            13.795                Anadyr1           431.094
       156   02 Jun 2027 16:33:54.045   02 Jun 2027 16:34:49.462            55.417               CapeTown          1731.781
       157   02 Jun 2027 16:41:14.076   02 Jun 2027 16:42:04.980            50.904               CapeTown          1590.750
       158   02 Jun 2027 16:59:46.875   02 Jun 2027 17:00:30.621            43.746                 Moscow          1367.063
       159   02 Jun 2027 17:01:56.037   02 Jun 2027 17:02:58.820            62.783              Murmansk1          1961.969
       160   02 Jun 2027 17:06:40.721   02 Jun 2027 17:07:06.618            25.897              Murmansk2           809.281
       161   02 Jun 2027 17:10:55.787   02 Jun 2027 17:11:51.680            55.893              Murmansk1          1746.656
       162   02 Jun 2027 17:14:28.144   02 Jun 2027 17:15:03.509            35.365                Anadyr1          1105.156
       163   02 Jun 2027 17:15:26.075   02 Jun 2027 17:15:54.781            28.706                Anadyr1           897.063
       164   02 Jun 2027 17:19:17.781   02 Jun 2027 17:19:33.275            15.494                Anadyr2           484.188
       165   02 Jun 2027 17:19:33.275   02 Jun 2027 17:19:45.758            12.483                Anadyr1           390.094
       166   02 Jun 2027 17:21:38.129   02 Jun 2027 17:21:54.209            16.080                Anadyr1           502.500
       167   02 Jun 2027 18:10:21.534   02 Jun 2027 18:10:34.990            13.456               CapeTown           420.500
       168   02 Jun 2027 18:10:55.562   02 Jun 2027 18:11:12.584            17.022               CapeTown           531.938
       169   02 Jun 2027 18:13:49.356   02 Jun 2027 18:13:56.491             7.135               CapeTown           222.969
       170   02 Jun 2027 18:15:07.951   02 Jun 2027 18:15:50.816            42.865               CapeTown          1339.531
       171   02 Jun 2027 18:42:47.138   02 Jun 2027 18:46:47.945           240.807              Murmansk1          7525.219
       172   02 Jun 2027 18:50:16.079   02 Jun 2027 18:50:29.149            13.070                Anadyr1           408.437
       173   02 Jun 2027 18:52:57.747   02 Jun 2027 18:54:06.150            68.403               Magadan2          2137.594
       174   02 Jun 2027 18:55:12.192   02 Jun 2027 18:55:52.776            40.584               Magadan1          1268.250
       175   02 Jun 2027 18:59:42.632   02 Jun 2027 18:59:50.318             7.686               Magadan1           240.187
       176   02 Jun 2027 19:00:24.380   02 Jun 2027 19:00:59.411            35.031               Magadan2          1094.719
       177   02 Jun 2027 20:26:11.919   02 Jun 2027 20:28:18.704           126.785                Anadyr1          3962.031
       178   02 Jun 2027 20:28:20.174   02 Jun 2027 20:30:12.560           112.386                Anadyr2          3512.063
       179   02 Jun 2027 20:30:16.181   02 Jun 2027 20:31:44.610            88.429               Magadan1          2763.406
       180   02 Jun 2027 20:32:13.802   02 Jun 2027 20:32:51.056            37.254               Magadan1          1164.188
       181   02 Jun 2027 20:36:06.882   02 Jun 2027 20:36:27.013            20.131               Magadan2           629.094
       182   02 Jun 2027 20:38:47.007   02 Jun 2027 20:38:58.454            11.447               Magadan2           357.719
       183   02 Jun 2027 20:39:08.724   02 Jun 2027 20:39:35.084            26.360               Magadan1           823.750
       184   02 Jun 2027 21:21:05.355   02 Jun 2027 21:23:18.782           133.427            RioGallegos          4169.594
       185   02 Jun 2027 21:25:25.524   02 Jun 2027 21:25:40.535            15.011            RioGallegos           469.094
       186   02 Jun 2027 21:26:10.623   02 Jun 2027 21:26:57.980            47.357            RioGallegos          1479.906
       187   02 Jun 2027 21:30:09.385   02 Jun 2027 21:30:20.805            11.420            RioGallegos           356.875
       188   02 Jun 2027 22:01:54.618   02 Jun 2027 22:02:29.975            35.357                Anadyr2          1104.906
       189   02 Jun 2027 22:04:03.192   02 Jun 2027 22:05:48.917           105.725                Norilsk          3303.906
       190   02 Jun 2027 22:06:04.032   02 Jun 2027 22:06:31.199            27.167               Magadan2           848.969
       191   02 Jun 2027 22:07:07.309   02 Jun 2027 22:07:30.386            23.077                Norilsk           721.156
       192   02 Jun 2027 22:08:22.315   02 Jun 2027 22:09:12.576            50.261                Norilsk          1570.656
       193   02 Jun 2027 22:10:52.264   02 Jun 2027 22:11:50.185            57.921                Irkutsk          1810.031
       194   02 Jun 2027 22:22:30.034   02 Jun 2027 22:24:07.767            97.733                Sumatra          3054.156
       195   02 Jun 2027 22:26:19.979   02 Jun 2027 22:27:59.972            99.993                Sumatra          3124.781
       196   02 Jun 2027 23:36:53.254   02 Jun 2027 23:36:59.504             6.250                Anadyr1           195.313
       197   02 Jun 2027 23:37:12.643   02 Jun 2027 23:37:55.068            42.425                Anadyr1          1325.781
       198   02 Jun 2027 23:39:13.055   02 Jun 2027 23:39:29.810            16.755                Anadyr1           523.594
       199   02 Jun 2027 23:39:57.269   02 Jun 2027 23:40:20.185            22.916                Norilsk           716.125
       200   02 Jun 2027 23:40:36.009   02 Jun 2027 23:42:16.808           100.799               Magadan2          3149.969
       201   02 Jun 2027 23:43:49.169   02 Jun 2027 23:44:27.719            38.550                Irkutsk          1204.688
       202   02 Jun 2027 23:44:50.243   02 Jun 2027 23:45:36.400            46.157                Novosib          1442.406
       203   02 Jun 2027 23:46:51.640   02 Jun 2027 23:47:28.265            36.625                Novosib          1144.531
       204   02 Jun 2027 23:50:15.751   02 Jun 2027 23:50:35.477            19.726                Novosib           616.438
       205   02 Jun 2027 23:50:55.386   02 Jun 2027 23:52:23.155            87.769                Novosib          2742.781
       206   02 Jun 2027 23:56:31.754   02 Jun 2027 23:57:02.732            30.978                  Delhi           968.063
       207   03 Jun 2027 00:36:09.697   03 Jun 2027 00:36:46.764            37.067            RioGallegos          1158.344
       208   03 Jun 2027 00:40:23.737   03 Jun 2027 00:41:08.746            45.009            RioGallegos          1406.531
       209   03 Jun 2027 01:11:23.256   03 Jun 2027 01:11:25.044             1.788                Anadyr2            55.875
       210   03 Jun 2027 01:11:49.129   03 Jun 2027 01:12:29.730            40.601                Anadyr1          1268.781
       211   03 Jun 2027 01:13:02.669   03 Jun 2027 01:13:35.919            33.250                Anadyr2          1039.063
       212   03 Jun 2027 01:15:57.635   03 Jun 2027 01:16:32.572            34.937                Norilsk          1091.781
       213   03 Jun 2027 01:17:05.778   03 Jun 2027 01:18:08.570            62.792               Magadan1          1962.250
       214   03 Jun 2027 01:18:27.527   03 Jun 2027 01:22:07.227           219.700              Murmansk2          6865.625
       215   03 Jun 2027 01:27:08.722   03 Jun 2027 01:27:42.650            33.928                  Delhi          1060.250
       216   03 Jun 2027 01:36:00.093   03 Jun 2027 01:36:07.251             7.158                  Delhi           223.687
       217   03 Jun 2027 01:36:50.000   03 Jun 2027 01:37:37.666            47.666                  Delhi          1489.562
       218   03 Jun 2027 02:10:09.423   03 Jun 2027 02:11:32.277            82.854            RioGallegos          2589.188
       219   03 Jun 2027 02:12:12.254   03 Jun 2027 02:12:12.794             0.540            RioGallegos            16.875
       220   03 Jun 2027 02:13:10.424   03 Jun 2027 02:13:30.577            20.153            RioGallegos           629.781
       221   03 Jun 2027 02:43:57.142   03 Jun 2027 02:44:20.236            23.094                Anadyr2           721.687
       222   03 Jun 2027 02:44:26.531   03 Jun 2027 02:44:44.625            18.094                Anadyr2           565.438
       223   03 Jun 2027 02:46:48.425   03 Jun 2027 02:47:03.751            15.326                Anadyr2           478.938
       224   03 Jun 2027 02:49:31.502   03 Jun 2027 02:50:28.324            56.822               Magadan2          1775.687
       225   03 Jun 2027 02:50:31.929   03 Jun 2027 02:50:50.313            18.384               Magadan1           574.500
       226   03 Jun 2027 02:51:49.019   03 Jun 2027 02:52:01.669            12.650                Norilsk           395.313
       227   03 Jun 2027 02:53:22.016   03 Jun 2027 02:53:31.342             9.326               Magadan2           291.437
       228   03 Jun 2027 02:54:05.312   03 Jun 2027 02:55:53.304           107.992              Murmansk2          3374.750
       229   03 Jun 2027 02:57:02.259   03 Jun 2027 02:57:35.067            32.808                Novosib          1025.250
       230   03 Jun 2027 03:00:00.849   03 Jun 2027 03:00:14.111            13.262                 Moscow           414.437
       231   03 Jun 2027 03:00:28.722   03 Jun 2027 03:01:27.965            59.243                Novosib          1851.344
       232   03 Jun 2027 03:01:34.049   03 Jun 2027 03:02:07.225            33.176              Murmansk1          1036.750
       233   03 Jun 2027 03:02:14.920   03 Jun 2027 03:02:48.311            33.391                Novosib          1043.469
       234   03 Jun 2027 03:03:03.864   03 Jun 2027 03:03:32.323            28.459                 Moscow           889.344
       235   03 Jun 2027 03:03:33.614   03 Jun 2027 03:04:03.788            30.174                Novosib           942.938
       236   03 Jun 2027 03:04:10.017   03 Jun 2027 03:04:12.312             2.295                Norilsk            71.719
       237   03 Jun 2027 03:04:23.617   03 Jun 2027 03:04:33.504             9.887              Murmansk1           308.969
       238   03 Jun 2027 03:04:34.932   03 Jun 2027 03:05:26.980            52.048              Murmansk2          1626.500
       239   03 Jun 2027 03:22:26.838   03 Jun 2027 03:23:03.519            36.681               CapeTown          1146.281
       240   03 Jun 2027 04:18:10.735   03 Jun 2027 04:19:40.978            90.243                Anadyr1          2820.094
       241   03 Jun 2027 04:39:06.600   03 Jun 2027 04:39:20.396            13.796                 Moscow           431.125
       242   03 Jun 2027 04:39:27.042   03 Jun 2027 04:39:38.653            11.611                 Moscow           362.844
       243   03 Jun 2027 04:39:56.153   03 Jun 2027 04:40:59.222            63.069                 Moscow          1970.906
       244   03 Jun 2027 06:00:31.421   03 Jun 2027 06:03:59.932           208.511               Magadan2          6515.969
       245   03 Jun 2027 07:37:17.033   03 Jun 2027 07:37:40.731            23.698                Anadyr2           740.562
       246   03 Jun 2027 07:37:53.510   03 Jun 2027 07:38:05.205            11.695               Magadan2           365.469
       247   03 Jun 2027 07:38:13.465   03 Jun 2027 07:38:49.979            36.514                Irkutsk          1141.063
       248   03 Jun 2027 07:39:05.953   03 Jun 2027 07:39:39.067            33.114                Anadyr2          1034.813
       249   03 Jun 2027 07:39:39.067   03 Jun 2027 07:39:46.492             7.425                Anadyr1           232.031
       250   03 Jun 2027 07:41:03.523   03 Jun 2027 07:41:37.737            34.214                Anadyr1          1069.187
       251   03 Jun 2027 08:20:55.084   03 Jun 2027 08:21:39.482            44.398            RioGallegos          1387.438
       252   03 Jun 2027 09:11:36.533   03 Jun 2027 09:12:54.099            77.566               Magadan1          2423.937
       253   03 Jun 2027 09:13:09.153   03 Jun 2027 09:13:49.343            40.190               Magadan1          1255.938
       254   03 Jun 2027 09:14:19.704   03 Jun 2027 09:14:42.546            22.842               Magadan1           713.812
       255   03 Jun 2027 09:15:19.255   03 Jun 2027 09:16:39.046            79.791               Magadan2          2493.469
       256   03 Jun 2027 09:16:56.420   03 Jun 2027 09:17:23.320            26.900                Irkutsk           840.625
       257   03 Jun 2027 09:17:26.586   03 Jun 2027 09:18:26.315            59.729                Novosib          1866.531
       258   03 Jun 2027 09:52:49.005   03 Jun 2027 09:53:57.282            68.277            RioGallegos          2133.656
       259   03 Jun 2027 10:32:12.134   03 Jun 2027 10:32:22.882            10.748                Sumatra           335.875
       260   03 Jun 2027 10:44:41.128   03 Jun 2027 10:44:53.739            12.611                  Delhi           394.094
       261   03 Jun 2027 10:49:30.145   03 Jun 2027 10:49:41.046            10.901                Norilsk           340.656
       262   03 Jun 2027 10:49:42.737   03 Jun 2027 10:50:00.352            17.615                Irkutsk           550.469
       263   03 Jun 2027 10:50:06.722   03 Jun 2027 10:50:24.317            17.595                Irkutsk           549.844
       264   03 Jun 2027 10:50:36.470   03 Jun 2027 10:51:41.662            65.192                Novosib          2037.250
       265   03 Jun 2027 10:51:46.304   03 Jun 2027 10:52:45.811            59.507                Novosib          1859.594
       266   03 Jun 2027 10:52:58.403   03 Jun 2027 10:53:02.304             3.901                Norilsk           121.906
       267   03 Jun 2027 10:53:08.541   03 Jun 2027 10:53:33.892            25.351                Novosib           792.219
       268   03 Jun 2027 10:53:43.214   03 Jun 2027 10:53:45.517             2.303                Norilsk            71.969
       269   03 Jun 2027 10:54:00.179   03 Jun 2027 10:54:21.873            21.694                Norilsk           677.938
       270   03 Jun 2027 11:30:29.874   03 Jun 2027 11:31:12.735            42.861            RioGallegos          1339.406
       271   03 Jun 2027 11:35:17.088   03 Jun 2027 11:35:38.884            21.796            RioGallegos           681.125
       272   03 Jun 2027 12:04:42.405   03 Jun 2027 12:05:42.504            60.099                Sumatra          1878.094
       273   03 Jun 2027 12:13:34.941   03 Jun 2027 12:14:47.484            72.543                  Delhi          2266.969
       274   03 Jun 2027 12:20:14.399   03 Jun 2027 12:20:14.428             0.029                Irkutsk             0.906
       275   03 Jun 2027 12:21:58.479   03 Jun 2027 12:23:03.795            65.316                Novosib          2041.125
       276   03 Jun 2027 12:30:06.015   03 Jun 2027 12:31:08.944            62.929                Norilsk          1966.531
       277   03 Jun 2027 13:49:56.550   03 Jun 2027 13:52:06.275           129.725                  Delhi          4053.906
       278   03 Jun 2027 13:52:59.415   03 Jun 2027 13:54:46.655           107.240                  Delhi          3351.250
       279   03 Jun 2027 14:00:37.208   03 Jun 2027 14:02:02.346            85.138                Novosib          2660.563
       280   03 Jun 2027 14:03:03.978   03 Jun 2027 14:03:08.559             4.581                Novosib           143.156
       281   03 Jun 2027 14:04:47.169   03 Jun 2027 14:05:34.736            47.567                Norilsk          1486.469
       282   03 Jun 2027 15:13:57.763   03 Jun 2027 15:15:11.896            74.133               CapeTown          2316.656
       283   03 Jun 2027 15:15:32.281   03 Jun 2027 15:16:18.200            45.919               CapeTown          1434.969
       284   03 Jun 2027 15:32:37.911   03 Jun 2027 15:33:52.679            74.768                 Moscow          2336.500
       285   03 Jun 2027 15:36:06.946   03 Jun 2027 15:37:02.547            55.601              Murmansk1          1737.531
       286   03 Jun 2027 15:37:22.961   03 Jun 2027 15:39:01.348            98.387              Murmansk2          3074.594
       287   03 Jun 2027 15:51:27.406   03 Jun 2027 15:52:22.155            54.749                Anadyr1          1710.906
       288   03 Jun 2027 15:52:22.155   03 Jun 2027 15:52:23.721             1.566                Anadyr2            48.937
       289   03 Jun 2027 15:53:11.482   03 Jun 2027 15:53:22.410            10.928                Anadyr1           341.500
       290   03 Jun 2027 15:53:30.003   03 Jun 2027 15:53:36.785             6.782                Anadyr1           211.937
       291   03 Jun 2027 15:56:44.097   03 Jun 2027 15:56:46.229             2.132                Anadyr2            66.625
       292   03 Jun 2027 15:56:51.612   03 Jun 2027 15:57:21.661            30.049                Anadyr2           939.031
       293   03 Jun 2027 15:57:57.529   03 Jun 2027 15:58:00.310             2.781                Anadyr2            86.906
       294   03 Jun 2027 16:45:49.238   03 Jun 2027 16:46:41.018            51.780               CapeTown          1618.125
       295   03 Jun 2027 16:52:53.655   03 Jun 2027 16:52:58.254             4.599               CapeTown           143.719
       296   03 Jun 2027 16:53:41.719   03 Jun 2027 16:54:24.665            42.946               CapeTown          1342.063
       297   03 Jun 2027 17:12:45.985   03 Jun 2027 17:13:08.071            22.086                 Moscow           690.187
       298   03 Jun 2027 17:14:07.604   03 Jun 2027 17:15:32.102            84.498                 Moscow          2640.562
       299   03 Jun 2027 17:16:24.324   03 Jun 2027 17:17:12.899            48.575                 Moscow          1517.969
       300   03 Jun 2027 17:26:27.280   03 Jun 2027 17:27:44.985            77.705                Anadyr1          2428.281
       301   03 Jun 2027 17:27:53.834   03 Jun 2027 17:28:19.811            25.977                Anadyr1           811.781
       302   03 Jun 2027 17:35:24.836   03 Jun 2027 17:35:51.599            26.763                Anadyr1           836.344
       303   03 Jun 2027 18:22:43.747   03 Jun 2027 18:23:03.949            20.202               CapeTown           631.313
       304   03 Jun 2027 18:23:55.888   03 Jun 2027 18:24:32.433            36.545               CapeTown          1142.031
       305   03 Jun 2027 18:29:20.762   03 Jun 2027 18:29:38.415            17.653               CapeTown           551.656
       306   03 Jun 2027 18:31:48.180   03 Jun 2027 18:32:07.129            18.949               CapeTown           592.156
       307   03 Jun 2027 18:55:54.219   03 Jun 2027 18:59:18.688           204.469              Murmansk2          6389.656
       308   03 Jun 2027 19:02:17.622   03 Jun 2027 19:03:26.667            69.045                Anadyr2          2157.656
       309   03 Jun 2027 19:04:52.596   03 Jun 2027 19:05:23.111            30.515               Magadan2           953.594
       310   03 Jun 2027 19:05:58.257   03 Jun 2027 19:06:11.013            12.756               Magadan2           398.625
       311   03 Jun 2027 19:06:45.378   03 Jun 2027 19:07:14.010            28.632               Magadan2           894.750
       312   03 Jun 2027 19:09:35.445   03 Jun 2027 19:10:17.365            41.920               Magadan1          1310.000
       313   03 Jun 2027 20:38:12.977   03 Jun 2027 20:42:03.545           230.568                Anadyr2          7205.250
       314   03 Jun 2027 20:42:18.313   03 Jun 2027 20:44:24.228           125.915                Norilsk          3934.844
       315   03 Jun 2027 20:44:52.483   03 Jun 2027 20:44:54.940             2.457               Magadan1            76.781
       316   03 Jun 2027 20:49:07.111   03 Jun 2027 20:49:34.762            27.651               Magadan1           864.094
       317   03 Jun 2027 20:51:01.606   03 Jun 2027 20:51:13.896            12.290               Magadan1           384.063
       318   03 Jun 2027 20:52:52.004   03 Jun 2027 20:53:23.418            31.414               Magadan1           981.687
       319   03 Jun 2027 21:32:49.160   03 Jun 2027 21:35:13.903           144.743            RioGallegos          4523.219
       320   03 Jun 2027 21:35:21.254   03 Jun 2027 21:35:53.981            32.727            RioGallegos          1022.719
       321   03 Jun 2027 22:13:52.212   03 Jun 2027 22:14:26.753            34.541                Anadyr1          1079.406
       322   03 Jun 2027 22:16:03.244   03 Jun 2027 22:16:11.633             8.389                Norilsk           262.156
       323   03 Jun 2027 22:16:31.718   03 Jun 2027 22:18:27.871           116.153               Magadan1          3629.781
       324   03 Jun 2027 22:18:27.871   03 Jun 2027 22:18:42.288            14.417               Magadan2           450.531
       325   03 Jun 2027 22:19:51.152   03 Jun 2027 22:20:39.432            48.280               Magadan2          1508.750
       326   03 Jun 2027 22:20:58.799   03 Jun 2027 22:21:14.519            15.720                Irkutsk           491.250
       327   03 Jun 2027 22:22:50.212   03 Jun 2027 22:23:22.515            32.303                Irkutsk          1009.469
       328   03 Jun 2027 22:23:26.928   03 Jun 2027 22:23:57.315            30.387                Novosib           949.594
       329   03 Jun 2027 22:25:00.869   03 Jun 2027 22:25:27.821            26.952                Novosib           842.250
       330   03 Jun 2027 22:28:57.009   03 Jun 2027 22:30:03.099            66.090                Irkutsk          2065.312
       331   03 Jun 2027 22:34:47.064   03 Jun 2027 22:35:59.652            72.588                Sumatra          2268.375
       332   03 Jun 2027 23:48:42.400   03 Jun 2027 23:49:16.267            33.867                Anadyr1          1058.344
       333   03 Jun 2027 23:49:53.087   03 Jun 2027 23:50:32.373            39.286                Anadyr1          1227.688
       334   03 Jun 2027 23:50:59.130   03 Jun 2027 23:51:29.615            30.485                Anadyr1           952.656
       335   03 Jun 2027 23:51:59.414   03 Jun 2027 23:52:30.966            31.552                Norilsk           986.000
       336   03 Jun 2027 23:52:38.547   03 Jun 2027 23:53:10.991            32.444               Magadan2          1013.875
       337   03 Jun 2027 23:53:10.991   03 Jun 2027 23:53:22.316            11.325               Magadan1           353.906
       338   03 Jun 2027 23:53:59.948   03 Jun 2027 23:54:27.765            27.817               Magadan2           869.281
       339   03 Jun 2027 23:54:27.765   03 Jun 2027 23:55:20.158            52.393               Magadan1          1637.281
       340   03 Jun 2027 23:55:51.326   03 Jun 2027 23:56:21.842            30.516                Irkutsk           953.625
       341   03 Jun 2027 23:56:49.225   03 Jun 2027 23:56:50.970             1.745                Irkutsk            54.531
       342   03 Jun 2027 23:56:59.425   03 Jun 2027 23:58:11.516            72.091                Novosib          2252.844
       343   04 Jun 2027 00:02:33.634   04 Jun 2027 00:02:44.214            10.580                Novosib           330.625
       344   04 Jun 2027 00:03:26.720   04 Jun 2027 00:04:37.767            71.047                Novosib          2220.219
       345   04 Jun 2027 00:04:52.064   04 Jun 2027 00:05:04.521            12.457                  Delhi           389.281
       346   04 Jun 2027 00:09:15.550   04 Jun 2027 00:09:22.677             7.127                  Delhi           222.719
       347   04 Jun 2027 00:09:46.331   04 Jun 2027 00:10:27.856            41.525                  Delhi          1297.656
       348   04 Jun 2027 00:13:54.933   04 Jun 2027 00:13:56.360             1.427                  Delhi            44.594
       349   04 Jun 2027 00:14:12.445   04 Jun 2027 00:14:39.169            26.724                  Delhi           835.125
       350   04 Jun 2027 00:51:17.203   04 Jun 2027 00:51:43.090            25.887            RioGallegos           808.969
       351   04 Jun 2027 00:53:56.929   04 Jun 2027 00:54:53.875            56.946            RioGallegos          1779.562
       352   04 Jun 2027 01:23:19.573   04 Jun 2027 01:23:49.602            30.029                Anadyr2           938.406
       353   04 Jun 2027 01:23:49.602   04 Jun 2027 01:24:31.071            41.469                Anadyr1          1295.906
       354   04 Jun 2027 01:27:59.357   04 Jun 2027 01:28:09.994            10.637                Norilsk           332.406
       355   04 Jun 2027 01:28:16.573   04 Jun 2027 01:28:32.623            16.050               Magadan2           501.563
       356   04 Jun 2027 01:28:32.623   04 Jun 2027 01:30:01.288            88.665               Magadan1          2770.781
       357   04 Jun 2027 01:30:23.565   04 Jun 2027 01:31:59.368            95.803              Murmansk1          2993.844
       358   04 Jun 2027 01:32:12.619   04 Jun 2027 01:32:36.297            23.678                Novosib           739.937
       359   04 Jun 2027 01:33:04.488   04 Jun 2027 01:33:17.827            13.339              Murmansk2           416.844
       360   04 Jun 2027 01:34:58.583   04 Jun 2027 01:35:14.922            16.339                Novosib           510.594
       361   04 Jun 2027 01:35:37.849   04 Jun 2027 01:36:02.243            24.394                 Moscow           762.312
       362   04 Jun 2027 01:39:01.701   04 Jun 2027 01:39:14.128            12.427                 Moscow           388.344
       363   04 Jun 2027 01:41:55.152   04 Jun 2027 01:43:37.506           102.354                  Delhi          3198.562
       364   04 Jun 2027 02:55:41.442   04 Jun 2027 02:58:20.852           159.410                Anadyr2          4981.563
       365   04 Jun 2027 03:02:25.262   04 Jun 2027 03:02:34.616             9.354               Magadan2           292.313
       366   04 Jun 2027 03:03:25.383   04 Jun 2027 03:03:53.080            27.697               Magadan1           865.531
       367   04 Jun 2027 03:12:40.543   04 Jun 2027 03:13:02.439            21.896                Norilsk           684.250
       368   04 Jun 2027 03:13:07.507   04 Jun 2027 03:13:36.603            29.096                Novosib           909.250
       369   04 Jun 2027 03:13:39.362   04 Jun 2027 03:14:09.736            30.374                Novosib           949.188
       370   04 Jun 2027 03:14:44.131   04 Jun 2027 03:16:04.313            80.182                Norilsk          2505.688
       371   04 Jun 2027 03:16:13.425   04 Jun 2027 03:17:18.498            65.073                 Moscow          2033.531
       372   04 Jun 2027 03:17:32.614   04 Jun 2027 03:17:49.447            16.833              Murmansk1           526.031
       373   04 Jun 2027 03:18:02.123   04 Jun 2027 03:19:03.869            61.746                 Moscow          1929.563
       374   04 Jun 2027 03:34:02.585   04 Jun 2027 03:35:13.072            70.487               CapeTown          2202.719
       375   04 Jun 2027 03:36:35.009   04 Jun 2027 03:36:41.838             6.829               CapeTown           213.406
       376   04 Jun 2027 04:30:06.048   04 Jun 2027 04:31:58.173           112.125                Anadyr1          3503.906
       377   04 Jun 2027 04:31:59.976   04 Jun 2027 04:32:36.641            36.665                Anadyr2          1145.781
       378   04 Jun 2027 04:32:45.077   04 Jun 2027 04:34:33.352           108.275               Magadan1          3383.594
       379   04 Jun 2027 04:46:32.884   04 Jun 2027 04:47:44.888            72.004                Novosib          2250.125
       380   04 Jun 2027 04:50:53.781   04 Jun 2027 04:51:08.581            14.800                 Moscow           462.500
       381   04 Jun 2027 04:51:44.876   04 Jun 2027 04:51:54.909            10.033                 Moscow           313.531
       382   04 Jun 2027 04:53:15.497   04 Jun 2027 04:53:32.197            16.700                 Moscow           521.875
       383   04 Jun 2027 04:55:56.260   04 Jun 2027 04:56:21.826            25.566                 Moscow           798.937
       384   04 Jun 2027 05:09:45.005   04 Jun 2027 05:11:16.868            91.863               CapeTown          2870.719
       385   04 Jun 2027 06:06:05.907   04 Jun 2027 06:06:53.544            47.637               Magadan2          1488.656
       386   04 Jun 2027 06:07:35.239   04 Jun 2027 06:08:01.737            26.498                Anadyr1           828.062
       387   04 Jun 2027 06:12:35.342   04 Jun 2027 06:14:26.959           111.617                Anadyr1          3488.031
       388   04 Jun 2027 06:14:32.491   04 Jun 2027 06:14:42.198             9.707               Magadan2           303.344
       389   04 Jun 2027 06:15:05.814   04 Jun 2027 06:15:11.725             5.911                Anadyr2           184.719
       390   04 Jun 2027 06:15:11.725   04 Jun 2027 06:15:12.109             0.384                Anadyr1            12.000
       391   04 Jun 2027 06:15:32.603   04 Jun 2027 06:16:04.702            32.099                Anadyr1          1003.094
       392   04 Jun 2027 07:47:11.218   04 Jun 2027 07:47:47.600            36.382                Anadyr1          1136.938
       393   04 Jun 2027 07:48:14.208   04 Jun 2027 07:49:18.270            64.062                Anadyr2          2001.937
       394   04 Jun 2027 07:49:35.977   04 Jun 2027 07:49:42.572             6.595               Magadan1           206.094
       395   04 Jun 2027 07:50:09.401   04 Jun 2027 07:50:46.653            37.252                Anadyr1          1164.125
       396   04 Jun 2027 07:50:48.365   04 Jun 2027 07:51:07.864            19.499                Anadyr1           609.344
       397   04 Jun 2027 07:51:17.332   04 Jun 2027 07:53:03.949           106.617                Anadyr2          3331.781
       398   04 Jun 2027 09:23:20.271   04 Jun 2027 09:23:27.084             6.813               Magadan1           212.906
       399   04 Jun 2027 09:24:54.060   04 Jun 2027 09:26:10.764            76.704                Irkutsk          2397.000
       400   04 Jun 2027 09:26:14.829   04 Jun 2027 09:26:44.899            30.070               Magadan1           939.688
       401   04 Jun 2027 09:27:23.246   04 Jun 2027 09:28:38.357            75.111               Magadan1          2347.219
       402   04 Jun 2027 09:28:38.357   04 Jun 2027 09:29:36.316            57.959               Magadan2          1811.219
       403   04 Jun 2027 09:29:57.476   04 Jun 2027 09:30:06.653             9.177                Irkutsk           286.781
       404   04 Jun 2027 09:30:45.403   04 Jun 2027 09:31:13.321            27.918                Novosib           872.437
       405   04 Jun 2027 10:04:50.358   04 Jun 2027 10:05:32.954            42.596            RioGallegos          1331.125
       406   04 Jun 2027 10:40:02.616   04 Jun 2027 10:40:43.778            41.162                Sumatra          1286.313
       407   04 Jun 2027 10:43:51.063   04 Jun 2027 10:44:07.354            16.291                Sumatra           509.094
       408   04 Jun 2027 10:52:12.780   04 Jun 2027 10:52:53.858            41.078                  Delhi          1283.688
       409   04 Jun 2027 11:01:25.405   04 Jun 2027 11:01:35.390             9.985                Irkutsk           312.031
       410   04 Jun 2027 11:02:04.386   04 Jun 2027 11:02:22.561            18.175                Novosib           567.969
       411   04 Jun 2027 11:02:25.317   04 Jun 2027 11:02:29.198             3.881                Irkutsk           121.281
       412   04 Jun 2027 11:02:40.350   04 Jun 2027 11:03:39.188            58.838                Novosib          1838.687
       413   04 Jun 2027 11:03:50.903   04 Jun 2027 11:04:29.090            38.187                Novosib          1193.344
       414   04 Jun 2027 11:04:37.397   04 Jun 2027 11:04:43.402             6.005                Novosib           187.656
       415   04 Jun 2027 11:04:58.933   04 Jun 2027 11:06:04.605            65.672                Irkutsk          2052.250
       416   04 Jun 2027 11:43:06.938   04 Jun 2027 11:43:14.876             7.938            RioGallegos           248.062
       417   04 Jun 2027 11:44:19.207   04 Jun 2027 11:44:54.595            35.388            RioGallegos          1105.875
       418   04 Jun 2027 12:20:04.519   04 Jun 2027 12:20:47.511            42.992                Sumatra          1343.500
       419   04 Jun 2027 12:31:10.247   04 Jun 2027 12:33:57.273           167.026                Novosib          5219.562
       420   04 Jun 2027 14:02:59.555   04 Jun 2027 14:04:50.128           110.573                  Delhi          3455.406
       421   04 Jun 2027 14:06:56.234   04 Jun 2027 14:07:24.688            28.454                  Delhi           889.188
       422   04 Jun 2027 14:08:33.701   04 Jun 2027 14:09:36.276            62.575                 Moscow          1955.469
       423   04 Jun 2027 14:11:29.873   04 Jun 2027 14:14:01.243           151.370                Novosib          4730.312
       424   04 Jun 2027 14:14:18.785   04 Jun 2027 14:15:36.244            77.459                Norilsk          2420.594
       425   04 Jun 2027 14:17:37.070   04 Jun 2027 14:19:19.273           102.203                Norilsk          3193.844
       426   04 Jun 2027 15:24:30.221   04 Jun 2027 15:26:38.675           128.454               CapeTown          4014.188
       427   04 Jun 2027 15:45:14.262   04 Jun 2027 15:45:55.378            41.116                 Moscow          1284.875
       428   04 Jun 2027 15:48:18.911   04 Jun 2027 15:48:27.221             8.310              Murmansk1           259.688
       429   04 Jun 2027 15:50:58.492   04 Jun 2027 15:52:36.551            98.059              Murmansk2          3064.344
       430   04 Jun 2027 16:03:13.523   04 Jun 2027 16:04:19.088            65.565                Anadyr1          2048.906
       431   04 Jun 2027 16:04:48.878   04 Jun 2027 16:04:53.013             4.135                Anadyr2           129.219
       432   04 Jun 2027 16:04:57.717   04 Jun 2027 16:05:29.863            32.146                Anadyr2          1004.563
       433   04 Jun 2027 16:06:02.928   04 Jun 2027 16:06:37.081            34.153                Anadyr1          1067.281
       434   04 Jun 2027 17:02:15.625   04 Jun 2027 17:03:16.064            60.439               CapeTown          1888.719
       435   04 Jun 2027 17:26:06.418   04 Jun 2027 17:26:10.086             3.668                 Moscow           114.625
       436   04 Jun 2027 17:26:52.736   04 Jun 2027 17:27:12.656            19.920              Murmansk1           622.500
       437   04 Jun 2027 17:27:18.510   04 Jun 2027 17:29:09.700           111.190              Murmansk2          3474.687
       438   04 Jun 2027 17:31:57.151   04 Jun 2027 17:32:46.040            48.889              Murmansk2          1527.781
       439   04 Jun 2027 17:38:26.990   04 Jun 2027 17:38:29.194             2.204                Anadyr1            68.875
       440   04 Jun 2027 17:39:03.916   04 Jun 2027 17:40:10.663            66.747                Anadyr2          2085.844
       441   04 Jun 2027 17:42:08.481   04 Jun 2027 17:42:09.897             1.416                Anadyr2            44.250
       442   04 Jun 2027 17:43:09.060   04 Jun 2027 17:44:50.523           101.463               Magadan1          3170.719
       443   04 Jun 2027 19:14:19.239   04 Jun 2027 19:18:16.288           237.049                Anadyr1          7407.781
       444   04 Jun 2027 19:18:36.812   04 Jun 2027 19:21:40.992           184.180               Magadan1          5755.625
       445   04 Jun 2027 20:50:13.802   04 Jun 2027 20:52:22.011           128.209                Anadyr1          4006.531
       446   04 Jun 2027 20:52:30.995   04 Jun 2027 20:56:17.471           226.476               Magadan1          7077.375
       447   04 Jun 2027 20:56:19.683   04 Jun 2027 20:57:29.534            69.851                Norilsk          2182.844
       448   04 Jun 2027 21:44:37.118   04 Jun 2027 21:47:05.843           148.725            RioGallegos          4647.656
       449   04 Jun 2027 21:54:55.313   04 Jun 2027 21:55:24.359            29.046            RioGallegos           907.688
       450   04 Jun 2027 22:25:49.046   04 Jun 2027 22:26:28.322            39.276                Anadyr1          1227.375
       451   04 Jun 2027 22:28:03.837   04 Jun 2027 22:28:13.542             9.705                Norilsk           303.281
       452   04 Jun 2027 22:28:34.696   04 Jun 2027 22:30:30.312           115.616               Magadan1          3613.000
       453   04 Jun 2027 22:30:51.809   04 Jun 2027 22:31:59.088            67.279               Magadan2          2102.469
       454   04 Jun 2027 22:32:13.065   04 Jun 2027 22:33:07.427            54.362                Irkutsk          1698.813
       455   04 Jun 2027 22:33:58.389   04 Jun 2027 22:34:00.335             1.946                Novosib            60.813
       456   04 Jun 2027 22:35:13.212   04 Jun 2027 22:35:34.272            21.060                Novosib           658.125
       457   04 Jun 2027 22:35:53.124   04 Jun 2027 22:36:46.644            53.520                Novosib          1672.500
       458   04 Jun 2027 22:45:56.846   04 Jun 2027 22:46:39.020            42.174                Sumatra          1317.937
       459   04 Jun 2027 22:48:45.993   04 Jun 2027 22:49:04.816            18.823                Sumatra           588.219
       460   04 Jun 2027 22:55:00.631   04 Jun 2027 22:55:25.149            24.518                Sumatra           766.187
       461   05 Jun 2027 00:00:30.236   05 Jun 2027 00:02:12.710           102.474                Anadyr2          3202.312
       462   05 Jun 2027 00:02:46.461   05 Jun 2027 00:03:12.302            25.841                Anadyr1           807.531
       463   05 Jun 2027 00:04:01.602   05 Jun 2027 00:04:18.069            16.467                Norilsk           514.594
       464   05 Jun 2027 00:04:40.807   05 Jun 2027 00:05:57.655            76.848               Magadan1          2401.500
       465   05 Jun 2027 00:07:09.631   05 Jun 2027 00:07:16.502             6.871               Magadan2           214.719
       466   05 Jun 2027 00:07:50.527   05 Jun 2027 00:08:25.566            35.039               Magadan1          1094.969
       467   05 Jun 2027 00:09:00.954   05 Jun 2027 00:09:36.479            35.525               Magadan2          1110.156
       468   05 Jun 2027 00:09:47.387   05 Jun 2027 00:11:03.325            75.938                Novosib          2373.062
       469   05 Jun 2027 00:12:19.984   05 Jun 2027 00:12:54.515            34.531                Novosib          1079.094
       470   05 Jun 2027 00:15:43.472   05 Jun 2027 00:16:44.975            61.503                  Delhi          1921.969
       471   05 Jun 2027 00:17:36.184   05 Jun 2027 00:19:02.504            86.320                  Delhi          2697.500
       472   05 Jun 2027 00:59:43.409   05 Jun 2027 01:00:01.196            17.787            RioGallegos           555.844
       473   05 Jun 2027 01:03:53.117   05 Jun 2027 01:04:18.159            25.042            RioGallegos           782.562
       474   05 Jun 2027 01:34:00.872   05 Jun 2027 01:34:34.090            33.218                Anadyr1          1038.063
       475   05 Jun 2027 01:35:14.480   05 Jun 2027 01:35:49.752            35.272                Anadyr1          1102.250
       476   05 Jun 2027 01:36:28.589   05 Jun 2027 01:36:57.206            28.617                Anadyr1           894.281
       477   05 Jun 2027 01:39:36.437   05 Jun 2027 01:39:58.792            22.355                Anadyr2           698.594
       478   05 Jun 2027 01:40:00.915   05 Jun 2027 01:40:38.358            37.443                Norilsk          1170.094
       479   05 Jun 2027 01:40:43.776   05 Jun 2027 01:41:37.111            53.335               Magadan2          1666.719
       480   05 Jun 2027 01:42:03.157   05 Jun 2027 01:42:35.372            32.215               Magadan1          1006.719
       481   05 Jun 2027 01:43:13.425   05 Jun 2027 01:44:00.525            47.100              Murmansk1          1471.875
       482   05 Jun 2027 01:44:22.620   05 Jun 2027 01:44:52.229            29.609              Murmansk2           925.281
