uniorb/output/strategy_4/Drop/Drop_KinoSat_110307.txt

KinoSat_110307
-------------------------
    Access    *     Start Time (UTCG)     *     Stop Time (UTCG)  *   Duration (s)        *       Station  *  Data (Mbytes)
         1   01 Jun 2027 03:39:21.527   01 Jun 2027 03:41:13.471           111.944               Magadan1         13993.000
         2   01 Jun 2027 03:41:28.664   01 Jun 2027 03:42:08.333            39.669               Magadan1          4958.625
         3   01 Jun 2027 03:42:16.178   01 Jun 2027 03:43:17.507            61.329               Magadan2          7666.125
         4   01 Jun 2027 03:44:04.111   01 Jun 2027 03:44:08.954             4.843               Magadan2           605.375
         5   01 Jun 2027 03:46:41.047   01 Jun 2027 03:47:08.155            27.108                Norilsk          3388.500
         6   01 Jun 2027 04:19:14.903   01 Jun 2027 04:20:29.094            74.191            RioGallegos          9273.875
         7   01 Jun 2027 04:54:41.554   01 Jun 2027 04:54:47.662             6.108                Sumatra           763.500
         8   01 Jun 2027 04:56:38.620   01 Jun 2027 04:58:54.938           136.318                Sumatra         17039.750
         9   01 Jun 2027 05:16:18.481   01 Jun 2027 05:16:35.288            16.807                Irkutsk          2100.875
        10   01 Jun 2027 05:17:11.727   01 Jun 2027 05:18:39.007            87.280              Murmansk2         10910.000
        11   01 Jun 2027 05:18:52.484   01 Jun 2027 05:20:35.854           103.370                Norilsk         12921.250
        12   01 Jun 2027 05:23:51.861   01 Jun 2027 05:24:22.942            31.081                Norilsk          3885.125
        13   01 Jun 2027 05:57:43.054   01 Jun 2027 05:58:52.804            69.750            RioGallegos          8718.750
        14   01 Jun 2027 06:31:14.608   01 Jun 2027 06:32:02.211            47.603                Sumatra          5950.375
        15   01 Jun 2027 06:38:28.063   01 Jun 2027 06:39:47.453            79.390                  Delhi          9923.750
        16   01 Jun 2027 06:54:05.934   01 Jun 2027 06:55:21.199            75.265                 Moscow          9408.125
        17   01 Jun 2027 06:56:21.743   01 Jun 2027 06:58:09.929           108.186              Murmansk2         13523.250
        18   01 Jun 2027 06:58:14.321   01 Jun 2027 06:58:24.838            10.517                 Moscow          1314.625
        19   01 Jun 2027 06:58:45.409   01 Jun 2027 06:59:02.130            16.721                 Moscow          2090.125
        20   01 Jun 2027 08:16:32.996   01 Jun 2027 08:16:58.552            25.556                  Delhi          3194.500
        21   01 Jun 2027 08:29:46.039   01 Jun 2027 08:30:35.080            49.041                Novosib          6130.125
        22   01 Jun 2027 08:30:57.359   01 Jun 2027 08:31:16.875            19.516              Murmansk2          2439.500
        23   01 Jun 2027 08:31:24.844   01 Jun 2027 08:31:37.554            12.710              Murmansk2          1588.750
        24   01 Jun 2027 08:31:53.693   01 Jun 2027 08:32:23.761            30.068                Novosib          3758.500
        25   01 Jun 2027 08:32:44.283   01 Jun 2027 08:36:40.277           235.994                Norilsk         29499.250
        26   01 Jun 2027 09:40:03.232   01 Jun 2027 09:41:54.279           111.047               CapeTown         13880.875
        27   01 Jun 2027 10:20:31.862   01 Jun 2027 10:21:47.017            75.155                Anadyr2          9394.375
        28   01 Jun 2027 10:23:33.821   01 Jun 2027 10:24:34.064            60.243                Anadyr2          7530.375
        29   01 Jun 2027 11:52:53.890   01 Jun 2027 11:53:51.215            57.325                Anadyr2          7165.625
        30   01 Jun 2027 11:54:57.121   01 Jun 2027 11:56:06.680            69.559                Anadyr1          8694.875
        31   01 Jun 2027 11:57:34.193   01 Jun 2027 11:58:39.058            64.865                Anadyr1          8108.125
        32   01 Jun 2027 13:31:18.638   01 Jun 2027 13:33:15.957           117.319               Magadan1         14664.875
        33   01 Jun 2027 13:34:17.486   01 Jun 2027 13:35:49.491            92.005               Magadan2         11500.625
        34   01 Jun 2027 13:40:36.288   01 Jun 2027 13:40:50.010            13.722               Magadan1          1715.250
        35   01 Jun 2027 15:59:13.707   01 Jun 2027 16:05:15.164           361.457            RioGallegos         45182.125
        36   01 Jun 2027 16:46:44.587   01 Jun 2027 16:48:25.269           100.682                Irkutsk         12585.250
        37   01 Jun 2027 16:49:45.094   01 Jun 2027 16:51:57.888           132.794                Novosib         16599.250
        38   01 Jun 2027 17:00:33.040   01 Jun 2027 17:02:26.687           113.647                Sumatra         14205.875
        39   01 Jun 2027 18:22:29.284   01 Jun 2027 18:24:15.950           106.666                Novosib         13333.250
        40   01 Jun 2027 18:30:24.183   01 Jun 2027 18:32:38.617           134.434                  Delhi         15244.625
        41   02 Jun 2027 03:55:18.445   02 Jun 2027 03:55:31.776            13.331               Magadan1          1666.375
        42   02 Jun 2027 03:56:40.391   02 Jun 2027 03:57:44.023            63.632                Novosib          7954.000
        43   02 Jun 2027 03:57:53.833   02 Jun 2027 03:59:51.115           117.282                Norilsk         14660.250
        44   02 Jun 2027 04:32:39.255   02 Jun 2027 04:33:57.618            78.363            RioGallegos          9795.375
        45   02 Jun 2027 05:06:26.178   02 Jun 2027 05:07:16.902            50.724                Sumatra          6340.500
        46   02 Jun 2027 05:09:07.795   02 Jun 2027 05:11:01.454           113.659                Sumatra         14207.375
        47   02 Jun 2027 05:21:47.372   02 Jun 2027 05:24:05.477           138.105                  Delhi         17263.125
        48   02 Jun 2027 05:29:39.993   02 Jun 2027 05:29:54.504            14.511                Irkutsk          1813.875
        49   02 Jun 2027 05:31:14.094   02 Jun 2027 05:32:29.460            75.366                Irkutsk          9420.750
        50   02 Jun 2027 05:32:31.532   02 Jun 2027 05:33:34.727            63.195                 Moscow          7899.375
        51   02 Jun 2027 05:33:39.431   02 Jun 2027 05:37:33.720           234.289                Norilsk         29286.125
        52   02 Jun 2027 05:37:38.109   02 Jun 2027 05:38:31.173            53.064              Murmansk2          6633.000
        53   02 Jun 2027 05:38:53.081   02 Jun 2027 05:39:27.860            34.779              Murmansk2          4347.375
        54   02 Jun 2027 05:39:27.860   02 Jun 2027 05:39:50.512            22.652              Murmansk1          2831.500
        55   02 Jun 2027 06:10:51.978   02 Jun 2027 06:12:18.111            86.133            RioGallegos         10766.625
        56   02 Jun 2027 06:12:39.762   02 Jun 2027 06:13:11.144            31.382            RioGallegos          3922.750
        57   02 Jun 2027 06:17:01.642   02 Jun 2027 06:17:30.558            28.916            RioGallegos          3614.500
        58   02 Jun 2027 06:43:58.237   02 Jun 2027 06:45:41.372           103.135                Sumatra         12891.875
        59   02 Jun 2027 06:49:46.079   02 Jun 2027 06:50:29.039            42.960                Sumatra          5370.000
        60   02 Jun 2027 06:57:38.978   02 Jun 2027 06:58:01.637            22.659                Novosib          2832.375
        61   02 Jun 2027 07:08:12.901   02 Jun 2027 07:09:57.496           104.595              Murmansk2         13074.375
        62   02 Jun 2027 07:10:17.120   02 Jun 2027 07:11:20.189            63.069                 Moscow          7883.625
        63   02 Jun 2027 07:11:54.601   02 Jun 2027 07:12:52.237            57.636              Murmansk2          7204.500
        64   02 Jun 2027 08:29:40.795   02 Jun 2027 08:32:17.914           157.119                  Delhi         19639.875
        65   02 Jun 2027 08:33:45.542   02 Jun 2027 08:34:13.345            27.803                  Delhi          3475.375
        66   02 Jun 2027 08:34:53.827   02 Jun 2027 08:36:07.916            74.089                  Delhi          9261.125
        67   02 Jun 2027 08:36:59.817   02 Jun 2027 08:37:20.993            21.176                 Moscow          2647.000
        68   02 Jun 2027 08:43:50.763   02 Jun 2027 08:44:10.473            19.710                Norilsk          2463.750
        69   02 Jun 2027 08:45:24.478   02 Jun 2027 08:47:39.958           135.480                 Moscow         16935.000
        70   02 Jun 2027 08:47:48.182   02 Jun 2027 08:51:09.664           201.482              Murmansk1         25185.250
        71   02 Jun 2027 09:50:47.098   02 Jun 2027 09:57:59.733           432.635               CapeTown         54079.375
        72   02 Jun 2027 10:11:22.822   02 Jun 2027 10:21:12.929           590.107                 Moscow         73763.375
        73   02 Jun 2027 10:21:16.349   02 Jun 2027 10:24:11.105           174.756              Murmansk2         21844.500
        74   02 Jun 2027 10:24:17.657   02 Jun 2027 10:24:41.178            23.521              Murmansk2          2940.125
        75   02 Jun 2027 10:25:14.749   02 Jun 2027 10:26:00.790            46.041              Murmansk1          5755.125
        76   02 Jun 2027 10:26:38.224   02 Jun 2027 10:26:56.257            18.033              Murmansk1          2254.125
        77   02 Jun 2027 10:27:04.913   02 Jun 2027 10:27:07.681             2.768              Murmansk1           346.000
        78   02 Jun 2027 10:29:39.459   02 Jun 2027 10:33:54.870           255.411                Anadyr1         31926.375
        79   02 Jun 2027 10:34:20.337   02 Jun 2027 10:35:52.351            92.014                Anadyr2         11501.750
        80   02 Jun 2027 11:53:25.382   02 Jun 2027 11:57:32.031           246.649              Murmansk1         30831.125
        81   02 Jun 2027 12:08:02.704   02 Jun 2027 12:09:35.013            92.309                Anadyr1         11538.625
        82   02 Jun 2027 12:11:44.731   02 Jun 2027 12:12:37.271            52.540               Magadan2          6567.500
        83   02 Jun 2027 12:13:32.846   02 Jun 2027 12:13:38.077             5.231               Magadan2           653.875
        84   02 Jun 2027 13:43:14.803   02 Jun 2027 13:44:48.490            93.687               Magadan2         11710.875
        85   02 Jun 2027 13:45:06.261   02 Jun 2027 13:47:48.929           162.668               Magadan1         20333.500
        86   02 Jun 2027 16:11:01.942   02 Jun 2027 16:13:45.611           163.669            RioGallegos         20458.625
        87   02 Jun 2027 16:15:01.512   02 Jun 2027 16:16:46.873           105.361            RioGallegos         13170.125
        88   02 Jun 2027 16:58:38.466   02 Jun 2027 17:00:48.667           130.201                Irkutsk         16275.125
        89   02 Jun 2027 17:00:52.871   02 Jun 2027 17:03:45.928           173.057                Novosib         21632.125
        90   02 Jun 2027 17:13:56.025   02 Jun 2027 17:15:13.839            77.814                Sumatra          9726.750
        91   02 Jun 2027 18:35:39.599   02 Jun 2027 18:35:53.445            13.846                Novosib          1730.750
        92   02 Jun 2027 18:36:59.725   02 Jun 2027 18:37:30.762            31.037                Novosib          3879.625
        93   02 Jun 2027 18:39:02.424   02 Jun 2027 18:39:39.806            37.382                Novosib          4672.750
        94   02 Jun 2027 18:40:57.175   02 Jun 2027 18:42:19.204            82.029                Novosib         10253.625
        95   02 Jun 2027 18:44:06.546   02 Jun 2027 18:46:22.281           135.735                  Delhi         16966.875
        96   02 Jun 2027 20:13:26.090   02 Jun 2027 20:17:09.338           223.248                 Moscow         25648.375
        97   03 Jun 2027 04:08:47.277   03 Jun 2027 04:09:50.743            63.466                Novosib          7933.250
        98   03 Jun 2027 04:09:54.923   03 Jun 2027 04:12:04.107           129.184              Murmansk2         16148.000
        99   03 Jun 2027 05:18:17.040   03 Jun 2027 05:19:58.677           101.637                Sumatra         12704.625
       100   03 Jun 2027 05:29:56.060   03 Jun 2027 05:31:52.624           116.564                  Delhi         14570.500
       101   03 Jun 2027 05:44:10.893   03 Jun 2027 05:46:12.776           121.883                 Moscow         15235.375
       102   03 Jun 2027 05:46:20.669   03 Jun 2027 05:49:35.456           194.787                Norilsk         24348.375
       103   03 Jun 2027 05:49:51.989   03 Jun 2027 05:51:51.626           119.637              Murmansk1         14954.625
       104   03 Jun 2027 06:57:05.839   03 Jun 2027 06:59:50.063           164.224                Sumatra         20528.000
       105   03 Jun 2027 07:02:24.280   03 Jun 2027 07:03:06.771            42.491                  Delhi          5311.375
       106   03 Jun 2027 07:08:33.764   03 Jun 2027 07:09:46.980            73.216                  Delhi          9152.000
       107   03 Jun 2027 07:09:55.839   03 Jun 2027 07:10:54.000            58.161                Novosib          7270.125
       108   03 Jun 2027 07:12:56.010   03 Jun 2027 07:14:18.236            82.226                Novosib         10278.250
       109   03 Jun 2027 07:14:20.448   03 Jun 2027 07:15:14.134            53.686                Irkutsk          6710.750
       110   03 Jun 2027 07:15:52.225   03 Jun 2027 07:16:28.289            36.064                 Moscow          4508.000
       111   03 Jun 2027 07:20:06.542   03 Jun 2027 07:21:15.026            68.484                Norilsk          8560.500
       112   03 Jun 2027 07:21:24.607   03 Jun 2027 07:25:00.101           215.494              Murmansk2         26936.750
       113   03 Jun 2027 07:25:29.615   03 Jun 2027 07:25:35.241             5.626                Norilsk           703.250
       114   03 Jun 2027 08:43:50.881   03 Jun 2027 08:44:54.669            63.788                  Delhi          7973.500
       115   03 Jun 2027 08:56:43.628   03 Jun 2027 09:01:19.969           276.341                Norilsk         34542.625
       116   03 Jun 2027 09:01:21.510   03 Jun 2027 09:03:11.079           109.569              Murmansk2         13696.125
       117   03 Jun 2027 10:02:02.437   03 Jun 2027 10:10:59.208           536.771               CapeTown         67096.375
       118   03 Jun 2027 10:23:42.732   03 Jun 2027 10:27:57.122           254.390                 Moscow         31798.750
       119   03 Jun 2027 10:28:12.185   03 Jun 2027 10:33:35.834           323.649                 Moscow         40456.125
       120   03 Jun 2027 10:34:13.980   03 Jun 2027 10:35:54.748           100.768              Murmansk2         12596.000
       121   03 Jun 2027 10:36:35.059   03 Jun 2027 10:37:11.050            35.991              Murmansk2          4498.875
       122   03 Jun 2027 10:39:04.035   03 Jun 2027 10:39:07.319             3.284              Murmansk2           410.500
       123   03 Jun 2027 10:41:29.819   03 Jun 2027 10:50:05.335           515.516                Anadyr2         64439.500
       124   03 Jun 2027 12:05:58.262   03 Jun 2027 12:09:34.011           215.749              Murmansk1         26968.625
       125   03 Jun 2027 12:09:43.208   03 Jun 2027 12:11:05.562            82.354              Murmansk2         10294.250
       126   03 Jun 2027 12:16:53.322   03 Jun 2027 12:19:25.836           152.514                Anadyr1         19064.250
       127   03 Jun 2027 12:21:10.128   03 Jun 2027 12:24:25.372           195.244               Magadan2         24405.500
       128   03 Jun 2027 13:56:33.769   03 Jun 2027 13:57:27.416            53.647               Magadan1          6705.875
       129   03 Jun 2027 13:58:22.856   03 Jun 2027 13:59:48.931            86.075               Magadan1         10759.375
       130   03 Jun 2027 15:37:03.571   03 Jun 2027 15:40:01.535           177.964                Irkutsk         22245.500
       131   03 Jun 2027 16:24:32.954   03 Jun 2027 16:26:03.440            90.486            RioGallegos         11310.750
       132   03 Jun 2027 17:10:34.073   03 Jun 2027 17:12:17.901           103.828                Irkutsk         12978.500
       133   03 Jun 2027 17:13:04.300   03 Jun 2027 17:19:31.812           387.512                Novosib         48439.000
       134   03 Jun 2027 18:53:54.885   03 Jun 2027 18:56:08.806           133.921                  Delhi         16740.125
       135   03 Jun 2027 18:58:24.099   03 Jun 2027 18:58:45.096            20.997                  Delhi          2624.625
       136   03 Jun 2027 20:23:40.423   03 Jun 2027 20:25:26.154           105.731              Murmansk1         13216.375
       137   03 Jun 2027 20:26:47.658   03 Jun 2027 20:29:02.133           134.475                 Moscow         16809.375
       138   03 Jun 2027 22:23:54.900   03 Jun 2027 22:24:44.865            49.965               CapeTown           551.750
       139   04 Jun 2027 04:20:43.793   04 Jun 2027 04:21:56.785            72.992                Novosib          9124.000
       140   04 Jun 2027 04:22:05.568   04 Jun 2027 04:24:12.988           127.420              Murmansk2         15927.500
       141   04 Jun 2027 05:30:13.646   04 Jun 2027 05:33:02.341           168.695                Sumatra         21086.875
       142   04 Jun 2027 05:40:33.784   04 Jun 2027 05:41:42.634            68.850                  Delhi          8606.250
       143   04 Jun 2027 05:46:16.165   04 Jun 2027 05:48:08.980           112.815                  Delhi         14101.875
       144   04 Jun 2027 05:56:10.444   04 Jun 2027 05:56:27.644            17.200                Novosib          2150.000
       145   04 Jun 2027 05:56:48.594   04 Jun 2027 05:56:57.397             8.803                Norilsk          1100.375
       146   04 Jun 2027 05:57:03.146   04 Jun 2027 05:58:11.620            68.474                Novosib          8559.250
       147   04 Jun 2027 05:58:21.864   04 Jun 2027 06:02:03.949           222.085              Murmansk2         27760.625
       148   04 Jun 2027 06:02:03.949   04 Jun 2027 06:03:47.585           103.636              Murmansk1         12954.500
       149   04 Jun 2027 06:41:11.512   04 Jun 2027 06:42:03.157            51.645            RioGallegos          6455.625
       150   04 Jun 2027 07:14:30.453   04 Jun 2027 07:19:27.540           297.087                  Delhi         37135.875
       151   04 Jun 2027 07:22:16.582   04 Jun 2027 07:26:28.795           252.213                Novosib         31526.625
       152   04 Jun 2027 07:26:49.565   04 Jun 2027 07:27:41.368            51.803                 Moscow          6475.375
       153   04 Jun 2027 07:32:18.664   04 Jun 2027 07:36:47.410           268.746              Murmansk1         33593.250
       154   04 Jun 2027 07:37:27.335   04 Jun 2027 07:37:36.657             9.322                Norilsk          1165.250
       155   04 Jun 2027 09:08:45.343   04 Jun 2027 09:13:15.936           270.593                Norilsk         33824.125
       156   04 Jun 2027 09:13:18.856   04 Jun 2027 09:15:12.595           113.739              Murmansk1         14217.375
       157   04 Jun 2027 10:13:31.669   04 Jun 2027 10:22:47.893           556.224               CapeTown         69528.000
       158   04 Jun 2027 10:36:06.825   04 Jun 2027 10:42:33.538           386.713                 Moscow         48339.125
       159   04 Jun 2027 10:42:51.820   04 Jun 2027 10:43:47.499            55.679              Murmansk2          6959.875
       160   04 Jun 2027 10:43:47.499   04 Jun 2027 10:48:29.678           282.179              Murmansk1         35272.375
       161   04 Jun 2027 10:49:08.656   04 Jun 2027 10:49:57.326            48.670              Murmansk1          6083.750
       162   04 Jun 2027 10:53:22.821   04 Jun 2027 10:58:50.894           328.073                Anadyr2         41009.125
       163   04 Jun 2027 10:59:16.160   04 Jun 2027 11:01:59.181           163.021                Anadyr1         20377.625
       164   04 Jun 2027 12:18:34.314   04 Jun 2027 12:21:49.998           195.684              Murmansk2         24460.500
       165   04 Jun 2027 12:28:53.632   04 Jun 2027 12:29:33.953            40.321                Anadyr1          5040.125
       166   04 Jun 2027 12:32:23.806   04 Jun 2027 12:33:31.746            67.940               Magadan1          8492.500
       167   04 Jun 2027 12:36:46.536   04 Jun 2027 12:39:53.059           186.523               Magadan2         23315.375
       168   04 Jun 2027 14:07:10.242   04 Jun 2027 14:08:16.570            66.328               Magadan1          8291.000
       169   04 Jun 2027 14:10:15.366   04 Jun 2027 14:11:49.404            94.038               Magadan2         11754.750
       170   04 Jun 2027 15:48:20.172   04 Jun 2027 15:51:49.882           209.710                Irkutsk         26213.750
       171   04 Jun 2027 16:04:20.869   04 Jun 2027 16:07:28.188           187.319                Sumatra         23414.875
       172   04 Jun 2027 17:23:29.570   04 Jun 2027 17:25:19.828           110.258                Novosib         13782.250
       173   04 Jun 2027 17:29:07.261   04 Jun 2027 17:29:59.034            51.773                Novosib          6471.625
       174   04 Jun 2027 17:36:14.033   04 Jun 2027 17:37:46.573            92.540                Sumatra         11567.500
       175   04 Jun 2027 17:44:29.409   04 Jun 2027 17:47:41.981           192.572                Sumatra         24071.500
       176   04 Jun 2027 19:05:47.052   04 Jun 2027 19:07:44.715           117.663                  Delhi         14707.875
       177   04 Jun 2027 20:36:48.129   04 Jun 2027 20:38:21.993            93.864                 Moscow         11733.000
       178   04 Jun 2027 20:39:00.404   04 Jun 2027 20:40:56.767           116.363                 Moscow         10267.251
       179   05 Jun 2027 04:32:42.582   05 Jun 2027 04:34:02.234            79.652                Novosib          9956.500
       180   05 Jun 2027 04:34:09.619   05 Jun 2027 04:36:12.671           123.052              Murmansk2         15381.500
       181   05 Jun 2027 05:42:15.826   05 Jun 2027 05:44:18.791           122.965                Sumatra         15370.625
       182   05 Jun 2027 05:52:50.974   05 Jun 2027 05:53:40.610            49.636                  Delhi          6204.500
       183   05 Jun 2027 05:55:56.659   05 Jun 2027 05:58:24.505           147.846                  Delhi         18480.750
       184   05 Jun 2027 06:07:21.905   05 Jun 2027 06:07:47.527            25.622              Murmansk1          3202.750
       185   05 Jun 2027 06:08:36.688   05 Jun 2027 06:10:49.298           132.610                 Moscow         16576.250
       186   05 Jun 2027 06:10:49.674   05 Jun 2027 06:14:14.049           204.375              Murmansk1         25546.875
       187   05 Jun 2027 06:48:53.232   05 Jun 2027 06:50:07.495            74.263            RioGallegos          9282.875
       188   05 Jun 2027 07:26:42.363   05 Jun 2027 07:31:24.024           281.661                  Delhi         35207.625
       189   05 Jun 2027 07:33:01.377   05 Jun 2027 07:33:15.850            14.473                  Delhi          1809.125
       190   05 Jun 2027 07:36:58.245   05 Jun 2027 07:38:42.745           104.500                Novosib         13062.500
       191   05 Jun 2027 07:39:13.945   05 Jun 2027 07:39:17.431             3.486                 Moscow           435.750
       192   05 Jun 2027 07:44:15.153   05 Jun 2027 07:45:38.736            83.583                Novosib         10447.875
       193   05 Jun 2027 07:45:46.545   05 Jun 2027 07:47:36.947           110.402                 Moscow         13800.250
       194   05 Jun 2027 07:47:48.472   05 Jun 2027 07:51:19.927           211.455              Murmansk2         26431.875
       195   05 Jun 2027 09:10:50.365   05 Jun 2027 09:12:10.261            79.896                 Moscow          9987.000
       196   05 Jun 2027 09:15:35.173   05 Jun 2027 09:16:12.497            37.324              Murmansk2          4665.500
       197   05 Jun 2027 09:19:27.769   05 Jun 2027 09:23:44.482           256.713                 Moscow         32089.125
       198   05 Jun 2027 09:23:58.724   05 Jun 2027 09:25:09.711            70.987                Norilsk          8873.375
       199   05 Jun 2027 09:25:10.573   05 Jun 2027 09:27:14.193           123.620              Murmansk1         15452.500
       200   05 Jun 2027 10:25:09.428   05 Jun 2027 10:31:37.697           388.269               CapeTown         48533.625
       201   05 Jun 2027 10:50:29.194   05 Jun 2027 10:52:27.161           117.967                 Moscow         14745.875
       202   05 Jun 2027 10:52:35.943   05 Jun 2027 10:55:18.861           162.918              Murmansk1         20364.750
       203   05 Jun 2027 10:55:18.861   05 Jun 2027 11:01:56.285           397.424              Murmansk2         49678.000
       204   05 Jun 2027 11:05:17.711   05 Jun 2027 11:13:38.054           500.343                Anadyr2         62542.875
       205   05 Jun 2027 12:44:06.887   05 Jun 2027 12:45:49.928           103.041               Magadan2         12880.125
       206   05 Jun 2027 12:47:54.920   05 Jun 2027 12:49:30.210            95.290               Magadan2         11911.250
       207   05 Jun 2027 14:19:09.168   05 Jun 2027 14:20:03.223            54.055               Magadan1          6756.875
       208   05 Jun 2027 14:24:14.990   05 Jun 2027 14:26:11.391           116.401               Magadan2         14550.125
       209   05 Jun 2027 15:13:24.359   05 Jun 2027 15:16:11.689           167.330            RioGallegos         20916.250
       210   05 Jun 2027 15:59:52.454   05 Jun 2027 16:01:28.510            96.056                Irkutsk         12007.000
       211   05 Jun 2027 16:05:14.168   05 Jun 2027 16:07:16.365           122.197                Irkutsk         15274.625
       212   05 Jun 2027 16:15:01.228   05 Jun 2027 16:15:29.962            28.734                Sumatra          3591.750
       213   05 Jun 2027 16:19:50.967   05 Jun 2027 16:21:57.999           127.032                Sumatra         15879.000
       214   05 Jun 2027 17:37:31.874   05 Jun 2027 17:39:25.091           113.217                Novosib         14152.125
       215   05 Jun 2027 17:45:46.082   05 Jun 2027 17:47:23.792            97.710                  Delhi         12213.750
       216   05 Jun 2027 19:17:42.937   05 Jun 2027 19:18:44.570            61.633                  Delhi          7704.125
       217   05 Jun 2027 20:44:45.336   05 Jun 2027 20:45:26.189            40.853              Murmansk1          5106.625
       218   05 Jun 2027 20:48:36.258   05 Jun 2027 20:48:56.612            20.354                 Moscow          2544.250
       219   05 Jun 2027 20:48:58.856   05 Jun 2027 20:49:28.195            29.339              Murmansk1          3667.375
       220   05 Jun 2027 20:51:09.830   05 Jun 2027 20:52:52.885           103.055                 Moscow         12881.875
       221   05 Jun 2027 21:17:23.961   05 Jun 2027 21:17:42.782            18.821               CapeTown          2352.625
       222   05 Jun 2027 22:47:45.797   05 Jun 2027 22:48:37.808            52.011               CapeTown          6501.375
       223   06 Jun 2027 03:08:48.477   06 Jun 2027 03:17:30.173           521.696              Murmansk1         65212.000
       224   06 Jun 2027 04:20:33.091   06 Jun 2027 04:23:24.002           170.911                Sumatra         21363.875
       225   06 Jun 2027 04:44:28.838   06 Jun 2027 04:50:17.990           349.152              Murmansk1         43644.000
       226   06 Jun 2027 04:50:17.990   06 Jun 2027 04:52:36.881           138.891              Murmansk2         17361.375
       227   06 Jun 2027 05:19:59.808   06 Jun 2027 05:24:24.151           264.343            RioGallegos         33042.875
       228   06 Jun 2027 05:54:23.728   06 Jun 2027 05:55:44.730            81.002                Sumatra         10125.250
       229   06 Jun 2027 05:56:51.497   06 Jun 2027 05:59:16.698           145.201                Sumatra         18150.125
       230   06 Jun 2027 06:09:20.004   06 Jun 2027 06:10:44.963            84.959                Novosib         10619.875
       231   06 Jun 2027 06:12:15.812   06 Jun 2027 06:13:02.604            46.792                Irkutsk          5849.000
       232   06 Jun 2027 06:19:10.136   06 Jun 2027 06:19:46.228            36.092                Irkutsk          4511.500
       233   06 Jun 2027 06:20:29.247   06 Jun 2027 06:21:00.497            31.250                Norilsk          3906.250
       234   06 Jun 2027 06:21:06.990   06 Jun 2027 06:25:33.262           266.272              Murmansk1         33284.000
       235   06 Jun 2027 06:25:33.262   06 Jun 2027 06:26:18.520            45.258              Murmansk2          5657.250
       236   06 Jun 2027 07:39:00.631   06 Jun 2027 07:44:25.213           324.582                  Delhi         40572.750
       237   06 Jun 2027 07:45:22.762   06 Jun 2027 07:46:17.732            54.970                  Delhi          6871.250
       238   06 Jun 2027 07:48:02.555   06 Jun 2027 07:51:00.324           177.769                Novosib         22221.125
       239   06 Jun 2027 07:51:24.297   06 Jun 2027 07:51:25.960             1.663                 Moscow           207.875
       240   06 Jun 2027 07:56:18.026   06 Jun 2027 08:03:20.374           422.348              Murmansk1         52793.500
       241   06 Jun 2027 09:26:10.060   06 Jun 2027 09:27:00.921            50.861                 Moscow          6357.625
       242   06 Jun 2027 09:27:03.781   06 Jun 2027 09:27:44.528            40.747              Murmansk1          5093.375
       243   06 Jun 2027 09:27:44.528   06 Jun 2027 09:28:53.515            68.987              Murmansk2          8623.375
       244   06 Jun 2027 09:31:14.889   06 Jun 2027 09:39:15.848           480.959              Murmansk2         60119.875
       245   06 Jun 2027 10:41:51.999   06 Jun 2027 10:42:56.420            64.421               CapeTown          8052.625
       246   06 Jun 2027 11:03:23.485   06 Jun 2027 11:04:47.846            84.361                 Moscow         10545.125
       247   06 Jun 2027 11:05:16.206   06 Jun 2027 11:13:48.092           511.886              Murmansk1         63985.750
       248   06 Jun 2027 11:17:14.006   06 Jun 2027 11:24:59.336           465.330                Anadyr1         58166.250
       249   06 Jun 2027 12:43:57.888   06 Jun 2027 12:45:51.807           113.919              Murmansk2         14239.875
       250   06 Jun 2027 12:55:54.568   06 Jun 2027 13:01:55.973           361.405               Magadan1         45175.625
       251   06 Jun 2027 15:24:35.392   06 Jun 2027 15:27:59.166           203.774            RioGallegos         25471.750
       252   06 Jun 2027 16:13:40.293   06 Jun 2027 16:15:34.569           114.276                Irkutsk         14284.500
       253   06 Jun 2027 16:26:09.610   06 Jun 2027 16:27:26.940            77.330                Sumatra          9666.250
       254   06 Jun 2027 16:32:06.241   06 Jun 2027 16:34:07.030           120.789                Sumatra         15098.625
       255   06 Jun 2027 17:49:40.630   06 Jun 2027 17:50:23.045            42.415                Novosib          5301.875
       256   06 Jun 2027 17:56:23.262   06 Jun 2027 17:59:05.262           162.000                  Delhi         20250.000
       257   06 Jun 2027 19:29:42.241   06 Jun 2027 19:31:16.712            94.471                  Delhi         11808.875
       258   06 Jun 2027 21:00:27.302   06 Jun 2027 21:03:16.106           168.804                 Moscow         21100.500
       259   07 Jun 2027 03:20:38.736   07 Jun 2027 03:24:27.304           228.568                Norilsk         28571.000
       260   07 Jun 2027 03:24:31.553   07 Jun 2027 03:30:03.849           332.296              Murmansk1         41537.000
       261   07 Jun 2027 04:31:49.749   07 Jun 2027 04:33:23.297            93.548                Sumatra         11693.500
       262   07 Jun 2027 04:38:11.447   07 Jun 2027 04:39:58.593           107.146                Sumatra         13393.250
       263   07 Jun 2027 04:56:37.019   07 Jun 2027 05:04:29.288           472.269              Murmansk2         59033.625
       264   07 Jun 2027 05:35:06.046   07 Jun 2027 05:35:31.823            25.777            RioGallegos          3222.125
       265   07 Jun 2027 05:35:43.960   07 Jun 2027 05:36:19.949            35.989            RioGallegos          4498.625
       266   07 Jun 2027 06:06:37.858   07 Jun 2027 06:09:02.964           145.106                Sumatra         18138.250
       267   07 Jun 2027 06:17:25.600   07 Jun 2027 06:19:18.597           112.997                  Delhi         14124.625
       268   07 Jun 2027 06:21:23.782   07 Jun 2027 06:23:14.251           110.469                Novosib         13808.625
       269   07 Jun 2027 06:24:33.900   07 Jun 2027 06:25:14.723            40.823                Irkutsk          5102.875
       270   07 Jun 2027 06:31:14.863   07 Jun 2027 06:31:30.123            15.260              Murmansk2          1907.500
       271   07 Jun 2027 06:32:00.183   07 Jun 2027 06:32:36.443            36.260              Murmansk1          4532.500
       272   07 Jun 2027 06:32:36.443   07 Jun 2027 06:33:16.043            39.600              Murmansk2          4950.000
       273   07 Jun 2027 06:33:16.055   07 Jun 2027 06:34:13.926            57.871                Novosib          7233.875
       274   07 Jun 2027 06:34:17.188   07 Jun 2027 06:35:50.346            93.158                Norilsk         11644.750
       275   07 Jun 2027 06:36:16.173   07 Jun 2027 06:37:01.051            44.878              Murmansk2          5609.750
       276   07 Jun 2027 06:37:36.459   07 Jun 2027 06:38:06.245            29.786              Murmansk1          3723.250
       277   07 Jun 2027 06:38:47.721   07 Jun 2027 06:39:03.530            15.809              Murmansk1          1976.125
       278   07 Jun 2027 06:39:26.958   07 Jun 2027 06:39:39.066            12.108              Murmansk1          1513.500
       279   07 Jun 2027 07:51:26.281   07 Jun 2027 07:55:33.047           246.766                  Delhi         30845.750
       280   07 Jun 2027 07:59:46.984   07 Jun 2027 08:03:21.851           214.867                Novosib         26858.375
       281   07 Jun 2027 08:08:28.961   07 Jun 2027 08:09:17.327            48.366                Novosib          6045.750
       282   07 Jun 2027 08:09:23.089   07 Jun 2027 08:11:45.486           142.397                 Moscow         17799.625
       283   07 Jun 2027 08:11:52.560   07 Jun 2027 08:14:09.224           136.664              Murmansk2         17083.000
       284   07 Jun 2027 08:14:09.224   07 Jun 2027 08:15:21.081            71.857              Murmansk1          8982.125
       285   07 Jun 2027 09:34:59.705   07 Jun 2027 09:40:32.818           333.113                 Moscow         41639.125
       286   07 Jun 2027 09:40:54.101   07 Jun 2027 09:42:06.390            72.289              Murmansk2          9036.125
       287   07 Jun 2027 09:42:30.011   07 Jun 2027 09:45:15.975           165.964              Murmansk1         20745.500
       288   07 Jun 2027 09:45:28.018   07 Jun 2027 09:48:43.883           195.865                Norilsk         24483.125
       289   07 Jun 2027 09:55:02.316   07 Jun 2027 09:56:42.383           100.067                Anadyr1         12508.375
       290   07 Jun 2027 09:56:42.383   07 Jun 2027 09:58:36.800           114.417                Anadyr2         14302.125
       291   07 Jun 2027 11:16:18.278   07 Jun 2027 11:17:15.970            57.692              Murmansk1          7211.500
       292   07 Jun 2027 11:22:05.972   07 Jun 2027 11:23:13.646            67.674              Murmansk1          8459.250
       293   07 Jun 2027 11:23:19.525   07 Jun 2027 11:24:17.654            58.129              Murmansk1          7266.125
       294   07 Jun 2027 11:25:37.642   07 Jun 2027 11:25:55.406            17.764              Murmansk2          2220.500
       295   07 Jun 2027 11:29:11.396   07 Jun 2027 11:30:16.296            64.900                Anadyr1          8112.500
       296   07 Jun 2027 11:32:08.011   07 Jun 2027 11:34:22.517           134.506                Anadyr1         16813.250
       297   07 Jun 2027 11:37:55.196   07 Jun 2027 11:38:18.851            23.655                Anadyr2          2956.875
       298   07 Jun 2027 11:38:36.958   07 Jun 2027 11:38:44.467             7.509                Anadyr2           938.625
       299   07 Jun 2027 12:24:48.083   07 Jun 2027 12:24:49.281             1.198               CapeTown           149.750
       300   07 Jun 2027 12:26:07.501   07 Jun 2027 12:26:37.217            29.716               CapeTown          3714.500
       301   07 Jun 2027 12:27:17.256   07 Jun 2027 12:27:52.612            35.356               CapeTown          4419.500
       302   07 Jun 2027 12:28:56.242   07 Jun 2027 12:29:20.141            23.899               CapeTown          2987.375
       303   07 Jun 2027 12:32:21.242   07 Jun 2027 12:34:21.750           120.508               CapeTown         15063.500
       304   07 Jun 2027 13:07:45.375   07 Jun 2027 13:13:20.907           335.532               Magadan2         41941.500
       305   07 Jun 2027 15:36:05.078   07 Jun 2027 15:39:49.747           224.669            RioGallegos         28083.625
       306   07 Jun 2027 16:37:32.844   07 Jun 2027 16:38:24.443            51.599                Sumatra          6449.875
       307   07 Jun 2027 16:39:18.187   07 Jun 2027 16:41:10.499           112.312                Sumatra         14039.000
       308   07 Jun 2027 16:44:15.155   07 Jun 2027 16:45:02.498            47.343                Sumatra          5917.875
       309   07 Jun 2027 18:00:05.824   07 Jun 2027 18:01:46.278           100.454                Novosib         12556.750
       310   07 Jun 2027 18:07:35.270   07 Jun 2027 18:09:01.549            86.279                  Delhi         10784.875
       311   07 Jun 2027 18:13:18.834   07 Jun 2027 18:15:24.902           126.068                  Delhi         15758.500
       312   07 Jun 2027 21:10:54.078   07 Jun 2027 21:13:31.032           156.954              Murmansk1         19619.250
       313   07 Jun 2027 21:37:31.170   07 Jun 2027 21:39:06.195            95.025               CapeTown         11878.125
       314   07 Jun 2027 21:43:45.137   07 Jun 2027 21:44:43.450            58.313               CapeTown          7289.125
       315   08 Jun 2027 03:32:56.811   08 Jun 2027 03:35:04.144           127.333                Norilsk         15916.625
       316   08 Jun 2027 04:43:18.449   08 Jun 2027 04:44:40.648            82.199                Sumatra         10274.875
       317   08 Jun 2027 04:47:07.832   08 Jun 2027 04:47:08.881             1.049                Sumatra           131.125
       318   08 Jun 2027 04:50:17.420   08 Jun 2027 04:50:22.243             4.823                Sumatra           602.875
       319   08 Jun 2027 05:09:07.519   08 Jun 2027 05:13:45.305           277.786                Norilsk         34723.250
       320   08 Jun 2027 05:14:09.325   08 Jun 2027 05:15:06.401            57.076              Murmansk2          7134.500
       321   08 Jun 2027 05:44:46.609   08 Jun 2027 05:47:07.211           140.602            RioGallegos         17575.250
       322   08 Jun 2027 05:48:32.550   08 Jun 2027 05:48:46.896            14.346            RioGallegos          1793.250
       323   08 Jun 2027 06:18:59.242   08 Jun 2027 06:20:43.725           104.483                Sumatra         13060.375
       324   08 Jun 2027 06:22:27.544   08 Jun 2027 06:23:17.634            50.090                Sumatra          6261.250
       325   08 Jun 2027 06:26:52.473   08 Jun 2027 06:29:11.566           139.093                  Delhi         17386.625
       326   08 Jun 2027 06:29:38.325   08 Jun 2027 06:31:15.998            97.673                  Delhi         12209.125
       327   08 Jun 2027 06:33:30.594   08 Jun 2027 06:35:49.089           138.495                Novosib         17311.875
       328   08 Jun 2027 06:37:23.157   08 Jun 2027 06:38:19.930            56.773                Irkutsk          7096.625
       329   08 Jun 2027 06:38:33.536   08 Jun 2027 06:39:45.435            71.899                Irkutsk          8987.375
       330   08 Jun 2027 06:44:18.270   08 Jun 2027 06:47:20.412           182.142                 Moscow         22767.750
       331   08 Jun 2027 06:47:21.541   08 Jun 2027 06:49:34.676           133.135              Murmansk1         16641.875
       332   08 Jun 2027 08:04:01.095   08 Jun 2027 08:04:42.234            41.139                  Delhi          5142.375
       333   08 Jun 2027 08:05:38.149   08 Jun 2027 08:07:46.126           127.977                  Delhi         15997.125
       334   08 Jun 2027 08:12:29.463   08 Jun 2027 08:15:47.753           198.290                Novosib         24786.250
       335   08 Jun 2027 08:20:34.845   08 Jun 2027 08:21:00.918            26.073                Novosib          3259.125
       336   08 Jun 2027 08:21:01.662   08 Jun 2027 08:25:39.236           277.574                Norilsk         34696.750
       337   08 Jun 2027 08:26:03.061   08 Jun 2027 08:27:22.000            78.939              Murmansk1          9867.375
       338   08 Jun 2027 09:50:39.818   08 Jun 2027 09:53:34.111           174.293              Murmansk1         21786.625
       339   08 Jun 2027 09:53:34.111   08 Jun 2027 09:56:07.080           152.969              Murmansk2         19121.125
       340   08 Jun 2027 09:58:39.416   08 Jun 2027 10:00:21.665           102.249              Murmansk1         12781.125
       341   08 Jun 2027 10:06:27.662   08 Jun 2027 10:11:51.682           324.020                Anadyr1         40502.500
       342   08 Jun 2027 11:28:43.140   08 Jun 2027 11:30:05.141            82.001              Murmansk2         10250.125
       343   08 Jun 2027 11:36:14.901   08 Jun 2027 11:37:09.997            55.096              Murmansk1          6887.000
       344   08 Jun 2027 11:41:09.645   08 Jun 2027 11:42:16.228            66.583                Anadyr2          8322.875
       345   08 Jun 2027 11:42:41.748   08 Jun 2027 11:45:48.456           186.708                Anadyr1         23338.500
       346   08 Jun 2027 11:49:44.952   08 Jun 2027 11:50:43.278            58.326                Anadyr2          7290.750
       347   08 Jun 2027 12:38:10.855   08 Jun 2027 12:39:00.528            49.673               CapeTown          6209.125
       348   08 Jun 2027 12:39:59.213   08 Jun 2027 12:41:27.434            88.221               CapeTown         11027.625
       349   08 Jun 2027 12:44:22.549   08 Jun 2027 12:44:46.976            24.427               CapeTown          3053.375
       350   08 Jun 2027 12:45:35.588   08 Jun 2027 12:46:21.696            46.108               CapeTown          5763.500
       351   08 Jun 2027 13:19:38.460   08 Jun 2027 13:24:05.504           267.044               Magadan1         33380.500
       352   08 Jun 2027 15:47:43.840   08 Jun 2027 15:51:42.734           238.894            RioGallegos         29861.750
       353   08 Jun 2027 15:53:47.031   08 Jun 2027 15:54:13.242            26.211            RioGallegos          3276.375
       354   08 Jun 2027 16:35:07.406   08 Jun 2027 16:37:53.247           165.841                Irkutsk         20730.125
       355   08 Jun 2027 16:39:13.235   08 Jun 2027 16:39:26.597            13.362                Irkutsk          1670.250
       356   08 Jun 2027 16:44:11.030   08 Jun 2027 16:44:35.188            24.158                Irkutsk          3019.750
       357   08 Jun 2027 16:49:06.243   08 Jun 2027 16:50:54.260           108.017                Sumatra         13502.125
       358   08 Jun 2027 16:53:08.657   08 Jun 2027 16:53:52.550            43.893                Sumatra          5486.625
       359   08 Jun 2027 17:00:20.736   08 Jun 2027 17:00:46.016            25.280                Sumatra          3160.000
       360   08 Jun 2027 18:10:48.616   08 Jun 2027 18:12:33.155           104.539                Novosib         13067.375
       361   08 Jun 2027 18:19:02.315   08 Jun 2027 18:22:43.424           221.109                  Delhi         27638.625
       362   08 Jun 2027 19:53:01.358   08 Jun 2027 19:54:28.307            86.949                 Moscow         10868.625
       363   08 Jun 2027 21:30:04.302   08 Jun 2027 21:31:57.299           112.997                 Moscow         14124.625
       364   08 Jun 2027 21:49:01.740   08 Jun 2027 21:50:32.128            90.388               CapeTown         11298.500
       365   09 Jun 2027 03:45:00.113   09 Jun 2027 03:45:51.309            51.196                Novosib          6399.500
       366   09 Jun 2027 03:46:07.442   09 Jun 2027 03:46:30.895            23.453              Murmansk2          2931.625
       367   09 Jun 2027 04:54:55.996   09 Jun 2027 04:56:53.148           117.152                Sumatra         14644.000
       368   09 Jun 2027 05:09:09.515   09 Jun 2027 05:11:18.396           128.881                  Delhi         16110.125
       369   09 Jun 2027 05:20:25.480   09 Jun 2027 05:24:29.478           243.998              Murmansk2         30499.750
       370   09 Jun 2027 05:24:29.478   09 Jun 2027 05:25:41.388            71.910              Murmansk1          8988.750
       371   09 Jun 2027 05:25:41.388   09 Jun 2027 05:25:57.037            15.649              Murmansk2          1956.125
       372   09 Jun 2027 05:59:55.268   09 Jun 2027 06:00:19.903            24.635            RioGallegos          3079.375
       373   09 Jun 2027 06:03:26.364   09 Jun 2027 06:04:19.406            53.042            RioGallegos          6630.250
       374   09 Jun 2027 06:05:10.283   09 Jun 2027 06:05:25.206            14.923            RioGallegos          1865.375
       375   09 Jun 2027 06:31:29.832   09 Jun 2027 06:32:16.471            46.639                Sumatra          5829.875
       376   09 Jun 2027 06:33:49.958   09 Jun 2027 06:35:26.674            96.716                Sumatra         12089.500
       377   09 Jun 2027 06:38:42.675   09 Jun 2027 06:40:03.247            80.572                  Delhi         10071.500
       378   09 Jun 2027 06:41:45.784   09 Jun 2027 06:42:08.011            22.227                  Delhi          2778.375
       379   09 Jun 2027 06:45:40.570   09 Jun 2027 06:47:48.633           128.063                Novosib         16007.875
       380   09 Jun 2027 06:48:27.475   09 Jun 2027 06:50:17.875           110.400                Irkutsk         13800.000
       381   09 Jun 2027 06:50:17.953   09 Jun 2027 06:51:08.727            50.774                 Moscow          6346.750
       382   09 Jun 2027 06:51:38.143   09 Jun 2027 06:52:45.673            67.530                Irkutsk          8441.250
       383   09 Jun 2027 06:56:31.140   09 Jun 2027 06:56:36.337             5.197              Murmansk1           649.625
       384   09 Jun 2027 06:56:51.206   09 Jun 2027 06:59:28.116           156.910                 Moscow         19613.750
       385   09 Jun 2027 07:00:10.905   09 Jun 2027 07:01:40.860            89.955              Murmansk1         11244.375
       386   09 Jun 2027 08:16:48.490   09 Jun 2027 08:17:12.821            24.331                  Delhi          3041.375
       387   09 Jun 2027 08:18:09.706   09 Jun 2027 08:20:05.715           116.009                  Delhi         14501.125
       388   09 Jun 2027 08:25:21.217   09 Jun 2027 08:27:55.832           154.615                Novosib         19326.875
       389   09 Jun 2027 08:32:07.919   09 Jun 2027 08:32:14.100             6.181                Novosib           772.625
       390   09 Jun 2027 08:33:04.366   09 Jun 2027 08:36:24.547           200.181                Norilsk         25022.625
       391   09 Jun 2027 08:36:36.852   09 Jun 2027 08:39:23.119           166.267              Murmansk2         20783.375
       392   09 Jun 2027 09:59:21.638   09 Jun 2027 10:03:18.883           237.245                 Moscow         29655.625
       393   09 Jun 2027 10:06:53.553   09 Jun 2027 10:08:03.805            70.252              Murmansk1          8781.500
       394   09 Jun 2027 10:11:20.186   09 Jun 2027 10:12:13.008            52.822              Murmansk1          6602.750
       395   09 Jun 2027 10:18:07.515   09 Jun 2027 10:24:49.537           402.022                Anadyr2         50252.750
       396   09 Jun 2027 11:41:10.502   09 Jun 2027 11:42:19.638            69.136              Murmansk2          8642.000
       397   09 Jun 2027 11:44:15.526   09 Jun 2027 11:44:36.854            21.328              Murmansk1          2666.000
       398   09 Jun 2027 11:45:01.014   09 Jun 2027 11:45:43.501            42.487              Murmansk1          5310.875
       399   09 Jun 2027 11:49:55.866   09 Jun 2027 11:50:24.541            28.675              Murmansk1          3584.375
       400   09 Jun 2027 11:51:08.792   09 Jun 2027 11:51:12.765             3.973              Murmansk1           496.625
       401   09 Jun 2027 11:53:08.583   09 Jun 2027 11:58:14.213           305.630                Anadyr1         38203.750
       402   09 Jun 2027 11:59:55.050   09 Jun 2027 12:00:44.953            49.903                Anadyr1          6237.875
       403   09 Jun 2027 12:02:28.817   09 Jun 2027 12:02:42.670            13.853                Anadyr1          1731.625
       404   09 Jun 2027 12:49:28.446   09 Jun 2027 12:51:39.785           131.339               CapeTown         16417.375
       405   09 Jun 2027 13:31:33.278   09 Jun 2027 13:34:32.579           179.301               Magadan1         22412.625
       406   09 Jun 2027 13:39:11.666   09 Jun 2027 13:41:04.664           112.998               Magadan2         14124.750
       407   09 Jun 2027 15:59:28.217   09 Jun 2027 16:05:29.372           361.155            RioGallegos         45144.375
       408   09 Jun 2027 16:46:59.190   09 Jun 2027 16:48:40.354           101.164                Irkutsk         12645.500
       409   09 Jun 2027 17:00:47.530   09 Jun 2027 17:02:41.130           113.600                Sumatra         14200.000
       410   09 Jun 2027 17:03:15.054   09 Jun 2027 17:06:52.103           217.049                Sumatra         27131.125
       411   09 Jun 2027 18:30:38.605   09 Jun 2027 18:31:52.102            73.497                  Delhi          9187.125
       412   09 Jun 2027 18:32:53.404   09 Jun 2027 18:34:13.145            79.741                  Delhi          9967.625
       413   09 Jun 2027 20:02:49.838   09 Jun 2027 20:05:33.522           163.684                 Moscow         20460.500
       414   09 Jun 2027 21:45:44.477   09 Jun 2027 21:46:03.772            19.295                 Moscow          2411.875
       415   09 Jun 2027 22:02:47.175   09 Jun 2027 22:04:40.823           113.648               CapeTown         14206.000
       416   09 Jun 2027 22:09:59.039   09 Jun 2027 22:12:25.171           146.132               CapeTown           899.376
       417   10 Jun 2027 03:56:55.109   10 Jun 2027 03:57:58.823            63.714                Novosib          7964.250
       418   10 Jun 2027 03:58:10.558   10 Jun 2027 04:01:00.836           170.278                Norilsk         21284.750
       419   10 Jun 2027 05:06:40.714   10 Jun 2027 05:08:26.939           106.225                Sumatra         13278.125
       420   10 Jun 2027 05:09:22.697   10 Jun 2027 05:11:16.442           113.745                Sumatra         14218.125
       421   10 Jun 2027 05:32:31.506   10 Jun 2027 05:35:51.411           199.905              Murmansk2         24988.125
       422   10 Jun 2027 05:35:56.509   10 Jun 2027 05:37:48.455           111.946                Norilsk         13993.250
       423   10 Jun 2027 06:12:54.975   10 Jun 2027 06:13:26.087            31.112            RioGallegos          3889.000
       424   10 Jun 2027 06:16:14.246   10 Jun 2027 06:16:21.018             6.772            RioGallegos           846.500
       425   10 Jun 2027 06:17:16.590   10 Jun 2027 06:17:45.328            28.738            RioGallegos          3592.250
       426   10 Jun 2027 06:44:13.702   10 Jun 2027 06:45:45.906            92.204                Sumatra         11525.500
       427   10 Jun 2027 06:45:56.029   10 Jun 2027 06:47:42.087           106.058                Sumatra         13257.250
       428   10 Jun 2027 06:52:48.171   10 Jun 2027 06:53:17.978            29.807                  Delhi          3725.875
       429   10 Jun 2027 06:57:53.900   10 Jun 2027 07:01:49.154           235.254                Novosib         29406.750
       430   10 Jun 2027 07:01:55.030   10 Jun 2027 07:03:11.119            76.089                 Moscow          9511.125
       431   10 Jun 2027 07:03:28.415   10 Jun 2027 07:04:45.349            76.934                Irkutsk          9616.750
       432   10 Jun 2027 07:08:27.508   10 Jun 2027 07:08:51.158            23.650              Murmansk2          2956.250
       433   10 Jun 2027 07:08:54.846   10 Jun 2027 07:09:49.863            55.017              Murmansk1          6877.125
       434   10 Jun 2027 07:09:54.670   10 Jun 2027 07:11:34.984           100.314                 Moscow         12539.250
       435   10 Jun 2027 07:12:18.316   10 Jun 2027 07:13:02.954            44.638              Murmansk2          5579.750
       436   10 Jun 2027 08:29:56.702   10 Jun 2027 08:32:32.949           156.247                  Delhi         19530.875
       437   10 Jun 2027 08:44:02.948   10 Jun 2027 08:44:58.832            55.884              Murmansk2          6985.500
       438   10 Jun 2027 08:45:42.939   10 Jun 2027 08:47:54.699           131.760                 Moscow         16470.000
       439   10 Jun 2027 08:48:02.904   10 Jun 2027 08:51:24.392           201.488              Murmansk1         25186.000
       440   10 Jun 2027 09:51:01.015   10 Jun 2027 09:58:15.450           434.435               CapeTown         54304.375
       441   10 Jun 2027 10:11:37.785   10 Jun 2027 10:16:19.885           282.100                 Moscow         35262.500
       442   10 Jun 2027 10:16:35.235   10 Jun 2027 10:21:32.220           296.985              Murmansk1         37123.125
       443   10 Jun 2027 10:21:32.220   10 Jun 2027 10:22:32.114            59.894              Murmansk2          7486.750
       444   10 Jun 2027 10:22:42.686   10 Jun 2027 10:23:21.189            38.503              Murmansk1          4812.875
       445   10 Jun 2027 10:24:00.309   10 Jun 2027 10:24:25.766            25.457              Murmansk1          3182.125
       446   10 Jun 2027 10:24:32.493   10 Jun 2027 10:24:56.891            24.398              Murmansk2          3049.750
       447   10 Jun 2027 10:26:15.948   10 Jun 2027 10:26:39.655            23.707              Murmansk2          2963.375
       448   10 Jun 2027 10:26:53.410   10 Jun 2027 10:27:11.861            18.451              Murmansk2          2306.375
       449   10 Jun 2027 10:29:53.995   10 Jun 2027 10:35:54.545           360.550                Anadyr1         45068.750
       450   10 Jun 2027 11:54:08.150   10 Jun 2027 11:57:02.970           174.820              Murmansk2         21852.500
       451   10 Jun 2027 11:57:02.970   10 Jun 2027 11:57:23.657            20.687              Murmansk1          2585.875
       452   10 Jun 2027 11:58:04.663   10 Jun 2027 11:58:09.531             4.868              Murmansk2           608.500
       453   10 Jun 2027 11:58:38.857   10 Jun 2027 11:59:18.622            39.765              Murmansk2          4970.625
       454   10 Jun 2027 12:01:08.263   10 Jun 2027 12:01:34.771            26.508              Murmansk1          3313.500
       455   10 Jun 2027 12:01:56.522   10 Jun 2027 12:02:32.120            35.598              Murmansk1          4449.750
       456   10 Jun 2027 12:05:08.082   10 Jun 2027 12:05:58.130            50.048                Anadyr2          6256.000
       457   10 Jun 2027 12:07:23.799   10 Jun 2027 12:09:49.846           146.047                Anadyr1         18255.875
       458   10 Jun 2027 12:12:00.318   10 Jun 2027 12:12:16.462            16.144               Magadan2          2018.000
       459   10 Jun 2027 13:43:29.461   10 Jun 2027 13:46:36.460           186.999               Magadan1         23374.875
       460   10 Jun 2027 13:52:13.239   10 Jun 2027 13:52:28.031            14.792               Magadan2          1849.000
       461   10 Jun 2027 13:52:52.537   10 Jun 2027 13:53:01.747             9.210               Magadan1          1151.250
       462   10 Jun 2027 13:53:46.207   10 Jun 2027 13:54:22.142            35.935               Magadan2          4491.875
       463   10 Jun 2027 15:27:20.073   10 Jun 2027 15:27:49.186            29.113                Irkutsk          3639.125
       464   10 Jun 2027 16:11:16.501   10 Jun 2027 16:14:00.652           164.151            RioGallegos         20518.875
       465   10 Jun 2027 16:15:16.892   10 Jun 2027 16:17:01.222           104.330            RioGallegos         13041.250
       466   10 Jun 2027 16:58:53.097   10 Jun 2027 17:01:02.840           129.743                Irkutsk         16217.875
       467   10 Jun 2027 17:01:03.062   10 Jun 2027 17:04:00.562           177.500                Novosib         22187.500
       468   10 Jun 2027 17:14:10.260   10 Jun 2027 17:15:28.697            78.437                Sumatra          9804.625
       469   10 Jun 2027 17:17:21.985   10 Jun 2027 17:17:23.858             1.873                Sumatra           234.125
       470   10 Jun 2027 18:35:57.629   10 Jun 2027 18:36:07.841            10.212                Novosib          1276.500
       471   10 Jun 2027 18:37:45.651   10 Jun 2027 18:39:17.253            91.602                Novosib         11450.250
       472   10 Jun 2027 18:42:21.471   10 Jun 2027 18:44:21.615           120.144                  Delhi         15018.000
       473   10 Jun 2027 18:44:41.256   10 Jun 2027 18:46:37.109           115.853                  Delhi         14481.625
       474   10 Jun 2027 20:13:40.414   10 Jun 2027 20:17:24.011           223.597                 Moscow         27949.625
       475   10 Jun 2027 22:12:24.799   10 Jun 2027 22:12:34.369             9.570               CapeTown          1196.250
       476   10 Jun 2027 22:14:48.495   10 Jun 2027 22:14:58.474             9.979               CapeTown          1247.375
       477   10 Jun 2027 22:24:12.705   10 Jun 2027 22:24:39.713            27.008               CapeTown          1056.000
       478   11 Jun 2027 04:09:03.214   11 Jun 2027 04:12:05.607           182.393                Norilsk         22799.125
       479   11 Jun 2027 05:18:31.660   11 Jun 2027 05:20:14.725           103.065                Sumatra         12883.125
       480   11 Jun 2027 05:21:33.168   11 Jun 2027 05:22:30.307            57.139                Sumatra          7142.375
       481   11 Jun 2027 05:29:54.900   11 Jun 2027 05:32:07.114           132.214                  Delhi         16526.750
       482   11 Jun 2027 05:44:25.098   11 Jun 2027 05:46:27.829           122.731                 Moscow         15341.375
