uniorb/output/strategy_4/Drop/Drop_KinoSat_110510.txt

KinoSat_110510
-------------------------
    Access    *     Start Time (UTCG)     *     Stop Time (UTCG)  *   Duration (s)        *       Station  *  Data (Mbytes)
         1   01 Jun 2027 03:00:38.155   01 Jun 2027 03:01:13.369            35.214                Anadyr2          3511.500
         2   01 Jun 2027 03:01:28.763   01 Jun 2027 03:02:01.530            32.767                Anadyr1          4095.875
         3   01 Jun 2027 03:02:26.641   01 Jun 2027 03:03:11.353            44.712               Magadan2          5589.000
         4   01 Jun 2027 03:03:27.938   01 Jun 2027 03:03:51.803            23.865                Anadyr1          2983.125
         5   01 Jun 2027 03:04:13.851   01 Jun 2027 03:04:35.882            22.031                Anadyr2          2753.875
         6   01 Jun 2027 03:05:15.437   01 Jun 2027 03:05:23.284             7.847                Anadyr2           980.875
         7   01 Jun 2027 03:06:20.668   01 Jun 2027 03:06:54.669            34.001                Anadyr1          4250.125
         8   01 Jun 2027 04:37:36.696   01 Jun 2027 04:38:10.155            33.459                Novosib          4182.375
         9   01 Jun 2027 04:38:18.880   01 Jun 2027 04:38:38.851            19.971                Novosib          2496.375
        10   01 Jun 2027 04:38:50.897   01 Jun 2027 04:39:15.880            24.983                Novosib          3122.875
        11   01 Jun 2027 04:39:23.027   01 Jun 2027 04:40:00.016            36.989                Norilsk          4623.625
        12   01 Jun 2027 04:40:21.701   01 Jun 2027 04:41:43.666            81.965                Norilsk         10245.625
        13   01 Jun 2027 04:41:51.288   01 Jun 2027 04:42:21.221            29.933                Irkutsk          3741.625
        14   01 Jun 2027 04:42:23.149   01 Jun 2027 04:43:24.698            61.549                Novosib          7693.625
        15   01 Jun 2027 05:53:18.144   01 Jun 2027 05:54:11.749            53.605                Sumatra          6700.625
        16   01 Jun 2027 06:14:10.815   01 Jun 2027 06:14:52.758            41.943                Norilsk          5242.875
        17   01 Jun 2027 06:15:09.599   01 Jun 2027 06:15:52.386            42.787                Norilsk          5348.375
        18   01 Jun 2027 06:16:09.030   01 Jun 2027 06:16:33.877            24.847              Murmansk1          3105.875
        19   01 Jun 2027 06:16:39.829   01 Jun 2027 06:18:33.198           113.369                Irkutsk         14171.125
        20   01 Jun 2027 07:38:47.025   01 Jun 2027 07:40:52.207           125.182                  Delhi         15647.750
        21   01 Jun 2027 07:52:35.665   01 Jun 2027 07:53:13.320            37.655              Murmansk1          4706.875
        22   01 Jun 2027 07:53:25.535   01 Jun 2027 07:54:11.071            45.536                Norilsk          5692.000
        23   01 Jun 2027 07:54:52.993   01 Jun 2027 07:55:57.398            64.405                 Moscow          8050.625
        24   01 Jun 2027 09:28:38.941   01 Jun 2027 09:30:55.354           136.413                Novosib         17051.625
        25   01 Jun 2027 09:31:02.862   01 Jun 2027 09:33:15.706           132.844                Norilsk         16605.500
        26   01 Jun 2027 09:33:30.008   01 Jun 2027 09:37:07.766           217.758              Murmansk1         27219.750
        27   01 Jun 2027 10:56:50.465   01 Jun 2027 10:58:29.433            98.968                 Moscow         12371.000
        28   01 Jun 2027 11:16:27.658   01 Jun 2027 11:19:57.988           210.330                Anadyr1         26291.250
        29   01 Jun 2027 12:56:17.274   01 Jun 2027 12:57:53.578            96.304                Anadyr2         12038.000
        30   01 Jun 2027 14:29:27.764   01 Jun 2027 14:33:18.348           230.584               Magadan2         28823.000
        31   01 Jun 2027 14:33:31.657   01 Jun 2027 14:35:55.107           143.450               Magadan2         17931.250
        32   01 Jun 2027 14:38:10.435   01 Jun 2027 14:38:11.670             1.235               Magadan2           154.375
        33   01 Jun 2027 16:57:40.578   01 Jun 2027 17:04:02.236           381.658            RioGallegos         47707.250
        34   01 Jun 2027 17:49:04.622   01 Jun 2027 17:53:30.506           265.884                Irkutsk         33235.500
        35   01 Jun 2027 18:03:40.843   01 Jun 2027 18:04:23.747            42.904                Sumatra          5363.000
        36   01 Jun 2027 18:05:49.298   01 Jun 2027 18:05:58.723             9.425                Sumatra          1178.125
        37   01 Jun 2027 19:29:02.699   01 Jun 2027 19:32:14.373           191.674                  Delhi         23884.750
        38   02 Jun 2027 04:53:05.122   02 Jun 2027 04:53:17.033            11.911               Magadan2          1488.875
        39   02 Jun 2027 04:53:41.781   02 Jun 2027 04:54:11.401            29.620               Magadan2          3702.500
        40   02 Jun 2027 04:54:13.839   02 Jun 2027 04:54:27.326            13.487                Irkutsk          1685.875
        41   02 Jun 2027 04:54:34.066   02 Jun 2027 04:55:49.696            75.630                Norilsk          9453.750
        42   02 Jun 2027 04:55:55.949   02 Jun 2027 04:59:10.957           195.008              Murmansk1         24376.000
        43   02 Jun 2027 05:01:57.990   02 Jun 2027 05:02:15.495            17.505              Murmansk2          2188.125
        44   02 Jun 2027 05:02:18.269   02 Jun 2027 05:03:31.835            73.566              Murmansk1          9195.750
        45   02 Jun 2027 06:04:51.805   02 Jun 2027 06:06:33.277           101.472                Sumatra         12684.000
        46   02 Jun 2027 06:17:44.466   02 Jun 2027 06:19:02.863            78.397                Irkutsk          9799.625
        47   02 Jun 2027 06:30:23.758   02 Jun 2027 06:34:26.699           242.941                Norilsk         30367.625
        48   02 Jun 2027 06:34:51.353   02 Jun 2027 06:38:05.390           194.037              Murmansk1         24254.625
        49   02 Jun 2027 07:06:48.796   02 Jun 2027 07:13:55.488           426.692            RioGallegos         53336.500
        50   02 Jun 2027 07:41:00.296   02 Jun 2027 07:43:06.643           126.347                Sumatra         15793.375
        51   02 Jun 2027 07:43:39.059   02 Jun 2027 07:51:03.174           444.115                Sumatra         55514.375
        52   02 Jun 2027 07:57:41.464   02 Jun 2027 07:58:22.795            41.331                Irkutsk          5166.375
        53   02 Jun 2027 08:06:23.146   02 Jun 2027 08:10:47.701           264.555              Murmansk2         33069.375
        54   02 Jun 2027 08:10:51.556   02 Jun 2027 08:11:31.966            40.410                Norilsk          5051.250
        55   02 Jun 2027 08:12:49.044   02 Jun 2027 08:13:22.787            33.743              Murmansk1          4217.875
        56   02 Jun 2027 09:26:10.524   02 Jun 2027 09:35:23.000           552.476                  Delhi         69059.500
        57   02 Jun 2027 09:35:24.589   02 Jun 2027 09:38:13.547           168.958                Novosib         21119.750
        58   02 Jun 2027 09:42:43.913   02 Jun 2027 09:48:44.348           360.435              Murmansk1         45054.375
        59   02 Jun 2027 11:12:31.274   02 Jun 2027 11:14:38.523           127.249              Murmansk2         15906.125
        60   02 Jun 2027 11:14:38.523   02 Jun 2027 11:19:32.933           294.410              Murmansk1         36801.250
        61   02 Jun 2027 11:19:50.972   02 Jun 2027 11:20:02.811            11.839              Murmansk1          1479.875
        62   02 Jun 2027 11:20:02.811   02 Jun 2027 11:20:05.529             2.718              Murmansk2           339.750
        63   02 Jun 2027 11:20:29.782   02 Jun 2027 11:20:47.159            17.377              Murmansk1          2172.125
        64   02 Jun 2027 11:21:44.760   02 Jun 2027 11:22:51.900            67.140              Murmansk2          8392.500
        65   02 Jun 2027 11:23:06.683   02 Jun 2027 11:23:22.300            15.617              Murmansk2          1952.125
        66   02 Jun 2027 11:28:02.312   02 Jun 2027 11:33:40.832           338.520                Anadyr2         42315.000
        67   02 Jun 2027 14:41:21.800   02 Jun 2027 14:45:19.832           238.032               Magadan2         29754.000
        68   02 Jun 2027 17:11:55.741   02 Jun 2027 17:15:34.205           218.464            RioGallegos         27308.000
        69   02 Jun 2027 18:00:00.360   02 Jun 2027 18:02:01.773           121.413                Novosib         15176.625
        70   02 Jun 2027 18:16:44.744   02 Jun 2027 18:17:08.011            23.267                Sumatra          2908.375
        71   02 Jun 2027 19:43:57.799   02 Jun 2027 19:47:20.951           203.152                  Delhi         25394.000
        72   02 Jun 2027 21:08:09.647   02 Jun 2027 21:13:29.981           320.334              Murmansk2         40041.750
        73   03 Jun 2027 05:06:44.752   03 Jun 2027 05:15:12.611           507.859              Murmansk2         63482.375
        74   03 Jun 2027 05:41:16.390   03 Jun 2027 05:42:07.953            51.563            RioGallegos          6445.375
        75   03 Jun 2027 06:16:33.290   03 Jun 2027 06:18:15.514           102.224                Sumatra         12778.000
        76   03 Jun 2027 06:20:13.208   03 Jun 2027 06:20:43.711            30.503                Sumatra          3812.875
        77   03 Jun 2027 06:29:51.940   03 Jun 2027 06:34:48.383           296.443                Irkutsk         37055.375
        78   03 Jun 2027 06:35:42.794   03 Jun 2027 06:36:14.175            31.381                Irkutsk          3922.625
        79   03 Jun 2027 06:42:15.131   03 Jun 2027 06:49:59.656           464.525              Murmansk2         58065.625
        80   03 Jun 2027 07:19:23.781   03 Jun 2027 07:27:19.869           476.088            RioGallegos         59511.000
        81   03 Jun 2027 07:53:37.154   03 Jun 2027 08:02:44.181           547.027                Sumatra         68378.375
        82   03 Jun 2027 08:09:10.065   03 Jun 2027 08:09:47.120            37.055                Novosib          4631.875
        83   03 Jun 2027 08:10:08.070   03 Jun 2027 08:14:19.027           250.957                Irkutsk         31369.625
        84   03 Jun 2027 08:18:08.377   03 Jun 2027 08:18:29.181            20.804                Norilsk          2600.500
        85   03 Jun 2027 08:18:31.939   03 Jun 2027 08:19:56.698            84.759                Novosib         10594.875
        86   03 Jun 2027 08:19:58.281   03 Jun 2027 08:21:16.197            77.916              Murmansk1          9739.500
        87   03 Jun 2027 08:21:16.197   03 Jun 2027 08:22:41.576            85.379              Murmansk2         10672.375
        88   03 Jun 2027 08:23:06.448   03 Jun 2027 08:23:33.722            27.274                Norilsk          3409.250
        89   03 Jun 2027 09:39:07.273   03 Jun 2027 09:46:37.412           450.139                  Delhi         56267.375
        90   03 Jun 2027 09:47:40.232   03 Jun 2027 09:49:47.673           127.441                Novosib         15930.125
        91   03 Jun 2027 09:53:43.825   03 Jun 2027 09:54:04.760            20.935              Murmansk1          2616.875
        92   03 Jun 2027 09:55:04.739   03 Jun 2027 09:57:50.642           165.903                Norilsk         20737.875
        93   03 Jun 2027 09:57:54.035   03 Jun 2027 09:59:08.965            74.930              Murmansk2          9366.250
        94   03 Jun 2027 11:24:42.534   03 Jun 2027 11:27:05.646           143.112              Murmansk1         17889.000
        95   03 Jun 2027 11:27:05.646   03 Jun 2027 11:31:27.851           262.205              Murmansk2         32775.625
        96   03 Jun 2027 11:32:04.079   03 Jun 2027 11:36:00.680           236.601              Murmansk2         29575.125
        97   03 Jun 2027 11:39:46.117   03 Jun 2027 11:41:41.444           115.327                Anadyr1         14415.875
        98   03 Jun 2027 11:41:41.444   03 Jun 2027 11:43:42.624           121.180                Anadyr2         15147.500
        99   03 Jun 2027 12:34:14.451   03 Jun 2027 12:35:44.071            89.620               CapeTown         11202.500
       100   03 Jun 2027 13:02:11.177   03 Jun 2027 13:03:26.410            75.233                 Moscow          9404.125
       101   03 Jun 2027 13:20:02.921   03 Jun 2027 13:21:32.968            90.047               Magadan2         11255.875
       102   03 Jun 2027 14:53:17.364   03 Jun 2027 14:55:24.379           127.015               Magadan2         15876.875
       103   03 Jun 2027 17:25:07.909   03 Jun 2027 17:27:04.435           116.526            RioGallegos         14565.750
       104   03 Jun 2027 18:06:09.983   03 Jun 2027 18:09:02.061           172.078                Norilsk         21509.750
       105   03 Jun 2027 18:10:40.295   03 Jun 2027 18:15:57.311           317.016                Novosib         39627.000
       106   03 Jun 2027 19:57:20.530   03 Jun 2027 19:58:33.913            73.383                  Delhi          9172.875
       107   03 Jun 2027 21:20:02.341   03 Jun 2027 21:20:53.507            51.166              Murmansk2          6395.750
       108   03 Jun 2027 21:21:02.565   03 Jun 2027 21:23:13.347           130.782              Murmansk1         16347.750
       109   03 Jun 2027 21:23:40.303   03 Jun 2027 21:26:15.069           154.766                 Moscow         19345.750
       110   04 Jun 2027 03:41:00.087   04 Jun 2027 03:41:52.366            52.279               Magadan2          6534.875
       111   04 Jun 2027 05:18:39.129   04 Jun 2027 05:19:48.740            69.611                Novosib          8701.375
       112   04 Jun 2027 05:19:52.541   04 Jun 2027 05:27:09.749           437.208              Murmansk1         54651.000
       113   04 Jun 2027 05:53:20.051   04 Jun 2027 05:58:09.918           289.867            RioGallegos         36233.375
       114   04 Jun 2027 05:58:27.512   04 Jun 2027 05:58:59.676            32.164            RioGallegos          4020.500
       115   04 Jun 2027 06:00:44.757   04 Jun 2027 06:02:33.456           108.699            RioGallegos         13587.375
       116   04 Jun 2027 06:31:15.193   04 Jun 2027 06:32:28.325            73.132                Sumatra          9141.500
       117   04 Jun 2027 06:35:43.578   04 Jun 2027 06:37:50.671           127.093                Sumatra         15886.625
       118   04 Jun 2027 06:39:47.496   04 Jun 2027 06:40:58.528            71.032                  Delhi          8879.000
       119   04 Jun 2027 06:42:02.959   04 Jun 2027 06:45:54.053           231.094                Irkutsk         28886.750
       120   04 Jun 2027 06:54:32.903   04 Jun 2027 06:59:35.531           302.628                Norilsk         37828.500
       121   04 Jun 2027 06:59:54.598   04 Jun 2027 07:01:54.636           120.038              Murmansk1         15004.750
       122   04 Jun 2027 07:32:06.530   04 Jun 2027 07:40:47.274           520.744            RioGallegos         65093.000
       123   04 Jun 2027 08:06:31.471   04 Jun 2027 08:13:43.933           432.462                Sumatra         54057.750
       124   04 Jun 2027 08:20:53.693   04 Jun 2027 08:22:54.791           121.098                Novosib         15137.250
       125   04 Jun 2027 08:23:10.794   04 Jun 2027 08:26:27.472           196.678                Irkutsk         24584.750
       126   04 Jun 2027 08:30:04.795   04 Jun 2027 08:30:26.697            21.902                Norilsk          2737.750
       127   04 Jun 2027 08:31:34.193   04 Jun 2027 08:31:53.536            19.343                Novosib          2417.875
       128   04 Jun 2027 08:31:59.796   04 Jun 2027 08:34:36.181           156.385              Murmansk1         19548.125
       129   04 Jun 2027 08:35:05.975   04 Jun 2027 08:35:35.367            29.392                Norilsk          3674.000
       130   04 Jun 2027 09:52:36.117   04 Jun 2027 09:57:21.693           285.576                  Delhi         35697.000
       131   04 Jun 2027 10:05:46.659   04 Jun 2027 10:06:41.267            54.608                Norilsk          6826.000
       132   04 Jun 2027 10:07:17.308   04 Jun 2027 10:13:11.303           353.995              Murmansk2         44249.375
       133   04 Jun 2027 11:12:21.551   04 Jun 2027 11:20:35.461           493.910               CapeTown         61738.750
       134   04 Jun 2027 11:33:34.060   04 Jun 2027 11:39:37.370           363.310                 Moscow         45413.750
       135   04 Jun 2027 11:39:46.488   04 Jun 2027 11:43:27.332           220.844              Murmansk2         27605.500
       136   04 Jun 2027 11:43:27.332   04 Jun 2027 11:46:26.306           178.974              Murmansk1         22371.750
       137   04 Jun 2027 11:46:44.348   04 Jun 2027 11:47:10.824            26.476              Murmansk1          3309.500
       138   04 Jun 2027 11:47:55.345   04 Jun 2027 11:48:29.595            34.250              Murmansk1          4281.250
       139   04 Jun 2027 11:48:40.064   04 Jun 2027 11:49:09.341            29.277              Murmansk1          3659.625
       140   04 Jun 2027 11:51:34.858   04 Jun 2027 11:55:42.056           247.198                Anadyr1         30899.750
       141   04 Jun 2027 11:56:15.032   04 Jun 2027 11:57:27.111            72.079                Anadyr2          9009.875
       142   04 Jun 2027 11:58:09.590   04 Jun 2027 11:59:47.436            97.846                Anadyr2         12230.750
       143   04 Jun 2027 12:49:28.041   04 Jun 2027 12:51:02.607            94.566               CapeTown         11820.750
       144   04 Jun 2027 13:31:04.899   04 Jun 2027 13:31:58.433            53.534               Magadan1          6691.750
       145   04 Jun 2027 13:31:58.433   04 Jun 2027 13:33:31.600            93.167               Magadan2         11645.875
       146   04 Jun 2027 16:47:36.585   04 Jun 2027 16:51:23.387           226.802                Irkutsk         28350.250
       147   04 Jun 2027 18:22:03.255   04 Jun 2027 18:29:06.695           423.440                Novosib         52930.000
       148   04 Jun 2027 21:31:40.101   04 Jun 2027 21:33:34.010           113.909              Murmansk1         14238.625
       149   04 Jun 2027 21:33:49.016   04 Jun 2027 21:36:19.946           150.930              Murmansk1         18866.250
       150   04 Jun 2027 21:36:45.030   04 Jun 2027 21:41:29.858           284.828                 Moscow         35603.500
       151   04 Jun 2027 22:04:42.749   04 Jun 2027 22:05:20.857            38.108               CapeTown          4763.500
       152   05 Jun 2027 03:53:20.111   05 Jun 2027 03:54:49.858            89.747               Magadan1         11218.375
       153   05 Jun 2027 03:54:50.841   05 Jun 2027 03:55:55.051            64.210                Norilsk          8026.250
       154   05 Jun 2027 03:55:56.221   05 Jun 2027 03:57:55.351           119.130              Murmansk1         14891.250
       155   05 Jun 2027 05:30:42.125   05 Jun 2027 05:38:59.641           497.516              Murmansk2         62189.500
       156   05 Jun 2027 06:05:27.173   05 Jun 2027 06:10:13.115           285.942            RioGallegos         35742.750
       157   05 Jun 2027 06:10:30.067   05 Jun 2027 06:10:48.379            18.312            RioGallegos          2289.000
       158   05 Jun 2027 06:12:36.116   05 Jun 2027 06:12:49.216            13.100            RioGallegos          1637.500
       159   05 Jun 2027 06:13:47.971   05 Jun 2027 06:14:42.437            54.466            RioGallegos          6808.250
       160   05 Jun 2027 06:40:15.383   05 Jun 2027 06:41:30.281            74.898                Sumatra          9362.250
       161   05 Jun 2027 06:43:22.469   05 Jun 2027 06:45:05.539           103.070                Sumatra         12883.750
       162   05 Jun 2027 06:50:54.507   05 Jun 2027 06:53:13.951           139.444                  Delhi         17430.500
       163   05 Jun 2027 06:54:17.758   05 Jun 2027 06:59:02.143           284.385                Irkutsk         35548.125
       164   05 Jun 2027 07:06:45.057   05 Jun 2027 07:11:37.298           292.241                Norilsk         36530.125
       165   05 Jun 2027 07:11:44.133   05 Jun 2027 07:13:50.285           126.152              Murmansk1         15769.000
       166   05 Jun 2027 07:44:59.909   05 Jun 2027 07:52:20.253           440.344            RioGallegos         55043.000
       167   05 Jun 2027 08:20:08.190   05 Jun 2027 08:24:00.259           232.069                Sumatra         29008.625
       168   05 Jun 2027 08:32:07.511   05 Jun 2027 08:32:32.482            24.971                Novosib          3121.375
       169   05 Jun 2027 08:34:18.208   05 Jun 2027 08:36:39.826           141.618                Novosib         17702.250
       170   05 Jun 2027 08:36:45.870   05 Jun 2027 08:38:09.427            83.557                Irkutsk         10444.625
       171   05 Jun 2027 08:42:25.095   05 Jun 2027 08:49:20.691           415.596              Murmansk2         51949.500
       172   05 Jun 2027 10:17:48.582   05 Jun 2027 10:23:18.719           330.137                Norilsk         41267.125
       173   05 Jun 2027 10:23:43.310   05 Jun 2027 10:25:12.759            89.449              Murmansk1         11181.125
       174   05 Jun 2027 11:23:45.402   05 Jun 2027 11:32:58.739           553.337               CapeTown         69167.125
       175   05 Jun 2027 11:45:56.182   05 Jun 2027 11:55:51.553           595.371                 Moscow         74421.375
       176   05 Jun 2027 11:56:03.937   05 Jun 2027 12:01:10.718           306.781              Murmansk1         38347.625
       177   05 Jun 2027 12:03:26.742   05 Jun 2027 12:12:27.004           540.262                Anadyr2         67532.750
       178   05 Jun 2027 12:58:17.052   05 Jun 2027 13:01:25.603           188.551               CapeTown         23568.875
       179   05 Jun 2027 13:42:34.814   05 Jun 2027 13:46:13.491           218.677               Magadan2         27334.625
       180   05 Jun 2027 16:58:38.247   05 Jun 2027 17:04:53.754           375.507                Irkutsk         46938.375
       181   05 Jun 2027 17:15:22.182   05 Jun 2027 17:17:36.992           134.810                Sumatra         16851.250
       182   05 Jun 2027 18:33:39.097   05 Jun 2027 18:40:00.209           381.112                Novosib         47639.000
       183   05 Jun 2027 18:41:36.666   05 Jun 2027 18:41:40.883             4.217                Novosib           527.125
       184   05 Jun 2027 21:42:46.859   05 Jun 2027 21:44:12.530            85.671              Murmansk1         10708.875
       185   05 Jun 2027 21:46:30.690   05 Jun 2027 21:48:05.865            95.175              Murmansk2         11896.875
       186   05 Jun 2027 21:48:22.958   05 Jun 2027 21:50:48.615           145.657                 Moscow         18207.125
       187   05 Jun 2027 21:55:09.700   05 Jun 2027 21:56:06.296            56.596                 Moscow          7074.500
       188   05 Jun 2027 22:14:32.481   05 Jun 2027 22:15:59.552            87.071               CapeTown          4574.500
       189   06 Jun 2027 04:05:28.403   06 Jun 2027 04:05:57.451            29.048               Magadan1          3631.000
       190   06 Jun 2027 04:06:45.996   06 Jun 2027 04:06:47.895             1.899               Magadan1           237.375
       191   06 Jun 2027 04:06:49.671   06 Jun 2027 04:12:01.196           311.525                Norilsk         38940.625
       192   06 Jun 2027 04:12:15.776   06 Jun 2027 04:15:11.563           175.787              Murmansk1         21973.375
       193   06 Jun 2027 05:20:17.294   06 Jun 2027 05:20:53.030            35.736                Sumatra          4467.000
       194   06 Jun 2027 05:23:08.173   06 Jun 2027 05:23:31.310            23.137                Sumatra          2892.125
       195   06 Jun 2027 05:42:51.112   06 Jun 2027 05:50:50.224           479.112              Murmansk2         59889.000
       196   06 Jun 2027 06:17:37.944   06 Jun 2027 06:23:14.157           336.213            RioGallegos         42026.625
       197   06 Jun 2027 06:26:47.989   06 Jun 2027 06:27:23.861            35.872            RioGallegos          4484.000
       198   06 Jun 2027 06:52:15.001   06 Jun 2027 06:54:31.565           136.564                Sumatra         17070.500
       199   06 Jun 2027 06:57:21.170   06 Jun 2027 06:57:26.791             5.621                Sumatra           702.625
       200   06 Jun 2027 07:00:23.780   06 Jun 2027 07:01:04.194            40.414                Sumatra          5051.750
       201   06 Jun 2027 07:02:13.799   06 Jun 2027 07:05:36.254           202.455                  Delhi         25306.875
       202   06 Jun 2027 07:06:36.654   06 Jun 2027 07:12:08.043           331.389                Irkutsk         41423.625
       203   06 Jun 2027 07:17:50.977   06 Jun 2027 07:18:15.213            24.236              Murmansk2          3029.500
       204   06 Jun 2027 07:18:46.215   06 Jun 2027 07:25:46.581           420.366              Murmansk1         52545.750
       205   06 Jun 2027 07:58:10.704   06 Jun 2027 08:03:38.860           328.156            RioGallegos         41019.500
       206   06 Jun 2027 08:36:37.047   06 Jun 2027 08:38:47.905           130.858                  Delhi         16357.250
       207   06 Jun 2027 08:40:13.113   06 Jun 2027 08:40:53.767            40.654                  Delhi          5081.750
       208   06 Jun 2027 08:41:38.560   06 Jun 2027 08:42:28.458            49.898                  Delhi          6237.250
       209   06 Jun 2027 08:44:30.502   06 Jun 2027 08:50:07.942           337.440                Novosib         42180.000
       210   06 Jun 2027 08:54:22.631   06 Jun 2027 09:01:20.704           418.073              Murmansk2         52259.125
       211   06 Jun 2027 10:24:25.074   06 Jun 2027 10:24:49.035            23.961              Murmansk1          2995.125
       212   06 Jun 2027 10:25:22.076   06 Jun 2027 10:26:08.370            46.294              Murmansk2          5786.750
       213   06 Jun 2027 10:30:23.041   06 Jun 2027 10:37:14.308           411.267              Murmansk1         51408.375
       214   06 Jun 2027 11:35:58.921   06 Jun 2027 11:44:38.748           519.827               CapeTown         64978.375
       215   06 Jun 2027 11:59:04.015   06 Jun 2027 12:05:07.569           363.554                 Moscow         45444.250
       216   06 Jun 2027 12:05:47.249   06 Jun 2027 12:08:23.308           156.059              Murmansk2         19507.375
       217   06 Jun 2027 12:08:23.308   06 Jun 2027 12:13:11.915           288.607              Murmansk1         36075.875
       218   06 Jun 2027 12:15:20.817   06 Jun 2027 12:17:04.619           103.802                Anadyr2         12975.250
       219   06 Jun 2027 12:18:28.162   06 Jun 2027 12:19:17.744            49.582                Anadyr2          6197.750
       220   06 Jun 2027 12:22:29.026   06 Jun 2027 12:24:08.928            99.902                Anadyr2         12487.750
       221   06 Jun 2027 13:54:14.930   06 Jun 2027 13:58:55.022           280.092               Magadan1         35011.500
       222   06 Jun 2027 16:24:04.384   06 Jun 2027 16:26:12.102           127.718            RioGallegos         15964.750
       223   06 Jun 2027 17:10:04.851   06 Jun 2027 17:12:50.902           166.051                Irkutsk         20756.375
       224   06 Jun 2027 17:14:38.907   06 Jun 2027 17:16:07.472            88.565                Irkutsk         11070.625
       225   06 Jun 2027 17:17:45.009   06 Jun 2027 17:17:56.057            11.048                Irkutsk          1381.000
       226   06 Jun 2027 17:25:33.454   06 Jun 2027 17:27:34.503           121.049                Sumatra         15131.125
       227   06 Jun 2027 17:29:21.843   06 Jun 2027 17:31:30.022           128.179                Sumatra         16022.375
       228   06 Jun 2027 18:48:44.991   06 Jun 2027 18:51:00.696           135.705                Novosib         16963.125
       229   06 Jun 2027 18:57:28.965   06 Jun 2027 18:58:13.502            44.537                  Delhi          5567.125
       230   06 Jun 2027 20:21:05.536   06 Jun 2027 20:21:45.934            40.398              Murmansk2          5049.750
       231   06 Jun 2027 21:55:58.920   06 Jun 2027 21:56:53.340            54.420              Murmansk1          6802.500
       232   06 Jun 2027 21:58:42.223   06 Jun 2027 22:00:33.024           110.801                 Moscow         13850.125
       233   06 Jun 2027 22:01:46.088   06 Jun 2027 22:02:16.778            30.690                 Moscow          3836.250
       234   06 Jun 2027 22:02:43.578   06 Jun 2027 22:04:49.949           126.371                 Moscow          7679.375
       235   07 Jun 2027 04:18:48.907   07 Jun 2027 04:23:59.280           310.373                Norilsk         38796.625
       236   07 Jun 2027 04:24:02.911   07 Jun 2027 04:26:16.157           133.246              Murmansk2         16655.750
       237   07 Jun 2027 05:30:59.490   07 Jun 2027 05:33:11.117           131.627                Sumatra         16453.375
       238   07 Jun 2027 05:54:51.119   07 Jun 2027 05:56:05.876            74.757                Novosib          9344.625
       239   07 Jun 2027 05:56:06.208   07 Jun 2027 06:02:41.533           395.325              Murmansk1         49415.625
       240   07 Jun 2027 06:29:52.598   07 Jun 2027 06:35:38.103           345.505            RioGallegos         43188.125
       241   07 Jun 2027 06:38:52.645   07 Jun 2027 06:39:41.847            49.202            RioGallegos          6150.250
       242   07 Jun 2027 07:04:20.227   07 Jun 2027 07:08:42.563           262.336                Sumatra         32792.000
       243   07 Jun 2027 07:16:42.351   07 Jun 2027 07:17:10.697            28.346                  Delhi          3543.250
       244   07 Jun 2027 07:19:00.066   07 Jun 2027 07:25:33.689           393.623                Irkutsk         49202.875
       245   07 Jun 2027 07:30:31.434   07 Jun 2027 07:32:57.230           145.796                 Moscow         18224.500
       246   07 Jun 2027 07:33:18.091   07 Jun 2027 07:35:25.245           127.154              Murmansk1         15894.250
       247   07 Jun 2027 07:36:59.215   07 Jun 2027 07:37:43.478            44.263              Murmansk1          5532.875
       248   07 Jun 2027 08:12:15.470   07 Jun 2027 08:14:06.703           111.233            RioGallegos         13904.125
       249   07 Jun 2027 08:48:52.297   07 Jun 2027 08:51:53.944           181.647                  Delhi         22705.875
       250   07 Jun 2027 08:52:24.550   07 Jun 2027 08:55:15.622           171.072                  Delhi         21384.000
       251   07 Jun 2027 08:58:06.961   07 Jun 2027 09:01:33.862           206.901                Novosib         25862.625
       252   07 Jun 2027 09:06:15.537   07 Jun 2027 09:10:34.082           258.545              Murmansk1         32318.125
       253   07 Jun 2027 09:10:34.082   07 Jun 2027 09:11:33.473            59.391              Murmansk2          7423.875
       254   07 Jun 2027 09:12:54.176   07 Jun 2027 09:13:21.010            26.834              Murmansk1          3354.250
       255   07 Jun 2027 10:36:22.813   07 Jun 2027 10:36:42.932            20.119              Murmansk2          2514.875
       256   07 Jun 2027 10:37:18.387   07 Jun 2027 10:38:06.399            48.012              Murmansk2          6001.500
       257   07 Jun 2027 10:41:17.895   07 Jun 2027 10:49:15.924           478.029              Murmansk2         59753.625
       258   07 Jun 2027 11:47:00.890   07 Jun 2027 11:58:24.903           684.013               CapeTown         85501.625
       259   07 Jun 2027 12:10:54.393   07 Jun 2027 12:18:09.840           435.447                 Moscow         54430.875
       260   07 Jun 2027 12:18:17.507   07 Jun 2027 12:20:06.397           108.890              Murmansk2         13611.250
       261   07 Jun 2027 12:27:16.495   07 Jun 2027 12:29:16.411           119.916                Anadyr1         14989.500
       262   07 Jun 2027 14:06:00.717   07 Jun 2027 14:11:23.992           323.275               Magadan2         40409.375
       263   07 Jun 2027 16:34:55.372   07 Jun 2027 16:37:56.393           181.021            RioGallegos         22627.625
       264   07 Jun 2027 17:22:23.704   07 Jun 2027 17:25:27.253           183.549                Irkutsk         22943.625
       265   07 Jun 2027 17:27:07.865   07 Jun 2027 17:28:15.416            67.551                Irkutsk          8443.875
       266   07 Jun 2027 17:36:31.805   07 Jun 2027 17:39:15.680           163.875                Sumatra         20484.375
       267   07 Jun 2027 17:41:04.344   07 Jun 2027 17:41:42.733            38.389                Sumatra          4798.625
       268   07 Jun 2027 17:42:34.246   07 Jun 2027 17:43:32.790            58.544                Sumatra          7318.000
       269   07 Jun 2027 19:06:55.057   07 Jun 2027 19:09:06.852           131.795                  Delhi         16474.375
       270   07 Jun 2027 19:10:19.509   07 Jun 2027 19:11:11.482            51.973                  Delhi          6496.625
       271   07 Jun 2027 20:32:48.860   07 Jun 2027 20:33:55.702            66.842              Murmansk2          8355.250
       272   07 Jun 2027 22:10:32.018   07 Jun 2027 22:12:22.976           110.958                 Moscow         13869.750
       273   07 Jun 2027 22:17:05.577   07 Jun 2027 22:17:33.716            28.139                 Moscow          3517.375
       274   07 Jun 2027 22:36:29.048   07 Jun 2027 22:38:25.899           116.851               CapeTown          6363.376
       275   08 Jun 2027 04:30:45.905   08 Jun 2027 04:36:23.557           337.652              Murmansk2         42206.500
       276   08 Jun 2027 05:42:08.669   08 Jun 2027 05:44:21.400           132.731                Sumatra         16591.375
       277   08 Jun 2027 05:47:50.418   08 Jun 2027 05:49:36.306           105.888                Sumatra         13236.000
       278   08 Jun 2027 06:06:32.063   08 Jun 2027 06:11:14.030           281.967                Norilsk         35245.875
       279   08 Jun 2027 06:11:29.451   08 Jun 2027 06:14:29.144           179.693              Murmansk1         22461.625
       280   08 Jun 2027 06:14:29.144   08 Jun 2027 06:14:33.583             4.439              Murmansk2           554.875
       281   08 Jun 2027 06:42:11.461   08 Jun 2027 06:45:34.250           202.789            RioGallegos         25348.625
       282   08 Jun 2027 06:47:51.528   08 Jun 2027 06:48:19.171            27.643            RioGallegos          3455.375
       283   08 Jun 2027 06:51:52.064   08 Jun 2027 06:52:04.386            12.322            RioGallegos          1540.250
       284   08 Jun 2027 07:16:31.400   08 Jun 2027 07:22:40.809           369.409                Sumatra         46176.125
       285   08 Jun 2027 07:31:22.533   08 Jun 2027 07:34:39.984           197.451                Novosib         24681.375
       286   08 Jun 2027 07:35:16.326   08 Jun 2027 07:37:23.283           126.957                Irkutsk         15869.625
       287   08 Jun 2027 07:42:13.023   08 Jun 2027 07:43:33.565            80.542                 Moscow         10067.750
       288   08 Jun 2027 07:43:41.175   08 Jun 2027 07:45:31.140           109.965              Murmansk2         13745.625
       289   08 Jun 2027 07:45:31.140   08 Jun 2027 07:47:16.892           105.752              Murmansk1         13219.000
       290   08 Jun 2027 07:49:00.750   08 Jun 2027 07:49:40.940            40.190              Murmansk2          5023.750
       291   08 Jun 2027 09:01:14.391   08 Jun 2027 09:08:23.405           429.014                  Delhi         53626.750
       292   08 Jun 2027 09:09:30.860   08 Jun 2027 09:13:02.299           211.439                Novosib         26429.875
       293   08 Jun 2027 09:13:19.939   08 Jun 2027 09:13:36.960            17.021                Novosib          2127.625
       294   08 Jun 2027 09:18:07.472   08 Jun 2027 09:21:46.104           218.632              Murmansk2         27329.000
       295   08 Jun 2027 09:21:46.104   08 Jun 2027 09:22:49.056            62.952              Murmansk1          7869.000
       296   08 Jun 2027 09:22:50.365   08 Jun 2027 09:23:39.798            49.433                Norilsk          6179.125
       297   08 Jun 2027 09:24:11.897   08 Jun 2027 09:25:21.590            69.693              Murmansk1          8711.625
       298   08 Jun 2027 10:48:28.834   08 Jun 2027 10:50:20.501           111.667              Murmansk2         13958.375
       299   08 Jun 2027 10:51:41.716   08 Jun 2027 10:52:05.450            23.734              Murmansk1          2966.750
       300   08 Jun 2027 10:53:31.142   08 Jun 2027 10:58:09.391           278.249              Murmansk1         34781.125
       301   08 Jun 2027 10:58:17.722   08 Jun 2027 10:58:52.917            35.195                Norilsk          4399.375
       302   08 Jun 2027 11:05:33.710   08 Jun 2027 11:07:47.868           134.158                Anadyr1         16769.750
       303   08 Jun 2027 12:01:00.194   08 Jun 2027 12:06:09.003           308.809               CapeTown         38601.125
       304   08 Jun 2027 12:07:47.007   08 Jun 2027 12:08:14.013            27.006               CapeTown          3375.750
       305   08 Jun 2027 12:23:32.063   08 Jun 2027 12:24:55.017            82.954                 Moscow         10369.250
       306   08 Jun 2027 12:39:13.399   08 Jun 2027 12:40:04.353            50.954                Anadyr2          6369.250
       307   08 Jun 2027 14:17:50.204   08 Jun 2027 14:21:57.460           247.256               Magadan1         30907.000
       308   08 Jun 2027 14:26:24.511   08 Jun 2027 14:26:25.245             0.734               Magadan2            91.750
       309   08 Jun 2027 16:46:18.482   08 Jun 2027 16:49:44.611           206.129            RioGallegos         25766.125
       310   08 Jun 2027 16:52:14.952   08 Jun 2027 16:53:53.116            98.164            RioGallegos         12270.500
       311   08 Jun 2027 17:36:12.265   08 Jun 2027 17:37:21.117            68.852                Irkutsk          8606.500
       312   08 Jun 2027 17:39:31.654   08 Jun 2027 17:39:33.387             1.733                Irkutsk           216.625
       313   08 Jun 2027 17:47:49.073   08 Jun 2027 17:48:17.568            28.495                Sumatra          3561.875
       314   08 Jun 2027 17:49:22.417   08 Jun 2027 17:53:56.456           274.039                Sumatra         34254.875
       315   08 Jun 2027 19:17:55.717   08 Jun 2027 19:20:49.620           173.903                  Delhi         21737.875
       316   08 Jun 2027 19:22:49.145   08 Jun 2027 19:24:58.534           129.389                  Delhi         16173.625
       317   08 Jun 2027 20:44:45.486   08 Jun 2027 20:47:07.288           141.802              Murmansk2         17725.250
       318   08 Jun 2027 22:22:02.579   08 Jun 2027 22:23:07.751            65.172              Murmansk2          8146.500
       319   09 Jun 2027 04:42:48.452   09 Jun 2027 04:47:24.443           275.991                Norilsk         34498.875
       320   09 Jun 2027 04:50:20.325   09 Jun 2027 04:51:58.151            97.826              Murmansk1         12228.250
       321   09 Jun 2027 05:17:33.563   09 Jun 2027 05:17:38.146             4.583            RioGallegos           572.875
       322   09 Jun 2027 05:53:32.397   09 Jun 2027 05:54:59.119            86.722                Sumatra         10840.250
       323   09 Jun 2027 06:05:55.020   09 Jun 2027 06:09:12.927           197.907                Irkutsk         24738.375
       324   09 Jun 2027 06:09:56.707   09 Jun 2027 06:10:44.893            48.186                Irkutsk          6023.250
       325   09 Jun 2027 06:18:42.133   09 Jun 2027 06:23:45.492           303.359                Norilsk         37919.875
       326   09 Jun 2027 06:24:02.957   09 Jun 2027 06:26:26.389           143.432              Murmansk1         17929.000
       327   09 Jun 2027 06:54:34.981   09 Jun 2027 07:01:10.998           396.017            RioGallegos         49502.125
       328   09 Jun 2027 07:28:49.264   09 Jun 2027 07:35:48.356           419.092                Sumatra         52386.500
       329   09 Jun 2027 07:43:27.933   09 Jun 2027 07:44:22.870            54.937                Novosib          6867.125
       330   09 Jun 2027 07:44:24.417   09 Jun 2027 07:50:00.613           336.196                Irkutsk         42024.500
       331   09 Jun 2027 07:54:26.587   09 Jun 2027 07:59:44.774           318.187                Norilsk         39773.375
       332   09 Jun 2027 08:01:02.149   09 Jun 2027 08:01:38.925            36.776              Murmansk2          4597.000
       333   09 Jun 2027 09:13:44.698   09 Jun 2027 09:16:36.561           171.863                  Delhi         21482.875
       334   09 Jun 2027 09:17:00.704   09 Jun 2027 09:22:33.464           332.760                  Delhi         41595.000
       335   09 Jun 2027 09:23:23.822   09 Jun 2027 09:25:58.433           154.611                Novosib         19326.375
       336   09 Jun 2027 09:30:03.889   09 Jun 2027 09:30:13.305             9.416                 Moscow          1177.000
       337   09 Jun 2027 09:30:25.538   09 Jun 2027 09:31:09.771            44.233                Novosib          5529.125
       338   09 Jun 2027 09:31:17.515   09 Jun 2027 09:35:40.025           262.510                Norilsk         32813.750
       339   09 Jun 2027 11:00:36.543   09 Jun 2027 11:01:33.555            57.012              Murmansk1          7126.500
       340   09 Jun 2027 11:01:56.053   09 Jun 2027 11:02:31.865            35.812              Murmansk2          4476.500
       341   09 Jun 2027 11:03:43.377   09 Jun 2027 11:04:08.241            24.864              Murmansk2          3108.000
       342   09 Jun 2027 11:04:35.631   09 Jun 2027 11:05:07.150            31.519              Murmansk2          3939.875
       343   09 Jun 2027 11:05:26.842   09 Jun 2027 11:05:34.754             7.912              Murmansk2           989.000
       344   09 Jun 2027 11:05:50.527   09 Jun 2027 11:06:32.910            42.383              Murmansk2          5297.875
       345   09 Jun 2027 11:07:24.212   09 Jun 2027 11:10:29.964           185.752                Norilsk         23219.000
       346   09 Jun 2027 11:10:49.723   09 Jun 2027 11:11:25.513            35.790              Murmansk2          4473.750
       347   09 Jun 2027 11:16:41.893   09 Jun 2027 11:21:21.053           279.160                Anadyr2         34895.000
       348   09 Jun 2027 12:13:19.418   09 Jun 2027 12:14:56.990            97.572               CapeTown         12196.500
       349   09 Jun 2027 14:29:42.302   09 Jun 2027 14:32:33.648           171.346               Magadan1         21418.250
       350   09 Jun 2027 14:33:46.919   09 Jun 2027 14:35:21.240            94.321               Magadan2         11790.125
       351   09 Jun 2027 14:36:34.250   09 Jun 2027 14:38:25.141           110.891               Magadan1         13861.375
       352   09 Jun 2027 16:57:59.033   09 Jun 2027 17:04:17.066           378.033            RioGallegos         47254.125
       353   09 Jun 2027 17:43:01.577   09 Jun 2027 17:44:25.414            83.837                Norilsk         10479.625
       354   09 Jun 2027 18:03:56.531   09 Jun 2027 18:06:03.997           127.466                Sumatra         15933.250
       355   09 Jun 2027 19:29:16.929   09 Jun 2027 19:32:29.437           192.508                  Delhi         24063.500
       356   09 Jun 2027 20:55:21.541   09 Jun 2027 20:55:29.387             7.846              Murmansk1           980.750
       357   09 Jun 2027 20:56:40.148   09 Jun 2027 20:57:24.159            44.011              Murmansk2          5501.375
       358   09 Jun 2027 20:59:08.326   09 Jun 2027 20:59:11.193             2.867              Murmansk2           358.375
       359   09 Jun 2027 20:59:57.476   09 Jun 2027 21:00:53.257            55.781              Murmansk1          6972.625
       360   09 Jun 2027 23:04:27.739   09 Jun 2027 23:06:06.875            99.136               CapeTown         12392.000
       361   10 Jun 2027 04:54:48.711   10 Jun 2027 04:56:04.408            75.697                Norilsk          9462.125
       362   10 Jun 2027 04:57:01.008   10 Jun 2027 04:57:35.005            33.997                Norilsk          4249.625
       363   10 Jun 2027 04:58:10.201   10 Jun 2027 05:00:02.789           112.588              Murmansk1         14073.500
       364   10 Jun 2027 05:00:26.496   10 Jun 2027 05:00:46.989            20.493              Murmansk1          2561.625
       365   10 Jun 2027 05:02:12.586   10 Jun 2027 05:03:45.385            92.799              Murmansk2         11599.875
       366   10 Jun 2027 06:17:59.153   10 Jun 2027 06:22:54.971           295.818                Irkutsk         36977.250
       367   10 Jun 2027 06:30:31.429   10 Jun 2027 06:34:43.613           252.184              Murmansk2         31523.000
       368   10 Jun 2027 06:34:43.613   10 Jun 2027 06:38:19.938           216.325              Murmansk1         27040.625
       369   10 Jun 2027 07:07:03.796   10 Jun 2027 07:11:16.083           252.287            RioGallegos         31535.875
       370   10 Jun 2027 07:11:37.888   10 Jun 2027 07:14:10.988           153.100            RioGallegos         19137.500
       371   10 Jun 2027 07:41:15.285   10 Jun 2027 07:42:30.870            75.585                Sumatra          9448.125
       372   10 Jun 2027 07:43:23.075   10 Jun 2027 07:51:18.280           475.205                Sumatra         59400.625
       373   10 Jun 2027 07:56:45.034   10 Jun 2027 08:01:53.599           308.565                Irkutsk         38570.625
       374   10 Jun 2027 08:06:40.185   10 Jun 2027 08:09:05.090           144.905                 Moscow         18113.125
       375   10 Jun 2027 08:09:19.086   10 Jun 2027 08:10:25.063            65.977              Murmansk2          8247.125
       376   10 Jun 2027 08:10:52.854   10 Jun 2027 08:11:46.603            53.749                Norilsk          6718.625
       377   10 Jun 2027 08:13:04.067   10 Jun 2027 08:13:37.390            33.323              Murmansk2          4165.375
       378   10 Jun 2027 09:26:25.713   10 Jun 2027 09:35:37.165           551.452                  Delhi         68931.500
       379   10 Jun 2027 09:35:39.696   10 Jun 2027 09:38:28.614           168.918                Novosib         21114.750
       380   10 Jun 2027 09:43:11.815   10 Jun 2027 09:47:39.686           267.871                Norilsk         33483.875
       381   10 Jun 2027 11:12:46.016   10 Jun 2027 11:16:36.923           230.907              Murmansk1         28863.375
       382   10 Jun 2027 11:17:06.907   10 Jun 2027 11:17:32.075            25.168              Murmansk1          3146.000
       383   10 Jun 2027 11:17:39.979   10 Jun 2027 11:17:58.760            18.781              Murmansk1          2347.625
       384   10 Jun 2027 11:18:27.906   10 Jun 2027 11:19:48.347            80.441              Murmansk1         10055.125
       385   10 Jun 2027 11:20:17.468   10 Jun 2027 11:22:29.421           131.953              Murmansk2         16494.125
       386   10 Jun 2027 11:23:37.511   10 Jun 2027 11:23:46.711             9.200              Murmansk1          1150.000
       387   10 Jun 2027 11:28:16.703   10 Jun 2027 11:29:48.236            91.533                Anadyr2         11441.625
       388   10 Jun 2027 11:31:21.209   10 Jun 2027 11:31:30.124             8.915                Anadyr1          1114.375
       389   10 Jun 2027 11:33:55.946   10 Jun 2027 11:34:25.064            29.118                Anadyr1          3639.750
       390   10 Jun 2027 12:22:31.926   10 Jun 2027 12:24:23.498           111.572               CapeTown         13946.500
       391   10 Jun 2027 12:25:06.117   10 Jun 2027 12:26:48.955           102.838               CapeTown         12854.750
       392   10 Jun 2027 12:49:13.087   10 Jun 2027 12:51:17.921           124.834                 Moscow         15604.250
       393   10 Jun 2027 14:41:36.359   10 Jun 2027 14:43:51.662           135.303               Magadan2         16912.875
       394   10 Jun 2027 14:46:32.477   10 Jun 2027 14:48:27.741           115.264               Magadan1         14408.000
       395   10 Jun 2027 14:49:52.864   10 Jun 2027 14:50:25.526            32.662               Magadan1          4082.750
       396   10 Jun 2027 17:12:11.460   10 Jun 2027 17:15:48.409           216.949            RioGallegos         27118.625
       397   10 Jun 2027 18:00:13.062   10 Jun 2027 18:02:18.752           125.690                Novosib         15711.250
       398   10 Jun 2027 18:17:00.027   10 Jun 2027 18:17:22.125            22.098                Sumatra          2762.250
       399   10 Jun 2027 19:44:13.814   10 Jun 2027 19:47:34.875           201.061                  Delhi         25132.625
       400   10 Jun 2027 21:08:24.988   10 Jun 2027 21:12:48.657           263.669              Murmansk1         32958.625
       401   10 Jun 2027 21:13:00.966   10 Jun 2027 21:14:30.776            89.810                 Moscow         11226.250
       402   11 Jun 2027 05:06:51.681   11 Jun 2027 05:07:56.411            64.730                Novosib          8091.250
       403   11 Jun 2027 05:08:05.195   11 Jun 2027 05:11:26.908           201.713                Norilsk         25214.125
       404   11 Jun 2027 05:11:53.618   11 Jun 2027 05:15:34.991           221.373              Murmansk2         27671.625
       405   11 Jun 2027 05:41:31.031   11 Jun 2027 05:42:23.050            52.019            RioGallegos          6502.375
       406   11 Jun 2027 05:43:11.002   11 Jun 2027 05:43:31.802            20.800            RioGallegos          2600.000
       407   11 Jun 2027 05:43:57.396   11 Jun 2027 05:44:31.966            34.570            RioGallegos          4321.250
       408   11 Jun 2027 05:46:13.300   11 Jun 2027 05:46:25.855            12.555            RioGallegos          1569.375
       409   11 Jun 2027 06:16:47.727   11 Jun 2027 06:18:29.923           102.196                Sumatra         12774.500
       410   11 Jun 2027 06:20:26.615   11 Jun 2027 06:20:58.412            31.797                Sumatra          3974.625
       411   11 Jun 2027 06:24:04.672   11 Jun 2027 06:24:50.360            45.688                Sumatra          5711.000
       412   11 Jun 2027 06:30:06.668   11 Jun 2027 06:35:02.299           295.631                Irkutsk         36953.875
       413   11 Jun 2027 06:35:58.858   11 Jun 2027 06:36:27.319            28.461                Irkutsk          3557.625
       414   11 Jun 2027 06:42:29.714   11 Jun 2027 06:50:14.211           464.497              Murmansk2         58062.125
       415   11 Jun 2027 07:19:38.864   11 Jun 2027 07:22:37.644           178.780            RioGallegos         22347.500
       416   11 Jun 2027 07:23:02.726   11 Jun 2027 07:27:35.865           273.139            RioGallegos         34142.375
       417   11 Jun 2027 07:53:52.297   11 Jun 2027 08:02:58.202           545.905                Sumatra         68238.125
       418   11 Jun 2027 08:09:24.584   11 Jun 2027 08:10:02.459            37.875                Novosib          4734.375
       419   11 Jun 2027 08:10:23.079   11 Jun 2027 08:14:35.447           252.368                Irkutsk         31546.000
       420   11 Jun 2027 08:18:26.083   11 Jun 2027 08:18:45.455            19.372              Murmansk2          2421.500
       421   11 Jun 2027 08:18:46.403   11 Jun 2027 08:20:11.282            84.879                Novosib         10609.875
       422   11 Jun 2027 08:20:13.133   11 Jun 2027 08:21:30.797            77.664              Murmansk1          9708.000
       423   11 Jun 2027 08:21:30.797   11 Jun 2027 08:22:56.327            85.530              Murmansk2         10691.250
       424   11 Jun 2027 08:23:21.163   11 Jun 2027 08:23:48.357            27.194                Norilsk          3399.250
       425   11 Jun 2027 09:39:22.710   11 Jun 2027 09:46:51.347           448.637                  Delhi         56079.625
       426   11 Jun 2027 09:47:55.652   11 Jun 2027 09:50:04.855           129.203                Novosib         16150.375
       427   11 Jun 2027 09:54:00.503   11 Jun 2027 09:54:19.721            19.218              Murmansk1          2402.250
       428   11 Jun 2027 09:55:16.040   11 Jun 2027 09:57:25.374           129.334              Murmansk2         16166.750
       429   11 Jun 2027 09:57:25.374   11 Jun 2027 09:59:53.259           147.885              Murmansk1         18485.625
       430   11 Jun 2027 11:24:57.299   11 Jun 2027 11:31:43.854           406.555              Murmansk2         50819.375
       431   11 Jun 2027 11:32:18.733   11 Jun 2027 11:33:57.757            99.024              Murmansk1         12378.000
       432   11 Jun 2027 11:34:02.930   11 Jun 2027 11:34:54.436            51.506              Murmansk1          6438.250
       433   11 Jun 2027 11:40:00.584   11 Jun 2027 11:43:30.308           209.724                Anadyr2         26215.500
       434   11 Jun 2027 12:34:29.051   11 Jun 2027 12:35:58.376            89.325               CapeTown         11165.625
       435   11 Jun 2027 12:37:40.175   11 Jun 2027 12:39:07.631            87.456               CapeTown         10932.000
       436   11 Jun 2027 13:20:16.418   11 Jun 2027 13:21:47.757            91.339               Magadan1         11417.375
       437   11 Jun 2027 14:53:31.936   11 Jun 2027 14:55:39.134           127.198               Magadan1         15899.750
       438   11 Jun 2027 17:25:23.314   11 Jun 2027 17:27:18.782           115.468            RioGallegos         14433.500
       439   11 Jun 2027 18:10:54.352   11 Jun 2027 18:16:12.897           318.545                Novosib         39818.125
       440   11 Jun 2027 19:57:35.988   11 Jun 2027 19:58:48.080            72.092                  Delhi          9011.500
       441   11 Jun 2027 21:20:18.608   11 Jun 2027 21:21:07.756            49.148              Murmansk1          6143.500
       442   11 Jun 2027 21:21:17.810   11 Jun 2027 21:25:59.082           281.272              Murmansk2         35159.000
       443   11 Jun 2027 21:26:29.883   11 Jun 2027 21:29:37.598           187.715                 Moscow         23464.375
       444   12 Jun 2027 03:41:16.725   12 Jun 2027 03:42:45.813            89.088               Magadan2         11136.000
       445   12 Jun 2027 05:17:33.820   12 Jun 2027 05:18:28.217            54.397                Irkutsk          6799.625
       446   12 Jun 2027 05:18:56.156   12 Jun 2027 05:23:55.944           299.788                Norilsk         37473.500
       447   12 Jun 2027 05:53:34.733   12 Jun 2027 05:58:07.503           272.770            RioGallegos         34096.250
       448   12 Jun 2027 06:00:59.243   12 Jun 2027 06:02:00.849            61.606            RioGallegos          7700.750
       449   12 Jun 2027 06:29:04.906   12 Jun 2027 06:30:04.371            59.465                Sumatra          7433.125
       450   12 Jun 2027 06:31:29.931   12 Jun 2027 06:32:41.884            71.953                Sumatra          8994.125
       451   12 Jun 2027 06:35:57.548   12 Jun 2027 06:35:58.099             0.551                Sumatra            68.875
       452   12 Jun 2027 06:40:01.379   12 Jun 2027 06:41:13.563            72.184                  Delhi          9023.000
       453   12 Jun 2027 06:42:17.731   12 Jun 2027 06:46:08.814           231.083                Irkutsk         28885.375
       454   12 Jun 2027 06:46:20.622   12 Jun 2027 06:46:47.493            26.871                Novosib          3358.875
       455   12 Jun 2027 06:47:11.015   12 Jun 2027 06:47:57.534            46.519                Irkutsk          5814.875
       456   12 Jun 2027 06:54:47.566   12 Jun 2027 06:59:17.986           270.420                Norilsk         33802.500
       457   12 Jun 2027 06:59:25.443   12 Jun 2027 07:02:09.200           163.757              Murmansk2         20469.625
       458   12 Jun 2027 07:32:21.720   12 Jun 2027 07:41:01.612           519.892            RioGallegos         64986.500
       459   12 Jun 2027 08:06:46.898   12 Jun 2027 08:13:57.658           430.760                Sumatra         53845.000
       460   12 Jun 2027 08:21:08.139   12 Jun 2027 08:22:09.121            60.982                Novosib          7622.750
       461   12 Jun 2027 08:22:36.202   12 Jun 2027 08:22:52.143            15.941                Novosib          1992.625
       462   12 Jun 2027 08:23:25.802   12 Jun 2027 08:26:43.832           198.030                Irkutsk         24753.750
       463   12 Jun 2027 08:30:19.567   12 Jun 2027 08:30:41.847            22.280                Norilsk          2785.000
       464   12 Jun 2027 08:31:11.787   12 Jun 2027 08:31:43.377            31.590                 Moscow          3948.750
       465   12 Jun 2027 08:31:48.929   12 Jun 2027 08:32:08.104            19.175                Novosib          2396.875
       466   12 Jun 2027 08:32:14.649   12 Jun 2027 08:34:50.944           156.295              Murmansk2         19536.875
       467   12 Jun 2027 08:35:20.681   12 Jun 2027 08:35:49.999            29.318                Norilsk          3664.750
       468   12 Jun 2027 09:52:52.204   12 Jun 2027 09:57:35.002           282.798                  Delhi         35349.750
       469   12 Jun 2027 10:06:02.150   12 Jun 2027 10:06:56.735            54.585                Norilsk          6823.125
       470   12 Jun 2027 10:07:31.986   12 Jun 2027 10:13:25.936           353.950              Murmansk1         44243.750
       471   12 Jun 2027 11:12:35.656   12 Jun 2027 11:20:50.770           495.114               CapeTown         61889.250
       472   12 Jun 2027 11:33:48.919   12 Jun 2027 11:39:52.476           363.557                 Moscow         45444.625
       473   12 Jun 2027 11:40:02.150   12 Jun 2027 11:43:42.785           220.635              Murmansk2         27579.375
       474   12 Jun 2027 11:43:42.785   12 Jun 2027 11:48:10.026           267.241              Murmansk1         33405.125
       475   12 Jun 2027 11:48:44.730   12 Jun 2027 11:49:23.972            39.242              Murmansk1          4905.250
       476   12 Jun 2027 11:51:49.370   12 Jun 2027 11:55:30.823           221.453                Anadyr2         27681.625
       477   12 Jun 2027 11:56:30.053   12 Jun 2027 11:57:41.472            71.419                Anadyr1          8927.375
       478   12 Jun 2027 12:46:29.012   12 Jun 2027 12:48:09.691           100.679               CapeTown         12584.875
       479   12 Jun 2027 12:48:12.111   12 Jun 2027 12:49:14.890            62.779               CapeTown          7847.375
       480   12 Jun 2027 13:31:19.073   12 Jun 2027 13:33:46.403           147.330               Magadan1         18416.250
       481   12 Jun 2027 13:33:57.338   12 Jun 2027 13:34:37.244            39.906               Magadan2          4988.250
       482   12 Jun 2027 13:36:30.978   12 Jun 2027 13:36:39.440             8.462               Magadan1          1057.750
