uniorb/output/strategy_4/Drop/Drop_KinoSat_110602.txt

KinoSat_110602
-------------------------
    Access    *     Start Time (UTCG)     *     Stop Time (UTCG)  *   Duration (s)        *       Station  *  Data (Mbytes)
         1   01 Jun 2027 04:13:05.682   01 Jun 2027 04:13:07.901             2.219               Magadan2            69.344
         2   01 Jun 2027 04:13:21.893   01 Jun 2027 04:18:32.801           310.908                Anadyr2          9715.875
         3   01 Jun 2027 04:19:03.383   01 Jun 2027 04:19:06.945             3.562               Magadan2           111.313
         4   01 Jun 2027 05:49:39.095   01 Jun 2027 05:50:08.280            29.185               Magadan1           912.031
         5   01 Jun 2027 05:50:22.707   01 Jun 2027 05:51:06.835            44.128                Norilsk          1379.000
         6   01 Jun 2027 05:51:26.787   01 Jun 2027 05:55:04.519           217.732                Norilsk          6804.125
         7   01 Jun 2027 05:55:33.385   01 Jun 2027 05:55:47.238            13.853                Novosib           432.906
         8   01 Jun 2027 05:56:10.226   01 Jun 2027 05:56:16.060             5.834              Murmansk2           182.313
         9   01 Jun 2027 05:57:46.758   01 Jun 2027 05:58:11.129            24.371              Murmansk2           761.594
        10   01 Jun 2027 05:58:17.314   01 Jun 2027 05:58:39.832            22.518                Norilsk           703.687
        11   01 Jun 2027 05:59:46.107   01 Jun 2027 05:59:57.933            11.826              Murmansk1           369.563
        12   01 Jun 2027 06:29:36.647   01 Jun 2027 06:31:06.106            89.459            RioGallegos          2795.594
        13   01 Jun 2027 06:33:52.443   01 Jun 2027 06:34:35.744            43.301            RioGallegos          1353.156
        14   01 Jun 2027 07:04:36.430   01 Jun 2027 07:07:32.271           175.841                Sumatra          5495.031
        15   01 Jun 2027 07:15:56.921   01 Jun 2027 07:16:50.419            53.498                  Delhi          1671.812
        16   01 Jun 2027 07:19:47.723   01 Jun 2027 07:21:44.584           116.861                  Delhi          3651.906
        17   01 Jun 2027 07:25:31.438   01 Jun 2027 07:25:43.799            12.361                Irkutsk           386.281
        18   01 Jun 2027 07:27:15.790   01 Jun 2027 07:28:02.235            46.445                Novosib          1451.406
        19   01 Jun 2027 07:28:11.523   01 Jun 2027 07:30:42.007           150.484                Norilsk          4702.625
        20   01 Jun 2027 07:30:46.145   01 Jun 2027 07:32:00.126            73.981              Murmansk1          2311.906
        21   01 Jun 2027 08:42:55.099   01 Jun 2027 08:43:42.163            47.064                Sumatra          1470.750
        22   01 Jun 2027 08:48:40.297   01 Jun 2027 08:51:02.603           142.306                  Delhi          4447.062
        23   01 Jun 2027 09:05:23.246   01 Jun 2027 09:05:56.136            32.890                Novosib          1027.813
        24   01 Jun 2027 09:05:58.930   01 Jun 2027 09:07:34.060            95.130                 Moscow          2972.812
        25   01 Jun 2027 10:29:06.138   01 Jun 2027 10:30:22.094            75.956                  Delhi          2373.625
        26   01 Jun 2027 10:31:08.503   01 Jun 2027 10:31:14.971             6.468                  Delhi           202.125
        27   01 Jun 2027 10:37:45.640   01 Jun 2027 10:37:48.771             3.131              Murmansk1            97.844
        28   01 Jun 2027 10:38:33.909   01 Jun 2027 10:41:30.812           176.903                Novosib          5528.219
        29   01 Jun 2027 10:41:38.915   01 Jun 2027 10:42:41.609            62.694              Murmansk2          1959.188
        30   01 Jun 2027 10:42:50.894   01 Jun 2027 10:47:17.666           266.772              Murmansk1          8336.625
        31   01 Jun 2027 10:48:28.544   01 Jun 2027 10:48:49.807            21.263              Murmansk2           664.469
        32   01 Jun 2027 11:50:08.023   01 Jun 2027 11:51:31.349            83.326               CapeTown          2603.938
        33   01 Jun 2027 11:55:32.715   01 Jun 2027 11:56:57.704            84.989               CapeTown          2655.906
        34   01 Jun 2027 12:09:52.273   01 Jun 2027 12:10:07.070            14.797                 Moscow           462.406
        35   01 Jun 2027 12:10:50.917   01 Jun 2027 12:12:03.052            72.135                 Moscow          2254.219
        36   01 Jun 2027 12:13:13.230   01 Jun 2027 12:16:54.881           221.651              Murmansk2          6926.594
        37   01 Jun 2027 12:17:50.414   01 Jun 2027 12:18:06.007            15.593              Murmansk2           487.281
        38   01 Jun 2027 12:18:19.015   01 Jun 2027 12:19:54.947            95.932              Murmansk1          2997.875
        39   01 Jun 2027 12:27:49.794   01 Jun 2027 12:36:08.038           498.244                Anadyr1         15570.125
        40   01 Jun 2027 14:03:10.203   01 Jun 2027 14:04:32.094            81.891                Anadyr2          2559.094
        41   01 Jun 2027 14:04:43.055   01 Jun 2027 14:06:51.889           128.834                Anadyr1          4026.062
        42   01 Jun 2027 14:07:16.767   01 Jun 2027 14:12:48.011           331.244               Magadan2         10351.375
        43   01 Jun 2027 15:41:29.828   01 Jun 2027 15:45:18.824           228.996               Magadan1          7156.125
        44   01 Jun 2027 15:46:54.088   01 Jun 2027 15:46:59.760             5.672               Magadan2           177.250
        45   01 Jun 2027 15:48:00.347   01 Jun 2027 15:49:27.841            87.494               Magadan1          2734.187
        46   01 Jun 2027 17:14:55.912   01 Jun 2027 17:15:43.424            47.512                Anadyr2          1484.750
        47   01 Jun 2027 17:16:09.667   01 Jun 2027 17:16:50.514            40.847                Anadyr1          1276.469
        48   01 Jun 2027 17:17:14.782   01 Jun 2027 17:18:56.283           101.501               Magadan1          3171.906
        49   01 Jun 2027 17:19:15.673   01 Jun 2027 17:22:54.127           218.454                Norilsk          6826.687
        50   01 Jun 2027 17:23:43.571   01 Jun 2027 17:27:52.039           248.468                Irkutsk          7764.625
        51   01 Jun 2027 18:52:48.324   01 Jun 2027 18:54:05.848            77.524                Norilsk          2422.625
        52   01 Jun 2027 18:58:16.098   01 Jun 2027 19:05:29.188           433.090                Novosib         13534.063
        53   01 Jun 2027 19:22:39.761   01 Jun 2027 19:22:53.685            13.924                Sumatra           435.125
        54   01 Jun 2027 20:34:25.010   01 Jun 2027 20:35:09.771            44.761                Novosib          1398.781
        55   01 Jun 2027 20:38:20.293   01 Jun 2027 20:39:12.977            52.684                Novosib          1646.375
        56   01 Jun 2027 20:40:15.457   01 Jun 2027 20:42:08.471           113.014                  Delhi          3531.687
        57   01 Jun 2027 20:44:19.337   01 Jun 2027 20:44:25.443             6.106                  Delhi           190.812
        58   01 Jun 2027 20:49:08.868   01 Jun 2027 20:49:42.279            33.411                  Delhi          1044.094
        59   01 Jun 2027 20:51:30.623   01 Jun 2027 20:52:26.963            56.340                  Delhi          1760.625
        60   01 Jun 2027 22:07:03.875   01 Jun 2027 22:12:31.220           327.345              Murmansk1         10229.531
        61   01 Jun 2027 22:12:36.333   01 Jun 2027 22:19:15.156           398.823                 Moscow         12463.219
        62   01 Jun 2027 22:40:34.162   01 Jun 2027 22:43:05.318           151.156               CapeTown          4723.625
        63   02 Jun 2027 00:10:15.377   02 Jun 2027 00:12:14.482           119.105               CapeTown          3722.031
        64   02 Jun 2027 01:09:34.958   02 Jun 2027 01:10:20.650            45.692               Magadan1          1427.875
        65   02 Jun 2027 01:13:39.606   02 Jun 2027 01:13:44.533             4.927               Magadan2           153.969
        66   02 Jun 2027 01:18:39.665   02 Jun 2027 01:18:51.595            11.930               Magadan2           372.812
        67   02 Jun 2027 01:19:44.153   02 Jun 2027 01:22:10.654           146.501              Murmansk2          4578.156
        68   02 Jun 2027 01:22:11.251   02 Jun 2027 01:22:50.143            38.892                 Moscow          1215.375
        69   02 Jun 2027 01:27:13.971   02 Jun 2027 01:27:17.465             3.494                 Moscow           109.187
        70   02 Jun 2027 01:31:23.314   02 Jun 2027 01:31:30.376             7.062                 Moscow           220.687
        71   02 Jun 2027 01:31:40.904   02 Jun 2027 01:31:44.801             3.897                 Moscow           121.781
        72   02 Jun 2027 01:47:21.005   02 Jun 2027 01:48:16.846            55.841               CapeTown          1745.031
        73   02 Jun 2027 01:50:15.695   02 Jun 2027 01:50:34.199            18.504               CapeTown           578.250
        74   02 Jun 2027 01:51:20.644   02 Jun 2027 01:51:39.077            18.433               CapeTown           576.031
        75   02 Jun 2027 02:42:33.421   02 Jun 2027 02:45:20.819           167.398               Magadan1          5231.188
        76   02 Jun 2027 02:45:20.819   02 Jun 2027 02:45:27.605             6.786               Magadan2           212.062
        77   02 Jun 2027 02:45:40.376   02 Jun 2027 02:46:06.670            26.294               Magadan2           821.687
        78   02 Jun 2027 02:46:27.445   02 Jun 2027 02:46:41.188            13.743               Magadan1           429.469
        79   02 Jun 2027 02:47:15.385   02 Jun 2027 02:48:05.876            50.491               Magadan2          1577.844
        80   02 Jun 2027 02:54:40.296   02 Jun 2027 02:56:03.851            83.555              Murmansk2          2611.094
        81   02 Jun 2027 02:57:24.391   02 Jun 2027 02:57:49.535            25.144              Murmansk1           785.750
        82   02 Jun 2027 02:58:38.577   02 Jun 2027 02:59:17.812            39.235                 Moscow          1226.094
        83   02 Jun 2027 03:35:01.385   02 Jun 2027 03:39:56.974           295.589            RioGallegos          9237.156
        84   02 Jun 2027 04:23:43.475   02 Jun 2027 04:23:55.130            11.655               Magadan1           364.219
        85   02 Jun 2027 04:23:55.130   02 Jun 2027 04:24:06.044            10.914               Magadan2           341.063
        86   02 Jun 2027 04:24:19.275   02 Jun 2027 04:25:12.063            52.788                Irkutsk          1649.625
        87   02 Jun 2027 04:25:15.364   02 Jun 2027 04:25:26.035            10.671                Irkutsk           333.469
        88   02 Jun 2027 04:25:27.485   02 Jun 2027 04:30:10.643           283.158                Irkutsk          8848.688
        89   02 Jun 2027 04:30:16.275   02 Jun 2027 04:30:17.692             1.417                Irkutsk            44.281
        90   02 Jun 2027 05:06:31.039   02 Jun 2027 05:10:02.506           211.467            RioGallegos          6608.344
        91   02 Jun 2027 06:02:11.465   02 Jun 2027 06:02:13.329             1.864               Magadan2            58.250
        92   02 Jun 2027 06:02:16.344   02 Jun 2027 06:02:34.000            17.656               Magadan2           551.750
        93   02 Jun 2027 06:02:54.803   02 Jun 2027 06:05:26.619           151.816               Magadan1          4744.250
        94   02 Jun 2027 06:05:52.557   02 Jun 2027 06:08:11.690           139.133                Novosib          4347.906
        95   02 Jun 2027 07:16:31.063   02 Jun 2027 07:17:22.721            51.658                Sumatra          1614.312
        96   02 Jun 2027 07:39:31.402   02 Jun 2027 07:40:34.657            63.255              Murmansk1          1976.719
        97   02 Jun 2027 07:40:43.926   02 Jun 2027 07:41:19.019            35.093                Irkutsk          1096.656
        98   02 Jun 2027 07:41:26.116   02 Jun 2027 07:41:51.402            25.286                 Moscow           790.188
        99   02 Jun 2027 07:44:03.377   02 Jun 2027 07:46:07.770           124.393              Murmansk2          3887.281
       100   02 Jun 2027 07:47:03.056   02 Jun 2027 07:47:08.584             5.528                Norilsk           172.750
       101   02 Jun 2027 08:21:22.601   02 Jun 2027 08:22:25.166            62.565            RioGallegos          1955.156
       102   02 Jun 2027 08:22:46.224   02 Jun 2027 08:23:10.210            23.986            RioGallegos           749.563
       103   02 Jun 2027 08:23:27.009   02 Jun 2027 08:24:23.730            56.721            RioGallegos          1772.531
       104   02 Jun 2027 08:56:42.461   02 Jun 2027 08:59:03.040           140.579                Sumatra          4393.094
       105   02 Jun 2027 09:18:15.081   02 Jun 2027 09:18:18.742             3.661                Novosib           114.406
       106   02 Jun 2027 09:18:59.230   02 Jun 2027 09:19:57.816            58.586                Novosib          1830.812
       107   02 Jun 2027 10:57:11.056   02 Jun 2027 10:57:56.754            45.698                Norilsk          1428.063
       108   02 Jun 2027 12:22:55.467   02 Jun 2027 12:23:54.110            58.643                 Moscow          1832.594
       109   02 Jun 2027 12:24:36.473   02 Jun 2027 12:24:42.446             5.973                 Moscow           186.656
       110   02 Jun 2027 12:25:26.137   02 Jun 2027 12:25:58.804            32.667                 Moscow          1020.844
       111   02 Jun 2027 12:26:14.094   02 Jun 2027 12:28:43.275           149.181              Murmansk1          4661.906
       112   02 Jun 2027 12:28:56.536   02 Jun 2027 12:29:43.846            47.310              Murmansk2          1478.437
       113   02 Jun 2027 12:39:41.969   02 Jun 2027 12:43:09.630           207.661                Anadyr2          6489.406
       114   02 Jun 2027 12:43:12.500   02 Jun 2027 12:45:25.806           133.306                Anadyr1          4165.813
       115   02 Jun 2027 12:46:12.671   02 Jun 2027 12:48:47.062           154.391                Anadyr2          4824.719
       116   02 Jun 2027 14:15:10.382   02 Jun 2027 14:17:00.400           110.018                Anadyr2          3438.062
       117   02 Jun 2027 14:18:48.214   02 Jun 2027 14:25:51.099           422.885               Magadan2         13215.156
       118   02 Jun 2027 15:53:27.692   02 Jun 2027 15:54:56.312            88.620               Magadan2          2769.375
       119   02 Jun 2027 15:57:30.457   02 Jun 2027 15:57:45.965            15.508               Magadan1           484.625
       120   02 Jun 2027 15:58:33.733   02 Jun 2027 15:58:55.052            21.319               Magadan1           666.219
       121   02 Jun 2027 17:26:55.877   02 Jun 2027 17:27:43.602            47.725                Anadyr2          1491.406
       122   02 Jun 2027 17:27:56.784   02 Jun 2027 17:28:29.456            32.672                Anadyr1          1021.000
       123   02 Jun 2027 17:29:15.355   02 Jun 2027 17:29:37.051            21.696                Norilsk           678.000
       124   02 Jun 2027 17:30:32.531   02 Jun 2027 17:32:10.303            97.772                Norilsk          3055.375
       125   02 Jun 2027 17:33:23.805   02 Jun 2027 17:34:33.397            69.592                Norilsk          2174.750
       126   02 Jun 2027 17:34:49.769   02 Jun 2027 17:41:17.532           387.763                Irkutsk         12117.594
       127   02 Jun 2027 17:51:20.659   02 Jun 2027 17:55:28.887           248.228                Sumatra          7757.125
       128   02 Jun 2027 19:09:52.898   02 Jun 2027 19:17:25.282           452.384                Novosib         14137.000
       129   02 Jun 2027 20:46:02.648   02 Jun 2027 20:47:07.773            65.125              Murmansk2          2035.156
       130   02 Jun 2027 20:52:43.485   02 Jun 2027 20:53:52.377            68.892                  Delhi          2152.875
       131   02 Jun 2027 20:54:55.326   02 Jun 2027 20:55:19.798            24.472                  Delhi           764.750
       132   02 Jun 2027 22:19:02.746   02 Jun 2027 22:24:51.731           348.985              Murmansk1         10905.781
       133   02 Jun 2027 22:25:12.041   02 Jun 2027 22:29:24.094           252.053                 Moscow          7876.656
       134   02 Jun 2027 22:50:39.338   02 Jun 2027 22:56:34.073           354.735               CapeTown         11085.469
       135   03 Jun 2027 00:32:13.593   03 Jun 2027 00:32:23.274             9.681               CapeTown           302.531
       136   03 Jun 2027 01:25:37.939   03 Jun 2027 01:25:46.117             8.178               Magadan2           255.563
       137   03 Jun 2027 01:27:24.151   03 Jun 2027 01:27:37.112            12.961               Magadan1           405.031
       138   03 Jun 2027 01:29:58.771   03 Jun 2027 01:30:20.366            21.595               Magadan2           674.844
       139   03 Jun 2027 01:30:52.124   03 Jun 2027 01:33:00.566           128.442              Murmansk1          4013.812
       140   03 Jun 2027 01:34:11.073   03 Jun 2027 01:34:15.070             3.997                 Moscow           124.906
       141   03 Jun 2027 01:34:48.082   03 Jun 2027 01:35:30.400            42.318                 Moscow          1322.437
       142   03 Jun 2027 01:43:38.329   03 Jun 2027 01:43:48.980            10.651                 Moscow           332.844
       143   03 Jun 2027 01:44:41.648   03 Jun 2027 01:45:09.255            27.607                 Moscow           862.719
       144   03 Jun 2027 02:00:04.017   03 Jun 2027 02:00:27.013            22.996               CapeTown           718.625
       145   03 Jun 2027 02:03:59.062   03 Jun 2027 02:04:23.760            24.698               CapeTown           771.813
       146   03 Jun 2027 02:07:28.117   03 Jun 2027 02:07:47.459            19.342               CapeTown           604.437
       147   03 Jun 2027 02:08:48.949   03 Jun 2027 02:09:02.633            13.684               CapeTown           427.625
       148   03 Jun 2027 02:54:28.518   03 Jun 2027 02:56:12.236           103.718               Magadan2          3241.188
       149   03 Jun 2027 02:56:18.430   03 Jun 2027 02:56:59.135            40.705               Magadan1          1272.031
       150   03 Jun 2027 02:57:42.326   03 Jun 2027 02:58:06.799            24.473               Magadan1           764.781
       151   03 Jun 2027 02:59:36.489   03 Jun 2027 02:59:51.516            15.027               Magadan2           469.594
       152   03 Jun 2027 03:00:05.728   03 Jun 2027 03:01:06.312            60.584               Magadan2          1893.250
       153   03 Jun 2027 03:01:18.210   03 Jun 2027 03:03:13.333           115.123                Anadyr1          3597.594
       154   03 Jun 2027 03:03:16.340   03 Jun 2027 03:04:36.506            80.166                Anadyr2          2505.187
       155   03 Jun 2027 03:04:38.707   03 Jun 2027 03:05:34.278            55.571                Anadyr2          1736.594
       156   03 Jun 2027 03:50:01.006   03 Jun 2027 03:50:25.698            24.692            RioGallegos           771.625
       157   03 Jun 2027 04:34:11.848   03 Jun 2027 04:35:12.195            60.347                Irkutsk          1885.844
       158   03 Jun 2027 04:36:51.084   03 Jun 2027 04:36:59.255             8.171               Magadan2           255.344
       159   03 Jun 2027 04:37:01.961   03 Jun 2027 04:37:35.074            33.113                Norilsk          1034.781
       160   03 Jun 2027 04:37:59.981   03 Jun 2027 04:38:10.921            10.940               Magadan2           341.875
       161   03 Jun 2027 04:38:23.033   03 Jun 2027 04:39:02.207            39.174                Novosib          1224.187
       162   03 Jun 2027 04:39:08.249   03 Jun 2027 04:42:20.713           192.464                Irkutsk          6014.500
       163   03 Jun 2027 04:42:44.390   03 Jun 2027 04:43:03.636            19.246               Magadan1           601.437
       164   03 Jun 2027 04:43:25.265   03 Jun 2027 04:44:34.477            69.212              Murmansk1          2162.875
       165   03 Jun 2027 04:44:41.494   03 Jun 2027 04:45:17.625            36.131              Murmansk1          1129.094
       166   03 Jun 2027 06:13:49.222   03 Jun 2027 06:14:03.395            14.173               Magadan1           442.906
       167   03 Jun 2027 06:14:06.813   03 Jun 2027 06:14:39.321            32.508               Magadan1          1015.875
       168   03 Jun 2027 06:14:53.227   03 Jun 2027 06:16:02.018            68.791               Magadan2          2149.719
       169   03 Jun 2027 06:16:10.954   03 Jun 2027 06:16:36.758            25.804               Magadan2           806.375
       170   03 Jun 2027 06:16:57.906   03 Jun 2027 06:17:20.035            22.129               Magadan1           691.531
       171   03 Jun 2027 06:19:01.618   03 Jun 2027 06:19:01.884             0.266                Norilsk             8.313
       172   03 Jun 2027 07:51:30.417   03 Jun 2027 07:52:30.514            60.097              Murmansk2          1878.031
       173   03 Jun 2027 07:52:55.304   03 Jun 2027 07:53:38.912            43.608                 Moscow          1362.750
       174   03 Jun 2027 07:55:36.225   03 Jun 2027 07:55:51.726            15.501                Norilsk           484.406
       175   03 Jun 2027 07:56:45.634   03 Jun 2027 07:57:01.441            15.807                 Moscow           493.969
       176   03 Jun 2027 08:34:36.195   03 Jun 2027 08:34:58.425            22.230            RioGallegos           694.687
       177   03 Jun 2027 08:35:27.444   03 Jun 2027 08:36:02.663            35.219            RioGallegos          1100.594
       178   03 Jun 2027 09:30:42.887   03 Jun 2027 09:31:11.547            28.660                Norilsk           895.625
       179   03 Jun 2027 11:09:04.746   03 Jun 2027 11:09:18.144            13.398                Norilsk           418.687
       180   03 Jun 2027 12:34:41.947   03 Jun 2027 12:35:32.417            50.470                 Moscow          1577.188
       181   03 Jun 2027 12:36:42.869   03 Jun 2027 12:37:26.014            43.145                 Moscow          1348.281
       182   03 Jun 2027 12:37:45.910   03 Jun 2027 12:39:28.865           102.955              Murmansk2          3217.344
       183   03 Jun 2027 12:39:28.865   03 Jun 2027 12:39:52.583            23.718              Murmansk1           741.187
       184   03 Jun 2027 12:40:15.986   03 Jun 2027 12:40:58.233            42.247              Murmansk2          1320.219
       185   03 Jun 2027 12:41:13.115   03 Jun 2027 12:41:38.046            24.931              Murmansk2           779.094
       186   03 Jun 2027 12:42:28.524   03 Jun 2027 12:43:18.576            50.052              Murmansk1          1564.125
       187   03 Jun 2027 12:51:36.250   03 Jun 2027 12:54:02.957           146.707                Anadyr2          4584.594
       188   03 Jun 2027 12:55:04.316   03 Jun 2027 12:57:17.209           132.893                Anadyr1          4152.906
       189   03 Jun 2027 12:58:22.560   03 Jun 2027 13:00:12.320           109.760                Anadyr1          3430.000
       190   03 Jun 2027 14:27:10.881   03 Jun 2027 14:29:41.661           150.780                Anadyr1          4711.875
       191   03 Jun 2027 14:30:05.368   03 Jun 2027 14:31:03.200            57.832                Anadyr1          1807.250
       192   03 Jun 2027 14:31:03.524   03 Jun 2027 14:36:50.246           346.722               Magadan1         10835.062
       193   03 Jun 2027 14:38:09.877   03 Jun 2027 14:38:41.906            32.029               Magadan2          1000.906
       194   03 Jun 2027 16:05:26.353   03 Jun 2027 16:07:22.468           116.115               Magadan1          3628.594
       195   03 Jun 2027 16:08:00.187   03 Jun 2027 16:08:11.892            11.705               Magadan2           365.781
       196   03 Jun 2027 16:09:23.178   03 Jun 2027 16:09:33.194            10.016               Magadan2           313.000
       197   03 Jun 2027 16:09:46.477   03 Jun 2027 16:09:52.628             6.151               Magadan2           192.219
       198   03 Jun 2027 17:00:08.963   03 Jun 2027 17:03:44.710           215.747            RioGallegos          6742.094
       199   03 Jun 2027 17:41:09.757   03 Jun 2027 17:42:19.057            69.300                Norilsk          2165.625
       200   03 Jun 2027 17:44:45.338   03 Jun 2027 17:44:58.520            13.182                Norilsk           411.937
       201   03 Jun 2027 17:45:22.818   03 Jun 2027 17:46:53.405            90.587                Norilsk          2830.844
       202   03 Jun 2027 17:47:09.038   03 Jun 2027 17:53:34.335           385.297                Irkutsk         12040.531
       203   03 Jun 2027 18:01:41.317   03 Jun 2027 18:09:01.342           440.025                Sumatra         13750.781
       204   03 Jun 2027 19:23:59.036   03 Jun 2027 19:29:27.922           328.886                Novosib         10277.688
       205   03 Jun 2027 19:33:01.835   03 Jun 2027 19:35:14.293           132.458                  Delhi          4139.313
       206   03 Jun 2027 20:56:03.008   03 Jun 2027 21:00:24.379           261.371              Murmansk1          8167.844
       207   03 Jun 2027 22:34:56.940   03 Jun 2027 22:38:12.253           195.313                 Moscow          6103.531
       208   03 Jun 2027 22:38:26.646   03 Jun 2027 22:43:12.022           285.376                 Moscow          8918.000
       209   03 Jun 2027 23:01:31.078   03 Jun 2027 23:09:19.382           468.304               CapeTown         14634.500
       210   04 Jun 2027 03:10:30.610   04 Jun 2027 03:10:45.152            14.542                Anadyr1           454.438
       211   04 Jun 2027 03:11:20.242   04 Jun 2027 03:11:35.508            15.266               Magadan1           477.063
       212   04 Jun 2027 03:12:19.789   04 Jun 2027 03:12:34.676            14.887               Magadan2           465.219
       213   04 Jun 2027 03:12:55.798   04 Jun 2027 03:16:36.667           220.869                Anadyr2          6902.156
       214   04 Jun 2027 03:17:34.495   04 Jun 2027 03:17:43.559             9.064               Magadan2           283.250
       215   04 Jun 2027 03:18:47.903   04 Jun 2027 03:18:57.243             9.340               Magadan1           291.875
       216   04 Jun 2027 03:19:23.487   04 Jun 2027 03:19:29.498             6.011                Anadyr2           187.844
       217   04 Jun 2027 04:49:30.820   04 Jun 2027 04:53:45.591           254.771                Irkutsk          7961.594
       218   04 Jun 2027 04:55:10.622   04 Jun 2027 04:55:33.604            22.982                Novosib           718.187
       219   04 Jun 2027 06:25:54.013   04 Jun 2027 06:26:04.824            10.811               Magadan2           337.844
       220   04 Jun 2027 06:26:10.858   04 Jun 2027 06:26:17.952             7.094               Magadan1           221.688
       221   04 Jun 2027 06:26:47.303   04 Jun 2027 06:27:40.278            52.975               Magadan2          1655.469
       222   04 Jun 2027 06:27:55.208   04 Jun 2027 06:27:59.217             4.009               Magadan2           125.281
       223   04 Jun 2027 06:28:05.949   04 Jun 2027 06:28:07.330             1.381               Magadan2            43.156
       224   04 Jun 2027 06:28:30.612   04 Jun 2027 06:28:31.910             1.298               Magadan2            40.563
       225   04 Jun 2027 06:31:43.701   04 Jun 2027 06:32:40.127            56.426                Norilsk          1763.313
       226   04 Jun 2027 08:04:27.006   04 Jun 2027 08:04:43.496            16.490              Murmansk2           515.312
       227   04 Jun 2027 08:08:04.870   04 Jun 2027 08:08:24.473            19.603              Murmansk2           612.594
       228   04 Jun 2027 08:49:10.295   04 Jun 2027 08:49:47.684            37.389            RioGallegos          1168.406
       229   04 Jun 2027 09:30:53.200   04 Jun 2027 09:31:21.900            28.700                  Delhi           896.875
       230   04 Jun 2027 09:38:11.492   04 Jun 2027 09:39:10.094            58.602                Novosib          1831.312
       231   04 Jun 2027 09:42:32.872   04 Jun 2027 09:42:49.707            16.835                Novosib           526.094
       232   04 Jun 2027 11:21:26.872   04 Jun 2027 11:22:35.009            68.137                Norilsk          2129.281
       233   04 Jun 2027 12:50:14.695   04 Jun 2027 12:51:00.852            46.157                 Moscow          1442.406
       234   04 Jun 2027 12:51:05.354   04 Jun 2027 12:51:53.720            48.366              Murmansk1          1511.438
       235   04 Jun 2027 12:54:30.005   04 Jun 2027 12:54:44.342            14.337              Murmansk1           448.031
       236   04 Jun 2027 12:56:15.631   04 Jun 2027 12:56:50.627            34.996              Murmansk2          1093.625
       237   04 Jun 2027 12:58:11.850   04 Jun 2027 12:59:06.844            54.994              Murmansk2          1718.562
       238   04 Jun 2027 13:00:37.783   04 Jun 2027 13:00:45.389             7.606              Murmansk2           237.688
       239   04 Jun 2027 13:03:32.085   04 Jun 2027 13:05:35.262           123.177                Anadyr1          3849.281
       240   04 Jun 2027 13:05:44.457   04 Jun 2027 13:09:39.827           235.370                Anadyr2          7355.313
       241   04 Jun 2027 13:11:29.637   04 Jun 2027 13:12:44.838            75.201                Anadyr2          2350.031
       242   04 Jun 2027 14:31:14.020   04 Jun 2027 14:32:17.806            63.786              Murmansk1          1993.313
       243   04 Jun 2027 14:39:11.642   04 Jun 2027 14:40:25.120            73.478                Anadyr2          2296.187
       244   04 Jun 2027 14:41:18.742   04 Jun 2027 14:41:48.913            30.171                Anadyr1           942.844
       245   04 Jun 2027 14:42:15.390   04 Jun 2027 14:51:24.591           549.201               Magadan2         17162.531
       246   04 Jun 2027 16:17:25.692   04 Jun 2027 16:18:04.679            38.987               Magadan1          1218.344
       247   04 Jun 2027 17:11:06.373   04 Jun 2027 17:17:18.785           372.412            RioGallegos         11637.875
       248   04 Jun 2027 17:53:06.139   04 Jun 2027 17:55:18.658           132.519                Norilsk          4141.219
       249   04 Jun 2027 17:57:55.902   04 Jun 2027 17:59:02.047            66.145                Irkutsk          2067.031
       250   04 Jun 2027 17:59:24.839   04 Jun 2027 18:05:36.697           371.858                Irkutsk         11620.562
       251   04 Jun 2027 18:12:42.372   04 Jun 2027 18:21:42.955           540.583                Sumatra         16893.219
       252   04 Jun 2027 19:37:08.614   04 Jun 2027 19:40:00.521           171.907                Novosib          5372.094
       253   04 Jun 2027 19:43:02.868   04 Jun 2027 19:49:27.348           384.480                  Delhi         12015.000
       254   04 Jun 2027 21:07:46.049   04 Jun 2027 21:13:22.824           336.775              Murmansk1         10524.219
       255   04 Jun 2027 22:46:15.193   04 Jun 2027 22:47:10.370            55.177              Murmansk1          1724.281
       256   04 Jun 2027 22:54:24.128   04 Jun 2027 22:55:04.644            40.516                 Moscow          1266.125
       257   04 Jun 2027 23:12:40.055   04 Jun 2027 23:12:48.254             8.199               CapeTown           256.219
       258   04 Jun 2027 23:14:27.343   04 Jun 2027 23:20:28.565           361.222               CapeTown         11288.188
       259   05 Jun 2027 02:26:35.072   05 Jun 2027 02:27:43.869            68.797               CapeTown          2149.906
       260   05 Jun 2027 03:22:46.026   05 Jun 2027 03:23:05.382            19.356                Anadyr1           604.875
       261   05 Jun 2027 03:23:33.535   05 Jun 2027 03:24:42.169            68.634                Anadyr1          2144.813
       262   05 Jun 2027 03:25:01.734   05 Jun 2027 03:25:55.979            54.245                Anadyr2          1695.156
       263   05 Jun 2027 03:26:04.469   05 Jun 2027 03:26:30.784            26.315                Anadyr2           822.344
       264   05 Jun 2027 03:26:32.804   05 Jun 2027 03:27:05.755            32.951                Anadyr2          1029.719
       265   05 Jun 2027 03:27:10.494   05 Jun 2027 03:29:22.854           132.360                Anadyr2          4136.250
       266   05 Jun 2027 03:29:33.199   05 Jun 2027 03:29:52.613            19.414               Magadan2           606.687
       267   05 Jun 2027 03:30:23.232   05 Jun 2027 03:30:49.352            26.120                Anadyr2           816.250
       268   05 Jun 2027 04:14:10.176   05 Jun 2027 04:15:04.332            54.156            RioGallegos          1692.375
       269   05 Jun 2027 04:59:21.761   05 Jun 2027 05:00:02.419            40.658                Irkutsk          1270.562
       270   05 Jun 2027 05:02:02.628   05 Jun 2027 05:03:28.357            85.729                Irkutsk          2679.031
       271   05 Jun 2027 05:03:37.387   05 Jun 2027 05:05:21.384           103.997                Irkutsk          3249.906
       272   05 Jun 2027 05:06:37.665   05 Jun 2027 05:06:56.483            18.818               Magadan2           588.062
       273   05 Jun 2027 06:45:35.838   05 Jun 2027 06:46:02.770            26.932              Murmansk1           841.625
       274   05 Jun 2027 08:21:31.275   05 Jun 2027 08:21:52.686            21.411              Murmansk2           669.094
       275   05 Jun 2027 09:42:14.108   05 Jun 2027 09:43:51.488            97.380                  Delhi          3043.125
       276   05 Jun 2027 09:54:43.452   05 Jun 2027 09:54:46.752             3.300                Novosib           103.125
       277   05 Jun 2027 12:59:52.624   05 Jun 2027 13:00:53.873            61.249                 Moscow          1914.031
       278   05 Jun 2027 13:02:27.086   05 Jun 2027 13:03:50.513            83.427              Murmansk1          2607.094
       279   05 Jun 2027 13:04:36.449   05 Jun 2027 13:05:01.617            25.168              Murmansk2           786.500
       280   05 Jun 2027 13:06:31.590   05 Jun 2027 13:07:01.052            29.462              Murmansk2           920.688
       281   05 Jun 2027 13:07:05.010   05 Jun 2027 13:07:33.609            28.599              Murmansk1           893.719
       282   05 Jun 2027 13:09:59.120   05 Jun 2027 13:11:23.312            84.192              Murmansk1          2631.000
       283   05 Jun 2027 13:12:12.504   05 Jun 2027 13:12:15.317             2.813              Murmansk1            87.906
       284   05 Jun 2027 13:15:29.111   05 Jun 2027 13:17:17.992           108.881                Anadyr1          3402.531
       285   05 Jun 2027 13:17:32.116   05 Jun 2027 13:19:15.651           103.535                Anadyr2          3235.469
       286   05 Jun 2027 13:19:45.258   05 Jun 2027 13:21:59.622           134.364                Anadyr2          4198.875
       287   05 Jun 2027 14:44:42.890   05 Jun 2027 14:45:36.598            53.708              Murmansk2          1678.375
       288   05 Jun 2027 14:51:12.602   05 Jun 2027 14:52:25.119            72.517                Anadyr2          2266.156
       289   05 Jun 2027 14:53:45.749   05 Jun 2027 14:54:12.618            26.869                Anadyr2           839.656
       290   05 Jun 2027 14:54:24.376   05 Jun 2027 14:55:36.919            72.543                Anadyr1          2266.969
       291   05 Jun 2027 14:55:38.489   05 Jun 2027 14:59:55.381           256.892               Magadan2          8027.875
       292   05 Jun 2027 14:59:56.800   05 Jun 2027 15:04:01.084           244.284               Magadan1          7633.875
       293   05 Jun 2027 16:29:25.603   05 Jun 2027 16:30:47.730            82.127               Magadan2          2566.469
       294   05 Jun 2027 17:22:31.282   05 Jun 2027 17:30:10.614           459.332            RioGallegos         14354.125
       295   05 Jun 2027 18:07:23.943   05 Jun 2027 18:08:57.552            93.609                Norilsk          2925.281
       296   05 Jun 2027 18:10:54.726   05 Jun 2027 18:12:48.663           113.937                Irkutsk          3560.531
       297   05 Jun 2027 18:12:55.600   05 Jun 2027 18:17:40.972           285.372                Irkutsk          8917.875
       298   05 Jun 2027 18:26:57.006   05 Jun 2027 18:31:27.309           270.303                Sumatra          8446.969
       299   05 Jun 2027 19:54:06.693   05 Jun 2027 20:02:35.612           508.919                  Delhi         15903.719
       300   05 Jun 2027 21:19:35.458   05 Jun 2027 21:20:20.788            45.330              Murmansk2          1416.562
       301   05 Jun 2027 21:20:55.168   05 Jun 2027 21:25:31.587           276.419              Murmansk1          8638.094
       302   05 Jun 2027 23:00:06.184   05 Jun 2027 23:00:52.240            46.056                 Moscow          1439.250
       303   05 Jun 2027 23:05:27.276   05 Jun 2027 23:07:08.636           101.360                 Moscow          3167.500
       304   05 Jun 2027 23:24:43.172   05 Jun 2027 23:26:31.841           108.669               CapeTown          3395.906
       305   05 Jun 2027 23:28:13.371   05 Jun 2027 23:31:11.546           178.175               CapeTown          5567.969
       306   06 Jun 2027 01:01:14.432   06 Jun 2027 01:01:46.305            31.873               CapeTown           996.031
       307   06 Jun 2027 01:54:56.964   06 Jun 2027 01:55:01.277             4.313                Anadyr2           134.781
       308   06 Jun 2027 01:55:29.339   06 Jun 2027 01:56:53.308            83.969               Magadan1          2624.031
       309   06 Jun 2027 01:56:53.308   06 Jun 2027 01:57:45.624            52.316               Magadan2          1634.875
       310   06 Jun 2027 02:04:49.268   06 Jun 2027 02:05:54.266            64.998               Magadan1          2031.188
       311   06 Jun 2027 02:06:54.884   06 Jun 2027 02:08:03.289            68.405              Murmansk1          2137.656
       312   06 Jun 2027 02:10:25.408   06 Jun 2027 02:11:17.964            52.556                 Moscow          1642.375
       313   06 Jun 2027 02:16:01.998   06 Jun 2027 02:16:26.753            24.755                 Moscow           773.594
       314   06 Jun 2027 03:30:27.882   06 Jun 2027 03:30:38.391            10.509               Magadan1           328.406
       315   06 Jun 2027 03:32:56.978   06 Jun 2027 03:33:14.896            17.918                Anadyr2           559.937
       316   06 Jun 2027 03:33:46.618   06 Jun 2027 03:34:11.383            24.765               Magadan2           773.906
       317   06 Jun 2027 03:34:27.724   06 Jun 2027 03:35:25.952            58.228               Magadan2          1819.625
       318   06 Jun 2027 03:36:18.018   06 Jun 2027 03:36:43.573            25.555                Anadyr2           798.594
       319   06 Jun 2027 03:37:12.365   06 Jun 2027 03:38:07.715            55.350               Magadan2          1729.688
       320   06 Jun 2027 03:38:07.715   06 Jun 2027 03:38:39.461            31.746               Magadan1           992.062
       321   06 Jun 2027 03:39:04.473   06 Jun 2027 03:39:47.011            42.538               Magadan2          1329.312
       322   06 Jun 2027 03:39:47.011   06 Jun 2027 03:43:21.794           214.783               Magadan1          6711.969
       323   06 Jun 2027 04:23:55.600   06 Jun 2027 04:27:29.853           214.253            RioGallegos          6695.406
       324   06 Jun 2027 05:12:41.602   06 Jun 2027 05:13:30.309            48.707                Irkutsk          1522.094
       325   06 Jun 2027 05:14:07.387   06 Jun 2027 05:14:13.661             6.274                Irkutsk           196.062
       326   06 Jun 2027 05:15:12.312   06 Jun 2027 05:16:13.324            61.012                Irkutsk          1906.625
       327   06 Jun 2027 05:17:19.352   06 Jun 2027 05:17:29.869            10.517               Magadan2           328.656
       328   06 Jun 2027 05:17:37.003   06 Jun 2027 05:18:05.875            28.872               Magadan2           902.250
       329   06 Jun 2027 05:18:11.656   06 Jun 2027 05:18:36.978            25.322               Magadan2           791.312
       330   06 Jun 2027 05:18:51.842   06 Jun 2027 05:18:52.632             0.790                Irkutsk            24.687
       331   06 Jun 2027 06:50:51.113   06 Jun 2027 06:51:14.106            22.993                Norilsk           718.531
       332   06 Jun 2027 06:55:57.907   06 Jun 2027 06:55:59.920             2.013                Novosib            62.906
       333   06 Jun 2027 06:57:24.986   06 Jun 2027 06:57:26.666             1.680              Murmansk1            52.500
       334   06 Jun 2027 06:57:36.579   06 Jun 2027 06:57:49.403            12.824              Murmansk1           400.750
       335   06 Jun 2027 08:09:55.620   06 Jun 2027 08:11:52.885           117.265                Sumatra          3664.531
       336   06 Jun 2027 08:28:03.348   06 Jun 2027 08:28:17.936            14.588              Murmansk1           455.875
       337   06 Jun 2027 08:28:21.721   06 Jun 2027 08:28:24.829             3.108              Murmansk1            97.125
       338   06 Jun 2027 08:30:08.931   06 Jun 2027 08:30:30.132            21.201                Novosib           662.531
       339   06 Jun 2027 08:33:22.289   06 Jun 2027 08:33:34.439            12.150                 Moscow           379.688
       340   06 Jun 2027 09:53:14.116   06 Jun 2027 09:54:25.515            71.399                  Delhi          2231.219
       341   06 Jun 2027 09:55:38.040   06 Jun 2027 09:57:02.379            84.339                  Delhi          2635.594
       342   06 Jun 2027 10:06:39.336   06 Jun 2027 10:06:47.230             7.894                Norilsk           246.688
       343   06 Jun 2027 12:58:09.182   06 Jun 2027 12:59:01.686            52.504               CapeTown          1640.750
       344   06 Jun 2027 13:12:38.855   06 Jun 2027 13:12:58.585            19.730                 Moscow           616.563
       345   06 Jun 2027 13:13:20.352   06 Jun 2027 13:13:38.107            17.755                 Moscow           554.844
       346   06 Jun 2027 13:14:48.486   06 Jun 2027 13:16:02.279            73.793                 Moscow          2306.031
       347   06 Jun 2027 13:16:37.159   06 Jun 2027 13:18:28.122           110.963              Murmansk1          3467.594
       348   06 Jun 2027 13:18:47.512   06 Jun 2027 13:18:48.919             1.407              Murmansk2            43.969
       349   06 Jun 2027 13:18:53.394   06 Jun 2027 13:19:19.850            26.456              Murmansk2           826.750
       350   06 Jun 2027 13:24:41.710   06 Jun 2027 13:25:02.552            20.842              Murmansk1           651.312
       351   06 Jun 2027 13:27:27.067   06 Jun 2027 13:31:45.158           258.091                Anadyr1          8065.344
       352   06 Jun 2027 13:34:02.144   06 Jun 2027 13:34:37.605            35.461                Anadyr2          1108.156
       353   06 Jun 2027 14:55:40.546   06 Jun 2027 14:56:21.508            40.962              Murmansk2          1280.062
       354   06 Jun 2027 14:56:21.508   06 Jun 2027 14:57:41.324            79.816              Murmansk1          2494.250
       355   06 Jun 2027 15:03:13.724   06 Jun 2027 15:04:23.989            70.265                Anadyr2          2195.781
       356   06 Jun 2027 15:05:29.402   06 Jun 2027 15:06:08.579            39.177                Anadyr1          1224.281
       357   06 Jun 2027 15:06:30.646   06 Jun 2027 15:06:30.690             0.044                Anadyr2             1.375
       358   06 Jun 2027 15:06:33.253   06 Jun 2027 15:08:41.294           128.041               Magadan2          4001.281
       359   06 Jun 2027 15:09:28.688   06 Jun 2027 15:11:58.365           149.677               Magadan2          4677.406
       360   06 Jun 2027 15:12:18.135   06 Jun 2027 15:12:48.442            30.307               Magadan2           947.094
       361   06 Jun 2027 15:13:40.740   06 Jun 2027 15:16:32.477           171.737               Magadan2          5366.781
       362   06 Jun 2027 16:41:25.993   06 Jun 2027 16:43:45.288           139.295               Magadan2          4352.969
       363   06 Jun 2027 17:34:07.409   06 Jun 2027 17:40:42.578           395.169            RioGallegos         12349.031
       364   06 Jun 2027 18:17:02.701   06 Jun 2027 18:20:08.263           185.562                Norilsk          5798.812
       365   06 Jun 2027 18:21:27.756   06 Jun 2027 18:22:42.995            75.239                Irkutsk          2351.219
       366   06 Jun 2027 18:23:24.055   06 Jun 2027 18:24:50.814            86.759                Irkutsk          2711.219
       367   06 Jun 2027 18:35:31.373   06 Jun 2027 18:39:06.642           215.269                Sumatra          6727.156
       368   06 Jun 2027 18:40:39.685   06 Jun 2027 18:42:19.764           100.079                Sumatra          3127.469
       369   06 Jun 2027 19:57:07.510   06 Jun 2027 19:58:33.690            86.180                Novosib          2693.125
       370   06 Jun 2027 19:59:22.554   06 Jun 2027 20:00:45.678            83.124                Novosib          2597.625
       371   06 Jun 2027 20:05:29.438   06 Jun 2027 20:05:39.312             9.874                  Delhi           308.563
       372   06 Jun 2027 20:06:07.809   06 Jun 2027 20:12:49.320           401.511                  Delhi         12547.219
       373   06 Jun 2027 21:31:28.425   06 Jun 2027 21:33:36.656           128.231              Murmansk2          4007.219
       374   06 Jun 2027 21:35:06.701   06 Jun 2027 21:37:11.374           124.673              Murmansk2          3896.031
       375   06 Jun 2027 21:37:18.502   06 Jun 2027 21:38:57.228            98.726              Murmansk1          3085.187
       376   06 Jun 2027 23:11:53.147   06 Jun 2027 23:12:56.340            63.193                 Moscow          1974.781
       377   06 Jun 2027 23:19:13.105   06 Jun 2027 23:19:35.571            22.466                 Moscow           702.063
       378   06 Jun 2027 23:35:28.025   06 Jun 2027 23:38:47.223           199.198               CapeTown          6224.937
       379   06 Jun 2027 23:40:56.019   06 Jun 2027 23:42:16.003            79.984               CapeTown          2499.500
       380   07 Jun 2027 00:48:32.193   07 Jun 2027 00:49:23.656            51.463                 Moscow          1608.219
       381   07 Jun 2027 00:52:27.506   07 Jun 2027 00:52:32.647             5.141                 Moscow           160.656
       382   07 Jun 2027 00:54:49.057   07 Jun 2027 00:55:18.880            29.823                 Moscow           931.969
       383   07 Jun 2027 01:10:21.826   07 Jun 2027 01:11:32.643            70.817               CapeTown          2213.031
       384   07 Jun 2027 01:13:54.836   07 Jun 2027 01:14:17.691            22.855               CapeTown           714.219
       385   07 Jun 2027 02:07:05.270   07 Jun 2027 02:07:56.493            51.223                Anadyr2          1600.719
       386   07 Jun 2027 02:08:19.899   07 Jun 2027 02:09:57.510            97.611               Magadan1          3050.344
       387   07 Jun 2027 02:09:57.510   07 Jun 2027 02:10:03.284             5.774               Magadan2           180.437
       388   07 Jun 2027 02:11:06.678   07 Jun 2027 02:12:14.272            67.594               Magadan1          2112.313
       389   07 Jun 2027 02:16:48.305   07 Jun 2027 02:16:59.904            11.599                Norilsk           362.469
       390   07 Jun 2027 02:18:55.352   07 Jun 2027 02:19:36.905            41.553              Murmansk2          1298.531
       391   07 Jun 2027 02:20:22.745   07 Jun 2027 02:20:48.921            26.176              Murmansk2           818.000
       392   07 Jun 2027 02:22:31.275   07 Jun 2027 02:23:20.182            48.907                 Moscow          1528.344
       393   07 Jun 2027 02:24:36.912   07 Jun 2027 02:24:47.328            10.416                 Moscow           325.500
       394   07 Jun 2027 02:27:16.101   07 Jun 2027 02:27:39.530            23.429                 Moscow           732.156
       395   07 Jun 2027 02:29:32.912   07 Jun 2027 02:29:56.172            23.260                 Moscow           726.875
       396   07 Jun 2027 03:42:32.604   07 Jun 2027 03:42:45.857            13.253               Magadan2           414.156
       397   07 Jun 2027 03:43:12.083   07 Jun 2027 03:43:40.347            28.264               Magadan2           883.250
       398   07 Jun 2027 03:43:49.095   07 Jun 2027 03:44:10.474            21.379               Magadan2           668.094
       399   07 Jun 2027 03:45:26.775   07 Jun 2027 03:45:49.712            22.937                Anadyr2           716.781
       400   07 Jun 2027 03:48:47.599   07 Jun 2027 03:49:08.691            21.092                Irkutsk           659.125
       401   07 Jun 2027 03:49:34.136   07 Jun 2027 03:54:48.767           314.631                Anadyr2          9832.219
       402   07 Jun 2027 03:54:48.767   07 Jun 2027 03:55:06.988            18.221                Anadyr1           569.406
       403   07 Jun 2027 04:34:58.078   07 Jun 2027 04:35:45.528            47.450            RioGallegos          1482.812
       404   07 Jun 2027 04:36:28.260   07 Jun 2027 04:37:06.602            38.342            RioGallegos          1198.187
       405   07 Jun 2027 05:27:12.703   07 Jun 2027 05:30:30.823           198.120                Irkutsk          6191.250
       406   07 Jun 2027 05:30:48.611   07 Jun 2027 05:30:58.635            10.024                Irkutsk           313.250
       407   07 Jun 2027 07:07:24.229   07 Jun 2027 07:07:45.573            21.344                Norilsk           667.000
       408   07 Jun 2027 07:49:08.906   07 Jun 2027 07:49:27.071            18.165            RioGallegos           567.656
       409   07 Jun 2027 07:50:02.798   07 Jun 2027 07:50:16.551            13.753            RioGallegos           429.781
       410   07 Jun 2027 08:20:42.907   07 Jun 2027 08:20:51.462             8.555                Sumatra           267.344
       411   07 Jun 2027 08:23:39.568   07 Jun 2027 08:24:03.219            23.651                Sumatra           739.094
       412   07 Jun 2027 08:26:01.606   07 Jun 2027 08:27:18.877            77.271                Sumatra          2414.719
       413   07 Jun 2027 08:39:30.074   07 Jun 2027 08:39:50.287            20.213              Murmansk2           631.656
       414   07 Jun 2027 08:39:52.303   07 Jun 2027 08:40:05.142            12.839              Murmansk2           401.219
       415   07 Jun 2027 08:40:19.865   07 Jun 2027 08:40:29.207             9.342              Murmansk2           291.938
       416   07 Jun 2027 08:42:52.670   07 Jun 2027 08:42:53.690             1.020                Norilsk            31.875
       417   07 Jun 2027 10:02:47.076   07 Jun 2027 10:05:59.150           192.074                  Delhi          6002.312
       418   07 Jun 2027 10:15:21.688   07 Jun 2027 10:15:37.414            15.726                Novosib           491.438
       419   07 Jun 2027 10:19:03.544   07 Jun 2027 10:19:03.693             0.149                Novosib             4.656
       420   07 Jun 2027 10:21:00.416   07 Jun 2027 10:21:00.880             0.464                Norilsk            14.500
       421   07 Jun 2027 12:58:47.469   07 Jun 2027 13:00:30.581           103.112               CapeTown          3222.250
       422   07 Jun 2027 13:06:32.287   07 Jun 2027 13:08:13.115           100.828               CapeTown          3150.875
       423   07 Jun 2027 13:26:54.950   07 Jun 2027 13:28:16.095            81.145                 Moscow          2535.781
       424   07 Jun 2027 13:28:24.545   07 Jun 2027 13:30:03.005            98.460              Murmansk1          3076.875
       425   07 Jun 2027 13:30:34.997   07 Jun 2027 13:30:42.359             7.362              Murmansk2           230.062
       426   07 Jun 2027 13:31:35.269   07 Jun 2027 13:31:40.835             5.566              Murmansk2           173.937
       427   07 Jun 2027 13:33:24.163   07 Jun 2027 13:33:33.734             9.571              Murmansk2           299.094
       428   07 Jun 2027 13:34:29.286   07 Jun 2027 13:34:55.582            26.296              Murmansk1           821.750
       429   07 Jun 2027 13:35:14.445   07 Jun 2027 13:36:15.702            61.257              Murmansk2          1914.281
       430   07 Jun 2027 13:39:25.767   07 Jun 2027 13:41:51.399           145.632                Anadyr1          4551.000
       431   07 Jun 2027 13:43:39.534   07 Jun 2027 13:44:50.874            71.340                Anadyr1          2229.375
       432   07 Jun 2027 15:08:46.708   07 Jun 2027 15:10:10.394            83.686              Murmansk2          2615.188
       433   07 Jun 2027 15:10:44.770   07 Jun 2027 15:11:13.578            28.808              Murmansk2           900.250
       434   07 Jun 2027 15:15:14.951   07 Jun 2027 15:16:24.094            69.143                Anadyr1          2160.719
       435   07 Jun 2027 15:17:16.786   07 Jun 2027 15:18:05.727            48.941                Anadyr2          1529.406
       436   07 Jun 2027 15:18:21.353   07 Jun 2027 15:18:34.859            13.506                Anadyr1           422.063
       437   07 Jun 2027 15:18:55.719   07 Jun 2027 15:19:11.795            16.076                Anadyr1           502.375
       438   07 Jun 2027 15:19:33.674   07 Jun 2027 15:19:39.583             5.909                Anadyr1           184.656
       439   07 Jun 2027 15:19:42.768   07 Jun 2027 15:23:43.773           241.005               Magadan2          7531.406
       440   07 Jun 2027 15:24:36.058   07 Jun 2027 15:26:17.645           101.587               Magadan2          3174.594
       441   07 Jun 2027 15:26:48.844   07 Jun 2027 15:27:27.068            38.224               Magadan2          1194.500
       442   07 Jun 2027 16:53:26.807   07 Jun 2027 16:55:35.887           129.080               Magadan2          4033.750
       443   07 Jun 2027 17:02:26.790   07 Jun 2027 17:02:38.757            11.967               Magadan1           373.969
       444   07 Jun 2027 17:45:50.061   07 Jun 2027 17:48:56.121           186.060            RioGallegos          5814.375
       445   07 Jun 2027 17:48:56.363   07 Jun 2027 17:52:01.811           185.448            RioGallegos          5795.250
       446   07 Jun 2027 18:29:02.255   07 Jun 2027 18:32:48.551           226.296                Norilsk          7071.750
       447   07 Jun 2027 18:33:18.668   07 Jun 2027 18:34:28.212            69.544                Irkutsk          2173.250
       448   07 Jun 2027 18:35:29.773   07 Jun 2027 18:36:53.739            83.966                Irkutsk          2623.938
       449   07 Jun 2027 18:36:56.756   07 Jun 2027 18:38:53.985           117.229                Novosib          3663.406
       450   07 Jun 2027 18:48:45.843   07 Jun 2027 18:51:05.715           139.872                Sumatra          4371.000
       451   07 Jun 2027 20:09:02.267   07 Jun 2027 20:09:25.814            23.547                Novosib           735.844
       452   07 Jun 2027 20:15:48.824   07 Jun 2027 20:16:17.635            28.811                Novosib           900.344
       453   07 Jun 2027 20:17:02.891   07 Jun 2027 20:20:34.807           211.916                  Delhi          6622.375
       454   07 Jun 2027 20:21:03.412   07 Jun 2027 20:23:42.848           159.436                  Delhi          4982.375
       455   07 Jun 2027 21:43:23.672   07 Jun 2027 21:47:37.493           253.821              Murmansk2          7931.906
       456   07 Jun 2027 21:47:37.493   07 Jun 2027 21:48:59.227            81.734              Murmansk1          2554.188
       457   07 Jun 2027 21:49:35.244   07 Jun 2027 21:51:37.260           122.016              Murmansk2          3813.000
       458   07 Jun 2027 21:53:18.419   07 Jun 2027 21:53:51.720            33.301                 Moscow          1040.656
       459   07 Jun 2027 23:20:08.630   07 Jun 2027 23:21:07.224            58.594              Murmansk1          1831.062
       460   07 Jun 2027 23:22:29.934   07 Jun 2027 23:23:17.724            47.790                 Moscow          1493.437
       461   07 Jun 2027 23:26:21.709   07 Jun 2027 23:26:40.582            18.873                 Moscow           589.781
       462   07 Jun 2027 23:29:55.434   07 Jun 2027 23:30:49.387            53.953                 Moscow          1686.031
       463   07 Jun 2027 23:47:02.885   07 Jun 2027 23:48:42.132            99.247               CapeTown          3101.469
       464   07 Jun 2027 23:48:59.266   07 Jun 2027 23:50:39.923           100.657               CapeTown          3145.531
       465   08 Jun 2027 00:55:02.581   08 Jun 2027 00:56:07.751            65.170              Murmansk2          2036.563
       466   08 Jun 2027 00:56:21.453   08 Jun 2027 00:57:33.213            71.760              Murmansk1          2242.500
       467   08 Jun 2027 00:58:27.912   08 Jun 2027 00:59:14.264            46.352                 Moscow          1448.500
       468   08 Jun 2027 01:22:39.365   08 Jun 2027 01:23:22.474            43.109               CapeTown          1347.156
       469   08 Jun 2027 01:24:54.082   08 Jun 2027 01:26:24.766            90.684               CapeTown          2833.875
       470   08 Jun 2027 02:19:04.403   08 Jun 2027 02:21:14.040           129.637               Magadan2          4051.156
       471   08 Jun 2027 02:24:03.034   08 Jun 2027 02:24:16.320            13.286               Magadan1           415.187
       472   08 Jun 2027 02:24:16.320   08 Jun 2027 02:24:26.122             9.802               Magadan2           306.312
       473   08 Jun 2027 02:26:55.509   08 Jun 2027 02:26:58.470             2.961                Norilsk            92.531
       474   08 Jun 2027 02:27:22.742   08 Jun 2027 02:27:45.654            22.912                Norilsk           716.000
       475   08 Jun 2027 02:29:35.592   08 Jun 2027 02:30:26.938            51.346                Norilsk          1604.562
       476   08 Jun 2027 02:30:55.533   08 Jun 2027 02:31:19.547            24.014              Murmansk1           750.438
       477   08 Jun 2027 02:31:19.547   08 Jun 2027 02:31:57.880            38.333              Murmansk2          1197.906
       478   08 Jun 2027 02:34:37.795   08 Jun 2027 02:36:07.657            89.862                 Moscow          2808.188
       479   08 Jun 2027 03:13:36.436   08 Jun 2027 03:16:07.652           151.216            RioGallegos          4725.500
       480   08 Jun 2027 04:01:22.793   08 Jun 2027 04:04:04.672           161.879               Magadan2          5058.719
       481   08 Jun 2027 04:04:22.319   08 Jun 2027 04:06:18.770           116.451               Magadan1          3639.094
       482   08 Jun 2027 04:06:27.640   08 Jun 2027 04:06:45.327            17.687                Anadyr2           552.719
