uniorb/output/strategy_4/Drop/Drop_KinoSat_111310.txt

KinoSat_111310
-------------------------
    Access    *     Start Time (UTCG)     *     Stop Time (UTCG)  *   Duration (s)        *       Station  *  Data (Mbytes)
         1   01 Jun 2027 04:18:46.545   01 Jun 2027 04:19:21.934            35.389              Murmansk1          1105.906
         2   01 Jun 2027 04:19:40.921   01 Jun 2027 04:20:15.365            34.444              Murmansk2          1076.375
         3   01 Jun 2027 04:20:15.365   01 Jun 2027 04:22:07.361           111.996              Murmansk1          3499.875
         4   01 Jun 2027 04:23:56.834   01 Jun 2027 04:24:38.411            41.577                 Moscow          1299.281
         5   01 Jun 2027 05:42:08.944   01 Jun 2027 05:45:30.936           201.992                Norilsk          6312.250
         6   01 Jun 2027 05:45:40.273   01 Jun 2027 05:46:02.863            22.590              Murmansk2           705.937
         7   01 Jun 2027 05:46:29.027   01 Jun 2027 05:46:39.872            10.845                Norilsk           338.906
         8   01 Jun 2027 05:47:03.203   01 Jun 2027 05:47:19.520            16.317                Norilsk           509.906
         9   01 Jun 2027 05:47:48.434   01 Jun 2027 05:48:24.567            36.133                Norilsk          1129.156
        10   01 Jun 2027 05:48:52.112   01 Jun 2027 05:49:13.451            21.339                Norilsk           666.844
        11   01 Jun 2027 05:49:18.758   01 Jun 2027 05:49:30.982            12.224                Norilsk           382.000
        12   01 Jun 2027 05:49:58.312   01 Jun 2027 05:50:22.707            24.395                Norilsk           762.344
        13   01 Jun 2027 05:51:06.835   01 Jun 2027 05:51:26.787            19.952                Norilsk           623.500
        14   01 Jun 2027 05:54:39.370   01 Jun 2027 05:55:31.632            52.262              Murmansk1          1633.188
        15   01 Jun 2027 07:17:54.797   01 Jun 2027 07:17:58.497             3.700                Norilsk           115.625
        16   01 Jun 2027 07:18:02.507   01 Jun 2027 07:20:09.308           126.801               Magadan2          3962.531
        17   01 Jun 2027 07:20:09.308   01 Jun 2027 07:20:28.016            18.708               Magadan1           584.625
        18   01 Jun 2027 07:20:45.691   01 Jun 2027 07:22:04.552            78.861                Anadyr2          2464.406
        19   01 Jun 2027 08:52:12.515   01 Jun 2027 08:52:41.700            29.185                Irkutsk           912.031
        20   01 Jun 2027 08:53:14.323   01 Jun 2027 08:54:28.016            73.693                Novosib          2302.906
        21   01 Jun 2027 08:54:34.924   01 Jun 2027 08:55:07.974            33.050               Magadan2          1032.813
        22   01 Jun 2027 08:55:57.553   01 Jun 2027 08:56:10.248            12.695                Irkutsk           396.719
        23   01 Jun 2027 08:56:20.886   01 Jun 2027 08:57:24.745            63.859               Magadan2          1995.594
        24   01 Jun 2027 08:58:47.899   01 Jun 2027 08:59:56.064            68.165              Murmansk1          2130.156
        25   01 Jun 2027 09:32:31.035   01 Jun 2027 09:36:26.817           235.782            RioGallegos          7368.187
        26   01 Jun 2027 10:07:54.531   01 Jun 2027 10:09:59.288           124.757                Sumatra          3898.656
        27   01 Jun 2027 10:29:02.162   01 Jun 2027 10:29:34.868            32.706                Novosib          1022.062
        28   01 Jun 2027 10:29:39.266   01 Jun 2027 10:30:05.679            26.413                Irkutsk           825.406
        29   01 Jun 2027 10:30:07.356   01 Jun 2027 10:31:28.927            81.571                Novosib          2549.094
        30   01 Jun 2027 10:31:35.636   01 Jun 2027 10:32:24.462            48.826                Novosib          1525.813
        31   01 Jun 2027 10:32:37.929   01 Jun 2027 10:34:50.197           132.268                Novosib          4133.375
        32   01 Jun 2027 11:10:24.051   01 Jun 2027 11:10:58.652            34.601            RioGallegos          1081.281
        33   01 Jun 2027 11:12:04.475   01 Jun 2027 11:12:34.801            30.326            RioGallegos           947.687
        34   01 Jun 2027 11:14:08.260   01 Jun 2027 11:15:00.963            52.703            RioGallegos          1646.969
        35   01 Jun 2027 11:44:36.952   01 Jun 2027 11:45:29.295            52.343                Sumatra          1635.719
        36   01 Jun 2027 11:47:57.205   01 Jun 2027 11:49:17.009            79.804                Sumatra          2493.875
        37   01 Jun 2027 11:54:47.803   01 Jun 2027 11:54:58.514            10.711                  Delhi           334.719
        38   01 Jun 2027 12:04:19.858   01 Jun 2027 12:04:56.481            36.623                Irkutsk          1144.469
        39   01 Jun 2027 13:35:32.939   01 Jun 2027 13:36:03.227            30.288                  Delhi           946.500
        40   01 Jun 2027 13:37:53.302   01 Jun 2027 13:38:13.535            20.233                  Delhi           632.281
        41   01 Jun 2027 13:39:48.299   01 Jun 2027 13:40:27.942            39.643                Novosib          1238.844
        42   01 Jun 2027 13:41:46.108   01 Jun 2027 13:44:24.998           158.890                Novosib          4965.313
        43   01 Jun 2027 14:55:28.215   01 Jun 2027 14:56:12.908            44.693               CapeTown          1396.656
        44   01 Jun 2027 14:57:39.909   01 Jun 2027 14:58:02.892            22.983               CapeTown           718.219
        45   01 Jun 2027 15:19:23.005   01 Jun 2027 15:19:55.555            32.550                 Moscow          1017.188
        46   01 Jun 2027 15:20:50.991   01 Jun 2027 15:21:01.665            10.674              Murmansk1           333.563
        47   01 Jun 2027 15:21:06.702   01 Jun 2027 15:21:59.063            52.361                 Moscow          1636.281
        48   01 Jun 2027 15:23:12.101   01 Jun 2027 15:23:40.213            28.112                 Moscow           878.500
        49   01 Jun 2027 15:24:44.219   01 Jun 2027 15:24:57.014            12.795              Murmansk1           399.844
        50   01 Jun 2027 15:25:37.155   01 Jun 2027 15:26:25.406            48.251              Murmansk2          1507.844
        51   01 Jun 2027 15:31:35.368   01 Jun 2027 15:32:13.841            38.473                Anadyr2          1202.281
        52   01 Jun 2027 15:33:01.871   01 Jun 2027 15:33:22.042            20.171                Anadyr2           630.344
        53   01 Jun 2027 15:33:42.038   01 Jun 2027 15:35:27.109           105.071                Anadyr2          3283.469
        54   01 Jun 2027 16:34:25.647   01 Jun 2027 16:34:42.903            17.256               CapeTown           539.250
        55   01 Jun 2027 16:35:44.239   01 Jun 2027 16:37:38.353           114.114               CapeTown          3566.063
        56   01 Jun 2027 16:58:02.657   01 Jun 2027 16:58:41.166            38.509                 Moscow          1203.406
        57   01 Jun 2027 17:00:47.901   01 Jun 2027 17:01:33.714            45.813              Murmansk2          1431.656
        58   01 Jun 2027 17:08:36.929   01 Jun 2027 17:08:49.813            12.884                Anadyr1           402.625
        59   01 Jun 2027 17:09:40.871   01 Jun 2027 17:09:42.927             2.056                Anadyr1            64.250
        60   01 Jun 2027 17:09:53.535   01 Jun 2027 17:10:40.547            47.012                Anadyr1          1469.125
        61   01 Jun 2027 17:12:00.744   01 Jun 2027 17:12:02.774             2.030                Anadyr1            63.437
        62   01 Jun 2027 17:12:12.750   01 Jun 2027 17:12:52.719            39.969               Magadan2          1249.031
        63   01 Jun 2027 17:13:25.803   01 Jun 2027 17:13:31.099             5.296                Anadyr1           165.500
        64   01 Jun 2027 17:14:01.816   01 Jun 2027 17:14:27.083            25.267                Anadyr1           789.594
        65   01 Jun 2027 17:15:43.424   01 Jun 2027 17:16:09.667            26.243                Anadyr1           820.094
        66   01 Jun 2027 18:36:06.988   01 Jun 2027 18:38:45.345           158.357              Murmansk2          4948.656
        67   01 Jun 2027 18:42:00.114   01 Jun 2027 18:42:20.168            20.054                Anadyr1           626.688
        68   01 Jun 2027 18:42:55.411   01 Jun 2027 18:43:37.878            42.467                Anadyr2          1327.094
        69   01 Jun 2027 18:44:05.994   01 Jun 2027 18:44:40.731            34.737                Anadyr2          1085.531
        70   01 Jun 2027 18:45:16.247   01 Jun 2027 18:45:54.869            38.622               Magadan2          1206.937
        71   01 Jun 2027 18:47:12.767   01 Jun 2027 18:47:49.767            37.000               Magadan2          1156.250
        72   01 Jun 2027 18:48:56.858   01 Jun 2027 18:49:29.771            32.913               Magadan2          1028.531
        73   01 Jun 2027 18:51:29.468   01 Jun 2027 18:51:46.416            16.948               Magadan2           529.625
        74   01 Jun 2027 18:52:26.196   01 Jun 2027 18:52:46.322            20.126               Magadan1           628.937
        75   01 Jun 2027 18:53:18.608   01 Jun 2027 18:53:30.634            12.026               Magadan2           375.812
        76   01 Jun 2027 18:53:52.361   01 Jun 2027 18:54:31.067            38.706               Magadan1          1209.562
        77   01 Jun 2027 20:17:55.108   01 Jun 2027 20:21:39.996           224.888                Anadyr2          7027.750
        78   01 Jun 2027 20:21:40.109   01 Jun 2027 20:23:25.219           105.110               Magadan1          3284.687
        79   01 Jun 2027 20:23:36.620   01 Jun 2027 20:23:57.450            20.830                Norilsk           650.937
        80   01 Jun 2027 20:25:15.305   01 Jun 2027 20:25:42.397            27.092               Magadan2           846.625
        81   01 Jun 2027 20:27:09.105   01 Jun 2027 20:27:13.586             4.481               Magadan1           140.031
        82   01 Jun 2027 20:27:54.438   01 Jun 2027 20:28:23.672            29.234               Magadan1           913.563
        83   01 Jun 2027 20:29:54.768   01 Jun 2027 20:30:25.042            30.274               Magadan1           946.063
        84   01 Jun 2027 20:32:37.047   01 Jun 2027 20:33:06.923            29.876               Magadan2           933.625
        85   01 Jun 2027 21:12:26.713   01 Jun 2027 21:13:40.276            73.563            RioGallegos          2298.844
        86   01 Jun 2027 21:15:49.064   01 Jun 2027 21:16:12.759            23.695            RioGallegos           740.469
        87   01 Jun 2027 21:18:34.921   01 Jun 2027 21:18:43.715             8.794            RioGallegos           274.812
        88   01 Jun 2027 21:20:53.878   01 Jun 2027 21:21:34.052            40.174            RioGallegos          1255.438
        89   01 Jun 2027 21:21:44.827   01 Jun 2027 21:21:52.154             7.327            RioGallegos           228.969
        90   01 Jun 2027 21:53:32.883   01 Jun 2027 21:54:18.946            46.063                Anadyr2          1439.469
        91   01 Jun 2027 21:55:45.591   01 Jun 2027 21:55:57.692            12.101                Norilsk           378.156
        92   01 Jun 2027 21:56:14.527   01 Jun 2027 21:58:15.420           120.893               Magadan1          3777.906
        93   01 Jun 2027 21:59:31.869   01 Jun 2027 21:59:58.854            26.985                Norilsk           843.281
        94   01 Jun 2027 22:00:39.279   01 Jun 2027 22:00:51.558            12.279                Norilsk           383.719
        95   01 Jun 2027 22:01:19.675   01 Jun 2027 22:01:37.107            17.432               Magadan2           544.750
        96   01 Jun 2027 22:02:12.839   01 Jun 2027 22:02:39.594            26.755                Novosib           836.094
        97   01 Jun 2027 22:04:36.804   01 Jun 2027 22:04:52.450            15.646                Novosib           488.937
        98   01 Jun 2027 22:05:35.902   01 Jun 2027 22:05:36.826             0.924                Irkutsk            28.875
        99   01 Jun 2027 22:05:43.866   01 Jun 2027 22:06:41.275            57.409                Novosib          1794.031
       100   01 Jun 2027 22:11:10.203   01 Jun 2027 22:11:39.154            28.951                Irkutsk           904.719
       101   01 Jun 2027 22:17:40.103   01 Jun 2027 22:17:58.129            18.026                Sumatra           563.312
       102   01 Jun 2027 22:20:09.491   01 Jun 2027 22:20:23.586            14.095                Sumatra           440.469
       103   01 Jun 2027 22:21:18.474   01 Jun 2027 22:21:36.341            17.867                Sumatra           558.344
       104   01 Jun 2027 22:23:11.795   01 Jun 2027 22:23:57.155            45.360                Sumatra          1417.500
       105   01 Jun 2027 22:57:56.082   01 Jun 2027 22:58:26.301            30.219            RioGallegos           944.344
       106   01 Jun 2027 23:28:19.909   01 Jun 2027 23:29:58.922            99.013                Anadyr2          3094.156
       107   01 Jun 2027 23:31:42.196   01 Jun 2027 23:33:42.740           120.544                Norilsk          3767.000
       108   01 Jun 2027 23:35:09.884   01 Jun 2027 23:35:13.294             3.410               Magadan1           106.562
       109   01 Jun 2027 23:35:29.375   01 Jun 2027 23:35:31.316             1.941                Norilsk            60.656
       110   01 Jun 2027 23:35:34.150   01 Jun 2027 23:36:37.653            63.503                Irkutsk          1984.469
       111   01 Jun 2027 23:38:18.134   01 Jun 2027 23:38:31.291            13.157                Novosib           411.156
       112   01 Jun 2027 23:39:44.654   01 Jun 2027 23:40:10.429            25.775                Novosib           805.469
       113   01 Jun 2027 23:40:26.825   01 Jun 2027 23:40:46.260            19.435                Novosib           607.344
       114   01 Jun 2027 23:43:16.544   01 Jun 2027 23:44:27.983            71.439                Novosib          2232.469
       115   01 Jun 2027 23:48:28.533   01 Jun 2027 23:49:37.773            69.240                  Delhi          2163.750
       116   02 Jun 2027 00:27:04.577   02 Jun 2027 00:27:40.970            36.393            RioGallegos          1137.281
       117   02 Jun 2027 00:31:38.252   02 Jun 2027 00:32:29.554            51.302            RioGallegos          1603.187
       118   02 Jun 2027 01:02:41.415   02 Jun 2027 01:03:13.989            32.574                Anadyr2          1017.937
       119   02 Jun 2027 01:03:54.568   02 Jun 2027 01:04:23.452            28.884                Anadyr1           902.625
       120   02 Jun 2027 01:04:53.011   02 Jun 2027 01:04:53.171             0.160                Anadyr2             5.000
       121   02 Jun 2027 01:06:27.760   02 Jun 2027 01:06:44.263            16.503                Anadyr1           515.719
       122   02 Jun 2027 01:07:08.795   02 Jun 2027 01:07:29.788            20.993                Anadyr2           656.031
       123   02 Jun 2027 01:07:41.832   02 Jun 2027 01:07:58.321            16.489                Norilsk           515.281
       124   02 Jun 2027 01:08:22.171   02 Jun 2027 01:10:20.650           118.479               Magadan2          3702.469
       125   02 Jun 2027 01:11:29.072   02 Jun 2027 01:12:43.171            74.099                Novosib          2315.594
       126   02 Jun 2027 01:12:48.934   02 Jun 2027 01:13:30.670            41.736                Irkutsk          1304.250
       127   02 Jun 2027 01:13:45.380   02 Jun 2027 01:13:45.415             0.035              Murmansk2             1.094
       128   02 Jun 2027 01:14:53.273   02 Jun 2027 01:15:11.384            18.111                Novosib           565.969
       129   02 Jun 2027 01:17:03.332   02 Jun 2027 01:17:12.280             8.948                 Moscow           279.625
       130   02 Jun 2027 01:17:43.897   02 Jun 2027 01:17:53.822             9.925                 Moscow           310.156
       131   02 Jun 2027 01:18:22.238   02 Jun 2027 01:18:41.666            19.428              Murmansk1           607.125
       132   02 Jun 2027 01:19:57.053   02 Jun 2027 01:20:54.421            57.368                  Delhi          1792.750
       133   02 Jun 2027 01:27:42.768   02 Jun 2027 01:28:49.170            66.402                  Delhi          2075.062
       134   02 Jun 2027 02:35:18.012   02 Jun 2027 02:37:31.074           133.062                Anadyr1          4158.188
       135   02 Jun 2027 02:38:22.314   02 Jun 2027 02:38:29.670             7.356                Anadyr1           229.875
       136   02 Jun 2027 02:40:29.705   02 Jun 2027 02:41:50.004            80.299               Magadan2          2509.344
       137   02 Jun 2027 02:43:30.268   02 Jun 2027 02:43:33.505             3.237                Norilsk           101.156
       138   02 Jun 2027 02:44:24.187   02 Jun 2027 02:45:01.384            37.197                Norilsk          1162.406
       139   02 Jun 2027 02:45:49.369   02 Jun 2027 02:46:54.609            65.240              Murmansk2          2038.750
       140   02 Jun 2027 02:47:24.701   02 Jun 2027 02:47:36.255            11.554              Murmansk2           361.062
       141   02 Jun 2027 02:48:17.454   02 Jun 2027 02:48:39.843            22.389                Novosib           699.656
       142   02 Jun 2027 02:49:12.518   02 Jun 2027 02:49:39.535            27.017                 Moscow           844.281
       143   02 Jun 2027 02:51:04.755   02 Jun 2027 02:51:50.970            46.215                Novosib          1444.219
       144   02 Jun 2027 03:14:12.928   02 Jun 2027 03:14:49.012            36.084               CapeTown          1127.625
       145   02 Jun 2027 04:17:19.052   02 Jun 2027 04:17:47.212            28.160               Magadan2           880.000
       146   02 Jun 2027 04:30:04.830   02 Jun 2027 04:30:23.228            18.398              Murmansk1           574.938
       147   02 Jun 2027 04:30:43.600   02 Jun 2027 04:31:51.495            67.895                 Moscow          2121.719
       148   02 Jun 2027 04:32:29.389   02 Jun 2027 04:33:30.093            60.704              Murmansk1          1897.000
       149   02 Jun 2027 04:33:56.877   02 Jun 2027 04:34:04.934             8.057              Murmansk1           251.781
       150   02 Jun 2027 04:49:35.025   02 Jun 2027 04:50:58.197            83.172               CapeTown          2599.125
       151   02 Jun 2027 04:56:25.032   02 Jun 2027 04:56:37.160            12.128               CapeTown           379.000
       152   02 Jun 2027 05:51:41.232   02 Jun 2027 05:53:32.788           111.556                Anadyr1          3486.125
       153   02 Jun 2027 05:53:46.084   02 Jun 2027 05:56:16.010           149.926               Magadan2          4685.188
       154   02 Jun 2027 05:56:25.371   02 Jun 2027 05:57:22.679            57.308                Anadyr2          1790.875
       155   02 Jun 2027 07:30:48.365   02 Jun 2027 07:31:45.806            57.441                Anadyr2          1795.031
       156   02 Jun 2027 07:31:55.145   02 Jun 2027 07:34:07.015           131.870               Magadan1          4120.937
       157   02 Jun 2027 09:05:17.502   02 Jun 2027 09:05:52.904            35.402               Magadan1          1106.313
       158   02 Jun 2027 09:05:52.904   02 Jun 2027 09:06:14.203            21.299               Magadan2           665.594
       159   02 Jun 2027 09:06:37.085   02 Jun 2027 09:09:13.653           156.568               Magadan2          4892.750
       160   02 Jun 2027 10:19:40.368   02 Jun 2027 10:20:26.200            45.832                Sumatra          1432.250
       161   02 Jun 2027 10:22:26.023   02 Jun 2027 10:22:28.230             2.207                Sumatra            68.969
       162   02 Jun 2027 10:39:49.224   02 Jun 2027 10:40:18.601            29.377                Irkutsk           918.031
       163   02 Jun 2027 10:40:56.923   02 Jun 2027 10:41:20.048            23.125                Novosib           722.656
       164   02 Jun 2027 10:41:36.497   02 Jun 2027 10:41:37.155             0.658                Novosib            20.563
       165   02 Jun 2027 10:41:43.549   02 Jun 2027 10:41:44.534             0.985                Norilsk            30.781
       166   02 Jun 2027 10:41:51.113   02 Jun 2027 10:42:06.320            15.207                Irkutsk           475.219
       167   02 Jun 2027 10:42:11.773   02 Jun 2027 10:42:41.971            30.198                Novosib           943.688
       168   02 Jun 2027 10:42:58.333   02 Jun 2027 10:43:17.556            19.223                Irkutsk           600.719
       169   02 Jun 2027 10:43:33.301   02 Jun 2027 10:43:40.534             7.233                Novosib           226.031
       170   02 Jun 2027 10:44:01.971   02 Jun 2027 10:44:11.290             9.319                Irkutsk           291.219
       171   02 Jun 2027 10:44:16.981   02 Jun 2027 10:44:17.284             0.303                Novosib             9.469
       172   02 Jun 2027 10:44:34.797   02 Jun 2027 10:45:03.030            28.233                Norilsk           882.281
       173   02 Jun 2027 10:45:25.169   02 Jun 2027 10:45:27.569             2.400                Norilsk            75.000
       174   02 Jun 2027 10:45:53.320   02 Jun 2027 10:45:58.410             5.090                Norilsk           159.063
       175   02 Jun 2027 10:47:07.112   02 Jun 2027 10:47:13.908             6.796              Murmansk2           212.375
       176   02 Jun 2027 11:23:03.736   02 Jun 2027 11:23:32.277            28.541            RioGallegos           891.906
       177   02 Jun 2027 11:24:07.855   02 Jun 2027 11:24:40.433            32.578            RioGallegos          1018.062
       178   02 Jun 2027 11:57:23.846   02 Jun 2027 11:58:00.284            36.438                Sumatra          1138.688
       179   02 Jun 2027 12:00:25.334   02 Jun 2027 12:02:10.005           104.671                Sumatra          3270.969
       180   02 Jun 2027 12:11:35.206   02 Jun 2027 12:12:05.764            30.558                Novosib           954.937
       181   02 Jun 2027 12:15:29.713   02 Jun 2027 12:15:30.527             0.814                Novosib            25.437
       182   02 Jun 2027 12:16:18.111   02 Jun 2027 12:17:14.868            56.757                Norilsk          1773.656
       183   02 Jun 2027 13:43:10.790   02 Jun 2027 13:46:58.153           227.363                  Delhi          7105.094
       184   02 Jun 2027 13:51:29.640   02 Jun 2027 13:52:53.749            84.109              Murmansk2          2628.406
       185   02 Jun 2027 13:53:09.663   02 Jun 2027 13:53:27.865            18.202              Murmansk2           568.812
       186   02 Jun 2027 13:53:44.558   02 Jun 2027 13:54:25.791            41.233                Novosib          1288.531
       187   02 Jun 2027 13:56:44.621   02 Jun 2027 13:57:21.959            37.338                Norilsk          1166.813
       188   02 Jun 2027 14:00:33.277   02 Jun 2027 14:01:08.600            35.323                Norilsk          1103.844
       189   02 Jun 2027 15:03:53.298   02 Jun 2027 15:06:18.070           144.772               CapeTown          4524.125
       190   02 Jun 2027 15:09:28.699   02 Jun 2027 15:10:39.543            70.844               CapeTown          2213.875
       191   02 Jun 2027 15:28:05.486   02 Jun 2027 15:28:51.163            45.677              Murmansk1          1427.406
       192   02 Jun 2027 15:32:52.954   02 Jun 2027 15:33:39.091            46.137              Murmansk1          1441.781
       193   02 Jun 2027 15:42:52.086   02 Jun 2027 15:44:12.774            80.688                Anadyr2          2521.500
       194   02 Jun 2027 15:44:48.087   02 Jun 2027 15:45:22.378            34.291                Anadyr2          1071.594
       195   02 Jun 2027 15:45:22.378   02 Jun 2027 15:45:39.633            17.255                Anadyr1           539.219
       196   02 Jun 2027 15:45:53.125   02 Jun 2027 15:46:01.421             8.296                Anadyr1           259.250
       197   02 Jun 2027 15:48:26.411   02 Jun 2027 15:48:55.806            29.395                Anadyr2           918.594
       198   02 Jun 2027 16:43:49.026   02 Jun 2027 16:44:17.579            28.553               CapeTown           892.281
       199   02 Jun 2027 16:49:50.969   02 Jun 2027 16:50:17.509            26.540               CapeTown           829.375
       200   02 Jun 2027 17:06:28.741   02 Jun 2027 17:07:13.135            44.394                 Moscow          1387.313
       201   02 Jun 2027 17:07:45.161   02 Jun 2027 17:08:13.894            28.733              Murmansk2           897.906
       202   02 Jun 2027 17:08:50.919   02 Jun 2027 17:09:34.856            43.937              Murmansk1          1373.031
       203   02 Jun 2027 17:10:55.787   02 Jun 2027 17:11:55.937            60.150              Murmansk2          1879.688
       204   02 Jun 2027 17:18:09.027   02 Jun 2027 17:19:17.781            68.754                Anadyr2          2148.562
       205   02 Jun 2027 17:19:33.275   02 Jun 2027 17:19:45.758            12.483                Anadyr2           390.094
       206   02 Jun 2027 17:21:08.548   02 Jun 2027 17:21:38.129            29.581                Anadyr1           924.406
       207   02 Jun 2027 17:22:32.979   02 Jun 2027 17:23:48.015            75.036               Magadan2          2344.875
       208   02 Jun 2027 18:22:01.543   02 Jun 2027 18:22:40.303            38.760               CapeTown          1211.250
       209   02 Jun 2027 18:54:01.691   02 Jun 2027 18:57:49.322           227.631                Anadyr1          7113.469
       210   02 Jun 2027 18:58:26.666   02 Jun 2027 19:00:13.559           106.893               Magadan2          3340.406
       211   02 Jun 2027 19:01:33.824   02 Jun 2027 19:02:27.727            53.903               Magadan2          1684.469
       212   02 Jun 2027 20:29:55.782   02 Jun 2027 20:33:33.403           217.621                Anadyr1          6800.656
       213   02 Jun 2027 20:33:38.119   02 Jun 2027 20:33:39.806             1.687                Anadyr1            52.719
       214   02 Jun 2027 20:33:42.025   02 Jun 2027 20:33:49.196             7.171                Norilsk           224.094
       215   02 Jun 2027 20:33:49.450   02 Jun 2027 20:35:32.494           103.044               Magadan1          3220.125
       216   02 Jun 2027 20:35:32.494   02 Jun 2027 20:35:43.272            10.778               Magadan2           336.812
       217   02 Jun 2027 20:36:27.013   02 Jun 2027 20:37:05.184            38.171               Magadan2          1192.844
       218   02 Jun 2027 20:39:29.782   02 Jun 2027 20:40:19.736            49.954                Irkutsk          1561.062
       219   02 Jun 2027 20:41:02.329   02 Jun 2027 20:41:35.178            32.849                Irkutsk          1026.531
       220   02 Jun 2027 21:24:15.767   02 Jun 2027 21:25:25.524            69.757            RioGallegos          2179.906
       221   02 Jun 2027 21:25:40.535   02 Jun 2027 21:26:10.623            30.088            RioGallegos           940.250
       222   02 Jun 2027 21:26:57.980   02 Jun 2027 21:27:36.010            38.030            RioGallegos          1188.437
       223   02 Jun 2027 21:30:20.805   02 Jun 2027 21:30:26.473             5.668            RioGallegos           177.125
       224   02 Jun 2027 21:33:02.610   02 Jun 2027 21:33:25.905            23.295            RioGallegos           727.969
       225   02 Jun 2027 22:07:39.379   02 Jun 2027 22:07:50.610            11.231                Anadyr2           350.969
       226   02 Jun 2027 22:08:05.009   02 Jun 2027 22:08:48.294            43.285                Anadyr2          1352.656
       227   02 Jun 2027 22:08:50.016   02 Jun 2027 22:10:22.144            92.128               Magadan2          2879.000
       228   02 Jun 2027 22:10:26.778   02 Jun 2027 22:10:41.401            14.623               Magadan1           456.969
       229   02 Jun 2027 22:11:11.879   02 Jun 2027 22:11:31.638            19.759                Norilsk           617.469
       230   02 Jun 2027 22:11:53.371   02 Jun 2027 22:12:46.342            52.971                Irkutsk          1655.344
       231   02 Jun 2027 22:13:28.179   02 Jun 2027 22:15:19.469           111.290                Novosib          3477.812
       232   02 Jun 2027 22:25:35.641   02 Jun 2027 22:26:19.979            44.338                Sumatra          1385.563
       233   02 Jun 2027 22:33:13.611   02 Jun 2027 22:34:00.984            47.373                Sumatra          1480.406
       234   02 Jun 2027 23:40:07.268   02 Jun 2027 23:40:58.917            51.649                Anadyr2          1614.031
       235   02 Jun 2027 23:40:58.917   02 Jun 2027 23:41:58.008            59.091                Anadyr1          1846.594
       236   02 Jun 2027 23:42:51.253   02 Jun 2027 23:43:01.036             9.783                Anadyr2           305.719
       237   02 Jun 2027 23:43:44.334   02 Jun 2027 23:44:05.450            21.116                Norilsk           659.875
       238   02 Jun 2027 23:44:22.959   02 Jun 2027 23:46:29.690           126.731               Magadan2          3960.344
       239   02 Jun 2027 23:47:37.308   02 Jun 2027 23:48:29.071            51.763                Irkutsk          1617.594
       240   02 Jun 2027 23:48:54.154   02 Jun 2027 23:49:16.980            22.826                Novosib           713.313
       241   02 Jun 2027 23:49:49.784   02 Jun 2027 23:50:15.751            25.967                Novosib           811.469
       242   02 Jun 2027 23:53:21.354   02 Jun 2027 23:54:32.244            70.890                Novosib          2215.313
       243   02 Jun 2027 23:55:20.512   02 Jun 2027 23:55:34.200            13.688                  Delhi           427.750
       244   02 Jun 2027 23:56:08.172   02 Jun 2027 23:56:31.754            23.582                  Delhi           736.937
       245   03 Jun 2027 00:07:07.836   03 Jun 2027 00:07:18.312            10.476                  Delhi           327.375
       246   03 Jun 2027 00:37:51.105   03 Jun 2027 00:38:01.907            10.802            RioGallegos           337.563
       247   03 Jun 2027 00:39:12.663   03 Jun 2027 00:39:46.248            33.585            RioGallegos          1049.531
       248   03 Jun 2027 00:44:44.091   03 Jun 2027 00:45:04.992            20.901            RioGallegos           653.156
       249   03 Jun 2027 01:13:35.919   03 Jun 2027 01:14:28.408            52.489                Anadyr2          1640.281
       250   03 Jun 2027 01:15:13.305   03 Jun 2027 01:15:45.295            31.990                Anadyr1           999.688
       251   03 Jun 2027 01:16:22.919   03 Jun 2027 01:16:44.209            21.290                Anadyr1           665.312
       252   03 Jun 2027 01:19:15.150   03 Jun 2027 01:19:20.692             5.542                Anadyr2           173.187
       253   03 Jun 2027 01:19:43.274   03 Jun 2027 01:20:00.632            17.358                Norilsk           542.438
       254   03 Jun 2027 01:20:21.766   03 Jun 2027 01:21:10.722            48.956               Magadan2          1529.875
       255   03 Jun 2027 01:21:18.348   03 Jun 2027 01:21:33.166            14.818                Norilsk           463.062
       256   03 Jun 2027 01:21:37.636   03 Jun 2027 01:22:26.749            49.113               Magadan2          1534.781
       257   03 Jun 2027 01:23:31.819   03 Jun 2027 01:24:35.084            63.265              Murmansk1          1977.031
       258   03 Jun 2027 01:24:54.607   03 Jun 2027 01:25:50.865            56.258                Novosib          1758.062
       259   03 Jun 2027 01:26:36.395   03 Jun 2027 01:27:06.633            30.238                 Moscow           944.937
       260   03 Jun 2027 01:28:53.336   03 Jun 2027 01:29:08.343            15.007                 Moscow           468.969
       261   03 Jun 2027 01:31:18.089   03 Jun 2027 01:31:35.400            17.311                  Delhi           540.969
       262   03 Jun 2027 01:32:12.724   03 Jun 2027 01:32:25.546            12.822                  Delhi           400.688
       263   03 Jun 2027 01:35:40.332   03 Jun 2027 01:36:00.093            19.761                  Delhi           617.531
       264   03 Jun 2027 01:37:37.666   03 Jun 2027 01:39:16.522            98.856                  Delhi          3089.250
       265   03 Jun 2027 02:47:03.751   03 Jun 2027 02:49:09.873           126.122                Anadyr2          3941.312
       266   03 Jun 2027 02:50:14.650   03 Jun 2027 02:50:40.696            26.046                Anadyr1           813.937
       267   03 Jun 2027 02:51:57.435   03 Jun 2027 02:52:18.577            21.142               Magadan1           660.687
       268   03 Jun 2027 02:52:31.834   03 Jun 2027 02:53:22.016            50.182               Magadan1          1568.187
       269   03 Jun 2027 02:57:50.999   03 Jun 2027 02:58:18.682            27.683              Murmansk2           865.094
       270   03 Jun 2027 02:59:03.732   03 Jun 2027 02:59:50.322            46.590              Murmansk2          1455.937
       271   03 Jun 2027 03:03:40.814   03 Jun 2027 03:03:49.916             9.102              Murmansk1           284.438
       272   03 Jun 2027 03:04:03.788   03 Jun 2027 03:05:12.404            68.616                Novosib          2144.250
       273   03 Jun 2027 03:05:26.980   03 Jun 2027 03:05:30.844             3.864              Murmansk1           120.750
       274   03 Jun 2027 03:05:31.780   03 Jun 2027 03:06:23.990            52.210                Novosib          1631.563
       275   03 Jun 2027 03:06:25.097   03 Jun 2027 03:07:53.831            88.734              Murmansk1          2772.937
       276   03 Jun 2027 03:08:08.461   03 Jun 2027 03:08:43.298            34.837                 Moscow          1088.656
       277   03 Jun 2027 03:08:50.256   03 Jun 2027 03:08:59.746             9.490                Novosib           296.563
       278   03 Jun 2027 03:09:07.650   03 Jun 2027 03:10:44.032            96.382                 Moscow          3011.938
       279   03 Jun 2027 03:25:21.030   03 Jun 2027 03:27:30.641           129.611               CapeTown          4050.344
       280   03 Jun 2027 04:21:44.345   03 Jun 2027 04:23:52.644           128.299                Anadyr1          4009.344
       281   03 Jun 2027 04:23:52.644   03 Jun 2027 04:23:59.170             6.526                Anadyr2           203.937
       282   03 Jun 2027 04:29:15.529   03 Jun 2027 04:29:30.921            15.392                Anadyr1           481.000
       283   03 Jun 2027 04:29:33.675   03 Jun 2027 04:30:39.992            66.317               Magadan2          2072.406
       284   03 Jun 2027 04:30:39.992   03 Jun 2027 04:31:03.761            23.769               Magadan1           742.781
       285   03 Jun 2027 06:04:12.004   03 Jun 2027 06:05:09.150            57.146                Anadyr2          1785.812
       286   03 Jun 2027 06:05:35.281   03 Jun 2027 06:09:29.911           234.630                Anadyr1          7332.187
       287   03 Jun 2027 07:37:41.365   03 Jun 2027 07:37:53.510            12.145               Magadan2           379.531
       288   03 Jun 2027 07:38:05.205   03 Jun 2027 07:38:13.886             8.681               Magadan2           271.281
       289   03 Jun 2027 07:38:29.325   03 Jun 2027 07:38:50.485            21.160                Anadyr2           661.250
       290   03 Jun 2027 07:38:50.485   03 Jun 2027 07:39:05.953            15.468                Anadyr1           483.375
       291   03 Jun 2027 07:39:39.067   03 Jun 2027 07:41:03.523            84.456                Anadyr2          2639.250
       292   03 Jun 2027 07:41:09.423   03 Jun 2027 07:41:14.419             4.996               Magadan2           156.125
       293   03 Jun 2027 07:41:37.737   03 Jun 2027 07:42:24.505            46.768                Anadyr1          1461.500
       294   03 Jun 2027 07:42:33.970   03 Jun 2027 07:42:56.328            22.358                Anadyr1           698.687
       295   03 Jun 2027 07:43:01.616   03 Jun 2027 07:43:56.821            55.205                Anadyr1          1725.156
       296   03 Jun 2027 07:44:27.113   03 Jun 2027 07:44:32.527             5.414               Magadan2           169.188
       297   03 Jun 2027 07:44:45.658   03 Jun 2027 07:45:21.125            35.467                Anadyr1          1108.344
       298   03 Jun 2027 08:21:39.482   03 Jun 2027 08:21:52.263            12.781            RioGallegos           399.406
       299   03 Jun 2027 08:23:16.689   03 Jun 2027 08:23:40.188            23.499            RioGallegos           734.344
       300   03 Jun 2027 08:25:52.696   03 Jun 2027 08:26:02.377             9.681            RioGallegos           302.531
       301   03 Jun 2027 09:14:42.546   03 Jun 2027 09:15:19.255            36.709               Magadan1          1147.156
       302   03 Jun 2027 09:17:46.222   03 Jun 2027 09:17:53.331             7.109               Magadan1           222.156
       303   03 Jun 2027 09:18:03.377   03 Jun 2027 09:18:56.460            53.083                Irkutsk          1658.844
       304   03 Jun 2027 09:19:20.613   03 Jun 2027 09:19:43.186            22.573                Irkutsk           705.406
       305   03 Jun 2027 09:20:00.290   03 Jun 2027 09:20:50.790            50.500                Irkutsk          1578.125
       306   03 Jun 2027 09:20:56.887   03 Jun 2027 09:21:11.110            14.223                Irkutsk           444.469
       307   03 Jun 2027 09:21:25.641   03 Jun 2027 09:22:20.503            54.862                Novosib          1714.438
       308   03 Jun 2027 09:56:39.473   03 Jun 2027 09:56:50.830            11.357            RioGallegos           354.906
       309   03 Jun 2027 09:58:04.653   03 Jun 2027 09:58:46.723            42.070            RioGallegos          1314.688
       310   03 Jun 2027 10:31:32.388   03 Jun 2027 10:32:12.134            39.746                Sumatra          1242.063
       311   03 Jun 2027 10:44:53.739   03 Jun 2027 10:45:43.524            49.785                  Delhi          1555.781
       312   03 Jun 2027 10:53:00.447   03 Jun 2027 10:54:00.194            59.747                Irkutsk          1867.094
       313   03 Jun 2027 10:54:06.000   03 Jun 2027 10:55:05.340            59.340                Irkutsk          1854.375
       314   03 Jun 2027 10:55:14.982   03 Jun 2027 10:55:45.030            30.048                Irkutsk           939.000
       315   03 Jun 2027 10:55:55.847   03 Jun 2027 10:56:12.233            16.386                Novosib           512.062
       316   03 Jun 2027 10:56:14.433   03 Jun 2027 10:56:42.822            28.389                Irkutsk           887.156
       317   03 Jun 2027 10:57:05.070   03 Jun 2027 10:57:28.047            22.977                Norilsk           718.031
       318   03 Jun 2027 10:57:31.415   03 Jun 2027 10:58:42.897            71.482                Novosib          2233.813
       319   03 Jun 2027 11:37:49.534   03 Jun 2027 11:38:44.001            54.467            RioGallegos          1702.094
       320   03 Jun 2027 12:10:38.647   03 Jun 2027 12:11:37.712            59.065                Sumatra          1845.781
       321   03 Jun 2027 12:23:15.123   03 Jun 2027 12:24:08.106            52.983                Novosib          1655.719
       322   03 Jun 2027 12:25:35.734   03 Jun 2027 12:26:03.588            27.854                Novosib           870.437
       323   03 Jun 2027 12:27:19.192   03 Jun 2027 12:27:34.307            15.115                Norilsk           472.344
       324   03 Jun 2027 12:28:44.800   03 Jun 2027 12:30:08.619            83.819                Irkutsk          2619.344
       325   03 Jun 2027 14:00:08.516   03 Jun 2027 14:01:21.362            72.846                 Moscow          2276.437
       326   03 Jun 2027 14:02:39.061   03 Jun 2027 14:03:52.461            73.400                 Moscow          2293.750
       327   03 Jun 2027 14:04:05.535   03 Jun 2027 14:05:49.370           103.835              Murmansk2          3244.844
       328   03 Jun 2027 14:06:02.709   03 Jun 2027 14:06:04.345             1.636              Murmansk1            51.125
       329   03 Jun 2027 14:06:05.115   03 Jun 2027 14:07:45.723           100.608                Novosib          3144.000
       330   03 Jun 2027 14:10:20.364   03 Jun 2027 14:10:59.913            39.549                Norilsk          1235.906
       331   03 Jun 2027 14:11:17.886   03 Jun 2027 14:11:53.829            35.943                Norilsk          1123.219
       332   03 Jun 2027 15:15:11.896   03 Jun 2027 15:15:32.281            20.385               CapeTown           637.031
       333   03 Jun 2027 15:16:18.200   03 Jun 2027 15:17:35.209            77.009               CapeTown          2406.531
       334   03 Jun 2027 15:18:44.983   03 Jun 2027 15:19:05.496            20.513               CapeTown           641.031
       335   03 Jun 2027 15:21:21.273   03 Jun 2027 15:22:17.637            56.364               CapeTown          1761.375
       336   03 Jun 2027 15:40:20.015   03 Jun 2027 15:40:52.039            32.024              Murmansk1          1000.750
       337   03 Jun 2027 15:41:09.388   03 Jun 2027 15:42:06.327            56.939              Murmansk1          1779.344
       338   03 Jun 2027 15:54:43.362   03 Jun 2027 15:56:12.281            88.919                Anadyr1          2778.719
       339   03 Jun 2027 15:56:46.229   03 Jun 2027 15:56:51.612             5.383                Anadyr2           168.219
       340   03 Jun 2027 15:57:21.661   03 Jun 2027 15:57:48.260            26.599                Anadyr2           831.219
       341   03 Jun 2027 15:58:00.310   03 Jun 2027 15:58:15.270            14.960                Anadyr2           467.500
       342   03 Jun 2027 16:49:31.346   03 Jun 2027 16:51:51.249           139.903               CapeTown          4371.969
       343   03 Jun 2027 17:19:19.337   03 Jun 2027 17:20:28.951            69.614              Murmansk2          2175.438
       344   03 Jun 2027 17:21:42.398   03 Jun 2027 17:22:16.353            33.955              Murmansk2          1061.094
       345   03 Jun 2027 17:24:33.698   03 Jun 2027 17:24:37.964             4.266              Murmansk2           133.312
       346   03 Jun 2027 17:25:42.310   03 Jun 2027 17:26:43.718            61.408              Murmansk1          1919.000
       347   03 Jun 2027 17:30:09.285   03 Jun 2027 17:30:32.458            23.173                Anadyr1           724.156
       348   03 Jun 2027 17:31:24.968   03 Jun 2027 17:31:26.679             1.711                Anadyr2            53.469
       349   03 Jun 2027 17:32:16.735   03 Jun 2027 17:32:22.084             5.349                Anadyr1           167.156
       350   03 Jun 2027 17:33:31.674   03 Jun 2027 17:33:36.636             4.962                Anadyr1           155.062
       351   03 Jun 2027 17:33:38.102   03 Jun 2027 17:33:55.154            17.052                Anadyr1           532.875
       352   03 Jun 2027 17:33:57.501   03 Jun 2027 17:35:52.721           115.220               Magadan1          3600.625
       353   03 Jun 2027 19:06:03.280   03 Jun 2027 19:09:50.747           227.467                Anadyr1          7108.344
       354   03 Jun 2027 19:10:17.365   03 Jun 2027 19:11:58.822           101.457               Magadan2          3170.531
       355   03 Jun 2027 19:11:58.822   03 Jun 2027 19:12:16.006            17.184               Magadan1           537.000
       356   03 Jun 2027 19:14:47.412   03 Jun 2027 19:15:00.523            13.111               Magadan2           409.719
       357   03 Jun 2027 19:16:13.428   03 Jun 2027 19:16:49.710            36.282               Magadan1          1133.812
       358   03 Jun 2027 20:41:56.155   03 Jun 2027 20:45:39.180           223.025                Anadyr1          6969.531
       359   03 Jun 2027 20:45:42.589   03 Jun 2027 20:45:49.555             6.966                Norilsk           217.688
       360   03 Jun 2027 20:46:01.929   03 Jun 2027 20:46:21.189            19.260               Magadan2           601.875
       361   03 Jun 2027 20:46:23.484   03 Jun 2027 20:47:48.695            85.211                Norilsk          2662.844
       362   03 Jun 2027 20:48:30.509   03 Jun 2027 20:49:20.925            50.416                Norilsk          1575.500
       363   03 Jun 2027 20:50:08.266   03 Jun 2027 20:51:34.582            86.316                Irkutsk          2697.375
       364   03 Jun 2027 20:52:22.141   03 Jun 2027 20:52:40.079            17.938                Irkutsk           560.562
       365   03 Jun 2027 20:55:32.146   03 Jun 2027 20:55:42.459            10.313                Irkutsk           322.281
       366   03 Jun 2027 21:36:07.608   03 Jun 2027 21:36:54.946            47.338            RioGallegos          1479.313
       367   03 Jun 2027 21:41:34.525   03 Jun 2027 21:41:44.954            10.429            RioGallegos           325.906
       368   03 Jun 2027 21:41:51.086   03 Jun 2027 21:42:13.682            22.596            RioGallegos           706.125
       369   03 Jun 2027 22:17:24.995   03 Jun 2027 22:19:49.250           144.255                Anadyr2          4507.969
       370   03 Jun 2027 22:20:07.929   03 Jun 2027 22:20:26.220            18.291                Norilsk           571.594
       371   03 Jun 2027 22:20:39.432   03 Jun 2027 22:21:31.211            51.779               Magadan2          1618.094
       372   03 Jun 2027 22:21:36.686   03 Jun 2027 22:22:24.089            47.403               Magadan2          1481.344
       373   03 Jun 2027 22:23:49.497   03 Jun 2027 22:25:00.779            71.282                Irkutsk          2227.562
       374   03 Jun 2027 22:27:23.077   03 Jun 2027 22:27:38.663            15.586                Novosib           487.063
       375   03 Jun 2027 22:27:54.642   03 Jun 2027 22:28:07.675            13.033                Novosib           407.281
       376   03 Jun 2027 22:37:30.565   03 Jun 2027 22:38:36.345            65.780                Sumatra          2055.625
       377   03 Jun 2027 22:40:27.836   03 Jun 2027 22:40:37.216             9.380                Sumatra           293.125
       378   03 Jun 2027 22:41:25.363   03 Jun 2027 22:41:37.152            11.789                Sumatra           368.406
       379   03 Jun 2027 22:44:15.570   03 Jun 2027 22:46:17.762           122.192                Sumatra          3818.500
       380   03 Jun 2027 23:52:59.960   03 Jun 2027 23:53:56.526            56.566                Anadyr1          1767.688
       381   03 Jun 2027 23:55:46.477   03 Jun 2027 23:56:05.872            19.395                Norilsk           606.094
       382   03 Jun 2027 23:56:24.568   03 Jun 2027 23:58:28.322           123.754               Magadan1          3867.313
       383   03 Jun 2027 23:59:39.566   04 Jun 2027 00:00:55.768            76.202                Novosib          2381.313
       384   04 Jun 2027 00:01:12.148   04 Jun 2027 00:01:17.717             5.569              Murmansk1           174.031
       385   04 Jun 2027 00:04:37.767   04 Jun 2027 00:05:01.411            23.644                Novosib           738.875
       386   04 Jun 2027 00:07:09.426   04 Jun 2027 00:09:15.550           126.124                  Delhi          3941.375
       387   04 Jun 2027 00:19:03.518   04 Jun 2027 00:19:33.522            30.004                  Delhi           937.625
       388   04 Jun 2027 00:53:45.662   04 Jun 2027 00:53:56.929            11.267            RioGallegos           352.094
       389   04 Jun 2027 00:55:41.596   04 Jun 2027 00:56:36.984            55.388            RioGallegos          1730.875
       390   04 Jun 2027 01:25:16.965   04 Jun 2027 01:25:23.506             6.541                Anadyr2           204.406
       391   04 Jun 2027 01:26:32.573   04 Jun 2027 01:26:50.986            18.413                Anadyr1           575.406
       392   04 Jun 2027 01:27:13.056   04 Jun 2027 01:27:32.233            19.177                Anadyr2           599.281
       393   04 Jun 2027 01:27:51.700   04 Jun 2027 01:28:10.435            18.735                Anadyr1           585.469
       394   04 Jun 2027 01:28:10.435   04 Jun 2027 01:28:21.829            11.394                Anadyr2           356.063
       395   04 Jun 2027 01:30:46.657   04 Jun 2027 01:30:55.480             8.823                Anadyr1           275.719
       396   04 Jun 2027 01:31:01.555   04 Jun 2027 01:31:03.563             2.008                Anadyr1            62.750
       397   04 Jun 2027 01:31:09.688   04 Jun 2027 01:31:21.088            11.400                Anadyr1           356.250
       398   04 Jun 2027 01:31:28.398   04 Jun 2027 01:33:40.325           131.927               Magadan2          4122.719
       399   04 Jun 2027 01:34:01.480   04 Jun 2027 01:34:23.742            22.262              Murmansk2           695.688
       400   04 Jun 2027 01:35:24.470   04 Jun 2027 01:35:53.650            29.180              Murmansk2           911.875
       401   04 Jun 2027 01:36:29.362   04 Jun 2027 01:37:03.687            34.325              Murmansk1          1072.656
       402   04 Jun 2027 01:37:03.687   04 Jun 2027 01:37:34.180            30.493              Murmansk2           952.906
       403   04 Jun 2027 01:38:01.265   04 Jun 2027 01:38:15.827            14.562              Murmansk2           455.063
       404   04 Jun 2027 01:41:13.903   04 Jun 2027 01:41:30.806            16.903                 Moscow           528.219
       405   04 Jun 2027 01:44:43.286   04 Jun 2027 01:44:49.097             5.811                 Moscow           181.594
       406   04 Jun 2027 01:44:58.821   04 Jun 2027 01:45:13.308            14.487                  Delhi           452.719
       407   04 Jun 2027 01:46:51.998   04 Jun 2027 01:47:13.819            21.821                  Delhi           681.906
       408   04 Jun 2027 01:48:04.013   04 Jun 2027 01:49:02.138            58.125                  Delhi          1816.406
       409   04 Jun 2027 02:08:22.163   04 Jun 2027 02:09:48.301            86.138               CapeTown          2691.812
       410   04 Jun 2027 02:58:50.690   04 Jun 2027 02:59:44.695            54.005                Anadyr1          1687.656
       411   04 Jun 2027 03:01:59.394   04 Jun 2027 03:02:08.172             8.778                Anadyr2           274.313
       412   04 Jun 2027 03:03:02.620   04 Jun 2027 03:03:22.063            19.443                Anadyr2           607.594
       413   04 Jun 2027 03:04:20.360   04 Jun 2027 03:04:32.788            12.428               Magadan1           388.375
       414   04 Jun 2027 03:17:38.986   04 Jun 2027 03:18:21.360            42.374                Norilsk          1324.188
       415   04 Jun 2027 03:18:42.333   04 Jun 2027 03:19:16.852            34.519                Norilsk          1078.719
       416   04 Jun 2027 03:19:23.601   04 Jun 2027 03:19:35.694            12.093                Novosib           377.906
       417   04 Jun 2027 03:20:12.716   04 Jun 2027 03:20:45.489            32.773                 Moscow          1024.156
       418   04 Jun 2027 03:21:23.656   04 Jun 2027 03:23:57.637           153.981                 Moscow          4811.906
       419   04 Jun 2027 03:37:09.902   04 Jun 2027 03:40:47.575           217.673               CapeTown          6802.281
       420   04 Jun 2027 04:33:43.807   04 Jun 2027 04:37:34.225           230.418                Anadyr2          7200.562
       421   04 Jun 2027 04:38:20.296   04 Jun 2027 04:40:04.044           103.748               Magadan1          3242.125
       422   04 Jun 2027 04:40:26.143   04 Jun 2027 04:43:23.381           177.238               Magadan2          5538.688
       423   04 Jun 2027 06:14:42.198   04 Jun 2027 06:15:33.037            50.839               Magadan1          1588.719
       424   04 Jun 2027 06:16:04.702   04 Jun 2027 06:17:10.956            66.254                Anadyr2          2070.438
       425   04 Jun 2027 06:17:27.539   04 Jun 2027 06:18:27.033            59.494               Magadan1          1859.187
       426   04 Jun 2027 06:18:30.659   04 Jun 2027 06:18:33.219             2.560               Magadan2            80.000
       427   04 Jun 2027 06:18:33.219   04 Jun 2027 06:19:01.712            28.493               Magadan1           890.406
       428   04 Jun 2027 06:19:06.613   04 Jun 2027 06:19:41.468            34.855                Anadyr1          1089.219
       429   04 Jun 2027 06:19:41.468   04 Jun 2027 06:20:10.399            28.931                Anadyr2           904.094
       430   04 Jun 2027 07:49:04.598   04 Jun 2027 07:49:35.977            31.379               Magadan2           980.594
       431   04 Jun 2027 07:49:42.572   04 Jun 2027 07:50:27.808            45.236               Magadan2          1413.625
       432   04 Jun 2027 07:50:39.379   04 Jun 2027 07:50:43.149             3.770               Magadan2           117.813
       433   04 Jun 2027 07:50:46.653   04 Jun 2027 07:51:17.332            30.679                Anadyr2           958.719
       434   04 Jun 2027 07:51:26.401   04 Jun 2027 07:52:10.161            43.760               Magadan1          1367.500
       435   04 Jun 2027 07:52:14.892   04 Jun 2027 07:52:41.334            26.442               Magadan2           826.312
       436   04 Jun 2027 07:52:47.483   04 Jun 2027 07:53:14.549            27.066               Magadan1           845.812
       437   04 Jun 2027 07:54:25.252   04 Jun 2027 07:54:38.888            13.636               Magadan1           426.125
       438   04 Jun 2027 07:55:03.233   04 Jun 2027 07:55:11.713             8.480                Anadyr1           265.000
       439   04 Jun 2027 07:55:20.154   04 Jun 2027 07:56:10.189            50.035                Anadyr2          1563.594
       440   04 Jun 2027 07:56:34.392   04 Jun 2027 07:57:05.481            31.089               Magadan1           971.531
       441   04 Jun 2027 07:57:25.196   04 Jun 2027 07:57:39.278            14.082                Anadyr2           440.063
       442   04 Jun 2027 07:59:51.862   04 Jun 2027 08:00:26.453            34.591              Murmansk1          1080.969
       443   04 Jun 2027 08:33:22.695   04 Jun 2027 08:33:59.524            36.829            RioGallegos          1150.906
       444   04 Jun 2027 09:12:17.548   04 Jun 2027 09:13:06.864            49.316                Sumatra          1541.125
       445   04 Jun 2027 09:26:44.899   04 Jun 2027 09:27:23.246            38.347               Magadan1          1198.344
       446   04 Jun 2027 09:27:23.246   04 Jun 2027 09:28:38.357            75.111               Magadan2          2347.219
       447   04 Jun 2027 09:28:49.641   04 Jun 2027 09:29:57.476            67.835                Irkutsk          2119.844
       448   04 Jun 2027 09:30:06.653   04 Jun 2027 09:30:30.503            23.850                Irkutsk           745.313
       449   04 Jun 2027 09:30:35.947   04 Jun 2027 09:30:40.467             4.520               Magadan2           141.250
       450   04 Jun 2027 09:30:49.426   04 Jun 2027 09:30:53.840             4.414                Irkutsk           137.937
       451   04 Jun 2027 09:31:52.704   04 Jun 2027 09:32:00.319             7.615                Irkutsk           237.969
       452   04 Jun 2027 09:33:07.248   04 Jun 2027 09:33:08.699             1.451                Norilsk            45.344
       453   04 Jun 2027 09:33:11.188   04 Jun 2027 09:33:12.157             0.969                Irkutsk            30.281
       454   04 Jun 2027 09:33:26.671   04 Jun 2027 09:33:28.499             1.828                Irkutsk            57.125
       455   04 Jun 2027 09:33:29.606   04 Jun 2027 09:33:50.513            20.907                Novosib           653.344
       456   04 Jun 2027 09:33:57.070   04 Jun 2027 09:34:16.182            19.112                Novosib           597.250
       457   04 Jun 2027 10:08:49.014   04 Jun 2027 10:10:06.635            77.621            RioGallegos          2425.656
       458   04 Jun 2027 10:43:30.148   04 Jun 2027 10:43:51.063            20.915                Sumatra           653.594
       459   04 Jun 2027 10:56:16.961   04 Jun 2027 10:56:54.145            37.184                  Delhi          1162.000
       460   04 Jun 2027 11:03:21.279   04 Jun 2027 11:03:32.136            10.857                  Delhi           339.281
       461   04 Jun 2027 11:04:23.921   04 Jun 2027 11:04:27.894             3.973                Irkutsk           124.156
       462   04 Jun 2027 11:05:40.875   04 Jun 2027 11:06:11.656            30.781                Novosib           961.906
       463   04 Jun 2027 11:06:48.960   04 Jun 2027 11:07:31.236            42.276                Irkutsk          1321.125
       464   04 Jun 2027 11:07:40.599   04 Jun 2027 11:08:10.271            29.672                Novosib           927.250
       465   04 Jun 2027 11:08:16.788   04 Jun 2027 11:08:48.893            32.105                Irkutsk          1003.281
       466   04 Jun 2027 11:09:00.872   04 Jun 2027 11:09:26.552            25.680                Novosib           802.500
       467   04 Jun 2027 11:09:28.830   04 Jun 2027 11:09:51.698            22.868                Norilsk           714.625
       468   04 Jun 2027 11:09:54.199   04 Jun 2027 11:10:09.613            15.414                Norilsk           481.687
       469   04 Jun 2027 11:48:55.512   04 Jun 2027 11:49:54.992            59.480            RioGallegos          1858.750
       470   04 Jun 2027 11:52:36.929   04 Jun 2027 11:53:16.588            39.659            RioGallegos          1239.344
       471   04 Jun 2027 12:29:49.620   04 Jun 2027 12:30:49.445            59.825                  Delhi          1869.531
       472   04 Jun 2027 12:35:36.718   04 Jun 2027 12:36:45.428            68.710                Novosib          2147.187
       473   04 Jun 2027 12:38:07.565   04 Jun 2027 12:38:43.172            35.607                Novosib          1112.719
       474   04 Jun 2027 12:39:39.717   04 Jun 2027 12:40:08.468            28.751                Norilsk           898.469
       475   04 Jun 2027 12:42:12.602   04 Jun 2027 12:43:07.595            54.993                Norilsk          1718.531
       476   04 Jun 2027 14:12:06.540   04 Jun 2027 14:13:22.815            76.275                 Moscow          2383.594
       477   04 Jun 2027 14:14:41.165   04 Jun 2027 14:15:57.453            76.288                 Moscow          2384.000
       478   04 Jun 2027 14:16:33.679   04 Jun 2027 14:18:18.150           104.471              Murmansk1          3264.719
       479   04 Jun 2027 14:18:53.743   04 Jun 2027 14:19:28.900            35.157              Murmansk2          1098.656
       480   04 Jun 2027 14:19:32.886   04 Jun 2027 14:21:26.091           113.205                Norilsk          3537.656
       481   04 Jun 2027 14:25:11.619   04 Jun 2027 14:25:16.907             5.288                Norilsk           165.250
       482   04 Jun 2027 15:26:43.100   04 Jun 2027 15:29:46.478           183.378               CapeTown          5730.562
