uniorb/output/strategy_4/Drop/Drop_KinoSat_111807.txt

KinoSat_111807
-------------------------
    Access    *     Start Time (UTCG)     *     Stop Time (UTCG)  *   Duration (s)        *       Station  *  Data (Mbytes)
         1   01 Jun 2027 04:25:19.003   01 Jun 2027 04:25:20.262             1.259                Irkutsk            39.344
         2   01 Jun 2027 04:25:58.548   01 Jun 2027 04:27:01.433            62.885                Norilsk          1965.156
         3   01 Jun 2027 04:27:10.351   01 Jun 2027 04:28:14.098            63.747                Novosib          1992.094
         4   01 Jun 2027 04:28:26.191   01 Jun 2027 04:29:57.399            91.208                Norilsk          2850.250
         5   01 Jun 2027 04:30:00.963   01 Jun 2027 04:30:59.863            58.900              Murmansk2          1840.625
         6   01 Jun 2027 04:31:11.317   01 Jun 2027 04:32:15.393            64.076                Novosib          2002.375
         7   01 Jun 2027 04:33:20.533   01 Jun 2027 04:34:51.586            91.053                  Delhi          2845.406
         8   01 Jun 2027 06:04:57.432   01 Jun 2027 06:06:04.995            67.563              Murmansk2          2111.344
         9   01 Jun 2027 06:06:18.181   01 Jun 2027 06:07:22.898            64.717                 Moscow          2022.406
        10   01 Jun 2027 06:07:39.704   01 Jun 2027 06:08:30.796            51.092              Murmansk1          1596.625
        11   01 Jun 2027 06:22:50.591   01 Jun 2027 06:24:52.501           121.910               CapeTown          3809.687
        12   01 Jun 2027 07:27:28.458   01 Jun 2027 07:28:29.929            61.471                Anadyr2          1920.969
        13   01 Jun 2027 07:28:29.929   01 Jun 2027 07:32:24.966           235.037                Anadyr1          7344.906
        14   01 Jun 2027 09:03:42.754   01 Jun 2027 09:04:23.310            40.556                Irkutsk          1267.375
        15   01 Jun 2027 09:04:23.789   01 Jun 2027 09:07:35.025           191.236                Anadyr2          5976.125
        16   01 Jun 2027 10:37:30.150   01 Jun 2027 10:38:01.913            31.763               Magadan2           992.594
        17   01 Jun 2027 10:39:55.596   01 Jun 2027 10:40:15.979            20.383               Magadan1           636.969
        18   01 Jun 2027 10:40:37.754   01 Jun 2027 10:43:32.758           175.004               Magadan1          5468.875
        19   01 Jun 2027 11:54:22.751   01 Jun 2027 11:54:47.082            24.331                Sumatra           760.344
        20   01 Jun 2027 12:06:51.475   01 Jun 2027 12:09:02.187           130.712                Irkutsk          4084.750
        21   01 Jun 2027 12:55:34.672   01 Jun 2027 12:57:14.691           100.019            RioGallegos          3125.594
        22   01 Jun 2027 12:59:25.179   01 Jun 2027 13:00:42.490            77.311            RioGallegos          2415.969
        23   01 Jun 2027 13:29:49.676   01 Jun 2027 13:31:43.135           113.459                Sumatra          3545.594
        24   01 Jun 2027 13:34:12.232   01 Jun 2027 13:35:03.522            51.290                Sumatra          1602.813
        25   01 Jun 2027 13:45:04.238   01 Jun 2027 13:47:40.709           156.471                Irkutsk          4889.719
        26   01 Jun 2027 13:49:49.071   01 Jun 2027 13:50:52.087            63.016                Irkutsk          1969.250
        27   01 Jun 2027 15:14:46.664   01 Jun 2027 15:15:47.135            60.471                  Delhi          1889.719
        28   01 Jun 2027 15:18:11.650   01 Jun 2027 15:20:48.729           157.079                  Delhi          4908.719
        29   01 Jun 2027 15:23:11.426   01 Jun 2027 15:27:54.106           282.680                Novosib          8833.750
        30   01 Jun 2027 17:08:21.441   01 Jun 2027 17:09:24.515            63.074                Norilsk          1971.062
        31   01 Jun 2027 18:17:35.043   01 Jun 2027 18:18:23.385            48.342               CapeTown          1510.687
        32   01 Jun 2027 18:20:26.798   01 Jun 2027 18:21:02.204            35.406               CapeTown          1106.437
        33   01 Jun 2027 18:37:19.636   01 Jun 2027 18:44:02.680           403.044                 Moscow         12595.125
        34   01 Jun 2027 19:47:58.547   01 Jun 2027 19:48:30.825            32.278               CapeTown          1008.687
        35   01 Jun 2027 19:49:07.408   01 Jun 2027 19:51:30.163           142.755               CapeTown          4461.094
        36   01 Jun 2027 20:20:17.635   01 Jun 2027 20:25:24.453           306.818              Murmansk2          9588.062
        37   01 Jun 2027 22:03:50.006   01 Jun 2027 22:08:27.106           277.100                Anadyr1          8659.375
        38   01 Jun 2027 22:08:56.095   01 Jun 2027 22:09:02.041             5.946                Anadyr1           185.813
        39   01 Jun 2027 22:09:22.057   01 Jun 2027 22:11:12.640           110.583               Magadan2          3455.719
        40   01 Jun 2027 22:16:11.948   01 Jun 2027 22:16:47.897            35.949               Magadan1          1123.406
        41   01 Jun 2027 22:17:34.708   01 Jun 2027 22:18:38.408            63.700               Magadan2          1990.625
        42   01 Jun 2027 22:58:51.084   01 Jun 2027 22:59:24.592            33.508            RioGallegos          1047.125
        43   01 Jun 2027 23:01:41.417   01 Jun 2027 23:01:55.556            14.139            RioGallegos           441.844
        44   01 Jun 2027 23:03:45.368   01 Jun 2027 23:04:03.764            18.396            RioGallegos           574.875
        45   01 Jun 2027 23:04:43.373   01 Jun 2027 23:05:03.969            20.596            RioGallegos           643.625
        46   01 Jun 2027 23:39:33.477   01 Jun 2027 23:41:09.754            96.277                Anadyr1          3008.656
        47   01 Jun 2027 23:41:39.693   01 Jun 2027 23:43:21.297           101.604                Norilsk          3175.125
        48   01 Jun 2027 23:43:51.086   01 Jun 2027 23:45:08.999            77.913               Magadan2          2434.781
        49   01 Jun 2027 23:45:49.422   01 Jun 2027 23:46:48.761            59.339               Magadan1          1854.344
        50   01 Jun 2027 23:49:27.097   01 Jun 2027 23:49:33.338             6.241                Irkutsk           195.031
        51   01 Jun 2027 23:50:29.485   01 Jun 2027 23:50:41.328            11.843                Irkutsk           370.094
        52   01 Jun 2027 23:51:49.421   01 Jun 2027 23:52:12.960            23.539                Irkutsk           735.594
        53   01 Jun 2027 23:54:15.564   01 Jun 2027 23:54:48.336            32.772                Irkutsk          1024.125
        54   02 Jun 2027 00:00:09.436   02 Jun 2027 00:00:28.294            18.858                Sumatra           589.313
        55   02 Jun 2027 00:01:43.229   02 Jun 2027 00:03:16.116            92.887                Sumatra          2902.719
        56   02 Jun 2027 00:11:05.854   02 Jun 2027 00:11:37.031            31.177                Sumatra           974.281
        57   02 Jun 2027 00:40:36.577   02 Jun 2027 00:40:56.640            20.063            RioGallegos           626.969
        58   02 Jun 2027 00:43:14.746   02 Jun 2027 00:43:24.879            10.133            RioGallegos           316.656
        59   02 Jun 2027 00:44:06.919   02 Jun 2027 00:44:46.329            39.410            RioGallegos          1231.562
        60   02 Jun 2027 01:14:33.150   02 Jun 2027 01:15:21.861            48.711                Anadyr2          1522.219
        61   02 Jun 2027 01:15:33.168   02 Jun 2027 01:16:12.216            39.048                Anadyr2          1220.250
        62   02 Jun 2027 01:16:58.867   02 Jun 2027 01:17:00.508             1.641                Anadyr1            51.281
        63   02 Jun 2027 01:17:17.846   02 Jun 2027 01:17:49.315            31.469                Anadyr2           983.406
        64   02 Jun 2027 01:18:04.416   02 Jun 2027 01:19:22.009            77.593                Norilsk          2424.781
        65   02 Jun 2027 01:19:57.555   02 Jun 2027 01:20:50.276            52.721               Magadan2          1647.531
        66   02 Jun 2027 01:21:26.867   02 Jun 2027 01:22:29.872            63.005                Irkutsk          1968.906
        67   02 Jun 2027 01:22:38.809   02 Jun 2027 01:23:23.023            44.214                Irkutsk          1381.687
        68   02 Jun 2027 01:30:05.811   02 Jun 2027 01:30:28.924            23.113                  Delhi           722.281
        69   02 Jun 2027 01:32:42.146   02 Jun 2027 01:32:55.763            13.617                Irkutsk           425.531
        70   02 Jun 2027 01:34:46.126   02 Jun 2027 01:35:07.012            20.886                  Delhi           652.688
        71   02 Jun 2027 01:36:02.679   02 Jun 2027 01:37:05.109            62.430                Sumatra          1950.937
        72   02 Jun 2027 01:37:36.143   02 Jun 2027 01:39:50.282           134.139                Sumatra          4191.844
        73   02 Jun 2027 02:17:20.439   02 Jun 2027 02:17:53.400            32.961            RioGallegos          1030.031
        74   02 Jun 2027 02:50:28.369   02 Jun 2027 02:51:16.807            48.438                Anadyr2          1513.687
        75   02 Jun 2027 02:53:35.273   02 Jun 2027 02:54:03.440            28.167                Norilsk           880.219
        76   02 Jun 2027 02:54:30.721   02 Jun 2027 02:54:32.248             1.527                Norilsk            47.719
        77   02 Jun 2027 02:55:16.574   02 Jun 2027 02:55:21.557             4.983                Norilsk           155.719
        78   02 Jun 2027 02:56:03.851   02 Jun 2027 02:57:24.391            80.540              Murmansk1          2516.875
        79   02 Jun 2027 02:57:29.895   02 Jun 2027 02:58:05.554            35.659                Novosib          1114.344
        80   02 Jun 2027 02:58:34.857   02 Jun 2027 03:01:06.103           151.246                Irkutsk          4726.438
        81   02 Jun 2027 03:01:39.095   02 Jun 2027 03:02:01.732            22.637              Murmansk1           707.406
        82   02 Jun 2027 03:02:07.023   02 Jun 2027 03:03:02.802            55.779              Murmansk2          1743.094
        83   02 Jun 2027 03:03:11.076   02 Jun 2027 03:03:28.688            17.612                Norilsk           550.375
        84   02 Jun 2027 03:03:29.098   02 Jun 2027 03:04:12.926            43.828                Novosib          1369.625
        85   02 Jun 2027 03:04:17.108   02 Jun 2027 03:04:21.539             4.431                Norilsk           138.469
        86   02 Jun 2027 03:04:31.450   02 Jun 2027 03:05:17.236            45.786                Irkutsk          1430.813
        87   02 Jun 2027 03:05:28.813   02 Jun 2027 03:07:12.403           103.590                Irkutsk          3237.188
        88   02 Jun 2027 03:07:45.149   02 Jun 2027 03:08:56.092            70.943                  Delhi          2216.969
        89   02 Jun 2027 03:47:47.455   02 Jun 2027 03:48:01.203            13.748            RioGallegos           429.625
        90   02 Jun 2027 04:38:04.690   02 Jun 2027 04:38:22.989            18.299                Novosib           571.844
        91   02 Jun 2027 04:38:38.254   02 Jun 2027 04:39:00.543            22.289              Murmansk2           696.531
        92   02 Jun 2027 04:39:15.601   02 Jun 2027 04:39:54.889            39.288                Novosib          1227.750
        93   02 Jun 2027 04:40:00.073   02 Jun 2027 04:41:47.703           107.630                Norilsk          3363.437
        94   02 Jun 2027 04:42:53.101   02 Jun 2027 04:43:17.940            24.839                Novosib           776.219
        95   02 Jun 2027 06:18:01.698   02 Jun 2027 06:18:34.464            32.766              Murmansk2          1023.937
        96   02 Jun 2027 06:18:38.488   02 Jun 2027 06:20:30.718           112.230                 Moscow          3507.188
        97   02 Jun 2027 06:35:02.965   02 Jun 2027 06:36:37.957            94.992               CapeTown          2968.500
        98   02 Jun 2027 07:38:18.714   02 Jun 2027 07:40:23.590           124.876               Magadan2          3902.375
        99   02 Jun 2027 07:40:23.590   02 Jun 2027 07:40:57.853            34.263               Magadan1          1070.719
       100   02 Jun 2027 09:16:50.380   02 Jun 2027 09:17:52.822            62.442               Magadan2          1951.313
       101   02 Jun 2027 09:18:36.118   02 Jun 2027 09:19:43.907            67.789                Anadyr2          2118.406
       102   02 Jun 2027 09:19:43.907   02 Jun 2027 09:20:03.849            19.942                Anadyr1           623.187
       103   02 Jun 2027 10:50:21.237   02 Jun 2027 10:51:52.616            91.379               Magadan2          2855.594
       104   02 Jun 2027 10:51:52.616   02 Jun 2027 10:55:23.427           210.811               Magadan1          6587.844
       105   02 Jun 2027 11:31:36.800   02 Jun 2027 11:32:12.107            35.307            RioGallegos          1103.344
       106   02 Jun 2027 12:05:58.243   02 Jun 2027 12:07:25.791            87.548                Sumatra          2735.875
       107   02 Jun 2027 12:18:56.477   02 Jun 2027 12:20:53.631           117.154                Irkutsk          3661.063
       108   02 Jun 2027 12:26:50.819   02 Jun 2027 12:27:07.922            17.103                Norilsk           534.469
       109   02 Jun 2027 12:35:20.282   02 Jun 2027 12:35:22.935             2.653              Murmansk1            82.906
       110   02 Jun 2027 12:36:11.517   02 Jun 2027 12:36:26.681            15.164                Norilsk           473.875
       111   02 Jun 2027 13:08:04.861   02 Jun 2027 13:09:26.334            81.473            RioGallegos          2546.031
       112   02 Jun 2027 13:11:24.225   02 Jun 2027 13:12:15.775            51.550            RioGallegos          1610.938
       113   02 Jun 2027 13:42:18.154   02 Jun 2027 13:46:15.033           236.879                Sumatra          7402.469
       114   02 Jun 2027 13:57:47.916   02 Jun 2027 13:59:42.030           114.114                Irkutsk          3566.062
       115   02 Jun 2027 15:27:30.505   02 Jun 2027 15:30:23.554           173.049                  Delhi          5407.781
       116   02 Jun 2027 15:36:00.319   02 Jun 2027 15:40:38.836           278.517                Novosib          8703.656
       117   02 Jun 2027 15:44:32.684   02 Jun 2027 15:45:29.114            56.430                Norilsk          1763.437
       118   02 Jun 2027 17:10:14.649   02 Jun 2027 17:10:43.852            29.203                 Moscow           912.594
       119   02 Jun 2027 17:11:41.668   02 Jun 2027 17:13:06.624            84.956                 Moscow          2654.875
       120   02 Jun 2027 17:16:14.387   02 Jun 2027 17:16:42.601            28.214              Murmansk2           881.688
       121   02 Jun 2027 17:24:46.533   02 Jun 2027 17:25:28.050            41.517              Murmansk1          1297.406
       122   02 Jun 2027 17:29:04.240   02 Jun 2027 17:29:38.238            33.998                Anadyr1          1062.438
       123   02 Jun 2027 17:29:55.013   02 Jun 2027 17:29:56.754             1.741                Anadyr2            54.406
       124   02 Jun 2027 17:31:03.526   02 Jun 2027 17:31:29.371            25.845                Anadyr2           807.656
       125   02 Jun 2027 17:34:47.514   02 Jun 2027 17:35:19.337            31.823                Anadyr1           994.469
       126   02 Jun 2027 18:23:27.212   02 Jun 2027 18:24:20.674            53.462               CapeTown          1670.688
       127   02 Jun 2027 18:26:30.883   02 Jun 2027 18:26:46.465            15.582               CapeTown           486.938
       128   02 Jun 2027 18:29:50.118   02 Jun 2027 18:30:23.186            33.068               CapeTown          1033.375
       129   02 Jun 2027 18:50:17.608   02 Jun 2027 18:54:00.021           222.413                 Moscow          6950.406
       130   02 Jun 2027 18:56:21.613   02 Jun 2027 18:56:58.189            36.576              Murmansk1          1143.000
       131   02 Jun 2027 19:01:25.111   02 Jun 2027 19:02:05.291            40.180              Murmansk2          1255.625
       132   02 Jun 2027 19:12:48.150   02 Jun 2027 19:13:03.862            15.712                Anadyr2           491.000
       133   02 Jun 2027 20:00:20.739   02 Jun 2027 20:01:13.335            52.596               CapeTown          1643.625
       134   02 Jun 2027 20:02:33.766   02 Jun 2027 20:04:09.951            96.185               CapeTown          3005.781
       135   02 Jun 2027 20:33:22.384   02 Jun 2027 20:37:03.555           221.171              Murmansk2          6911.594
       136   02 Jun 2027 20:42:30.043   02 Jun 2027 20:43:47.467            77.424               Magadan2          2419.500
       137   02 Jun 2027 20:47:07.611   02 Jun 2027 20:47:18.625            11.014               Magadan1           344.187
       138   02 Jun 2027 20:48:26.290   02 Jun 2027 20:48:37.667            11.377               Magadan1           355.531
       139   02 Jun 2027 20:48:52.821   02 Jun 2027 20:49:13.717            20.896               Magadan1           653.000
       140   02 Jun 2027 22:15:51.290   02 Jun 2027 22:20:59.196           307.906                Anadyr2          9622.063
       141   02 Jun 2027 22:21:06.670   02 Jun 2027 22:22:01.652            54.982                Norilsk          1718.187
       142   02 Jun 2027 22:22:10.779   02 Jun 2027 22:23:29.009            78.230               Magadan2          2444.688
       143   02 Jun 2027 22:23:50.685   02 Jun 2027 22:23:56.522             5.837               Magadan1           182.406
       144   02 Jun 2027 22:28:03.121   02 Jun 2027 22:28:11.821             8.700               Magadan1           271.875
       145   02 Jun 2027 22:28:21.986   02 Jun 2027 22:28:40.473            18.487               Magadan1           577.719
       146   02 Jun 2027 23:10:27.083   02 Jun 2027 23:13:09.034           161.951            RioGallegos          5060.969
       147   02 Jun 2027 23:51:31.326   02 Jun 2027 23:53:32.428           121.102                Anadyr2          3784.437
       148   02 Jun 2027 23:53:39.990   02 Jun 2027 23:55:19.853            99.863                Norilsk          3120.719
       149   02 Jun 2027 23:55:43.630   02 Jun 2027 23:56:32.008            48.378               Magadan1          1511.812
       150   02 Jun 2027 23:57:56.980   02 Jun 2027 23:58:37.404            40.424                Irkutsk          1263.250
       151   02 Jun 2027 23:59:31.213   03 Jun 2027 00:00:08.932            37.719                Irkutsk          1178.719
       152   03 Jun 2027 00:00:55.042   03 Jun 2027 00:02:10.294            75.252                Novosib          2351.625
       153   03 Jun 2027 00:12:26.530   03 Jun 2027 00:13:35.921            69.391                Sumatra          2168.469
       154   03 Jun 2027 00:18:12.318   03 Jun 2027 00:18:15.024             2.706                Sumatra            84.562
       155   03 Jun 2027 00:21:55.357   03 Jun 2027 00:23:20.570            85.213                Sumatra          2662.906
       156   03 Jun 2027 00:55:12.679   03 Jun 2027 00:55:29.892            17.213            RioGallegos           537.906
       157   03 Jun 2027 00:57:06.172   03 Jun 2027 00:57:10.307             4.135            RioGallegos           129.219
       158   03 Jun 2027 01:26:22.522   03 Jun 2027 01:27:23.160            60.638                Anadyr2          1894.938
       159   03 Jun 2027 01:27:23.160   03 Jun 2027 01:28:20.603            57.443                Anadyr1          1795.094
       160   03 Jun 2027 01:29:36.765   03 Jun 2027 01:31:23.088           106.323                Norilsk          3322.594
       161   03 Jun 2027 01:31:39.337   03 Jun 2027 01:32:14.407            35.070               Magadan2          1095.938
       162   03 Jun 2027 01:33:29.216   03 Jun 2027 01:34:57.673            88.457                Irkutsk          2764.281
       163   03 Jun 2027 01:35:24.286   03 Jun 2027 01:35:42.257            17.971                Novosib           561.594
       164   03 Jun 2027 01:37:02.984   03 Jun 2027 01:37:19.824            16.840                Novosib           526.250
       165   03 Jun 2027 01:41:40.373   03 Jun 2027 01:42:26.513            46.140                  Delhi          1441.875
       166   03 Jun 2027 01:45:39.459   03 Jun 2027 01:46:06.279            26.820                  Delhi           838.125
       167   03 Jun 2027 01:48:36.584   03 Jun 2027 01:50:41.165           124.581                Sumatra          3893.156
       168   03 Jun 2027 01:52:14.296   03 Jun 2027 01:53:32.720            78.424                Sumatra          2450.750
       169   03 Jun 2027 02:29:10.723   03 Jun 2027 02:29:38.108            27.385            RioGallegos           855.781
       170   03 Jun 2027 03:02:16.230   03 Jun 2027 03:02:30.415            14.185                Anadyr1           443.281
       171   03 Jun 2027 03:09:45.208   03 Jun 2027 03:09:52.309             7.101               Magadan2           221.906
       172   03 Jun 2027 03:10:45.928   03 Jun 2027 03:11:13.511            27.583                Novosib           861.969
       173   03 Jun 2027 03:11:19.133   03 Jun 2027 03:11:23.748             4.615                Novosib           144.219
       174   03 Jun 2027 03:11:34.504   03 Jun 2027 03:11:49.848            15.344                Norilsk           479.500
       175   03 Jun 2027 03:12:19.470   03 Jun 2027 03:14:41.391           141.921                Norilsk          4435.031
       176   03 Jun 2027 03:14:47.603   03 Jun 2027 03:15:38.390            50.787                 Moscow          1587.094
       177   03 Jun 2027 03:15:48.913   03 Jun 2027 03:15:55.460             6.547                 Moscow           204.594
       178   03 Jun 2027 03:16:06.497   03 Jun 2027 03:16:15.514             9.017                Norilsk           281.781
       179   03 Jun 2027 03:16:55.301   03 Jun 2027 03:19:34.088           158.787                  Delhi          4962.094
       180   03 Jun 2027 04:33:21.041   03 Jun 2027 04:33:43.065            22.024                Anadyr2           688.250
       181   03 Jun 2027 04:51:16.518   03 Jun 2027 04:52:49.253            92.735                Novosib          2897.969
       182   03 Jun 2027 04:53:02.554   03 Jun 2027 04:53:28.370            25.816                 Moscow           806.750
       183   03 Jun 2027 04:53:54.021   03 Jun 2027 04:54:33.150            39.129                 Moscow          1222.781
       184   03 Jun 2027 04:54:55.932   03 Jun 2027 04:55:36.819            40.887                Novosib          1277.719
       185   03 Jun 2027 04:56:20.580   03 Jun 2027 04:57:51.704            91.124                 Moscow          2847.625
       186   03 Jun 2027 05:11:42.231   03 Jun 2027 05:12:44.230            61.999               CapeTown          1937.469
       187   03 Jun 2027 06:07:44.448   03 Jun 2027 06:08:55.362            70.914                Anadyr2          2216.063
       188   03 Jun 2027 06:11:37.903   03 Jun 2027 06:12:06.224            28.321               Magadan1           885.031
       189   03 Jun 2027 06:26:05.589   03 Jun 2027 06:26:50.258            44.669                 Moscow          1395.906
       190   03 Jun 2027 06:30:32.408   03 Jun 2027 06:31:00.085            27.677              Murmansk2           864.906
       191   03 Jun 2027 06:47:21.388   03 Jun 2027 06:48:38.351            76.963               CapeTown          2405.094
       192   03 Jun 2027 06:51:50.314   03 Jun 2027 06:52:20.791            30.477               CapeTown           952.406
       193   03 Jun 2027 07:50:21.259   03 Jun 2027 07:50:22.625             1.366               Magadan1            42.687
       194   03 Jun 2027 07:50:38.179   03 Jun 2027 07:51:54.953            76.774                Anadyr1          2399.188
       195   03 Jun 2027 07:52:12.457   03 Jun 2027 07:52:55.595            43.138               Magadan2          1348.062
       196   03 Jun 2027 08:38:21.687   03 Jun 2027 08:39:01.330            39.643            RioGallegos          1238.844
       197   03 Jun 2027 09:25:36.584   03 Jun 2027 09:27:33.405           116.821                Anadyr1          3650.656
       198   03 Jun 2027 09:28:00.366   03 Jun 2027 09:28:05.128             4.762               Magadan1           148.813
       199   03 Jun 2027 09:28:06.927   03 Jun 2027 09:28:21.246            14.319                Anadyr1           447.469
       200   03 Jun 2027 09:29:01.068   03 Jun 2027 09:30:08.455            67.387                Anadyr1          2105.844
       201   03 Jun 2027 10:09:24.432   03 Jun 2027 10:10:20.103            55.671            RioGallegos          1739.719
       202   03 Jun 2027 11:01:03.020   03 Jun 2027 11:02:49.834           106.814               Magadan1          3337.937
       203   03 Jun 2027 11:03:23.934   03 Jun 2027 11:07:16.458           232.524               Magadan1          7266.375
       204   03 Jun 2027 11:07:39.226   03 Jun 2027 11:08:00.933            21.707                Norilsk           678.344
       205   03 Jun 2027 11:42:28.170   03 Jun 2027 11:43:16.916            48.746            RioGallegos          1523.313
       206   03 Jun 2027 11:43:48.907   03 Jun 2027 11:44:41.610            52.703            RioGallegos          1646.969
       207   03 Jun 2027 12:17:41.425   03 Jun 2027 12:18:23.506            42.081                Sumatra          1315.031
       208   03 Jun 2027 12:31:04.948   03 Jun 2027 12:32:48.206           103.258                Irkutsk          3226.812
       209   03 Jun 2027 12:32:48.364   03 Jun 2027 12:33:06.364            18.000                Novosib           562.500
       210   03 Jun 2027 12:34:09.791   03 Jun 2027 12:35:05.483            55.692                Irkutsk          1740.375
       211   03 Jun 2027 13:20:41.548   03 Jun 2027 13:23:21.980           160.432            RioGallegos          5013.500
       212   03 Jun 2027 13:23:51.405   03 Jun 2027 13:24:08.522            17.117            RioGallegos           534.906
       213   03 Jun 2027 13:24:30.449   03 Jun 2027 13:25:30.813            60.364            RioGallegos          1886.375
       214   03 Jun 2027 13:54:58.667   03 Jun 2027 13:55:48.614            49.947                Sumatra          1560.844
       215   03 Jun 2027 13:58:12.128   03 Jun 2027 13:59:44.972            92.844                Sumatra          2901.375
       216   03 Jun 2027 14:10:42.108   03 Jun 2027 14:15:03.843           261.735                Irkutsk          8179.219
       217   03 Jun 2027 15:40:31.979   03 Jun 2027 15:44:46.477           254.498                  Delhi          7953.063
       218   03 Jun 2027 15:49:01.393   03 Jun 2027 15:52:26.555           205.162                Novosib          6411.313
       219   03 Jun 2027 17:25:45.472   03 Jun 2027 17:27:02.042            76.570                 Moscow          2392.812
       220   03 Jun 2027 17:40:50.517   03 Jun 2027 17:41:36.593            46.076                Anadyr1          1439.875
       221   03 Jun 2027 17:43:10.962   03 Jun 2027 17:43:30.478            19.516                Anadyr2           609.875
       222   03 Jun 2027 17:44:07.181   03 Jun 2027 17:44:16.535             9.354                Anadyr2           292.313
       223   03 Jun 2027 18:35:25.470   03 Jun 2027 18:37:52.007           146.537               CapeTown          4579.281
       224   03 Jun 2027 19:03:35.196   03 Jun 2027 19:07:23.821           228.625                 Moscow          7144.531
       225   03 Jun 2027 19:08:07.260   03 Jun 2027 19:08:57.020            49.760              Murmansk2          1555.000
       226   03 Jun 2027 19:10:25.003   03 Jun 2027 19:11:52.261            87.258              Murmansk1          2726.813
       227   03 Jun 2027 20:12:50.380   03 Jun 2027 20:13:22.220            31.840               CapeTown           995.000
       228   03 Jun 2027 20:15:58.203   03 Jun 2027 20:17:52.326           114.123               CapeTown          3566.344
       229   03 Jun 2027 20:47:05.246   03 Jun 2027 20:48:06.597            61.351              Murmansk1          1917.219
       230   03 Jun 2027 20:54:26.482   03 Jun 2027 20:55:14.295            47.813               Magadan1          1494.156
       231   03 Jun 2027 20:55:14.295   03 Jun 2027 20:55:45.933            31.638               Magadan2           988.688
       232   03 Jun 2027 20:56:13.692   03 Jun 2027 20:56:48.654            34.962               Magadan2          1092.562
       233   03 Jun 2027 20:57:02.383   03 Jun 2027 20:57:31.162            28.779               Magadan1           899.344
       234   03 Jun 2027 20:58:42.901   03 Jun 2027 20:59:13.804            30.903               Magadan2           965.719
       235   03 Jun 2027 21:03:18.986   03 Jun 2027 21:03:44.657            25.671               Magadan1           802.219
       236   03 Jun 2027 22:27:52.348   03 Jun 2027 22:31:37.553           225.205                Anadyr2          7037.656
       237   03 Jun 2027 22:31:48.171   03 Jun 2027 22:35:16.338           208.167               Magadan2          6505.219
       238   03 Jun 2027 22:36:05.032   03 Jun 2027 22:36:30.493            25.461               Magadan1           795.656
       239   03 Jun 2027 22:40:18.851   03 Jun 2027 22:40:31.853            13.002               Magadan1           406.313
       240   03 Jun 2027 22:41:14.566   03 Jun 2027 22:41:34.466            19.900               Magadan2           621.875
       241   03 Jun 2027 23:22:15.074   03 Jun 2027 23:23:51.350            96.276            RioGallegos          3008.625
       242   03 Jun 2027 23:24:10.778   03 Jun 2027 23:24:22.909            12.131            RioGallegos           379.094
       243   03 Jun 2027 23:25:41.886   03 Jun 2027 23:25:44.389             2.503            RioGallegos            78.219
       244   03 Jun 2027 23:27:40.505   03 Jun 2027 23:28:05.379            24.874            RioGallegos           777.313
       245   03 Jun 2027 23:28:24.353   03 Jun 2027 23:28:24.357             0.004            RioGallegos             0.125
       246   03 Jun 2027 23:30:56.832   03 Jun 2027 23:31:42.069            45.237            RioGallegos          1413.656
       247   04 Jun 2027 00:03:28.418   04 Jun 2027 00:04:18.618            50.200                Anadyr1          1568.750
       248   04 Jun 2027 00:04:19.626   04 Jun 2027 00:05:03.421            43.795                Anadyr2          1368.594
       249   04 Jun 2027 00:05:40.826   04 Jun 2027 00:07:25.504           104.678                Norilsk          3271.188
       250   04 Jun 2027 00:08:27.287   04 Jun 2027 00:08:48.106            20.819               Magadan1           650.594
       251   04 Jun 2027 00:09:50.940   04 Jun 2027 00:11:17.473            86.533                Irkutsk          2704.156
       252   04 Jun 2027 00:11:36.756   04 Jun 2027 00:12:57.887            81.131                Novosib          2535.344
       253   04 Jun 2027 00:23:35.521   04 Jun 2027 00:24:19.001            43.480                Sumatra          1358.750
       254   04 Jun 2027 00:26:02.626   04 Jun 2027 00:26:23.150            20.524                Sumatra           641.375
       255   04 Jun 2027 00:27:11.846   04 Jun 2027 00:27:17.048             5.202                Sumatra           162.562
       256   04 Jun 2027 00:29:21.315   04 Jun 2027 00:29:49.009            27.694                Sumatra           865.437
       257   04 Jun 2027 00:31:38.951   04 Jun 2027 00:33:03.552            84.601                Sumatra          2643.781
       258   04 Jun 2027 01:05:26.365   04 Jun 2027 01:06:30.152            63.787            RioGallegos          1993.344
       259   04 Jun 2027 01:38:10.558   04 Jun 2027 01:38:30.501            19.943                Anadyr1           623.219
       260   04 Jun 2027 01:38:46.627   04 Jun 2027 01:39:24.500            37.873                Anadyr1          1183.531
       261   04 Jun 2027 01:40:21.289   04 Jun 2027 01:40:43.148            21.859                Anadyr2           683.094
       262   04 Jun 2027 01:40:43.862   04 Jun 2027 01:40:48.711             4.849                Anadyr1           151.531
       263   04 Jun 2027 01:41:39.175   04 Jun 2027 01:43:25.172           105.997                Norilsk          3312.406
       264   04 Jun 2027 01:45:32.360   04 Jun 2027 01:47:20.720           108.360                Irkutsk          3386.250
       265   04 Jun 2027 01:47:38.434   04 Jun 2027 01:49:05.329            86.895                Novosib          2715.469
       266   04 Jun 2027 01:54:59.004   04 Jun 2027 01:55:01.655             2.651                Irkutsk            82.844
       267   04 Jun 2027 01:55:04.137   04 Jun 2027 01:55:09.658             5.521                Irkutsk           172.531
       268   04 Jun 2027 01:57:31.958   04 Jun 2027 01:57:48.945            16.987                  Delhi           530.844
       269   04 Jun 2027 01:59:42.100   04 Jun 2027 01:59:43.576             1.476                  Delhi            46.125
       270   04 Jun 2027 01:59:58.862   04 Jun 2027 02:00:23.364            24.502                  Delhi           765.688
       271   04 Jun 2027 02:01:25.590   04 Jun 2027 02:04:08.495           162.905                Sumatra          5090.781
       272   04 Jun 2027 02:42:08.227   04 Jun 2027 02:42:44.716            36.489            RioGallegos          1140.281
       273   04 Jun 2027 03:24:48.223   04 Jun 2027 03:25:18.166            29.943              Murmansk1           935.719
       274   04 Jun 2027 03:25:26.439   04 Jun 2027 03:25:49.199            22.760              Murmansk1           711.250
       275   04 Jun 2027 03:25:55.890   04 Jun 2027 03:28:32.713           156.823                Irkutsk          4900.719
       276   04 Jun 2027 05:02:34.168   04 Jun 2027 05:03:27.788            53.620                Novosib          1675.625
       277   04 Jun 2027 05:04:12.998   04 Jun 2027 05:07:01.758           168.760                Novosib          5273.750
       278   04 Jun 2027 05:07:20.493   04 Jun 2027 05:08:25.201            64.708                 Moscow          2022.125
       279   04 Jun 2027 05:08:40.267   04 Jun 2027 05:09:25.907            45.640                 Moscow          1426.250
       280   04 Jun 2027 05:23:23.541   04 Jun 2027 05:24:05.381            41.840               CapeTown          1307.500
       281   04 Jun 2027 05:24:19.332   04 Jun 2027 05:24:54.273            34.941               CapeTown          1091.906
       282   04 Jun 2027 06:26:46.659   04 Jun 2027 06:27:10.604            23.945                Anadyr1           748.281
       283   04 Jun 2027 06:27:19.147   04 Jun 2027 06:28:23.834            64.687                Anadyr2          2021.469
       284   04 Jun 2027 06:32:05.290   04 Jun 2027 06:32:15.824            10.534                Anadyr1           329.188
       285   04 Jun 2027 06:38:54.858   04 Jun 2027 06:39:46.173            51.315                 Moscow          1603.594
       286   04 Jun 2027 06:59:46.736   04 Jun 2027 07:00:38.871            52.135               CapeTown          1629.219
       287   04 Jun 2027 07:04:20.604   04 Jun 2027 07:04:55.338            34.734               CapeTown          1085.437
       288   04 Jun 2027 08:00:36.553   04 Jun 2027 08:00:43.540             6.987                Anadyr2           218.344
       289   04 Jun 2027 08:00:43.540   04 Jun 2027 08:01:36.199            52.659                Anadyr1          1645.594
       290   04 Jun 2027 08:02:23.589   04 Jun 2027 08:02:50.731            27.142               Magadan2           848.187
       291   04 Jun 2027 08:03:48.286   04 Jun 2027 08:04:38.617            50.331                Anadyr1          1572.844
       292   04 Jun 2027 08:05:04.620   04 Jun 2027 08:05:11.604             6.984               Magadan1           218.250
       293   04 Jun 2027 08:05:15.572   04 Jun 2027 08:05:19.617             4.045                Anadyr1           126.406
       294   04 Jun 2027 08:06:17.926   04 Jun 2027 08:07:01.105            43.179                Anadyr1          1349.344
       295   04 Jun 2027 08:48:55.928   04 Jun 2027 08:49:02.074             6.146            RioGallegos           192.063
       296   04 Jun 2027 09:36:20.780   04 Jun 2027 09:36:32.730            11.950               Magadan1           373.437
       297   04 Jun 2027 09:38:11.548   04 Jun 2027 09:39:00.343            48.795               Magadan1          1524.844
       298   04 Jun 2027 09:40:15.618   04 Jun 2027 09:40:31.514            15.896               Magadan1           496.750
       299   04 Jun 2027 09:40:48.078   04 Jun 2027 09:41:16.394            28.316               Magadan1           884.875
       300   04 Jun 2027 09:41:45.671   04 Jun 2027 09:42:36.781            51.110               Magadan1          1597.188
       301   04 Jun 2027 10:19:47.274   04 Jun 2027 10:20:16.858            29.584            RioGallegos           924.500
       302   04 Jun 2027 11:12:03.561   04 Jun 2027 11:12:40.199            36.638               Magadan1          1144.937
       303   04 Jun 2027 11:13:17.221   04 Jun 2027 11:15:23.017           125.796               Magadan2          3931.125
       304   04 Jun 2027 11:15:30.315   04 Jun 2027 11:19:03.632           213.317               Magadan2          6666.156
       305   04 Jun 2027 11:19:24.570   04 Jun 2027 11:19:28.264             3.694                Norilsk           115.438
       306   04 Jun 2027 11:20:04.290   04 Jun 2027 11:20:16.838            12.548                Norilsk           392.125
       307   04 Jun 2027 11:54:32.818   04 Jun 2027 11:55:29.548            56.730            RioGallegos          1772.812
       308   04 Jun 2027 11:57:46.721   04 Jun 2027 11:58:06.768            20.047            RioGallegos           626.469
       309   04 Jun 2027 12:29:31.157   04 Jun 2027 12:30:12.964            41.807                Sumatra          1306.469
       310   04 Jun 2027 12:33:02.071   04 Jun 2027 12:33:02.928             0.857                Sumatra            26.781
       311   04 Jun 2027 12:34:47.100   04 Jun 2027 12:35:39.088            51.988                Sumatra          1624.625
       312   04 Jun 2027 12:43:17.059   04 Jun 2027 12:44:45.935            88.876                Irkutsk          2777.375
       313   04 Jun 2027 12:46:49.391   04 Jun 2027 12:47:46.609            57.218                Irkutsk          1788.063
       314   04 Jun 2027 12:50:54.271   04 Jun 2027 12:51:12.015            17.744                Norilsk           554.500
       315   04 Jun 2027 13:33:26.404   04 Jun 2027 13:35:14.889           108.485            RioGallegos          3390.156
       316   04 Jun 2027 14:07:59.486   04 Jun 2027 14:12:16.931           257.445                Sumatra          8045.156
       317   04 Jun 2027 14:23:53.484   04 Jun 2027 14:26:48.140           174.656                Irkutsk          5458.000
       318   04 Jun 2027 15:54:13.337   04 Jun 2027 15:57:35.107           201.770                  Delhi          6305.312
       319   04 Jun 2027 16:02:26.046   04 Jun 2027 16:05:47.177           201.131                Novosib          6285.344
       320   04 Jun 2027 16:06:05.382   04 Jun 2027 16:06:28.198            22.816                Novosib           713.000
       321   04 Jun 2027 16:08:52.276   04 Jun 2027 16:09:16.989            24.713                Norilsk           772.281
       322   04 Jun 2027 17:35:48.397   04 Jun 2027 17:37:02.114            73.717                 Moscow          2303.656
       323   04 Jun 2027 17:37:22.889   04 Jun 2027 17:39:03.176           100.287                 Moscow          3133.969
       324   04 Jun 2027 17:46:30.499   04 Jun 2027 17:47:56.389            85.890              Murmansk1          2684.063
       325   04 Jun 2027 17:53:18.734   04 Jun 2027 17:53:41.116            22.382                Anadyr2           699.437
       326   04 Jun 2027 18:47:26.594   04 Jun 2027 18:49:38.695           132.101               CapeTown          4128.156
       327   04 Jun 2027 19:17:00.214   04 Jun 2027 19:17:35.139            34.925              Murmansk2          1091.406
       328   04 Jun 2027 19:18:32.310   04 Jun 2027 19:22:15.373           223.063              Murmansk1          6970.719
       329   04 Jun 2027 19:22:25.682   04 Jun 2027 19:23:44.214            78.532              Murmansk2          2454.125
       330   04 Jun 2027 19:32:03.016   04 Jun 2027 19:32:19.104            16.088               Magadan1           502.750
       331   04 Jun 2027 20:25:32.537   04 Jun 2027 20:27:10.782            98.245               CapeTown          3070.156
       332   04 Jun 2027 20:29:41.568   04 Jun 2027 20:30:16.710            35.142               CapeTown          1098.188
       333   04 Jun 2027 21:03:59.064   04 Jun 2027 21:04:49.411            50.347                Anadyr1          1573.344
       334   04 Jun 2027 21:04:58.987   04 Jun 2027 21:05:10.725            11.738                Anadyr2           366.813
       335   04 Jun 2027 21:05:47.574   04 Jun 2027 21:07:11.175            83.601                Anadyr2          2612.531
       336   04 Jun 2027 21:07:24.120   04 Jun 2027 21:08:56.638            92.518               Magadan2          2891.188
       337   04 Jun 2027 21:08:56.638   04 Jun 2027 21:09:11.597            14.959               Magadan1           467.469
       338   04 Jun 2027 21:09:26.619   04 Jun 2027 21:10:44.039            77.420               Magadan2          2419.375
       339   04 Jun 2027 22:39:53.121   04 Jun 2027 22:44:38.935           285.814                Anadyr2          8931.687
       340   04 Jun 2027 22:44:47.746   04 Jun 2027 22:45:24.273            36.527               Magadan1          1141.469
       341   04 Jun 2027 22:45:28.159   04 Jun 2027 22:45:50.450            22.291               Magadan2           696.594
       342   04 Jun 2027 22:46:29.062   04 Jun 2027 22:47:08.865            39.803               Magadan1          1243.844
       343   04 Jun 2027 22:48:24.611   04 Jun 2027 22:49:04.728            40.117                Irkutsk          1253.656
       344   04 Jun 2027 22:49:29.930   04 Jun 2027 22:50:04.635            34.705                Irkutsk          1084.531
       345   04 Jun 2027 23:34:06.177   04 Jun 2027 23:36:14.167           127.990            RioGallegos          3999.687
       346   04 Jun 2027 23:36:40.621   04 Jun 2027 23:37:07.897            27.276            RioGallegos           852.375
       347   04 Jun 2027 23:42:15.946   04 Jun 2027 23:43:01.646            45.700            RioGallegos          1428.125
       348   05 Jun 2027 00:15:24.654   05 Jun 2027 00:16:51.638            86.984                Anadyr1          2718.250
       349   05 Jun 2027 00:17:42.080   05 Jun 2027 00:19:27.723           105.643                Norilsk          3301.344
       350   05 Jun 2027 00:19:40.203   05 Jun 2027 00:20:07.413            27.210               Magadan2           850.313
       351   05 Jun 2027 00:20:47.534   05 Jun 2027 00:21:18.827            31.293               Magadan1           977.906
       352   05 Jun 2027 00:21:46.720   05 Jun 2027 00:23:19.909            93.189                Irkutsk          2912.156
       353   05 Jun 2027 00:25:35.905   05 Jun 2027 00:26:27.831            51.926                Novosib          1622.687
       354   05 Jun 2027 00:28:17.758   05 Jun 2027 00:29:03.308            45.550                Novosib          1423.437
       355   05 Jun 2027 00:35:28.272   05 Jun 2027 00:36:05.292            37.020                Sumatra          1156.875
       356   05 Jun 2027 00:40:02.706   05 Jun 2027 00:41:30.970            88.264                Sumatra          2758.250
       357   05 Jun 2027 01:14:11.866   05 Jun 2027 01:14:30.154            18.288            RioGallegos           571.500
       358   05 Jun 2027 01:17:48.694   05 Jun 2027 01:18:38.901            50.207            RioGallegos          1568.969
       359   05 Jun 2027 01:49:57.286   05 Jun 2027 01:50:31.194            33.908                Anadyr1          1059.625
       360   05 Jun 2027 01:50:45.281   05 Jun 2027 01:51:25.856            40.575                Anadyr1          1267.969
       361   05 Jun 2027 01:52:03.067   05 Jun 2027 01:52:14.714            11.647                Anadyr1           363.969
       362   05 Jun 2027 01:52:30.088   05 Jun 2027 01:52:39.508             9.420                Anadyr1           294.375
       363   05 Jun 2027 01:53:41.586   05 Jun 2027 01:55:27.634           106.048                Norilsk          3314.000
       364   05 Jun 2027 01:56:03.673   05 Jun 2027 01:56:07.676             4.003               Magadan1           125.094
       365   05 Jun 2027 01:57:36.111   05 Jun 2027 01:59:23.905           107.794                Novosib          3368.563
       366   05 Jun 2027 01:59:34.586   05 Jun 2027 01:59:47.053            12.467                Novosib           389.594
       367   05 Jun 2027 02:00:43.405   05 Jun 2027 02:00:54.749            11.344                Novosib           354.500
       368   05 Jun 2027 02:02:37.742   05 Jun 2027 02:03:17.262            39.520                Irkutsk          1235.000
       369   05 Jun 2027 02:06:48.790   05 Jun 2027 02:07:36.410            47.620                  Delhi          1488.125
       370   05 Jun 2027 02:14:45.306   05 Jun 2027 02:15:56.614            71.308                Sumatra          2228.375
       371   05 Jun 2027 02:46:44.565   05 Jun 2027 02:47:33.230            48.665            RioGallegos          1520.781
       372   05 Jun 2027 02:48:44.995   05 Jun 2027 02:49:56.068            71.073            RioGallegos          2221.031
       373   05 Jun 2027 02:50:31.470   05 Jun 2027 02:50:32.851             1.381            RioGallegos            43.156
       374   05 Jun 2027 02:52:57.431   05 Jun 2027 02:53:03.524             6.093            RioGallegos           190.406
       375   05 Jun 2027 02:54:32.824   05 Jun 2027 02:55:19.673            46.849            RioGallegos          1464.031
       376   05 Jun 2027 03:37:50.446   05 Jun 2027 03:39:15.918            85.472                Norilsk          2671.000
       377   05 Jun 2027 03:39:25.775   05 Jun 2027 03:40:03.752            37.977              Murmansk1          1186.781
       378   05 Jun 2027 03:40:05.313   05 Jun 2027 03:41:32.897            87.584                Irkutsk          2737.000
       379   05 Jun 2027 03:42:24.670   05 Jun 2027 03:42:49.557            24.887                 Moscow           777.719
       380   05 Jun 2027 03:42:54.012   05 Jun 2027 03:44:57.789           123.777                  Delhi          3868.031
       381   05 Jun 2027 03:45:43.898   05 Jun 2027 03:45:49.634             5.736                Novosib           179.250
       382   05 Jun 2027 05:04:52.171   05 Jun 2027 05:04:59.656             7.485                Anadyr1           233.906
       383   05 Jun 2027 05:14:36.873   05 Jun 2027 05:15:33.937            57.064                Novosib          1783.250
       384   05 Jun 2027 05:15:46.920   05 Jun 2027 05:15:51.167             4.247                 Moscow           132.719
       385   05 Jun 2027 05:16:55.342   05 Jun 2027 05:17:46.178            50.836                 Moscow          1588.625
       386   05 Jun 2027 05:17:57.746   05 Jun 2027 05:18:08.445            10.699                 Moscow           334.344
       387   05 Jun 2027 05:18:26.671   05 Jun 2027 05:18:36.962            10.291                 Moscow           321.594
       388   05 Jun 2027 05:18:53.217   05 Jun 2027 05:19:08.575            15.358                 Moscow           479.938
       389   05 Jun 2027 05:19:28.156   05 Jun 2027 05:20:30.339            62.183                 Moscow          1943.219
       390   05 Jun 2027 05:35:10.351   05 Jun 2027 05:35:42.956            32.605               CapeTown          1018.906
       391   05 Jun 2027 05:36:03.530   05 Jun 2027 05:37:18.977            75.447               CapeTown          2357.719
       392   05 Jun 2027 06:38:08.396   05 Jun 2027 06:38:10.044             1.648                Anadyr2            51.500
       393   05 Jun 2027 06:38:10.044   05 Jun 2027 06:38:36.592            26.548                Anadyr1           829.625
       394   05 Jun 2027 06:38:48.404   05 Jun 2027 06:39:27.442            39.038                Anadyr1          1219.937
       395   05 Jun 2027 06:39:55.284   05 Jun 2027 06:40:04.873             9.589               Magadan1           299.656
       396   05 Jun 2027 06:40:24.063   05 Jun 2027 06:41:14.964            50.901                Anadyr2          1590.656
       397   05 Jun 2027 06:41:45.184   05 Jun 2027 06:42:33.956            48.772                Anadyr2          1524.125
       398   05 Jun 2027 06:50:59.953   05 Jun 2027 06:51:41.155            41.202                 Moscow          1287.563
       399   05 Jun 2027 06:55:27.822   05 Jun 2027 06:55:47.644            19.822                 Moscow           619.438
       400   05 Jun 2027 07:12:20.502   05 Jun 2027 07:12:44.556            24.054               CapeTown           751.687
       401   05 Jun 2027 07:15:41.731   05 Jun 2027 07:17:15.931            94.200               CapeTown          2943.750
       402   05 Jun 2027 08:12:18.760   05 Jun 2027 08:12:52.820            34.060               Magadan1          1064.375
       403   05 Jun 2027 08:12:58.790   05 Jun 2027 08:13:47.996            49.206                Anadyr1          1537.688
       404   05 Jun 2027 08:14:13.394   05 Jun 2027 08:14:25.664            12.270               Magadan1           383.437
       405   05 Jun 2027 08:14:37.807   05 Jun 2027 08:15:38.996            61.189                Anadyr1          1912.156
       406   05 Jun 2027 08:15:58.471   05 Jun 2027 08:16:18.596            20.125               Magadan2           628.906
       407   05 Jun 2027 08:16:39.874   05 Jun 2027 08:17:45.199            65.325                Anadyr2          2041.406
       408   05 Jun 2027 08:31:07.229   05 Jun 2027 08:31:38.767            31.538                 Moscow           985.563
       409   05 Jun 2027 09:47:35.687   05 Jun 2027 09:48:05.548            29.861               Magadan2           933.156
       410   05 Jun 2027 09:48:14.805   05 Jun 2027 09:48:22.615             7.810               Magadan1           244.063
       411   05 Jun 2027 09:50:09.360   05 Jun 2027 09:50:42.780            33.420               Magadan1          1044.375
       412   05 Jun 2027 09:51:32.523   05 Jun 2027 09:52:14.689            42.166                Anadyr1          1317.688
       413   05 Jun 2027 09:52:40.459   05 Jun 2027 09:53:39.325            58.866                Anadyr1          1839.563
       414   05 Jun 2027 09:53:41.223   05 Jun 2027 09:53:46.012             4.789               Magadan2           149.656
       415   05 Jun 2027 09:54:40.851   05 Jun 2027 09:56:02.710            81.859               Magadan1          2558.094
       416   05 Jun 2027 11:11:54.207   05 Jun 2027 11:12:48.120            53.913                Sumatra          1684.781
       417   05 Jun 2027 11:24:00.091   05 Jun 2027 11:24:03.137             3.046               Magadan2            95.187
       418   05 Jun 2027 11:24:03.137   05 Jun 2027 11:24:27.786            24.649               Magadan1           770.281
       419   05 Jun 2027 11:25:27.399   05 Jun 2027 11:26:07.855            40.456                Irkutsk          1264.250
       420   05 Jun 2027 11:27:15.920   05 Jun 2027 11:30:45.633           209.713               Magadan1          6553.531
       421   05 Jun 2027 11:30:58.812   05 Jun 2027 11:31:31.944            33.132                Irkutsk          1035.375
       422   05 Jun 2027 11:31:41.056   05 Jun 2027 11:31:53.027            11.971                Irkutsk           374.094
       423   05 Jun 2027 12:06:41.022   05 Jun 2027 12:07:23.258            42.236            RioGallegos          1319.875
       424   05 Jun 2027 12:08:26.165   05 Jun 2027 12:09:46.453            80.288            RioGallegos          2509.000
       425   05 Jun 2027 12:41:26.827   05 Jun 2027 12:41:29.325             2.498                Sumatra            78.062
       426   05 Jun 2027 12:41:55.866   05 Jun 2027 12:44:23.661           147.795                Sumatra          4618.594
       427   05 Jun 2027 12:57:45.735   05 Jun 2027 12:58:01.282            15.547                Novosib           485.844
       428   05 Jun 2027 12:58:05.895   05 Jun 2027 13:00:03.993           118.098                Irkutsk          3690.563
       429   05 Jun 2027 13:46:22.663   05 Jun 2027 13:47:12.686            50.023            RioGallegos          1563.219
       430   05 Jun 2027 13:50:37.727   05 Jun 2027 13:50:42.141             4.414            RioGallegos           137.937
       431   05 Jun 2027 14:22:03.885   05 Jun 2027 14:24:29.476           145.591                Sumatra          4549.719
       432   05 Jun 2027 14:33:23.496   05 Jun 2027 14:34:19.327            55.831                Novosib          1744.719
       433   05 Jun 2027 14:35:30.795   05 Jun 2027 14:37:32.821           122.026                Novosib          3813.312
       434   05 Jun 2027 14:37:57.360   05 Jun 2027 14:39:50.848           113.488                Irkutsk          3546.500
       435   05 Jun 2027 16:10:03.585   05 Jun 2027 16:11:16.258            72.673                 Moscow          2271.031
       436   05 Jun 2027 16:13:28.194   05 Jun 2027 16:14:26.733            58.539              Murmansk1          1829.344
       437   05 Jun 2027 16:17:09.973   05 Jun 2027 16:18:34.742            84.769                Norilsk          2649.031
       438   05 Jun 2027 16:20:52.227   05 Jun 2027 16:22:47.743           115.516                Norilsk          3609.875
       439   05 Jun 2027 17:24:49.142   05 Jun 2027 17:25:15.311            26.169               CapeTown           817.781
       440   05 Jun 2027 17:27:47.776   05 Jun 2027 17:27:49.545             1.769               CapeTown            55.281
       441   05 Jun 2027 17:28:25.571   05 Jun 2027 17:28:34.324             8.753               CapeTown           273.531
       442   05 Jun 2027 17:30:32.560   05 Jun 2027 17:31:11.280            38.720               CapeTown          1210.000
       443   05 Jun 2027 17:47:12.827   05 Jun 2027 17:47:30.366            17.539                 Moscow           548.094
       444   05 Jun 2027 17:48:48.676   05 Jun 2027 17:52:12.973           204.297                 Moscow          6384.281
       445   05 Jun 2027 17:58:32.684   05 Jun 2027 17:59:32.163            59.479              Murmansk2          1858.719
       446   05 Jun 2027 18:10:52.219   05 Jun 2027 18:11:12.435            20.216                Anadyr1           631.750
       447   05 Jun 2027 18:59:30.493   05 Jun 2027 19:01:29.636           119.143               CapeTown          3723.219
       448   05 Jun 2027 19:29:35.716   05 Jun 2027 19:35:02.601           326.885              Murmansk2         10215.156
       449   05 Jun 2027 19:35:31.576   05 Jun 2027 19:37:35.771           124.195              Murmansk2          3881.094
       450   05 Jun 2027 20:38:46.062   05 Jun 2027 20:42:17.832           211.770               CapeTown          6617.812
       451   05 Jun 2027 21:16:37.323   05 Jun 2027 21:16:53.005            15.682                Anadyr1           490.062
       452   05 Jun 2027 21:16:54.625   05 Jun 2027 21:17:07.108            12.483                Anadyr1           390.094
       453   05 Jun 2027 21:18:22.598   05 Jun 2027 21:19:16.364            53.766               Magadan2          1680.187
       454   05 Jun 2027 21:19:16.364   05 Jun 2027 21:20:48.659            92.295               Magadan1          2884.219
       455   05 Jun 2027 21:21:05.468   05 Jun 2027 21:21:17.611            12.143               Magadan1           379.469
       456   05 Jun 2027 21:23:18.482   05 Jun 2027 21:23:27.272             8.790               Magadan2           274.688
       457   05 Jun 2027 22:51:53.554   05 Jun 2027 22:55:36.726           223.172                Anadyr2          6974.125
       458   05 Jun 2027 22:55:48.937   05 Jun 2027 22:57:14.882            85.945                Norilsk          2685.781
       459   05 Jun 2027 22:57:17.860   05 Jun 2027 22:57:23.876             6.016                Anadyr2           188.000
       460   05 Jun 2027 22:57:23.876   05 Jun 2027 22:57:31.127             7.251                Anadyr1           226.594
       461   05 Jun 2027 22:57:49.389   05 Jun 2027 22:59:12.232            82.843               Magadan1          2588.844
       462   05 Jun 2027 22:59:37.026   05 Jun 2027 22:59:39.460             2.434                Irkutsk            76.063
       463   05 Jun 2027 23:00:33.701   05 Jun 2027 23:01:06.423            32.722                Irkutsk          1022.562
       464   05 Jun 2027 23:01:51.468   05 Jun 2027 23:02:25.572            34.104                Irkutsk          1065.750
       465   05 Jun 2027 23:04:22.964   05 Jun 2027 23:04:56.388            33.424                Irkutsk          1044.500
       466   05 Jun 2027 23:16:01.005   05 Jun 2027 23:16:59.606            58.601                Sumatra          1831.281
       467   05 Jun 2027 23:18:43.734   05 Jun 2027 23:19:35.601            51.867                Sumatra          1620.844
       468   05 Jun 2027 23:46:54.690   05 Jun 2027 23:47:03.610             8.920            RioGallegos           278.750
       469   05 Jun 2027 23:47:25.418   05 Jun 2027 23:48:02.230            36.812            RioGallegos          1150.375
       470   05 Jun 2027 23:55:07.358   05 Jun 2027 23:55:30.200            22.842            RioGallegos           713.812
       471   05 Jun 2027 23:56:06.143   05 Jun 2027 23:56:33.361            27.218            RioGallegos           850.563
       472   06 Jun 2027 00:27:19.935   06 Jun 2027 00:27:43.141            23.206                Anadyr1           725.187
       473   06 Jun 2027 00:27:51.524   06 Jun 2027 00:28:44.622            53.098                Anadyr2          1659.313
       474   06 Jun 2027 00:29:43.672   06 Jun 2027 00:31:29.969           106.297                Norilsk          3321.781
       475   06 Jun 2027 00:31:51.082   06 Jun 2027 00:32:09.663            18.581               Magadan1           580.656
       476   06 Jun 2027 00:32:16.450   06 Jun 2027 00:32:47.049            30.599               Magadan2           956.219
       477   06 Jun 2027 00:33:43.996   06 Jun 2027 00:35:26.515           102.519                Irkutsk          3203.719
       478   06 Jun 2027 00:36:31.281   06 Jun 2027 00:37:04.670            33.389                Novosib          1043.406
       479   06 Jun 2027 00:41:44.406   06 Jun 2027 00:41:47.207             2.801                Irkutsk            87.531
       480   06 Jun 2027 00:42:14.036   06 Jun 2027 00:43:24.983            70.947                Novosib          2217.094
       481   06 Jun 2027 00:47:26.799   06 Jun 2027 00:49:58.961           152.162                Sumatra          4755.062
       482   06 Jun 2027 01:27:56.252   06 Jun 2027 01:28:05.095             8.843            RioGallegos           276.344
