uniorb/output/strategy_4/Drop/Drop_KinoSat_110403.txt

KinoSat_110403
-------------------------
    Access    *     Start Time (UTCG)     *     Stop Time (UTCG)  *   Duration (s)        *       Station  *  Data (Mbytes)
         1   01 Jun 2027 04:13:31.568   01 Jun 2027 04:15:45.680           134.112               Magadan1         16764.000
         2   01 Jun 2027 04:16:12.013   01 Jun 2027 04:16:34.983            22.970               Magadan1          2871.250
         3   01 Jun 2027 04:16:55.750   01 Jun 2027 04:17:24.485            28.735              Murmansk2          3591.875
         4   01 Jun 2027 04:17:48.430   01 Jun 2027 04:17:56.904             8.474               Magadan2          1059.250
         5   01 Jun 2027 04:17:58.971   01 Jun 2027 04:18:11.052            12.081                Irkutsk          1510.125
         6   01 Jun 2027 04:18:14.133   01 Jun 2027 04:18:48.844            34.711                Norilsk          4338.875
         7   01 Jun 2027 04:19:18.513   01 Jun 2027 04:19:46.389            27.876                Norilsk          3484.500
         8   01 Jun 2027 04:52:59.484   01 Jun 2027 04:53:48.107            48.623            RioGallegos          6077.875
         9   01 Jun 2027 04:54:49.526   01 Jun 2027 04:55:44.037            54.511            RioGallegos          6813.875
        10   01 Jun 2027 05:28:34.238   01 Jun 2027 05:30:24.224           109.986                Sumatra         13748.250
        11   01 Jun 2027 05:43:01.302   01 Jun 2027 05:44:00.517            59.215                  Delhi          7401.875
        12   01 Jun 2027 05:51:00.498   01 Jun 2027 05:52:22.153            81.655                Irkutsk         10206.875
        13   01 Jun 2027 05:52:51.113   01 Jun 2027 05:53:58.534            67.421              Murmansk2          8427.625
        14   01 Jun 2027 06:32:50.670   01 Jun 2027 06:33:52.443            61.773            RioGallegos          7721.625
        15   01 Jun 2027 07:12:15.835   01 Jun 2027 07:12:54.720            38.885                  Delhi          4860.625
        16   01 Jun 2027 07:14:23.783   01 Jun 2027 07:15:12.744            48.961                  Delhi          6120.125
        17   01 Jun 2027 07:28:12.219   01 Jun 2027 07:28:30.635            18.416                 Moscow          2302.000
        18   01 Jun 2027 07:28:38.571   01 Jun 2027 07:29:19.994            41.423              Murmansk2          5177.875
        19   01 Jun 2027 07:29:28.214   01 Jun 2027 07:30:01.164            32.950                 Moscow          4118.750
        20   01 Jun 2027 07:31:06.625   01 Jun 2027 07:32:10.264            63.639                 Moscow          7954.875
        21   01 Jun 2027 09:04:40.260   01 Jun 2027 09:05:04.940            24.680                 Moscow          3085.000
        22   01 Jun 2027 09:05:12.401   01 Jun 2027 09:05:35.002            22.601                 Moscow          2825.125
        23   01 Jun 2027 09:05:37.049   01 Jun 2027 09:05:56.136            19.087                Novosib          2385.875
        24   01 Jun 2027 09:06:06.760   01 Jun 2027 09:09:20.567           193.807                 Moscow         24225.875
        25   01 Jun 2027 09:09:21.379   01 Jun 2027 09:12:52.301           210.922              Murmansk1         26365.250
        26   01 Jun 2027 10:14:52.611   01 Jun 2027 10:16:58.072           125.461               CapeTown         15682.625
        27   01 Jun 2027 10:32:45.566   01 Jun 2027 10:34:35.291           109.725                 Moscow         13715.625
        28   01 Jun 2027 10:51:44.817   01 Jun 2027 10:55:04.265           199.448                Anadyr1         24931.000
        29   01 Jun 2027 10:55:04.265   01 Jun 2027 10:55:17.840            13.575                Anadyr2          1696.875
        30   01 Jun 2027 10:57:35.877   01 Jun 2027 10:57:51.645            15.768                Anadyr1          1971.000
        31   01 Jun 2027 12:29:07.372   01 Jun 2027 12:31:11.259           123.887                Anadyr2         15485.875
        32   01 Jun 2027 14:05:05.014   01 Jun 2027 14:07:16.767           131.753               Magadan2         16469.125
        33   01 Jun 2027 14:07:45.103   01 Jun 2027 14:09:23.260            98.157               Magadan1         12269.625
        34   01 Jun 2027 14:14:07.619   01 Jun 2027 14:16:10.434           122.815               Magadan2         15351.875
        35   01 Jun 2027 16:33:04.023   01 Jun 2027 16:35:07.751           123.728            RioGallegos         15466.000
        36   01 Jun 2027 16:35:22.077   01 Jun 2027 16:39:15.236           233.159            RioGallegos         29144.875
        37   01 Jun 2027 17:23:10.964   01 Jun 2027 17:23:43.571            32.607                Irkutsk          4075.875
        38   01 Jun 2027 17:24:35.802   01 Jun 2027 17:25:44.421            68.619                Novosib          8577.375
        39   01 Jun 2027 17:34:24.268   01 Jun 2027 17:36:14.969           110.701                Sumatra         13837.625
        40   01 Jun 2027 17:36:36.894   01 Jun 2027 17:38:15.176            98.282                Sumatra         12285.250
        41   01 Jun 2027 17:40:15.480   01 Jun 2027 17:40:49.716            34.236                Sumatra          4279.500
        42   01 Jun 2027 18:56:15.442   01 Jun 2027 18:58:16.098           120.656                Novosib         13541.125
        43   02 Jun 2027 04:30:23.228   02 Jun 2027 04:31:23.656            60.428              Murmansk1          7553.500
        44   02 Jun 2027 04:31:23.656   02 Jun 2027 04:34:45.106           201.450              Murmansk2         25181.250
        45   02 Jun 2027 05:40:16.059   02 Jun 2027 05:40:27.074            11.015                Sumatra          1376.875
        46   02 Jun 2027 05:42:03.865   02 Jun 2027 05:43:26.068            82.203                Sumatra         10275.375
        47   02 Jun 2027 05:52:40.311   02 Jun 2027 05:52:55.757            15.446                  Delhi          1930.750
        48   02 Jun 2027 05:57:41.305   02 Jun 2027 05:58:28.468            47.163                  Delhi          5895.375
        49   02 Jun 2027 06:03:15.108   02 Jun 2027 06:05:00.651           105.543                Irkutsk         13192.875
        50   02 Jun 2027 06:06:02.255   02 Jun 2027 06:06:14.751            12.496                Irkutsk          1562.000
        51   02 Jun 2027 06:06:21.599   02 Jun 2027 06:11:17.407           295.808                Norilsk         36976.000
        52   02 Jun 2027 06:11:30.006   02 Jun 2027 06:13:42.866           132.860              Murmansk1         16607.500
        53   02 Jun 2027 06:48:58.741   02 Jun 2027 06:52:49.294           230.553            RioGallegos         28819.125
        54   02 Jun 2027 07:17:22.721   02 Jun 2027 07:21:13.821           231.100                Sumatra         28887.500
        55   02 Jun 2027 07:41:51.402   02 Jun 2027 07:42:01.132             9.730                 Moscow          1216.250
        56   02 Jun 2027 07:42:20.222   02 Jun 2027 07:43:40.059            79.837                Novosib          9979.625
        57   02 Jun 2027 07:43:45.221   02 Jun 2027 07:47:17.294           212.073                Norilsk         26509.125
        58   02 Jun 2027 07:47:19.250   02 Jun 2027 07:49:05.122           105.872              Murmansk2         13234.000
        59   02 Jun 2027 09:07:40.988   02 Jun 2027 09:10:18.246           157.258                  Delhi         19657.250
        60   02 Jun 2027 09:11:26.813   02 Jun 2027 09:13:07.544           100.731                Novosib         12591.375
        61   02 Jun 2027 09:17:25.517   02 Jun 2027 09:17:49.829            24.312                Novosib          3039.000
        62   02 Jun 2027 09:18:41.341   02 Jun 2027 09:23:07.468           266.127                Norilsk         33265.875
        63   02 Jun 2027 09:23:36.815   02 Jun 2027 09:24:53.505            76.690              Murmansk2          9586.250
        64   02 Jun 2027 10:28:40.087   02 Jun 2027 10:31:12.147           152.060               CapeTown         19007.500
        65   02 Jun 2027 10:47:36.317   02 Jun 2027 10:48:12.640            36.323                 Moscow          4540.375
        66   02 Jun 2027 10:51:15.597   02 Jun 2027 10:54:40.303           204.706              Murmansk2         25588.250
        67   02 Jun 2027 10:54:41.265   02 Jun 2027 10:57:08.392           147.127                 Moscow         18390.875
        68   02 Jun 2027 10:57:11.139   02 Jun 2027 11:00:51.399           220.260              Murmansk2         27532.500
        69   02 Jun 2027 11:03:28.927   02 Jun 2027 11:07:18.225           229.298                Anadyr2         28662.250
        70   02 Jun 2027 12:43:41.907   02 Jun 2027 12:46:22.314           160.407               Magadan2         20050.875
        71   02 Jun 2027 14:17:00.642   02 Jun 2027 14:21:25.162           264.520               Magadan1         33065.000
        72   02 Jun 2027 16:44:50.780   02 Jun 2027 16:50:44.053           353.273            RioGallegos         44159.125
        73   02 Jun 2027 17:34:21.484   02 Jun 2027 17:37:30.303           188.819                Novosib         23602.375
        74   02 Jun 2027 17:46:09.481   02 Jun 2027 17:47:50.700           101.219                Sumatra         12652.375
        75   02 Jun 2027 17:48:53.391   02 Jun 2027 17:50:38.799           105.408                Sumatra         13176.000
        76   02 Jun 2027 19:15:57.730   02 Jun 2027 19:17:39.863           102.133                  Delhi         12766.625
        77   02 Jun 2027 19:21:24.382   02 Jun 2027 19:22:15.158            50.776                  Delhi          6347.000
        78   02 Jun 2027 20:43:20.874   02 Jun 2027 20:44:04.562            43.688              Murmansk1          5461.000
        79   02 Jun 2027 20:47:22.255   02 Jun 2027 20:50:52.435           210.180                 Moscow         13531.000
        80   03 Jun 2027 04:42:25.735   03 Jun 2027 04:47:24.805           299.070                Norilsk         37383.750
        81   03 Jun 2027 04:47:31.784   03 Jun 2027 04:50:52.715           200.931              Murmansk2         25116.375
        82   03 Jun 2027 05:17:03.784   03 Jun 2027 05:29:52.260           768.476            RioGallegos         96059.500
        83   03 Jun 2027 05:52:04.441   03 Jun 2027 05:54:59.144           174.703                Sumatra         21837.875
        84   03 Jun 2027 06:18:05.519   03 Jun 2027 06:18:12.084             6.565                Irkutsk           820.625
        85   03 Jun 2027 06:18:23.487   03 Jun 2027 06:18:37.541            14.054                Norilsk          1756.750
        86   03 Jun 2027 06:18:37.669   03 Jun 2027 06:19:53.077            75.408                Novosib          9426.000
        87   03 Jun 2027 06:20:22.796   03 Jun 2027 06:23:19.091           176.295                Norilsk         22036.875
        88   03 Jun 2027 06:23:22.940   03 Jun 2027 06:25:37.877           134.937              Murmansk2         16867.125
        89   03 Jun 2027 07:00:51.551   03 Jun 2027 07:04:29.712           218.161            RioGallegos         27270.125
        90   03 Jun 2027 07:35:22.375   03 Jun 2027 07:37:23.887           121.512                Sumatra         15189.000
        91   03 Jun 2027 07:43:32.869   03 Jun 2027 07:43:35.331             2.462                Novosib           307.750
        92   03 Jun 2027 07:44:14.850   03 Jun 2027 07:48:54.278           279.428                  Delhi         34928.500
        93   03 Jun 2027 07:48:54.793   03 Jun 2027 07:50:33.793            99.000                Irkutsk         12375.000
        94   03 Jun 2027 07:53:57.697   03 Jun 2027 07:55:36.846            99.149                Novosib         12393.625
        95   03 Jun 2027 07:55:51.726   03 Jun 2027 07:59:18.934           207.208                Norilsk         25901.000
        96   03 Jun 2027 07:59:21.074   03 Jun 2027 08:01:04.457           103.383              Murmansk1         12922.875
        97   03 Jun 2027 09:19:20.914   03 Jun 2027 09:21:00.025            99.111                  Delhi         12388.875
        98   03 Jun 2027 09:29:20.372   03 Jun 2027 09:30:10.218            49.846                 Moscow          6230.750
        99   03 Jun 2027 09:31:11.547   03 Jun 2027 09:35:05.415           233.868                Norilsk         29233.500
       100   03 Jun 2027 09:35:41.445   03 Jun 2027 09:36:54.847            73.402              Murmansk2          9175.250
       101   03 Jun 2027 10:59:33.110   03 Jun 2027 11:00:25.708            52.598                 Moscow          6574.750
       102   03 Jun 2027 11:03:17.172   03 Jun 2027 11:03:43.848            26.676              Murmansk1          3334.500
       103   03 Jun 2027 11:03:55.667   03 Jun 2027 11:09:04.140           308.473                 Moscow         38559.125
       104   03 Jun 2027 11:09:12.343   03 Jun 2027 11:12:52.898           220.555              Murmansk2         27569.375
       105   03 Jun 2027 11:15:17.854   03 Jun 2027 11:23:32.922           495.068                Anadyr2         61883.500
       106   03 Jun 2027 12:14:55.246   03 Jun 2027 12:22:44.316           469.070               CapeTown         58633.750
       107   03 Jun 2027 12:39:28.865   03 Jun 2027 12:45:10.246           341.381              Murmansk2         42672.625
       108   03 Jun 2027 12:51:19.820   03 Jun 2027 12:51:36.250            16.430                Anadyr2          2053.750
       109   03 Jun 2027 12:54:46.530   03 Jun 2027 12:57:41.075           174.545               Magadan1         21818.125
       110   03 Jun 2027 14:28:57.475   03 Jun 2027 14:33:26.825           269.350               Magadan1         33668.750
       111   03 Jun 2027 16:11:16.002   03 Jun 2027 16:13:47.786           151.784                Irkutsk         18973.000
       112   03 Jun 2027 16:58:05.940   03 Jun 2027 17:00:08.963           123.023            RioGallegos         15377.875
       113   03 Jun 2027 17:45:45.331   03 Jun 2027 17:49:19.707           214.376                Novosib         26797.000
       114   03 Jun 2027 17:49:58.180   03 Jun 2027 17:51:59.955           121.775                Novosib         15221.875
       115   03 Jun 2027 19:27:43.663   03 Jun 2027 19:32:00.603           256.940                  Delhi         32117.500
       116   03 Jun 2027 20:58:56.619   03 Jun 2027 21:02:17.762           201.143                 Moscow         22847.375
       117   04 Jun 2027 03:17:00.906   04 Jun 2027 03:17:38.986            38.080                Norilsk          4760.000
       118   04 Jun 2027 03:18:00.137   04 Jun 2027 03:18:12.257            12.120                Anadyr1          1515.000
       119   04 Jun 2027 03:18:19.770   04 Jun 2027 03:18:33.275            13.505               Magadan1          1688.125
       120   04 Jun 2027 03:18:38.163   04 Jun 2027 03:22:50.810           252.647              Murmansk1         31580.875
       121   04 Jun 2027 04:54:26.794   04 Jun 2027 04:54:43.974            17.180                Norilsk          2147.500
       122   04 Jun 2027 04:54:58.150   04 Jun 2027 04:55:22.331            24.181                Norilsk          3022.625
       123   04 Jun 2027 04:55:26.307   04 Jun 2027 04:55:38.800            12.493                Novosib          1561.625
       124   04 Jun 2027 04:57:17.374   04 Jun 2027 05:02:42.641           325.267              Murmansk2         40658.375
       125   04 Jun 2027 05:37:24.499   04 Jun 2027 05:41:50.694           266.195            RioGallegos         33274.375
       126   04 Jun 2027 06:11:41.360   04 Jun 2027 06:16:42.199           300.839                Sumatra         37604.875
       127   04 Jun 2027 06:20:26.966   04 Jun 2027 06:24:15.040           228.074                Irkutsk         28509.250
       128   04 Jun 2027 06:30:27.037   04 Jun 2027 06:31:55.246            88.209                Novosib         11026.125
       129   04 Jun 2027 06:32:16.244   04 Jun 2027 06:35:20.868           184.624                Norilsk         23078.000
       130   04 Jun 2027 06:35:33.444   04 Jun 2027 06:37:33.560           120.116              Murmansk2         15014.500
       131   04 Jun 2027 07:12:41.923   04 Jun 2027 07:16:02.227           200.304            RioGallegos         25038.000
       132   04 Jun 2027 07:46:55.717   04 Jun 2027 07:47:35.960            40.243                Sumatra          5030.375
       133   04 Jun 2027 07:55:17.366   04 Jun 2027 08:00:50.426           333.060                  Delhi         41632.500
       134   04 Jun 2027 08:01:01.802   04 Jun 2027 08:02:08.693            66.891                Novosib          8361.375
       135   04 Jun 2027 08:06:05.815   04 Jun 2027 08:09:14.123           188.308                 Moscow         23538.500
       136   04 Jun 2027 08:09:26.855   04 Jun 2027 08:13:04.153           217.298              Murmansk2         27162.250
       137   04 Jun 2027 09:42:41.676   04 Jun 2027 09:47:02.049           260.373                Norilsk         32546.625
       138   04 Jun 2027 09:47:31.068   04 Jun 2027 09:48:56.313            85.245              Murmansk2         10655.625
       139   04 Jun 2027 11:11:28.567   04 Jun 2027 11:11:50.685            22.118                 Moscow          2764.750
       140   04 Jun 2027 11:15:18.650   04 Jun 2027 11:15:31.763            13.113              Murmansk1          1639.125
       141   04 Jun 2027 11:15:37.080   04 Jun 2027 11:20:58.330           321.250                 Moscow         40156.250
       142   04 Jun 2027 11:21:13.692   04 Jun 2027 11:24:54.273           220.581              Murmansk1         27572.625
       143   04 Jun 2027 11:29:02.507   04 Jun 2027 11:36:12.257           429.750                Anadyr1         53718.750
       144   04 Jun 2027 12:27:06.756   04 Jun 2027 12:34:37.704           450.948               CapeTown         56368.500
       145   04 Jun 2027 12:52:03.572   04 Jun 2027 13:00:37.783           514.211              Murmansk2         64276.375
       146   04 Jun 2027 13:02:37.843   04 Jun 2027 13:15:04.210           746.367                Anadyr1         93295.875
       147   04 Jun 2027 14:00:53.938   04 Jun 2027 14:04:03.709           189.771               CapeTown         23721.375
       148   04 Jun 2027 14:41:16.536   04 Jun 2027 14:43:22.632           126.096               Magadan1         15762.000
       149   04 Jun 2027 14:44:25.777   04 Jun 2027 14:46:10.774           104.997               Magadan2         13124.625
       150   04 Jun 2027 16:22:19.736   04 Jun 2027 16:28:40.645           380.909                Irkutsk         47613.625
       151   04 Jun 2027 16:38:57.770   04 Jun 2027 16:42:47.212           229.442                Sumatra         28680.250
       152   04 Jun 2027 17:57:21.599   04 Jun 2027 18:00:47.155           205.556                Novosib         25694.500
       153   04 Jun 2027 19:41:34.438   04 Jun 2027 19:42:21.937            47.499                  Delhi          5937.375
       154   04 Jun 2027 21:06:30.274   04 Jun 2027 21:07:21.991            51.717              Murmansk2          6464.625
       155   04 Jun 2027 21:10:38.503   04 Jun 2027 21:14:18.720           220.217                 Moscow         27527.125
       156   04 Jun 2027 21:38:15.837   04 Jun 2027 21:39:43.020            87.183               CapeTown         10897.875
       157   05 Jun 2027 03:29:10.935   05 Jun 2027 03:29:40.567            29.632                Norilsk          3704.000
       158   05 Jun 2027 03:30:31.620   05 Jun 2027 03:40:18.655           587.035              Murmansk2         73379.375
       159   05 Jun 2027 04:05:44.137   05 Jun 2027 04:06:54.321            70.184            RioGallegos          8773.000
       160   05 Jun 2027 04:43:56.017   05 Jun 2027 04:45:03.974            67.957                Sumatra          8494.625
       161   05 Jun 2027 05:06:28.048   05 Jun 2027 05:07:57.759            89.711                Norilsk         11213.875
       162   05 Jun 2027 05:09:10.080   05 Jun 2027 05:14:33.259           323.179              Murmansk1         40397.375
       163   05 Jun 2027 05:49:25.485   05 Jun 2027 05:53:47.860           262.375            RioGallegos         32796.875
       164   05 Jun 2027 06:23:58.881   05 Jun 2027 06:28:39.078           280.197                Sumatra         35024.625
       165   05 Jun 2027 06:31:57.520   05 Jun 2027 06:32:08.844            11.324                Irkutsk          1415.500
       166   05 Jun 2027 06:32:32.484   05 Jun 2027 06:35:52.973           200.489                Irkutsk         25061.125
       167   05 Jun 2027 06:41:28.865   05 Jun 2027 06:42:10.213            41.348                Novosib          5168.500
       168   05 Jun 2027 06:42:30.500   05 Jun 2027 06:43:32.233            61.733                 Moscow          7716.625
       169   05 Jun 2027 06:43:32.638   05 Jun 2027 06:47:22.710           230.072                Norilsk         28759.000
       170   05 Jun 2027 06:47:34.525   05 Jun 2027 06:49:29.888           115.363              Murmansk1         14420.375
       171   05 Jun 2027 07:24:29.135   05 Jun 2027 07:27:19.830           170.695            RioGallegos         21336.875
       172   05 Jun 2027 08:06:27.285   05 Jun 2027 08:12:42.893           375.608                  Delhi         46951.000
       173   05 Jun 2027 08:12:57.973   05 Jun 2027 08:13:14.773            16.800                Novosib          2100.000
       174   05 Jun 2027 08:13:25.842   05 Jun 2027 08:13:46.153            20.311                Norilsk          2538.875
       175   05 Jun 2027 08:18:03.182   05 Jun 2027 08:21:19.343           196.161                 Moscow         24520.125
       176   05 Jun 2027 08:21:28.798   05 Jun 2027 08:23:19.306           110.508              Murmansk2         13813.500
       177   05 Jun 2027 08:23:19.306   05 Jun 2027 08:25:04.189           104.883              Murmansk1         13110.375
       178   05 Jun 2027 09:54:10.126   05 Jun 2027 09:57:28.525           198.399                 Moscow         24799.875
       179   05 Jun 2027 09:57:33.550   05 Jun 2027 09:58:56.800            83.250                Norilsk         10406.250
       180   05 Jun 2027 09:59:06.606   05 Jun 2027 10:00:57.870           111.264              Murmansk1         13908.000
       181   05 Jun 2027 11:27:19.994   05 Jun 2027 11:28:59.718            99.724              Murmansk1         12465.500
       182   05 Jun 2027 11:29:09.397   05 Jun 2027 11:32:50.573           221.176                 Moscow         27647.000
       183   05 Jun 2027 11:33:01.053   05 Jun 2027 11:36:55.466           234.413              Murmansk2         29301.625
       184   05 Jun 2027 11:41:58.903   05 Jun 2027 11:48:47.063           408.160                Anadyr2         51020.000
       185   05 Jun 2027 12:38:59.289   05 Jun 2027 12:46:26.076           446.787               CapeTown         55848.375
       186   05 Jun 2027 13:04:41.680   05 Jun 2027 13:12:33.899           472.219              Murmansk1         59027.375
       187   05 Jun 2027 13:14:38.324   05 Jun 2027 13:19:15.651           277.327                Anadyr1         34665.875
       188   05 Jun 2027 13:21:33.565   05 Jun 2027 13:24:23.990           170.425               Magadan2         21303.125
       189   05 Jun 2027 14:57:30.851   05 Jun 2027 14:57:51.900            21.049               Magadan1          2631.125
       190   05 Jun 2027 15:47:42.646   05 Jun 2027 15:49:58.552           135.906            RioGallegos         16988.250
       191   05 Jun 2027 16:33:47.025   05 Jun 2027 16:38:35.635           288.610                Irkutsk         36076.250
       192   05 Jun 2027 16:49:13.374   05 Jun 2027 16:51:20.156           126.782                Sumatra         15847.750
       193   05 Jun 2027 16:53:17.048   05 Jun 2027 16:55:27.014           129.966                Sumatra         16245.750
       194   05 Jun 2027 18:10:38.086   05 Jun 2027 18:10:55.534            17.448                Novosib          2181.000
       195   05 Jun 2027 18:12:48.241   05 Jun 2027 18:13:05.704            17.463                Novosib          2182.875
       196   05 Jun 2027 18:14:56.035   05 Jun 2027 18:15:14.038            18.003                Novosib          2250.375
       197   05 Jun 2027 18:20:48.300   05 Jun 2027 18:21:15.213            26.913                  Delhi          3364.125
       198   05 Jun 2027 18:21:39.032   05 Jun 2027 18:22:21.837            42.805                  Delhi          5350.625
       199   05 Jun 2027 21:18:29.777   05 Jun 2027 21:20:55.168           145.391              Murmansk1         18173.875
       200   05 Jun 2027 21:22:25.131   05 Jun 2027 21:24:35.336           130.205                 Moscow         16275.625
       201   05 Jun 2027 21:26:20.275   05 Jun 2027 21:26:32.874            12.599                 Moscow          1574.875
       202   05 Jun 2027 21:28:44.581   05 Jun 2027 21:29:37.483            52.902                 Moscow          6612.750
       203   05 Jun 2027 21:49:02.224   05 Jun 2027 21:50:22.363            80.139               CapeTown         10017.375
       204   05 Jun 2027 21:52:53.502   05 Jun 2027 21:53:20.649            27.147               CapeTown          3393.375
       205   06 Jun 2027 03:42:32.120   06 Jun 2027 03:52:05.859           573.739              Murmansk1         71717.375
       206   06 Jun 2027 04:17:31.877   06 Jun 2027 04:18:04.238            32.361            RioGallegos          4045.125
       207   06 Jun 2027 04:54:40.117   06 Jun 2027 04:57:10.620           150.503                Sumatra         18812.875
       208   06 Jun 2027 05:19:10.719   06 Jun 2027 05:19:49.575            38.856                Novosib          4857.000
       209   06 Jun 2027 05:21:03.531   06 Jun 2027 05:26:24.603           321.072              Murmansk1         40134.000
       210   06 Jun 2027 06:01:25.498   06 Jun 2027 06:05:43.540           258.042            RioGallegos         32255.250
       211   06 Jun 2027 06:36:09.753   06 Jun 2027 06:40:30.237           260.484                Sumatra         32560.500
       212   06 Jun 2027 06:43:53.814   06 Jun 2027 06:44:26.410            32.596                Irkutsk          4074.500
       213   06 Jun 2027 06:44:45.897   06 Jun 2027 06:48:24.098           218.201                Irkutsk         27275.125
       214   06 Jun 2027 06:52:52.992   06 Jun 2027 06:53:17.790            24.798                Novosib          3099.750
       215   06 Jun 2027 06:54:21.049   06 Jun 2027 06:55:57.907            96.858                Novosib         12107.250
       216   06 Jun 2027 06:56:20.312   06 Jun 2027 06:57:12.931            52.619              Murmansk1          6577.375
       217   06 Jun 2027 06:57:12.931   06 Jun 2027 07:01:26.812           253.881              Murmansk2         31735.125
       218   06 Jun 2027 07:36:12.038   06 Jun 2027 07:37:39.304            87.266            RioGallegos         10908.250
       219   06 Jun 2027 08:20:27.797   06 Jun 2027 08:24:31.151           243.354                  Delhi         30419.250
       220   06 Jun 2027 08:24:50.805   06 Jun 2027 08:25:15.045            24.240                 Moscow          3030.000
       221   06 Jun 2027 08:30:03.367   06 Jun 2027 08:30:20.435            17.068                 Moscow          2133.500
       222   06 Jun 2027 08:30:30.132   06 Jun 2027 08:31:17.896            47.764                Novosib          5970.500
       223   06 Jun 2027 08:31:33.831   06 Jun 2027 08:35:22.682           228.851                Norilsk         28606.375
       224   06 Jun 2027 08:35:31.559   06 Jun 2027 08:37:04.512            92.953              Murmansk1         11619.125
       225   06 Jun 2027 09:59:19.511   06 Jun 2027 10:00:27.267            67.756                 Moscow          8469.500
       226   06 Jun 2027 10:00:51.245   06 Jun 2027 10:01:13.430            22.185                 Moscow          2773.125
       227   06 Jun 2027 10:05:03.571   06 Jun 2027 10:06:57.019           113.448              Murmansk2         14181.000
       228   06 Jun 2027 10:07:15.392   06 Jun 2027 10:09:29.050           133.658                 Moscow         16707.250
       229   06 Jun 2027 10:09:30.347   06 Jun 2027 10:10:48.701            78.354                Norilsk          9794.250
       230   06 Jun 2027 10:10:52.869   06 Jun 2027 10:12:59.493           126.624              Murmansk1         15828.000
       231   06 Jun 2027 11:39:21.145   06 Jun 2027 11:40:57.186            96.041              Murmansk1         12005.125
       232   06 Jun 2027 11:41:47.420   06 Jun 2027 11:44:40.302           172.882                 Moscow         21610.250
       233   06 Jun 2027 11:44:48.972   06 Jun 2027 11:48:56.435           247.463              Murmansk2         30932.875
       234   06 Jun 2027 11:54:46.677   06 Jun 2027 12:01:17.961           391.284                Anadyr2         48910.500
       235   06 Jun 2027 12:54:18.578   06 Jun 2027 12:58:09.182           230.604               CapeTown         28825.500
       236   06 Jun 2027 13:17:23.749   06 Jun 2027 13:24:28.137           424.388              Murmansk1         53048.500
       237   06 Jun 2027 13:26:39.069   06 Jun 2027 13:32:54.178           375.109                Anadyr2         46888.625
       238   06 Jun 2027 13:33:34.213   06 Jun 2027 13:35:19.738           105.525               Magadan1         13190.625
       239   06 Jun 2027 15:06:33.253   06 Jun 2027 15:07:49.046            75.793               Magadan1          9474.125
       240   06 Jun 2027 15:07:51.309   06 Jun 2027 15:09:28.688            97.379               Magadan1         12172.375
       241   06 Jun 2027 15:58:36.625   06 Jun 2027 16:01:43.791           187.166            RioGallegos         23395.750
       242   06 Jun 2027 16:45:37.787   06 Jun 2027 16:48:55.148           197.361                Irkutsk         24670.125
       243   06 Jun 2027 16:51:03.462   06 Jun 2027 16:51:58.793            55.331                Irkutsk          6916.375
       244   06 Jun 2027 17:00:12.916   06 Jun 2027 17:03:02.809           169.893                Sumatra         21236.625
       245   06 Jun 2027 17:05:36.342   06 Jun 2027 17:09:12.784           216.442                Sumatra         27055.250
       246   06 Jun 2027 18:30:34.914   06 Jun 2027 18:32:16.163           101.249                  Delhi         12656.125
       247   06 Jun 2027 21:32:03.200   06 Jun 2027 21:33:36.656            93.456              Murmansk1         11682.000
       248   06 Jun 2027 21:38:29.524   06 Jun 2027 21:39:43.406            73.882                 Moscow          9235.250
       249   06 Jun 2027 22:00:10.373   06 Jun 2027 22:02:36.460           146.087               CapeTown         10491.375
       250   07 Jun 2027 03:53:25.972   07 Jun 2027 03:53:43.192            17.220               Magadan1          2152.500
       251   07 Jun 2027 03:54:28.771   07 Jun 2027 03:59:43.160           314.389              Murmansk1         39298.625
       252   07 Jun 2027 05:05:50.151   07 Jun 2027 05:08:56.605           186.454                Sumatra         23306.750
       253   07 Jun 2027 05:30:31.034   07 Jun 2027 05:35:27.772           296.738                Norilsk         37092.250
       254   07 Jun 2027 05:35:31.401   07 Jun 2027 05:38:16.692           165.291              Murmansk2         20661.375
       255   07 Jun 2027 06:13:24.436   07 Jun 2027 06:17:37.469           253.033            RioGallegos         31629.125
       256   07 Jun 2027 06:48:14.706   07 Jun 2027 06:52:15.191           240.485                Sumatra         30060.625
       257   07 Jun 2027 06:55:41.839   07 Jun 2027 06:56:09.080            27.241                Irkutsk          3405.125
       258   07 Jun 2027 06:57:29.266   07 Jun 2027 07:00:45.473           196.207                Irkutsk         24525.875
       259   07 Jun 2027 07:05:32.539   07 Jun 2027 07:06:30.053            57.514                 Moscow          7189.250
       260   07 Jun 2027 07:06:30.938   07 Jun 2027 07:11:26.488           295.550                Norilsk         36943.750
       261   07 Jun 2027 07:11:37.176   07 Jun 2027 07:13:24.307           107.131              Murmansk2         13391.375
       262   07 Jun 2027 08:32:25.475   07 Jun 2027 08:36:14.372           228.897                  Delhi         28612.125
       263   07 Jun 2027 08:36:14.910   07 Jun 2027 08:36:41.843            26.933                 Moscow          3366.625
       264   07 Jun 2027 08:36:58.753   07 Jun 2027 08:37:25.531            26.778                Novosib          3347.250
       265   07 Jun 2027 08:42:25.859   07 Jun 2027 08:43:07.016            41.157                Novosib          5144.625
       266   07 Jun 2027 08:43:29.992   07 Jun 2027 08:47:23.335           233.343                Norilsk         29167.875
       267   07 Jun 2027 08:47:33.872   07 Jun 2027 08:49:05.108            91.236              Murmansk2         11404.500
       268   07 Jun 2027 10:11:54.535   07 Jun 2027 10:13:19.928            85.393                 Moscow         10674.125
       269   07 Jun 2027 10:15:14.991   07 Jun 2027 10:16:04.163            49.172              Murmansk1          6146.500
       270   07 Jun 2027 10:16:29.080   07 Jun 2027 10:21:28.862           299.782                 Moscow         37472.750
       271   07 Jun 2027 10:22:19.774   07 Jun 2027 10:25:01.156           161.382              Murmansk1         20172.750
       272   07 Jun 2027 10:29:53.291   07 Jun 2027 10:31:37.707           104.416                Anadyr1         13052.000
       273   07 Jun 2027 11:31:47.604   07 Jun 2027 11:34:34.910           167.306               CapeTown         20913.250
       274   07 Jun 2027 11:51:22.060   07 Jun 2027 11:52:55.203            93.143              Murmansk2         11642.875
       275   07 Jun 2027 11:53:47.996   07 Jun 2027 11:56:26.650           158.654                 Moscow         19831.750
       276   07 Jun 2027 11:56:36.241   07 Jun 2027 12:00:57.105           260.864              Murmansk2         32608.000
       277   07 Jun 2027 12:03:49.210   07 Jun 2027 12:04:30.571            41.361                Anadyr2          5170.125
       278   07 Jun 2027 13:41:33.236   07 Jun 2027 13:47:43.795           370.559               Magadan1         46319.875
       279   07 Jun 2027 16:10:00.542   07 Jun 2027 16:13:32.697           212.155            RioGallegos         26519.375
       280   07 Jun 2027 16:16:19.122   07 Jun 2027 16:17:46.234            87.112            RioGallegos         10889.000
       281   07 Jun 2027 16:59:39.416   07 Jun 2027 17:01:10.240            90.824                Irkutsk         11353.000
       282   07 Jun 2027 17:11:30.856   07 Jun 2027 17:16:18.024           287.168                Sumatra         35896.000
       283   07 Jun 2027 18:41:35.440   07 Jun 2027 18:42:11.186            35.746                Novosib          4468.250
       284   07 Jun 2027 18:42:31.164   07 Jun 2027 18:44:36.885           125.721                  Delhi         15715.125
       285   07 Jun 2027 18:46:44.479   07 Jun 2027 18:48:55.287           130.808                  Delhi         16351.000
       286   07 Jun 2027 21:45:02.983   07 Jun 2027 21:47:08.092           125.109              Murmansk1         15638.625
       287   07 Jun 2027 21:50:25.020   07 Jun 2027 21:51:05.697            40.677                 Moscow          5084.625
       288   07 Jun 2027 22:11:29.667   07 Jun 2027 22:11:46.942            17.275               CapeTown           964.875
       289   08 Jun 2027 04:06:43.173   08 Jun 2027 04:07:23.352            40.179                Novosib          5022.375
       290   08 Jun 2027 04:07:34.862   08 Jun 2027 04:08:51.606            76.744                Norilsk          9593.000
       291   08 Jun 2027 05:17:14.432   08 Jun 2027 05:18:11.904            57.472                Sumatra          7184.000
       292   08 Jun 2027 05:20:28.426   08 Jun 2027 05:20:48.692            20.266                Sumatra          2533.250
       293   08 Jun 2027 05:42:32.716   08 Jun 2027 05:47:29.048           296.332                Norilsk         37041.500
       294   08 Jun 2027 05:47:43.396   08 Jun 2027 05:50:09.536           146.140              Murmansk2         18267.500
       295   08 Jun 2027 06:25:22.178   08 Jun 2027 06:29:29.238           247.060            RioGallegos         30882.500
       296   08 Jun 2027 07:00:14.052   08 Jun 2027 07:03:53.035           218.983                Sumatra         27372.875
       297   08 Jun 2027 07:07:48.394   08 Jun 2027 07:08:29.006            40.612                Irkutsk          5076.500
       298   08 Jun 2027 07:09:28.552   08 Jun 2027 07:13:37.965           249.413                Irkutsk         31176.625
       299   08 Jun 2027 07:18:09.561   08 Jun 2027 07:19:57.948           108.387                Novosib         13548.375
       300   08 Jun 2027 07:20:05.437   08 Jun 2027 07:23:28.365           202.928                Norilsk         25366.000
       301   08 Jun 2027 07:23:56.271   08 Jun 2027 07:25:22.320            86.049              Murmansk1         10756.125
       302   08 Jun 2027 08:44:19.611   08 Jun 2027 08:47:51.132           211.521                  Delhi         26440.125
       303   08 Jun 2027 08:48:01.981   08 Jun 2027 08:50:34.351           152.370                Novosib         19046.250
       304   08 Jun 2027 08:53:52.428   08 Jun 2027 08:54:52.504            60.076                Novosib          7509.500
       305   08 Jun 2027 08:54:54.034   08 Jun 2027 08:59:23.546           269.512                Norilsk         33689.000
       306   08 Jun 2027 08:59:28.194   08 Jun 2027 09:01:05.928            97.734              Murmansk2         12216.750
       307   08 Jun 2027 10:23:54.196   08 Jun 2027 10:25:25.775            91.579                 Moscow         11447.375
       308   08 Jun 2027 10:27:16.054   08 Jun 2027 10:30:58.553           222.499              Murmansk2         27812.375
       309   08 Jun 2027 10:31:01.208   08 Jun 2027 10:33:27.877           146.669                 Moscow         18333.625
       310   08 Jun 2027 10:33:45.121   08 Jun 2027 10:34:12.004            26.883                Norilsk          3360.375
       311   08 Jun 2027 10:34:19.486   08 Jun 2027 10:37:02.823           163.337              Murmansk2         20417.125
       312   08 Jun 2027 10:40:23.764   08 Jun 2027 10:44:00.993           217.229                Anadyr2         27153.625
       313   08 Jun 2027 13:53:25.445   08 Jun 2027 13:58:59.596           334.151               Magadan1         41768.875
       314   08 Jun 2027 14:00:55.836   08 Jun 2027 14:02:21.883            86.047               Magadan2         10755.875
       315   08 Jun 2027 16:21:36.147   08 Jun 2027 16:25:24.365           228.218            RioGallegos         28527.250
       316   08 Jun 2027 16:27:11.214   08 Jun 2027 16:28:19.561            68.347            RioGallegos          8543.375
       317   08 Jun 2027 17:11:22.021   08 Jun 2027 17:13:06.164           104.143                Irkutsk         13017.875
       318   08 Jun 2027 17:23:00.446   08 Jun 2027 17:24:27.603            87.157                Sumatra         10894.625
       319   08 Jun 2027 17:26:46.880   08 Jun 2027 17:29:13.657           146.777                Sumatra         18347.125
       320   08 Jun 2027 18:44:35.367   08 Jun 2027 18:46:06.810            91.443                Novosib         11430.375
       321   08 Jun 2027 18:47:19.176   08 Jun 2027 18:48:54.879            95.703                Novosib         11962.875
       322   08 Jun 2027 18:52:58.878   08 Jun 2027 18:54:33.515            94.637                  Delhi         11829.625
       323   08 Jun 2027 20:26:06.978   08 Jun 2027 20:26:47.435            40.457                 Moscow          5057.125
       324   08 Jun 2027 21:54:31.106   08 Jun 2027 21:56:13.382           102.276              Murmansk1         12784.500
       325   08 Jun 2027 21:58:01.777   08 Jun 2027 21:59:57.453           115.676                 Moscow          4788.750
       326   09 Jun 2027 04:18:29.610   09 Jun 2027 04:19:36.575            66.965                Norilsk          8370.625
       327   09 Jun 2027 05:28:48.601   09 Jun 2027 05:30:38.765           110.164                Sumatra         13770.500
       328   09 Jun 2027 05:43:11.842   09 Jun 2027 05:44:15.476            63.634                  Delhi          7954.250
       329   09 Jun 2027 05:54:29.596   09 Jun 2027 05:56:01.920            92.324                Novosib         11540.500
       330   09 Jun 2027 05:56:09.224   09 Jun 2027 05:59:30.491           201.267                Norilsk         25158.375
       331   09 Jun 2027 05:59:45.405   09 Jun 2027 06:02:03.122           137.717              Murmansk2         17214.625
       332   09 Jun 2027 06:37:18.545   09 Jun 2027 06:41:18.288           239.743            RioGallegos         29967.875
       333   09 Jun 2027 07:12:07.783   09 Jun 2027 07:15:22.110           194.327                Sumatra         24290.875
       334   09 Jun 2027 07:19:20.402   09 Jun 2027 07:20:38.397            77.995                Novosib          9749.375
       335   09 Jun 2027 07:21:26.762   09 Jun 2027 07:25:45.828           259.066                Irkutsk         32383.250
       336   09 Jun 2027 07:30:24.225   09 Jun 2027 07:31:56.783            92.558                Novosib         11569.750
       337   09 Jun 2027 07:32:12.866   09 Jun 2027 07:35:30.197           197.331                Norilsk         24666.375
       338   09 Jun 2027 07:35:38.019   09 Jun 2027 07:37:20.810           102.791              Murmansk2         12848.875
       339   09 Jun 2027 08:56:09.816   09 Jun 2027 08:59:18.886           189.070                  Delhi         23633.750
       340   09 Jun 2027 08:59:30.233   09 Jun 2027 09:01:34.226           123.993                Novosib         15499.125
       341   09 Jun 2027 09:06:55.154   09 Jun 2027 09:11:23.184           268.030                Norilsk         33503.750
       342   09 Jun 2027 09:11:23.233   09 Jun 2027 09:13:06.959           103.726              Murmansk2         12965.750
       343   09 Jun 2027 10:35:53.035   09 Jun 2027 10:37:00.822            67.787                 Moscow          8473.375
       344   09 Jun 2027 10:39:16.836   09 Jun 2027 10:42:56.784           219.948              Murmansk1         27493.500
       345   09 Jun 2027 10:42:57.168   09 Jun 2027 10:45:25.973           148.805                 Moscow         18600.625
       346   09 Jun 2027 10:46:13.474   09 Jun 2027 10:49:04.468           170.994              Murmansk1         21374.250
       347   09 Jun 2027 10:51:59.208   09 Jun 2027 10:58:11.319           372.111                Anadyr2         46513.875
       348   09 Jun 2027 11:53:53.199   09 Jun 2027 11:57:13.052           199.853               CapeTown         24981.625
       349   09 Jun 2027 14:05:19.588   09 Jun 2027 14:07:30.980           131.392               Magadan2         16424.000
       350   09 Jun 2027 14:08:00.049   09 Jun 2027 14:10:04.219           124.170               Magadan1         15521.250
       351   09 Jun 2027 14:13:03.547   09 Jun 2027 14:14:22.452            78.905               Magadan2          9863.125
       352   09 Jun 2027 16:33:18.470   09 Jun 2027 16:39:29.403           370.933            RioGallegos         46366.625
       353   09 Jun 2027 17:20:46.636   09 Jun 2027 17:23:25.827           159.191                Irkutsk         19898.875
       354   09 Jun 2027 17:23:49.345   09 Jun 2027 17:25:03.091            73.746                Novosib          9218.250
       355   09 Jun 2027 17:25:58.888   09 Jun 2027 17:26:11.201            12.313                Novosib          1539.125
       356   09 Jun 2027 17:34:38.681   09 Jun 2027 17:36:29.450           110.769                Sumatra         13846.125
       357   09 Jun 2027 17:38:28.410   09 Jun 2027 17:38:47.438            19.028                Sumatra          2378.500
       358   09 Jun 2027 17:40:30.730   09 Jun 2027 17:41:03.803            33.073                Sumatra          4134.125
       359   09 Jun 2027 18:56:30.023   09 Jun 2027 18:58:30.407           120.384                Novosib         15048.000
       360   09 Jun 2027 19:04:31.787   09 Jun 2027 19:05:21.458            49.671                  Delhi          6208.875
       361   09 Jun 2027 19:06:30.555   09 Jun 2027 19:08:18.722           108.167                  Delhi         13520.875
       362   09 Jun 2027 20:34:58.586   09 Jun 2027 20:35:16.112            17.526              Murmansk2          2190.750
       363   09 Jun 2027 20:36:16.523   09 Jun 2027 20:38:32.894           136.371                 Moscow         13012.625
       364   10 Jun 2027 04:30:36.308   10 Jun 2027 04:34:27.212           230.904                Norilsk         28863.000
       365   10 Jun 2027 05:40:30.514   10 Jun 2027 05:42:18.279           107.765                Sumatra         13470.625
       366   10 Jun 2027 05:52:53.852   10 Jun 2027 05:53:10.938            17.086                  Delhi          2135.750
       367   10 Jun 2027 05:55:28.640   10 Jun 2027 05:56:12.724            44.084                  Delhi          5510.500
       368   10 Jun 2027 06:06:17.932   10 Jun 2027 06:06:29.365            11.433                Irkutsk          1429.125
       369   10 Jun 2027 06:06:36.337   10 Jun 2027 06:11:32.063           295.726                Norilsk         36965.750
       370   10 Jun 2027 06:11:47.311   10 Jun 2027 06:13:57.438           130.127              Murmansk2         16265.875
       371   10 Jun 2027 06:49:13.282   10 Jun 2027 06:53:03.725           230.443            RioGallegos         28805.375
       372   10 Jun 2027 07:23:55.571   10 Jun 2027 07:26:39.324           163.753                Sumatra         20469.125
       373   10 Jun 2027 07:31:32.327   10 Jun 2027 07:32:52.365            80.038                Novosib         10004.750
       374   10 Jun 2027 07:33:23.180   10 Jun 2027 07:38:33.287           310.107                Irkutsk         38763.375
       375   10 Jun 2027 07:41:53.701   10 Jun 2027 07:42:15.300            21.599                 Moscow          2699.875
       376   10 Jun 2027 07:42:21.794   10 Jun 2027 07:43:54.666            92.872                Novosib         11609.000
       377   10 Jun 2027 07:44:02.106   10 Jun 2027 07:47:31.951           209.845                Norilsk         26230.625
       378   10 Jun 2027 07:47:35.170   10 Jun 2027 07:49:19.750           104.580              Murmansk2         13072.500
       379   10 Jun 2027 09:07:55.399   10 Jun 2027 09:10:32.169           156.770                  Delhi         19596.250
       380   10 Jun 2027 09:11:42.293   10 Jun 2027 09:13:22.448           100.155                Novosib         12519.375
       381   10 Jun 2027 09:13:26.944   10 Jun 2027 09:13:34.472             7.528              Murmansk1           941.000
       382   10 Jun 2027 09:17:40.188   10 Jun 2027 09:18:04.032            23.844                Novosib          2980.500
       383   10 Jun 2027 09:18:55.962   10 Jun 2027 09:23:22.091           266.129                Norilsk         33266.125
       384   10 Jun 2027 09:24:08.111   10 Jun 2027 09:25:08.161            60.050              Murmansk2          7506.250
       385   10 Jun 2027 10:28:55.275   10 Jun 2027 10:31:27.863           152.588               CapeTown         19073.500
       386   10 Jun 2027 10:47:50.925   10 Jun 2027 10:48:28.421            37.496                 Moscow          4687.000
       387   10 Jun 2027 10:51:30.258   10 Jun 2027 10:54:55.489           205.231              Murmansk2         25653.875
       388   10 Jun 2027 10:54:55.910   10 Jun 2027 10:57:22.987           147.077                 Moscow         18384.625
       389   10 Jun 2027 10:57:25.875   10 Jun 2027 11:01:06.059           220.184              Murmansk2         27523.000
       390   10 Jun 2027 11:03:43.399   10 Jun 2027 11:09:57.301           373.902                Anadyr1         46737.750
       391   10 Jun 2027 12:43:55.430   10 Jun 2027 12:46:36.822           161.392               Magadan2         20174.000
       392   10 Jun 2027 14:17:15.234   10 Jun 2027 14:18:55.851           100.617               Magadan2         12577.125
       393   10 Jun 2027 14:26:06.436   10 Jun 2027 14:26:23.423            16.987               Magadan2          2123.375
       394   10 Jun 2027 16:45:05.274   10 Jun 2027 16:50:58.370           353.096            RioGallegos         44137.000
       395   10 Jun 2027 17:32:39.715   10 Jun 2027 17:34:39.194           119.479                Irkutsk         14934.875
       396   10 Jun 2027 17:37:01.985   10 Jun 2027 17:40:00.297           178.312                Novosib         22289.000
       397   10 Jun 2027 17:48:05.040   10 Jun 2027 17:49:08.194            63.154                Sumatra          7894.250
       398   10 Jun 2027 17:50:53.638   10 Jun 2027 17:51:33.450            39.812                Sumatra          4976.500
       399   10 Jun 2027 19:16:12.161   10 Jun 2027 19:20:15.341           243.180                  Delhi         30397.500
       400   10 Jun 2027 20:44:19.734   10 Jun 2027 20:44:48.679            28.945              Murmansk1          3618.125
       401   10 Jun 2027 20:47:36.503   10 Jun 2027 20:51:06.999           210.496                 Moscow         17238.750
       402   11 Jun 2027 04:42:40.457   11 Jun 2027 04:47:39.447           298.990                Norilsk         37373.750
       403   11 Jun 2027 04:47:46.432   11 Jun 2027 04:51:07.223           200.791              Murmansk1         25098.875
       404   11 Jun 2027 05:17:18.493   11 Jun 2027 05:30:06.887           768.394            RioGallegos         96049.250
       405   11 Jun 2027 05:52:18.972   11 Jun 2027 05:55:13.908           174.936                Sumatra         21867.000
       406   11 Jun 2027 06:18:19.996   11 Jun 2027 06:18:26.682             6.686                Irkutsk           835.750
       407   11 Jun 2027 06:18:38.225   11 Jun 2027 06:18:54.066            15.841                Norilsk          1980.125
       408   11 Jun 2027 06:18:56.739   11 Jun 2027 06:20:07.747            71.008                Novosib          8876.000
       409   11 Jun 2027 06:20:41.241   11 Jun 2027 06:21:16.604            35.363              Murmansk1          4420.375
       410   11 Jun 2027 06:21:29.965   11 Jun 2027 06:23:33.755           123.790                Norilsk         15473.750
       411   11 Jun 2027 06:23:37.509   11 Jun 2027 06:25:52.457           134.948              Murmansk2         16868.500
       412   11 Jun 2027 07:01:06.063   11 Jun 2027 07:04:44.065           218.002            RioGallegos         27250.250
       413   11 Jun 2027 07:35:36.721   11 Jun 2027 07:37:37.575           120.854                Sumatra         15106.750
       414   11 Jun 2027 07:43:47.592   11 Jun 2027 07:49:08.891           321.299                  Delhi         40162.375
       415   11 Jun 2027 07:49:09.904   11 Jun 2027 07:50:48.477            98.573                Irkutsk         12321.625
       416   11 Jun 2027 07:54:12.051   11 Jun 2027 07:55:51.437            99.386                Novosib         12423.250
       417   11 Jun 2027 07:56:06.918   11 Jun 2027 07:59:33.593           206.675                Norilsk         25834.375
       418   11 Jun 2027 07:59:36.967   11 Jun 2027 08:01:19.090           102.123              Murmansk1         12765.375
       419   11 Jun 2027 09:19:35.246   11 Jun 2027 09:21:13.244            97.998                  Delhi         12249.750
       420   11 Jun 2027 09:29:31.370   11 Jun 2027 09:30:24.821            53.451                 Moscow          6681.375
       421   11 Jun 2027 09:31:27.046   11 Jun 2027 09:35:20.025           232.979                Norilsk         29122.375
       422   11 Jun 2027 09:35:58.431   11 Jun 2027 09:37:09.504            71.073              Murmansk1          8884.125
       423   11 Jun 2027 10:59:47.702   11 Jun 2027 11:00:40.367            52.665                 Moscow          6583.125
       424   11 Jun 2027 11:03:31.830   11 Jun 2027 11:04:00.485            28.655              Murmansk2          3581.875
       425   11 Jun 2027 11:04:11.900   11 Jun 2027 11:09:18.715           306.815                 Moscow         38351.875
       426   11 Jun 2027 11:09:27.079   11 Jun 2027 11:13:07.556           220.477              Murmansk2         27559.625
       427   11 Jun 2027 11:15:32.375   11 Jun 2027 11:23:48.087           495.712                Anadyr1         61964.000
       428   11 Jun 2027 12:15:10.131   11 Jun 2027 12:22:58.905           468.774               CapeTown         58596.750
       429   11 Jun 2027 12:39:43.919   11 Jun 2027 12:45:24.979           341.060              Murmansk1         42632.500
       430   11 Jun 2027 12:51:34.906   11 Jun 2027 12:53:18.379           103.473                Anadyr2         12934.125
       431   11 Jun 2027 12:55:00.701   11 Jun 2027 12:57:48.685           167.984               Magadan2         20998.000
       432   11 Jun 2027 14:32:08.887   11 Jun 2027 14:33:41.532            92.645               Magadan2         11580.625
       433   11 Jun 2027 16:11:29.617   11 Jun 2027 16:15:28.575           238.958                Irkutsk         29869.750
       434   11 Jun 2027 16:58:20.945   11 Jun 2027 16:59:33.080            72.135            RioGallegos          9016.875
       435   11 Jun 2027 17:44:34.662   11 Jun 2027 17:46:32.239           117.577                Irkutsk         14697.125
       436   11 Jun 2027 17:46:38.080   11 Jun 2027 17:50:13.379           215.299                Novosib         26912.375
       437   11 Jun 2027 19:27:58.157   11 Jun 2027 19:30:08.519           130.362                  Delhi         16295.250
       438   11 Jun 2027 19:32:15.335   11 Jun 2027 19:33:13.338            58.003                  Delhi          7250.375
       439   11 Jun 2027 20:54:46.071   11 Jun 2027 20:56:17.410            91.339              Murmansk2         11417.375
       440   11 Jun 2027 20:59:10.987   11 Jun 2027 21:02:32.758           201.771                 Moscow         25221.375
       441   12 Jun 2027 03:17:06.129   12 Jun 2027 03:17:58.192            52.063               Magadan2          6507.875
       442   12 Jun 2027 03:18:15.115   12 Jun 2027 03:18:26.753            11.638                Anadyr2          1454.750
       443   12 Jun 2027 03:18:27.544   12 Jun 2027 03:18:47.894            20.350               Magadan2          2543.750
       444   12 Jun 2027 03:18:55.406   12 Jun 2027 03:19:40.106            44.700                Norilsk          5587.500
       445   12 Jun 2027 03:19:44.696   12 Jun 2027 03:22:33.165           168.469              Murmansk2         21058.625
       446   12 Jun 2027 04:54:41.519   12 Jun 2027 04:55:00.273            18.754                Norilsk          2344.250
       447   12 Jun 2027 04:55:12.761   12 Jun 2027 04:56:09.451            56.690                Norilsk          7086.250
       448   12 Jun 2027 04:57:31.970   12 Jun 2027 05:02:57.157           325.187              Murmansk1         40648.375
       449   12 Jun 2027 05:37:39.133   12 Jun 2027 05:42:05.306           266.173            RioGallegos         33271.625
       450   12 Jun 2027 06:11:56.232   12 Jun 2027 06:16:56.833           300.601                Sumatra         37575.125
       451   12 Jun 2027 06:20:41.453   12 Jun 2027 06:24:29.258           227.805                Irkutsk         28475.625
       452   12 Jun 2027 06:29:23.376   12 Jun 2027 06:30:11.848            48.472                Novosib          6059.000
       453   12 Jun 2027 06:30:41.447   12 Jun 2027 06:32:09.909            88.462                Novosib         11057.750
       454   12 Jun 2027 06:32:38.644   12 Jun 2027 06:37:48.149           309.505              Murmansk2         38688.125
       455   12 Jun 2027 07:12:56.402   12 Jun 2027 07:16:16.451           200.049            RioGallegos         25006.125
       456   12 Jun 2027 07:47:09.956   12 Jun 2027 07:47:48.432            38.476                Sumatra          4809.500
       457   12 Jun 2027 07:54:05.530   12 Jun 2027 08:01:04.994           419.464                  Delhi         52433.000
       458   12 Jun 2027 08:01:16.442   12 Jun 2027 08:02:23.243            66.801                Novosib          8350.125
       459   12 Jun 2027 08:06:20.573   12 Jun 2027 08:09:28.826           188.253                 Moscow         23531.625
       460   12 Jun 2027 08:09:29.553   12 Jun 2027 08:11:35.071           125.518                Norilsk         15689.750
       461   12 Jun 2027 08:11:37.501   12 Jun 2027 08:13:18.791           101.290              Murmansk2         12661.250
       462   12 Jun 2027 09:42:56.281   12 Jun 2027 09:47:16.635           260.354                Norilsk         32544.250
       463   12 Jun 2027 09:47:47.981   12 Jun 2027 09:49:10.971            82.990              Murmansk2         10373.750
       464   12 Jun 2027 11:11:43.140   12 Jun 2027 11:12:07.542            24.402                 Moscow          3050.250
       465   12 Jun 2027 11:15:33.307   12 Jun 2027 11:15:48.431            15.124              Murmansk2          1890.500
       466   12 Jun 2027 11:16:23.161   12 Jun 2027 11:21:12.884           289.723                 Moscow         36215.375
       467   12 Jun 2027 11:21:28.427   12 Jun 2027 11:25:08.928           220.501              Murmansk2         27562.625
       468   12 Jun 2027 11:27:24.422   12 Jun 2027 11:36:27.359           542.937                Anadyr2         67867.125
       469   12 Jun 2027 12:25:23.420   12 Jun 2027 12:34:52.233           568.813               CapeTown         71101.625
       470   12 Jun 2027 12:52:18.667   12 Jun 2027 13:00:52.382           513.715              Murmansk2         64214.375
       471   12 Jun 2027 13:02:52.486   12 Jun 2027 13:09:54.695           422.209                Anadyr1         52776.125
       472   12 Jun 2027 13:10:34.247   12 Jun 2027 13:13:30.424           176.177               Magadan1         22022.125
       473   12 Jun 2027 14:41:31.733   12 Jun 2027 14:43:37.489           125.756               Magadan2         15719.500
       474   12 Jun 2027 16:22:33.869   12 Jun 2027 16:28:22.760           348.891                Irkutsk         43611.375
       475   12 Jun 2027 16:39:10.410   12 Jun 2027 16:39:59.382            48.972                Sumatra          6121.500
       476   12 Jun 2027 16:41:04.369   12 Jun 2027 16:41:48.541            44.172                Sumatra          5521.500
       477   12 Jun 2027 17:57:35.990   12 Jun 2027 18:01:02.154           206.164                Novosib         25770.500
       478   12 Jun 2027 19:41:48.875   12 Jun 2027 19:43:16.622            87.747                  Delhi         10968.375
       479   12 Jun 2027 21:06:44.903   12 Jun 2027 21:08:00.557            75.654              Murmansk2          9456.750
       480   12 Jun 2027 21:10:52.950   12 Jun 2027 21:14:33.729           220.779                 Moscow         27597.375
       481   12 Jun 2027 21:38:25.582   12 Jun 2027 21:39:57.283            91.701               CapeTown         11462.625
       482   13 Jun 2027 03:29:28.812   13 Jun 2027 03:29:58.121            29.309                Norilsk          3663.625
