uniorb/output/strategy_4/Drop/Drop_KinoSat_111803.txt

KinoSat_111803
-------------------------
    Access    *     Start Time (UTCG)     *     Stop Time (UTCG)  *   Duration (s)        *       Station  *  Data (Mbytes)
         1   01 Jun 2027 03:26:57.135   01 Jun 2027 03:30:25.765           208.630                Norilsk          6519.688
         2   01 Jun 2027 03:30:28.821   01 Jun 2027 03:30:32.299             3.478                Norilsk           108.688
         3   01 Jun 2027 03:30:34.774   01 Jun 2027 03:30:36.608             1.834                Novosib            57.312
         4   01 Jun 2027 03:30:45.359   01 Jun 2027 03:33:16.715           151.356                Irkutsk          4729.875
         5   01 Jun 2027 03:33:50.972   01 Jun 2027 03:35:28.146            97.174                Novosib          3036.688
         6   01 Jun 2027 03:35:55.241   01 Jun 2027 03:36:15.261            20.020                Novosib           625.625
         7   01 Jun 2027 03:37:32.954   01 Jun 2027 03:39:44.460           131.506                  Delhi          4109.563
         8   01 Jun 2027 05:04:26.894   01 Jun 2027 05:04:43.594            16.700                Novosib           521.875
         9   01 Jun 2027 05:04:58.899   01 Jun 2027 05:05:19.188            20.289              Murmansk2           634.031
        10   01 Jun 2027 05:05:19.188   01 Jun 2027 05:06:53.263            94.075              Murmansk1          2939.844
        11   01 Jun 2027 05:06:56.192   01 Jun 2027 05:07:20.972            24.780              Murmansk1           774.375
        12   01 Jun 2027 05:07:37.112   01 Jun 2027 05:08:31.653            54.541                Novosib          1704.406
        13   01 Jun 2027 05:08:51.497   01 Jun 2027 05:10:15.030            83.533              Murmansk2          2610.406
        14   01 Jun 2027 05:10:43.715   01 Jun 2027 05:13:56.376           192.661                 Moscow          6020.656
        15   01 Jun 2027 05:25:37.985   01 Jun 2027 05:31:58.136           380.151               CapeTown         11879.719
        16   01 Jun 2027 06:29:23.636   01 Jun 2027 06:29:37.673            14.037                Anadyr2           438.656
        17   01 Jun 2027 06:30:08.554   01 Jun 2027 06:33:23.210           194.656               Magadan2          6083.000
        18   01 Jun 2027 06:40:50.456   01 Jun 2027 06:44:45.557           235.101              Murmansk2          7346.906
        19   01 Jun 2027 06:45:10.952   01 Jun 2027 06:45:55.331            44.379              Murmansk2          1386.844
        20   01 Jun 2027 06:45:55.331   01 Jun 2027 06:46:54.789            59.458              Murmansk1          1858.062
        21   01 Jun 2027 07:02:08.773   01 Jun 2027 07:02:56.277            47.504               CapeTown          1484.500
        22   01 Jun 2027 07:04:13.878   01 Jun 2027 07:06:09.182           115.304               CapeTown          3603.250
        23   01 Jun 2027 08:04:55.360   01 Jun 2027 08:06:55.769           120.409                Anadyr1          3762.781
        24   01 Jun 2027 08:07:20.660   01 Jun 2027 08:09:05.572           104.912               Magadan1          3278.500
        25   01 Jun 2027 08:09:15.236   01 Jun 2027 08:10:45.291            90.055                Anadyr1          2814.219
        26   01 Jun 2027 09:38:37.476   01 Jun 2027 09:41:09.120           151.644                Anadyr2          4738.875
        27   01 Jun 2027 09:41:15.136   01 Jun 2027 09:42:32.701            77.565               Magadan1          2423.906
        28   01 Jun 2027 09:42:34.992   01 Jun 2027 09:46:08.220           213.228                Anadyr2          6663.375
        29   01 Jun 2027 11:14:52.412   01 Jun 2027 11:17:45.204           172.792               Magadan2          5399.750
        30   01 Jun 2027 11:17:58.175   01 Jun 2027 11:21:18.093           199.918               Magadan1          6247.438
        31   01 Jun 2027 16:05:02.229   01 Jun 2027 16:06:23.348            81.119                Novosib          2534.969
        32   01 Jun 2027 16:08:13.970   01 Jun 2027 16:08:32.067            18.097                Novosib           565.531
        33   01 Jun 2027 16:12:15.948   01 Jun 2027 16:12:22.125             6.177                Norilsk           193.031
        34   01 Jun 2027 19:22:33.748   01 Jun 2027 19:24:39.759           126.011              Murmansk2          3937.844
        35   01 Jun 2027 19:25:59.715   01 Jun 2027 19:27:53.414           113.699              Murmansk1          3553.094
        36   01 Jun 2027 20:31:48.442   01 Jun 2027 20:33:59.994           131.552               CapeTown          4111.000
        37   02 Jun 2027 00:20:34.107   02 Jun 2027 00:20:55.607            21.500               Magadan2           671.875
        38   02 Jun 2027 00:22:29.944   02 Jun 2027 00:23:55.035            85.091               Magadan1          2659.094
        39   02 Jun 2027 00:25:09.723   02 Jun 2027 00:25:58.450            48.727                Irkutsk          1522.719
        40   02 Jun 2027 00:30:35.400   02 Jun 2027 00:30:58.768            23.368                Novosib           730.250
        41   02 Jun 2027 00:31:24.064   02 Jun 2027 00:32:04.155            40.091                Novosib          1252.844
        42   02 Jun 2027 00:38:19.488   02 Jun 2027 00:40:50.799           151.311                Sumatra          4728.469
        43   02 Jun 2027 00:49:52.295   02 Jun 2027 00:50:03.788            11.493                Sumatra           359.156
        44   02 Jun 2027 01:21:32.055   02 Jun 2027 01:22:12.733            40.678            RioGallegos          1271.187
        45   02 Jun 2027 01:52:11.980   02 Jun 2027 01:52:49.456            37.476                Anadyr1          1171.125
        46   02 Jun 2027 01:54:16.980   02 Jun 2027 01:54:43.762            26.782                Anadyr2           836.937
        47   02 Jun 2027 01:55:59.013   02 Jun 2027 01:57:29.169            90.156                Norilsk          2817.375
        48   02 Jun 2027 01:57:33.936   02 Jun 2027 01:57:44.622            10.686                Norilsk           333.937
        49   02 Jun 2027 01:58:59.385   02 Jun 2027 01:59:17.689            18.304                Norilsk           572.000
        50   02 Jun 2027 01:59:52.912   02 Jun 2027 02:01:49.363           116.451                Novosib          3639.094
        51   02 Jun 2027 02:04:55.309   02 Jun 2027 02:05:34.747            39.438                Irkutsk          1232.438
        52   02 Jun 2027 02:10:55.492   02 Jun 2027 02:11:13.529            18.037                Irkutsk           563.656
        53   02 Jun 2027 02:12:02.267   02 Jun 2027 02:12:28.279            26.012                Novosib           812.875
        54   02 Jun 2027 02:14:17.313   02 Jun 2027 02:14:46.612            29.299                  Delhi           915.594
        55   02 Jun 2027 02:17:22.506   02 Jun 2027 02:20:53.010           210.504                Sumatra          6578.250
        56   02 Jun 2027 02:57:18.015   02 Jun 2027 02:57:45.393            27.378            RioGallegos           855.563
        57   02 Jun 2027 03:39:07.362   02 Jun 2027 03:39:37.826            30.464              Murmansk2           952.000
        58   02 Jun 2027 03:39:45.422   02 Jun 2027 03:39:56.062            10.640              Murmansk1           332.500
        59   02 Jun 2027 03:40:02.626   02 Jun 2027 03:41:43.257           100.631              Murmansk1          3144.719
        60   02 Jun 2027 03:41:43.257   02 Jun 2027 03:42:56.521            73.264              Murmansk2          2289.500
        61   02 Jun 2027 03:48:03.552   02 Jun 2027 03:48:04.696             1.144                Novosib            35.750
        62   02 Jun 2027 03:53:39.787   02 Jun 2027 03:54:16.179            36.392                  Delhi          1137.250
        63   02 Jun 2027 05:18:14.690   02 Jun 2027 05:19:42.225            87.535                Novosib          2735.469
        64   02 Jun 2027 05:21:23.644   02 Jun 2027 05:22:48.941            85.297                 Moscow          2665.531
        65   02 Jun 2027 05:39:40.665   02 Jun 2027 05:40:20.707            40.042               CapeTown          1251.313
        66   02 Jun 2027 05:40:54.306   02 Jun 2027 05:41:01.123             6.817               CapeTown           213.031
        67   02 Jun 2027 05:44:14.749   02 Jun 2027 05:45:03.388            48.639               CapeTown          1519.969
        68   02 Jun 2027 05:45:50.568   02 Jun 2027 05:46:53.862            63.294               CapeTown          1977.938
        69   02 Jun 2027 05:47:50.403   02 Jun 2027 05:49:37.546           107.143               CapeTown          3348.219
        70   02 Jun 2027 06:40:23.772   02 Jun 2027 06:40:59.572            35.800               Magadan1          1118.750
        71   02 Jun 2027 06:40:59.572   02 Jun 2027 06:41:56.612            57.040               Magadan2          1782.500
        72   02 Jun 2027 06:42:12.384   02 Jun 2027 06:44:11.152           118.768               Magadan1          3711.500
        73   02 Jun 2027 06:44:11.152   02 Jun 2027 06:45:09.281            58.129               Magadan2          1816.531
        74   02 Jun 2027 06:45:52.108   02 Jun 2027 06:46:23.542            31.434               Magadan2           982.313
        75   02 Jun 2027 06:56:12.969   02 Jun 2027 06:56:40.710            27.741              Murmansk2           866.906
        76   02 Jun 2027 06:58:04.206   02 Jun 2027 06:58:56.462            52.256                 Moscow          1633.000
        77   02 Jun 2027 08:17:54.487   02 Jun 2027 08:20:07.928           133.441                Anadyr2          4170.031
        78   02 Jun 2027 08:20:19.741   02 Jun 2027 08:21:16.985            57.244               Magadan1          1788.875
        79   02 Jun 2027 08:21:51.539   02 Jun 2027 08:22:29.773            38.234               Magadan2          1194.812
        80   02 Jun 2027 08:33:27.057   02 Jun 2027 08:33:49.672            22.615                 Moscow           706.719
        81   02 Jun 2027 09:50:28.504   02 Jun 2027 09:51:11.171            42.667                Anadyr1          1333.344
        82   02 Jun 2027 09:51:29.899   02 Jun 2027 09:52:26.027            56.128               Magadan1          1754.000
        83   02 Jun 2027 09:52:56.420   02 Jun 2027 09:53:02.738             6.318               Magadan2           197.437
        84   02 Jun 2027 09:54:33.374   02 Jun 2027 09:55:25.209            51.835               Magadan2          1619.844
        85   02 Jun 2027 09:55:43.787   02 Jun 2027 09:56:36.005            52.218                Anadyr1          1631.813
        86   02 Jun 2027 09:56:58.593   02 Jun 2027 09:58:19.534            80.941               Magadan1          2529.406
        87   02 Jun 2027 11:13:13.568   02 Jun 2027 11:13:15.315             1.747                Sumatra            54.594
        88   02 Jun 2027 11:15:59.176   02 Jun 2027 11:16:01.641             2.465                Sumatra            77.031
        89   02 Jun 2027 11:26:01.494   02 Jun 2027 11:26:11.165             9.671               Magadan1           302.219
        90   02 Jun 2027 11:26:16.246   02 Jun 2027 11:26:30.539            14.293               Magadan2           446.656
        91   02 Jun 2027 11:28:34.467   02 Jun 2027 11:30:25.423           110.956               Magadan2          3467.375
        92   02 Jun 2027 11:31:04.516   02 Jun 2027 11:32:10.495            65.979                Irkutsk          2061.844
        93   02 Jun 2027 11:32:24.001   02 Jun 2027 11:33:02.999            38.998                Irkutsk          1218.687
        94   02 Jun 2027 11:33:10.296   02 Jun 2027 11:33:22.549            12.253                Norilsk           382.906
        95   02 Jun 2027 11:33:38.602   02 Jun 2027 11:33:46.709             8.107                Norilsk           253.344
        96   02 Jun 2027 11:33:54.692   02 Jun 2027 11:34:07.717            13.025                Irkutsk           407.031
        97   02 Jun 2027 11:34:19.795   02 Jun 2027 11:35:22.885            63.090                Novosib          1971.562
        98   02 Jun 2027 12:08:59.777   02 Jun 2027 12:09:39.207            39.430            RioGallegos          1232.188
        99   02 Jun 2027 12:43:43.684   02 Jun 2027 12:44:26.010            42.326                Sumatra          1322.688
       100   02 Jun 2027 12:46:32.841   02 Jun 2027 12:46:37.782             4.941                Sumatra           154.406
       101   02 Jun 2027 12:47:33.053   02 Jun 2027 12:47:43.120            10.067                Sumatra           314.594
       102   02 Jun 2027 12:55:22.802   02 Jun 2027 12:55:51.442            28.640                Sumatra           895.000
       103   02 Jun 2027 12:57:53.160   02 Jun 2027 12:59:04.179            71.019                Irkutsk          2219.344
       104   02 Jun 2027 13:00:03.009   02 Jun 2027 13:00:24.890            21.881                Novosib           683.781
       105   02 Jun 2027 13:00:39.760   02 Jun 2027 13:01:47.167            67.407                Irkutsk          2106.469
       106   02 Jun 2027 13:02:16.725   02 Jun 2027 13:03:10.274            53.549                Norilsk          1673.406
       107   02 Jun 2027 13:15:47.874   02 Jun 2027 13:15:55.049             7.175              Murmansk2           224.219
       108   02 Jun 2027 13:16:29.145   02 Jun 2027 13:16:55.814            26.669              Murmansk1           833.406
       109   02 Jun 2027 13:48:50.619   02 Jun 2027 13:52:52.217           241.598            RioGallegos          7549.937
       110   02 Jun 2027 14:35:44.281   02 Jun 2027 14:36:37.348            53.067                Novosib          1658.344
       111   02 Jun 2027 14:37:47.176   02 Jun 2027 14:39:49.753           122.577                Novosib          3830.531
       112   02 Jun 2027 14:43:44.967   02 Jun 2027 14:44:19.678            34.711                Norilsk          1084.719
       113   02 Jun 2027 16:12:20.384   02 Jun 2027 16:14:46.820           146.436                 Moscow          4576.125
       114   02 Jun 2027 16:15:37.694   02 Jun 2027 16:16:10.235            32.541                 Moscow          1016.906
       115   02 Jun 2027 16:16:44.426   02 Jun 2027 16:17:54.432            70.006              Murmansk2          2187.688
       116   02 Jun 2027 16:19:34.025   02 Jun 2027 16:21:06.007            91.982                Norilsk          2874.438
       117   02 Jun 2027 16:23:09.088   02 Jun 2027 16:25:14.199           125.111                Norilsk          3909.719
       118   02 Jun 2027 17:27:01.687   02 Jun 2027 17:27:32.808            31.121               CapeTown           972.531
       119   02 Jun 2027 17:30:02.854   02 Jun 2027 17:30:11.526             8.672               CapeTown           271.000
       120   02 Jun 2027 17:35:28.712   02 Jun 2027 17:35:31.407             2.695               CapeTown            84.219
       121   02 Jun 2027 17:36:17.826   02 Jun 2027 17:36:31.285            13.459               CapeTown           420.594
       122   02 Jun 2027 17:49:34.195   02 Jun 2027 17:49:56.747            22.552                 Moscow           704.750
       123   02 Jun 2027 17:50:14.814   02 Jun 2027 17:50:57.965            43.151                 Moscow          1348.469
       124   02 Jun 2027 17:52:45.489   02 Jun 2027 17:52:46.597             1.108              Murmansk2            34.625
       125   02 Jun 2027 17:53:03.466   02 Jun 2027 17:53:45.932            42.466              Murmansk1          1327.063
       126   02 Jun 2027 17:54:21.913   02 Jun 2027 17:55:01.884            39.971              Murmansk1          1249.094
       127   02 Jun 2027 17:56:44.612   02 Jun 2027 17:57:12.147            27.535              Murmansk1           860.469
       128   02 Jun 2027 17:57:40.491   02 Jun 2027 17:58:06.412            25.921              Murmansk2           810.031
       129   02 Jun 2027 17:58:54.193   02 Jun 2027 18:00:21.449            87.256              Murmansk2          2726.750
       130   02 Jun 2027 18:11:14.389   02 Jun 2027 18:11:51.732            37.343                Anadyr1          1166.969
       131   02 Jun 2027 18:15:30.220   02 Jun 2027 18:15:39.320             9.100                Anadyr1           284.375
       132   02 Jun 2027 18:15:56.647   02 Jun 2027 18:16:12.531            15.884                Anadyr1           496.375
       133   02 Jun 2027 19:01:48.445   02 Jun 2027 19:03:45.350           116.905               CapeTown          3653.281
       134   02 Jun 2027 19:31:58.982   02 Jun 2027 19:32:56.889            57.907              Murmansk1          1809.594
       135   02 Jun 2027 19:34:28.976   02 Jun 2027 19:39:48.053           319.077              Murmansk2          9971.156
       136   02 Jun 2027 20:41:24.930   02 Jun 2027 20:44:08.574           163.644               CapeTown          5113.875
       137   02 Jun 2027 21:18:18.253   02 Jun 2027 21:19:59.460           101.207                Anadyr2          3162.719
       138   02 Jun 2027 21:20:39.445   02 Jun 2027 21:23:03.859           144.414               Magadan2          4512.937
       139   02 Jun 2027 21:23:14.852   02 Jun 2027 21:23:27.779            12.927               Magadan1           403.969
       140   02 Jun 2027 21:24:33.109   02 Jun 2027 21:25:02.640            29.531               Magadan1           922.844
       141   02 Jun 2027 22:54:10.623   02 Jun 2027 22:59:01.793           291.170                Anadyr1          9099.062
       142   02 Jun 2027 22:59:09.299   02 Jun 2027 23:00:15.644            66.345               Magadan1          2073.281
       143   02 Jun 2027 23:00:21.294   02 Jun 2027 23:01:25.537            64.243               Magadan1          2007.594
       144   02 Jun 2027 23:01:48.268   02 Jun 2027 23:02:52.387            64.119                Irkutsk          2003.719
       145   02 Jun 2027 23:04:26.408   02 Jun 2027 23:04:40.160            13.752                Irkutsk           429.750
       146   02 Jun 2027 23:06:40.333   02 Jun 2027 23:07:57.954            77.621                Irkutsk          2425.656
       147   02 Jun 2027 23:17:57.751   02 Jun 2027 23:19:07.796            70.045                Sumatra          2188.906
       148   02 Jun 2027 23:22:22.898   02 Jun 2027 23:23:14.229            51.331                Sumatra          1604.094
       149   02 Jun 2027 23:58:51.269   02 Jun 2027 23:59:19.676            28.407            RioGallegos           887.719
       150   03 Jun 2027 00:29:36.087   03 Jun 2027 00:30:10.604            34.517                Anadyr1          1078.656
       151   03 Jun 2027 00:31:01.584   03 Jun 2027 00:32:25.591            84.007                Anadyr2          2625.219
       152   03 Jun 2027 00:32:29.067   03 Jun 2027 00:33:47.729            78.662                Norilsk          2458.187
       153   03 Jun 2027 00:34:03.955   03 Jun 2027 00:34:27.410            23.455               Magadan2           732.969
       154   03 Jun 2027 00:34:53.109   03 Jun 2027 00:34:58.769             5.660               Magadan1           176.875
       155   03 Jun 2027 00:36:00.690   03 Jun 2027 00:37:41.150           100.460                Irkutsk          3139.375
       156   03 Jun 2027 00:40:24.079   03 Jun 2027 00:40:57.242            33.163                Novosib          1036.344
       157   03 Jun 2027 00:43:03.325   03 Jun 2027 00:44:33.046            89.721                Novosib          2803.781
       158   03 Jun 2027 00:49:44.130   03 Jun 2027 00:49:57.384            13.254                Sumatra           414.187
       159   03 Jun 2027 00:52:06.501   03 Jun 2027 00:52:24.150            17.649                Sumatra           551.531
       160   03 Jun 2027 00:53:50.774   03 Jun 2027 00:55:35.295           104.521                Sumatra          3266.281
       161   03 Jun 2027 01:30:06.852   03 Jun 2027 01:30:20.498            13.646            RioGallegos           426.437
       162   03 Jun 2027 01:32:56.381   03 Jun 2027 01:33:19.002            22.621            RioGallegos           706.906
       163   03 Jun 2027 02:03:57.256   03 Jun 2027 02:04:49.817            52.561                Anadyr2          1642.531
       164   03 Jun 2027 02:05:02.089   03 Jun 2027 02:05:45.556            43.467                Anadyr2          1358.344
       165   03 Jun 2027 02:08:01.400   03 Jun 2027 02:09:18.772            77.372                Norilsk          2417.875
       166   03 Jun 2027 02:09:29.291   03 Jun 2027 02:09:47.006            17.715                Norilsk           553.594
       167   03 Jun 2027 02:11:25.224   03 Jun 2027 02:11:50.997            25.773              Murmansk1           805.406
       168   03 Jun 2027 02:11:52.152   03 Jun 2027 02:13:05.196            73.044                Novosib          2282.625
       169   03 Jun 2027 02:13:22.218   03 Jun 2027 02:13:48.728            26.510                Irkutsk           828.438
       170   03 Jun 2027 02:14:56.277   03 Jun 2027 02:15:24.081            27.804                Novosib           868.875
       171   03 Jun 2027 02:19:17.164   03 Jun 2027 02:20:09.722            52.558                  Delhi          1642.437
       172   03 Jun 2027 02:27:29.313   03 Jun 2027 02:28:48.132            78.819                  Delhi          2463.094
       173   03 Jun 2027 03:01:58.146   03 Jun 2027 03:02:49.482            51.336            RioGallegos          1604.250
       174   03 Jun 2027 03:03:21.472   03 Jun 2027 03:05:15.759           114.287            RioGallegos          3571.469
       175   03 Jun 2027 03:50:59.897   03 Jun 2027 03:52:43.111           103.214                Irkutsk          3225.438
       176   03 Jun 2027 03:52:57.988   03 Jun 2027 03:53:29.685            31.697              Murmansk1           990.531
       177   03 Jun 2027 03:53:34.476   03 Jun 2027 03:54:19.396            44.920                Novosib          1403.750
       178   03 Jun 2027 03:54:35.895   03 Jun 2027 03:54:51.739            15.844              Murmansk2           495.125
       179   03 Jun 2027 03:55:05.471   03 Jun 2027 03:55:29.597            24.126                Novosib           753.938
       180   03 Jun 2027 03:56:24.763   03 Jun 2027 03:56:32.058             7.295                Novosib           227.969
       181   03 Jun 2027 03:58:20.273   03 Jun 2027 03:59:10.722            50.449                Novosib          1576.531
       182   03 Jun 2027 03:59:58.723   03 Jun 2027 04:01:47.572           108.849                  Delhi          3401.531
       183   03 Jun 2027 05:29:31.452   03 Jun 2027 05:30:19.166            47.714                Novosib          1491.063
       184   03 Jun 2027 05:30:50.579   03 Jun 2027 05:31:14.527            23.948                Norilsk           748.375
       185   03 Jun 2027 05:31:46.826   03 Jun 2027 05:32:11.250            24.424                Novosib           763.250
       186   03 Jun 2027 05:32:22.371   03 Jun 2027 05:33:45.708            83.337                 Moscow          2604.281
       187   03 Jun 2027 05:34:03.283   03 Jun 2027 05:34:54.728            51.445                 Moscow          1607.656
       188   03 Jun 2027 05:49:18.538   03 Jun 2027 05:52:09.930           171.392               CapeTown          5356.000
       189   03 Jun 2027 06:52:23.466   03 Jun 2027 06:52:49.765            26.299                Anadyr2           821.844
       190   03 Jun 2027 06:53:07.461   03 Jun 2027 06:53:57.260            49.799                Anadyr1          1556.219
       191   03 Jun 2027 06:55:03.162   03 Jun 2027 06:55:34.802            31.640                Anadyr1           988.750
       192   03 Jun 2027 06:57:31.627   03 Jun 2027 06:57:32.911             1.284                Anadyr1            40.125
       193   03 Jun 2027 07:27:31.320   03 Jun 2027 07:28:42.135            70.815               CapeTown          2212.969
       194   03 Jun 2027 07:30:03.457   03 Jun 2027 07:32:06.202           122.745               CapeTown          3835.781
       195   03 Jun 2027 08:26:36.069   03 Jun 2027 08:26:40.173             4.104               Magadan1           128.250
       196   03 Jun 2027 08:27:04.009   03 Jun 2027 08:27:45.752            41.743                Anadyr2          1304.469
       197   03 Jun 2027 08:28:06.130   03 Jun 2027 08:28:44.850            38.720               Magadan1          1210.000
       198   03 Jun 2027 08:28:44.850   03 Jun 2027 08:29:21.439            36.589               Magadan2          1143.406
       199   03 Jun 2027 08:30:13.878   03 Jun 2027 08:30:18.024             4.146               Magadan1           129.563
       200   03 Jun 2027 08:30:38.826   03 Jun 2027 08:31:00.179            21.353               Magadan2           667.281
       201   03 Jun 2027 08:31:13.922   03 Jun 2027 08:32:29.378            75.456               Magadan2          2358.000
       202   03 Jun 2027 09:15:50.535   03 Jun 2027 09:16:09.800            19.265            RioGallegos           602.031
       203   03 Jun 2027 10:01:39.335   03 Jun 2027 10:02:41.124            61.789               Magadan1          1930.906
       204   03 Jun 2027 10:03:01.643   03 Jun 2027 10:03:16.857            15.214               Magadan1           475.437
       205   03 Jun 2027 10:03:41.989   03 Jun 2027 10:04:22.546            40.557               Magadan1          1267.406
       206   03 Jun 2027 10:04:28.306   03 Jun 2027 10:06:33.507           125.201               Magadan2          3912.531
       207   03 Jun 2027 10:07:16.519   03 Jun 2027 10:07:25.284             8.765                Norilsk           273.906
       208   03 Jun 2027 10:07:46.138   03 Jun 2027 10:08:00.116            13.978                Irkutsk           436.812
       209   03 Jun 2027 10:08:01.750   03 Jun 2027 10:08:12.275            10.525               Magadan2           328.906
       210   03 Jun 2027 10:08:50.658   03 Jun 2027 10:08:57.057             6.399                Norilsk           199.969
       211   03 Jun 2027 10:09:05.736   03 Jun 2027 10:09:36.969            31.233               Magadan2           976.031
       212   03 Jun 2027 10:09:42.938   03 Jun 2027 10:09:58.938            16.000                Norilsk           500.000
       213   03 Jun 2027 10:10:21.605   03 Jun 2027 10:10:45.606            24.001                Norilsk           750.031
       214   03 Jun 2027 10:45:26.052   03 Jun 2027 10:45:33.230             7.178            RioGallegos           224.312
       215   03 Jun 2027 10:46:02.717   03 Jun 2027 10:46:43.611            40.894            RioGallegos          1277.937
       216   03 Jun 2027 10:53:40.365   03 Jun 2027 10:53:49.734             9.369            RioGallegos           292.781
       217   03 Jun 2027 11:23:10.507   03 Jun 2027 11:24:39.867            89.360                Sumatra          2792.500
       218   03 Jun 2027 11:39:06.794   03 Jun 2027 11:41:21.615           134.821               Magadan2          4213.156
       219   03 Jun 2027 11:41:38.109   03 Jun 2027 11:44:29.785           171.676               Magadan1          5364.875
       220   03 Jun 2027 11:45:01.529   03 Jun 2027 11:45:02.881             1.352                Irkutsk            42.250
       221   03 Jun 2027 11:45:05.436   03 Jun 2027 11:45:24.069            18.633                Norilsk           582.281
       222   03 Jun 2027 11:45:33.054   03 Jun 2027 11:45:49.273            16.219                Norilsk           506.844
       223   03 Jun 2027 11:45:55.276   03 Jun 2027 11:46:15.359            20.083                Novosib           627.594
       224   03 Jun 2027 12:21:12.375   03 Jun 2027 12:21:56.889            44.514            RioGallegos          1391.062
       225   03 Jun 2027 12:24:35.586   03 Jun 2027 12:25:43.886            68.300            RioGallegos          2134.375
       226   03 Jun 2027 12:55:46.002   03 Jun 2027 12:57:34.383           108.381                Sumatra          3386.906
       227   03 Jun 2027 13:10:14.132   03 Jun 2027 13:11:08.985            54.853                Irkutsk          1714.156
       228   03 Jun 2027 13:12:18.020   03 Jun 2027 13:14:23.055           125.035                Irkutsk          3907.344
       229   03 Jun 2027 14:02:11.625   03 Jun 2027 14:04:34.357           142.732            RioGallegos          4460.375
       230   03 Jun 2027 14:48:09.358   03 Jun 2027 14:49:42.382            93.024                Novosib          2907.000
       231   03 Jun 2027 14:51:49.870   03 Jun 2027 14:53:16.802            86.932                Novosib          2716.625
       232   03 Jun 2027 14:53:31.017   03 Jun 2027 14:55:09.347            98.330                Norilsk          3072.812
       233   03 Jun 2027 14:56:07.165   03 Jun 2027 14:57:36.519            89.354                Novosib          2792.313
       234   03 Jun 2027 14:58:30.373   03 Jun 2027 14:59:01.624            31.251                Novosib           976.594
       235   03 Jun 2027 16:24:20.709   03 Jun 2027 16:26:21.692           120.983                 Moscow          3780.719
       236   03 Jun 2027 16:27:49.399   03 Jun 2027 16:28:43.198            53.799              Murmansk1          1681.219
       237   03 Jun 2027 16:32:18.574   03 Jun 2027 16:37:46.278           327.704                Norilsk         10240.750
       238   03 Jun 2027 18:02:03.024   03 Jun 2027 18:02:57.599            54.575                 Moscow          1705.469
       239   03 Jun 2027 18:05:03.805   03 Jun 2027 18:05:55.984            52.179              Murmansk2          1630.594
       240   03 Jun 2027 18:06:26.447   03 Jun 2027 18:07:04.425            37.978                 Moscow          1186.813
       241   03 Jun 2027 18:08:43.669   03 Jun 2027 18:09:25.669            42.000              Murmansk2          1312.500
       242   03 Jun 2027 18:16:20.381   03 Jun 2027 18:16:43.599            23.218              Murmansk1           725.562
       243   03 Jun 2027 18:23:28.242   03 Jun 2027 18:23:35.538             7.296                Anadyr1           228.000
       244   03 Jun 2027 18:23:42.238   03 Jun 2027 18:23:55.647            13.409                Anadyr1           419.031
       245   03 Jun 2027 18:25:13.485   03 Jun 2027 18:25:43.257            29.772                Anadyr2           930.375
       246   03 Jun 2027 19:13:55.676   03 Jun 2027 19:15:40.399           104.723               CapeTown          3272.594
       247   03 Jun 2027 19:18:08.490   03 Jun 2027 19:18:10.347             1.857               CapeTown            58.031
       248   03 Jun 2027 19:22:42.890   03 Jun 2027 19:22:49.765             6.875               CapeTown           214.844
       249   03 Jun 2027 19:25:12.906   03 Jun 2027 19:26:06.693            53.787               CapeTown          1680.844
       250   03 Jun 2027 19:44:38.534   03 Jun 2027 19:46:05.584            87.050              Murmansk1          2720.312
       251   03 Jun 2027 19:46:21.636   03 Jun 2027 19:50:16.600           234.964              Murmansk2          7342.625
       252   03 Jun 2027 20:00:52.859   03 Jun 2027 20:00:56.046             3.187               Magadan2            99.594
       253   03 Jun 2027 20:01:51.220   03 Jun 2027 20:02:18.438            27.218               Magadan1           850.562
       254   03 Jun 2027 21:30:20.050   03 Jun 2027 21:31:59.914            99.864                Anadyr2          3120.750
       255   03 Jun 2027 21:32:08.256   03 Jun 2027 21:34:04.502           116.246                Anadyr1          3632.687
       256   03 Jun 2027 21:34:22.425   03 Jun 2027 21:38:04.134           221.709               Magadan2          6928.406
       257   03 Jun 2027 21:40:02.347   03 Jun 2027 21:40:49.983            47.636               Magadan2          1488.625
       258   03 Jun 2027 22:26:51.990   03 Jun 2027 22:29:09.383           137.393            RioGallegos          4293.531
       259   03 Jun 2027 22:31:33.334   03 Jun 2027 22:31:36.713             3.379            RioGallegos           105.594
       260   03 Jun 2027 23:06:10.599   03 Jun 2027 23:08:11.750           121.151                Anadyr2          3785.969
       261   03 Jun 2027 23:08:17.760   03 Jun 2027 23:09:59.354           101.594                Norilsk          3174.812
       262   03 Jun 2027 23:10:00.835   03 Jun 2027 23:10:20.143            19.308               Magadan1           603.375
       263   03 Jun 2027 23:10:46.809   03 Jun 2027 23:10:56.991            10.182                Norilsk           318.188
       264   03 Jun 2027 23:11:06.367   03 Jun 2027 23:11:20.938            14.571                Norilsk           455.344
       265   03 Jun 2027 23:11:53.090   03 Jun 2027 23:12:13.274            20.184               Magadan1           630.750
       266   03 Jun 2027 23:13:20.985   03 Jun 2027 23:14:12.097            51.112                Irkutsk          1597.250
       267   03 Jun 2027 23:15:49.721   03 Jun 2027 23:16:27.652            37.931                Irkutsk          1185.344
       268   03 Jun 2027 23:18:44.436   03 Jun 2027 23:19:51.762            67.326                Irkutsk          2103.938
       269   03 Jun 2027 23:28:34.733   03 Jun 2027 23:30:29.338           114.605                Sumatra          3581.406
       270   04 Jun 2027 00:07:35.415   04 Jun 2027 00:07:57.375            21.960            RioGallegos           686.250
       271   04 Jun 2027 00:10:53.095   04 Jun 2027 00:11:21.097            28.002            RioGallegos           875.062
       272   04 Jun 2027 00:41:30.139   04 Jun 2027 00:41:38.528             8.389                Anadyr1           262.156
       273   04 Jun 2027 00:41:51.650   04 Jun 2027 00:42:56.520            64.870                Anadyr1          2027.187
       274   04 Jun 2027 00:43:16.744   04 Jun 2027 00:43:32.948            16.204                Anadyr2           506.375
       275   04 Jun 2027 00:44:02.857   04 Jun 2027 00:44:26.607            23.750                Norilsk           742.188
       276   04 Jun 2027 00:44:40.707   04 Jun 2027 00:46:23.056           102.349               Magadan1          3198.406
       277   04 Jun 2027 00:46:26.498   04 Jun 2027 00:46:41.487            14.989               Magadan2           468.406
       278   04 Jun 2027 00:46:44.284   04 Jun 2027 00:46:53.571             9.287               Magadan2           290.219
       279   04 Jun 2027 00:47:59.452   04 Jun 2027 00:49:09.698            70.246                Irkutsk          2195.187
       280   04 Jun 2027 00:51:41.075   04 Jun 2027 00:52:20.436            39.361                Novosib          1230.031
       281   04 Jun 2027 00:52:38.432   04 Jun 2027 00:52:53.219            14.787                Novosib           462.094
       282   04 Jun 2027 00:55:03.061   04 Jun 2027 00:55:43.276            40.215                Irkutsk          1256.719
       283   04 Jun 2027 00:59:19.113   04 Jun 2027 00:59:52.673            33.560                  Delhi          1048.750
       284   04 Jun 2027 01:01:16.164   04 Jun 2027 01:03:23.066           126.902                  Delhi          3965.687
       285   04 Jun 2027 01:41:43.245   04 Jun 2027 01:42:04.148            20.903            RioGallegos           653.219
       286   04 Jun 2027 01:45:41.421   04 Jun 2027 01:46:28.957            47.536            RioGallegos          1485.500
       287   04 Jun 2027 02:16:47.123   04 Jun 2027 02:16:49.831             2.708                Anadyr1            84.625
       288   04 Jun 2027 02:17:01.818   04 Jun 2027 02:17:42.954            41.136                Anadyr1          1285.500
       289   04 Jun 2027 02:18:11.934   04 Jun 2027 02:18:16.873             4.939                Anadyr1           154.344
       290   04 Jun 2027 02:20:03.744   04 Jun 2027 02:21:03.571            59.827                Norilsk          1869.594
       291   04 Jun 2027 02:21:06.714   04 Jun 2027 02:21:21.792            15.078               Magadan1           471.187
       292   04 Jun 2027 02:23:02.861   04 Jun 2027 02:23:17.167            14.306                Norilsk           447.063
       293   04 Jun 2027 02:23:29.514   04 Jun 2027 02:23:52.765            23.251              Murmansk1           726.594
       294   04 Jun 2027 02:23:56.052   04 Jun 2027 02:24:04.253             8.201              Murmansk2           256.281
       295   04 Jun 2027 02:24:04.505   04 Jun 2027 02:26:03.043           118.538                Irkutsk          3704.312
       296   04 Jun 2027 02:28:32.276   04 Jun 2027 02:28:47.211            14.935                Irkutsk           466.719
       297   04 Jun 2027 02:29:21.060   04 Jun 2027 02:29:56.081            35.021                Irkutsk          1094.406
       298   04 Jun 2027 02:36:50.908   04 Jun 2027 02:37:08.878            17.970                  Delhi           561.563
       299   04 Jun 2027 02:38:44.443   04 Jun 2027 02:39:08.333            23.890                  Delhi           746.563
       300   04 Jun 2027 02:43:13.731   04 Jun 2027 02:43:38.723            24.992                  Delhi           781.000
       301   04 Jun 2027 03:13:02.121   04 Jun 2027 03:13:29.837            27.716            RioGallegos           866.125
       302   04 Jun 2027 03:14:06.267   04 Jun 2027 03:14:41.567            35.300            RioGallegos          1103.125
       303   04 Jun 2027 03:15:32.441   04 Jun 2027 03:17:48.223           135.782            RioGallegos          4243.187
       304   04 Jun 2027 04:02:42.418   04 Jun 2027 04:02:58.949            16.531                Irkutsk           516.594
       305   04 Jun 2027 04:05:09.714   04 Jun 2027 04:06:35.362            85.648                Irkutsk          2676.500
       306   04 Jun 2027 04:06:46.290   04 Jun 2027 04:07:28.159            41.869              Murmansk1          1308.406
       307   04 Jun 2027 04:07:53.876   04 Jun 2027 04:08:41.717            47.841                Norilsk          1495.031
       308   04 Jun 2027 04:08:50.796   04 Jun 2027 04:08:52.567             1.771              Murmansk1            55.344
       309   04 Jun 2027 04:09:33.235   04 Jun 2027 04:11:13.743           100.508                Novosib          3140.875
       310   04 Jun 2027 04:14:44.092   04 Jun 2027 04:16:46.268           122.176                  Delhi          3818.000
       311   04 Jun 2027 05:41:15.283   04 Jun 2027 05:42:09.996            54.713                Novosib          1709.781
       312   04 Jun 2027 05:43:14.188   04 Jun 2027 05:43:19.341             5.153                Norilsk           161.031
       313   04 Jun 2027 05:44:27.558   04 Jun 2027 05:46:15.109           107.551                 Moscow          3360.969
       314   04 Jun 2027 05:46:25.343   04 Jun 2027 05:46:51.533            26.190              Murmansk2           818.438
       315   04 Jun 2027 06:01:16.433   04 Jun 2027 06:02:05.697            49.264               CapeTown          1539.500
       316   04 Jun 2027 06:11:11.876   04 Jun 2027 06:11:29.946            18.070               CapeTown           564.687
       317   04 Jun 2027 07:04:18.238   04 Jun 2027 07:05:08.960            50.722                Anadyr1          1585.062
       318   04 Jun 2027 07:05:08.960   04 Jun 2027 07:06:10.522            61.562                Anadyr2          1923.813
       319   04 Jun 2027 07:07:39.401   04 Jun 2027 07:08:53.534            74.133                Anadyr2          2316.656
       320   04 Jun 2027 07:41:55.661   04 Jun 2027 07:44:45.010           169.349               CapeTown          5292.156
       321   04 Jun 2027 08:40:28.904   04 Jun 2027 08:40:33.772             4.868               Magadan1           152.125
       322   04 Jun 2027 08:40:46.219   04 Jun 2027 08:41:31.965            45.746               Magadan2          1429.563
       323   04 Jun 2027 08:42:11.064   04 Jun 2027 08:42:37.417            26.353               Magadan1           823.531
       324   04 Jun 2027 08:42:41.457   04 Jun 2027 08:43:14.140            32.683               Magadan1          1021.344
       325   04 Jun 2027 08:44:23.556   04 Jun 2027 08:45:04.088            40.532                Anadyr1          1266.625
       326   04 Jun 2027 08:45:53.421   04 Jun 2027 08:46:44.734            51.313                Anadyr2          1603.531
       327   04 Jun 2027 10:14:42.110   04 Jun 2027 10:15:31.568            49.458               Magadan1          1545.562
       328   04 Jun 2027 10:15:36.685   04 Jun 2027 10:15:57.097            20.412               Magadan1           637.875
       329   04 Jun 2027 10:15:57.097   04 Jun 2027 10:16:12.994            15.897               Magadan2           496.781
       330   04 Jun 2027 10:16:17.660   04 Jun 2027 10:18:32.994           135.334               Magadan1          4229.187
       331   04 Jun 2027 10:18:44.697   04 Jun 2027 10:19:41.163            56.466                Irkutsk          1764.563
       332   04 Jun 2027 10:20:35.710   04 Jun 2027 10:20:44.413             8.703               Magadan2           271.969
       333   04 Jun 2027 10:20:53.259   04 Jun 2027 10:21:52.000            58.741                Irkutsk          1835.656
       334   04 Jun 2027 10:21:59.905   04 Jun 2027 10:22:15.581            15.676                Norilsk           489.875
       335   04 Jun 2027 10:57:15.024   04 Jun 2027 10:58:00.124            45.100            RioGallegos          1409.375
       336   04 Jun 2027 11:00:20.610   04 Jun 2027 11:00:45.834            25.224            RioGallegos           788.250
       337   04 Jun 2027 11:34:05.912   04 Jun 2027 11:36:04.650           118.738                Sumatra          3710.563
       338   04 Jun 2027 11:51:22.588   04 Jun 2027 11:51:36.430            13.842                Norilsk           432.563
       339   04 Jun 2027 11:52:30.496   04 Jun 2027 11:53:17.331            46.835                Irkutsk          1463.594
       340   04 Jun 2027 11:53:22.017   04 Jun 2027 11:53:51.025            29.008               Magadan1           906.500
       341   04 Jun 2027 11:54:40.855   04 Jun 2027 11:55:34.072            53.217                Novosib          1663.031
       342   04 Jun 2027 11:55:38.385   04 Jun 2027 11:55:40.746             2.361                Novosib            73.781
       343   04 Jun 2027 11:55:41.152   04 Jun 2027 11:56:11.064            29.912                Norilsk           934.750
       344   04 Jun 2027 11:56:47.111   04 Jun 2027 11:57:22.197            35.086                Irkutsk          1096.437
       345   04 Jun 2027 11:57:24.468   04 Jun 2027 11:57:25.774             1.306                Norilsk            40.813
       346   04 Jun 2027 11:57:36.581   04 Jun 2027 11:57:45.097             8.516                Novosib           266.125
       347   04 Jun 2027 11:57:47.311   04 Jun 2027 11:58:16.385            29.074                Irkutsk           908.562
       348   04 Jun 2027 12:02:54.847   04 Jun 2027 12:03:06.884            12.037                Norilsk           376.156
       349   04 Jun 2027 12:33:29.025   04 Jun 2027 12:34:41.036            72.011            RioGallegos          2250.344
       350   04 Jun 2027 12:38:50.525   04 Jun 2027 12:39:05.642            15.117            RioGallegos           472.406
       351   04 Jun 2027 12:41:50.098   04 Jun 2027 12:42:39.605            49.507            RioGallegos          1547.094
       352   04 Jun 2027 12:43:19.586   04 Jun 2027 12:43:26.399             6.813            RioGallegos           212.906
       353   04 Jun 2027 12:44:18.477   04 Jun 2027 12:45:15.120            56.643            RioGallegos          1770.094
       354   04 Jun 2027 13:12:27.807   04 Jun 2027 13:13:30.927            63.120                Sumatra          1972.500
       355   04 Jun 2027 13:16:40.605   04 Jun 2027 13:17:39.248            58.643                Sumatra          1832.594
       356   04 Jun 2027 13:22:39.878   04 Jun 2027 13:22:59.049            19.171                Irkutsk           599.094
       357   04 Jun 2027 13:23:17.250   04 Jun 2027 13:23:20.885             3.635                Irkutsk           113.594
       358   04 Jun 2027 13:24:47.917   04 Jun 2027 13:25:02.186            14.269                Novosib           445.906
       359   04 Jun 2027 13:26:23.010   04 Jun 2027 13:27:30.290            67.280                Irkutsk          2102.500
       360   04 Jun 2027 13:33:00.560   04 Jun 2027 13:33:39.629            39.069                Irkutsk          1220.906
       361   04 Jun 2027 14:52:30.153   04 Jun 2027 14:53:13.282            43.129                  Delhi          1347.781
       362   04 Jun 2027 14:54:49.706   04 Jun 2027 14:56:59.273           129.567                  Delhi          4048.969
       363   04 Jun 2027 14:59:53.299   04 Jun 2027 15:00:50.066            56.767                  Delhi          1773.969
       364   04 Jun 2027 15:00:59.074   04 Jun 2027 15:01:42.146            43.072                Novosib          1346.000
       365   04 Jun 2027 15:03:49.123   04 Jun 2027 15:05:38.975           109.852                Novosib          3432.875
       366   04 Jun 2027 15:07:23.971   04 Jun 2027 15:08:25.158            61.187                Norilsk          1912.094
       367   04 Jun 2027 15:13:53.406   04 Jun 2027 15:14:30.392            36.986                Norilsk          1155.812
       368   04 Jun 2027 16:36:23.975   04 Jun 2027 16:39:33.585           189.610                 Moscow          5925.312
       369   04 Jun 2027 16:43:11.084   04 Jun 2027 16:44:18.597            67.513              Murmansk2          2109.781
       370   04 Jun 2027 16:45:08.112   04 Jun 2027 16:49:34.776           266.664                Norilsk          8333.250
       371   04 Jun 2027 18:14:37.283   04 Jun 2027 18:16:21.920           104.637                 Moscow          3269.906
       372   04 Jun 2027 18:17:24.287   04 Jun 2027 18:18:03.491            39.204              Murmansk1          1225.125
       373   04 Jun 2027 18:18:07.882   04 Jun 2027 18:18:44.700            36.818              Murmansk1          1150.563
       374   04 Jun 2027 18:20:57.842   04 Jun 2027 18:22:38.243           100.401              Murmansk2          3137.531
       375   04 Jun 2027 18:36:35.559   04 Jun 2027 18:37:11.379            35.820                Anadyr1          1119.375
       376   04 Jun 2027 19:26:05.997   04 Jun 2027 19:27:38.549            92.552               CapeTown          2892.250
       377   04 Jun 2027 19:29:48.586   04 Jun 2027 19:30:30.389            41.803               CapeTown          1306.344
       378   04 Jun 2027 19:34:37.215   04 Jun 2027 19:35:31.267            54.052               CapeTown          1689.125
       379   04 Jun 2027 19:57:22.189   04 Jun 2027 20:03:55.861           393.672              Murmansk2         12302.250
       380   04 Jun 2027 21:42:21.767   04 Jun 2027 21:45:19.210           177.443                Anadyr1          5545.094
       381   04 Jun 2027 21:45:27.427   04 Jun 2027 21:45:33.682             6.255                Anadyr1           195.469
       382   04 Jun 2027 21:45:47.311   04 Jun 2027 21:46:20.169            32.858                Anadyr1          1026.812
       383   04 Jun 2027 21:46:25.046   04 Jun 2027 21:47:35.057            70.011               Magadan2          2187.844
       384   04 Jun 2027 21:47:35.057   04 Jun 2027 21:48:25.229            50.172               Magadan1          1567.875
       385   04 Jun 2027 21:49:11.325   04 Jun 2027 21:49:29.914            18.589               Magadan2           580.906
       386   04 Jun 2027 21:49:46.593   04 Jun 2027 21:49:51.953             5.360               Magadan2           167.500
       387   04 Jun 2027 21:54:29.168   04 Jun 2027 21:54:30.247             1.079               Magadan2            33.719
       388   04 Jun 2027 22:38:03.682   04 Jun 2027 22:40:33.443           149.761            RioGallegos          4680.031
       389   04 Jun 2027 22:41:56.314   04 Jun 2027 22:42:08.903            12.589            RioGallegos           393.406
       390   04 Jun 2027 22:42:47.132   04 Jun 2027 22:43:09.685            22.553            RioGallegos           704.781
       391   04 Jun 2027 23:18:10.115   04 Jun 2027 23:19:53.075           102.960                Anadyr1          3217.500
       392   04 Jun 2027 23:20:05.575   04 Jun 2027 23:20:18.225            12.650                Anadyr1           395.312
       393   04 Jun 2027 23:20:36.128   04 Jun 2027 23:22:21.952           105.824               Magadan1          3307.000
       394   04 Jun 2027 23:22:21.952   04 Jun 2027 23:22:42.793            20.841               Magadan2           651.281
       395   04 Jun 2027 23:23:16.131   04 Jun 2027 23:23:18.892             2.761                Norilsk            86.281
       396   04 Jun 2027 23:23:24.052   04 Jun 2027 23:24:15.068            51.016               Magadan1          1594.250
       397   04 Jun 2027 23:25:01.836   04 Jun 2027 23:26:57.038           115.202                Irkutsk          3600.062
       398   04 Jun 2027 23:41:34.851   04 Jun 2027 23:42:13.987            39.136                Sumatra          1223.000
       399   04 Jun 2027 23:44:18.038   04 Jun 2027 23:45:28.770            70.732                Sumatra          2210.375
       400   05 Jun 2027 00:16:05.716   05 Jun 2027 00:16:26.785            21.069            RioGallegos           658.406
       401   05 Jun 2027 00:19:37.802   05 Jun 2027 00:20:03.107            25.305            RioGallegos           790.781
       402   05 Jun 2027 00:20:34.060   05 Jun 2027 00:21:08.975            34.915            RioGallegos          1091.094
       403   05 Jun 2027 00:53:23.034   05 Jun 2027 00:53:40.866            17.832                Anadyr2           557.250
       404   05 Jun 2027 00:53:52.618   05 Jun 2027 00:54:53.160            60.542                Anadyr1          1891.938
       405   05 Jun 2027 00:55:16.330   05 Jun 2027 00:55:42.156            25.826                Anadyr1           807.063
       406   05 Jun 2027 00:56:04.930   05 Jun 2027 00:57:52.200           107.270                Norilsk          3352.188
       407   05 Jun 2027 00:57:54.248   05 Jun 2027 00:58:21.620            27.372               Magadan1           855.375
       408   05 Jun 2027 00:59:59.299   05 Jun 2027 01:02:14.526           135.227                Irkutsk          4225.844
       409   05 Jun 2027 01:05:22.515   05 Jun 2027 01:05:40.866            18.351                Novosib           573.469
       410   05 Jun 2027 01:09:54.274   05 Jun 2027 01:11:17.224            82.950                  Delhi          2592.188
       411   05 Jun 2027 01:14:00.502   05 Jun 2027 01:14:03.391             2.889                Sumatra            90.281
       412   05 Jun 2027 01:18:35.288   05 Jun 2027 01:18:41.459             6.171                Sumatra           192.844
       413   05 Jun 2027 01:21:29.747   05 Jun 2027 01:22:40.370            70.623                Sumatra          2206.969
       414   05 Jun 2027 01:52:44.476   05 Jun 2027 01:52:59.421            14.945            RioGallegos           467.031
       415   05 Jun 2027 01:56:13.453   05 Jun 2027 01:56:17.119             3.666            RioGallegos           114.562
       416   05 Jun 2027 01:56:46.909   05 Jun 2027 01:57:29.251            42.342            RioGallegos          1323.188
       417   05 Jun 2027 01:59:40.121   05 Jun 2027 02:00:04.484            24.363            RioGallegos           761.344
       418   05 Jun 2027 02:29:01.935   05 Jun 2027 02:29:27.408            25.473                Anadyr2           796.031
       419   05 Jun 2027 02:29:47.969   05 Jun 2027 02:29:59.331            11.362                Anadyr1           355.063
       420   05 Jun 2027 02:32:06.017   05 Jun 2027 02:33:12.918            66.901                Norilsk          2090.656
       421   05 Jun 2027 02:34:50.440   05 Jun 2027 02:36:11.185            80.745              Murmansk1          2523.281
       422   05 Jun 2027 02:36:15.794   05 Jun 2027 02:36:50.029            34.235                Novosib          1069.844
       423   05 Jun 2027 02:37:21.537   05 Jun 2027 02:38:24.123            62.586                Novosib          1955.813
       424   05 Jun 2027 02:43:13.096   05 Jun 2027 02:43:39.481            26.385                  Delhi           824.531
       425   05 Jun 2027 02:45:36.140   05 Jun 2027 02:46:10.664            34.524                  Delhi          1078.875
       426   05 Jun 2027 02:49:57.215   05 Jun 2027 02:51:25.735            88.520                  Delhi          2766.250
       427   05 Jun 2027 03:25:22.412   05 Jun 2027 03:26:15.655            53.243            RioGallegos          1663.844
       428   05 Jun 2027 03:27:08.233   05 Jun 2027 03:28:26.852            78.619            RioGallegos          2456.844
       429   05 Jun 2027 03:29:37.335   05 Jun 2027 03:30:38.355            61.020            RioGallegos          1906.875
       430   05 Jun 2027 04:16:03.885   05 Jun 2027 04:18:04.940           121.055                Irkutsk          3782.969
       431   05 Jun 2027 04:18:54.887   05 Jun 2027 04:21:17.294           142.407              Murmansk2          4450.219
       432   05 Jun 2027 04:21:28.187   05 Jun 2027 04:23:16.775           108.588                Novosib          3393.375
       433   05 Jun 2027 04:23:31.692   05 Jun 2027 04:26:08.448           156.756                  Delhi          4898.625
       434   05 Jun 2027 05:52:41.000   05 Jun 2027 05:53:02.150            21.150                Novosib           660.938
       435   05 Jun 2027 05:53:34.216   05 Jun 2027 05:54:20.289            46.073                Novosib          1439.781
       436   05 Jun 2027 05:54:31.834   05 Jun 2027 05:55:08.403            36.569                Norilsk          1142.781
       437   05 Jun 2027 05:57:04.663   05 Jun 2027 05:57:44.312            39.649                 Moscow          1239.031
       438   05 Jun 2027 05:57:54.019   05 Jun 2027 05:59:00.027            66.008              Murmansk2          2062.750
       439   05 Jun 2027 05:59:00.549   05 Jun 2027 05:59:13.880            13.331                 Moscow           416.594
       440   05 Jun 2027 06:13:19.392   05 Jun 2027 06:15:37.824           138.432               CapeTown          4326.000
       441   05 Jun 2027 07:16:10.999   05 Jun 2027 07:17:10.271            59.272                Anadyr2          1852.250
       442   05 Jun 2027 07:17:10.271   05 Jun 2027 07:17:39.627            29.356                Anadyr1           917.375
       443   05 Jun 2027 07:17:49.143   05 Jun 2027 07:18:31.433            42.290               Magadan1          1321.563
       444   05 Jun 2027 07:18:38.036   05 Jun 2027 07:19:09.687            31.651               Magadan2           989.094
       445   05 Jun 2027 07:19:23.756   05 Jun 2027 07:19:46.081            22.325                Anadyr2           697.656
       446   05 Jun 2027 07:22:37.657   05 Jun 2027 07:22:53.818            16.161                Anadyr2           505.031
       447   05 Jun 2027 07:54:29.983   05 Jun 2027 07:57:37.175           187.192               CapeTown          5849.750
       448   05 Jun 2027 08:52:47.184   05 Jun 2027 08:52:55.554             8.370               Magadan2           261.563
       449   05 Jun 2027 08:52:58.552   05 Jun 2027 08:53:30.851            32.299                Anadyr1          1009.344
       450   05 Jun 2027 08:53:45.416   05 Jun 2027 08:54:00.945            15.529               Magadan2           485.281
       451   05 Jun 2027 08:54:07.050   05 Jun 2027 08:54:43.868            36.818               Magadan2          1150.562
       452   05 Jun 2027 08:54:58.625   05 Jun 2027 08:56:16.312            77.687                Anadyr1          2427.719
       453   05 Jun 2027 10:24:40.126   05 Jun 2027 10:24:58.517            18.391               Magadan1           574.719
       454   05 Jun 2027 10:26:42.597   05 Jun 2027 10:28:06.296            83.699               Magadan2          2615.594
       455   05 Jun 2027 10:28:15.407   05 Jun 2027 10:29:25.382            69.975               Magadan2          2186.719
       456   05 Jun 2027 10:30:31.732   05 Jun 2027 10:31:25.985            54.253               Magadan1          1695.406
       457   05 Jun 2027 10:31:34.309   05 Jun 2027 10:31:49.759            15.450                Irkutsk           482.812
       458   05 Jun 2027 10:32:15.953   05 Jun 2027 10:32:29.946            13.993                Irkutsk           437.281
       459   05 Jun 2027 10:32:48.839   05 Jun 2027 10:33:55.470            66.631                Irkutsk          2082.219
       460   05 Jun 2027 10:34:00.518   05 Jun 2027 10:34:10.602            10.084                Norilsk           315.125
       461   05 Jun 2027 10:36:22.701   05 Jun 2027 10:37:00.686            37.985                Norilsk          1187.031
       462   05 Jun 2027 11:09:07.235   05 Jun 2027 11:10:12.774            65.539            RioGallegos          2048.094
       463   05 Jun 2027 11:45:21.860   05 Jun 2027 11:45:37.795            15.935                Sumatra           497.969
       464   05 Jun 2027 11:46:57.687   05 Jun 2027 11:48:05.195            67.508                Sumatra          2109.625
       465   05 Jun 2027 12:07:41.304   05 Jun 2027 12:08:08.683            27.379                Novosib           855.594
       466   05 Jun 2027 12:11:53.697   05 Jun 2027 12:12:34.474            40.777                Norilsk          1274.281
       467   05 Jun 2027 12:47:53.924   05 Jun 2027 12:49:59.889           125.965            RioGallegos          3936.406
       468   05 Jun 2027 13:24:41.130   05 Jun 2027 13:25:00.789            19.659                Sumatra           614.344
       469   05 Jun 2027 13:25:35.152   05 Jun 2027 13:26:49.436            74.284                Sumatra          2321.375
       470   05 Jun 2027 13:28:38.719   05 Jun 2027 13:29:59.368            80.649                Sumatra          2520.281
       471   05 Jun 2027 13:39:12.784   05 Jun 2027 13:40:09.036            56.252                Irkutsk          1757.875
       472   05 Jun 2027 13:49:15.224   05 Jun 2027 13:49:44.218            28.994                Norilsk           906.063
       473   05 Jun 2027 15:04:55.906   05 Jun 2027 15:07:13.082           137.176                  Delhi          4286.750
       474   05 Jun 2027 15:10:04.183   05 Jun 2027 15:10:25.729            21.546                  Delhi           673.312
       475   05 Jun 2027 15:12:43.620   05 Jun 2027 15:14:56.929           133.309                  Delhi          4165.906
       476   05 Jun 2027 15:15:47.388   05 Jun 2027 15:16:33.767            46.379                Novosib          1449.344
       477   05 Jun 2027 15:17:01.094   05 Jun 2027 15:17:37.706            36.612                Norilsk          1144.125
       478   05 Jun 2027 15:21:11.348   05 Jun 2027 15:21:32.433            21.085                Norilsk           658.906
       479   05 Jun 2027 15:25:02.137   05 Jun 2027 15:25:53.526            51.389                Norilsk          1605.906
       480   05 Jun 2027 15:26:23.900   05 Jun 2027 15:27:12.830            48.930                Norilsk          1529.063
       481   05 Jun 2027 16:48:30.293   05 Jun 2027 16:51:41.773           191.480                 Moscow          5983.750
       482   05 Jun 2027 16:58:04.901   05 Jun 2027 17:01:47.761           222.860                Norilsk          6964.375
