uniorb/output/strategy_4/Drop/Drop_KinoSat_110706.txt

KinoSat_110706
-------------------------
    Access    *     Start Time (UTCG)     *     Stop Time (UTCG)  *   Duration (s)        *       Station  *  Data (Mbytes)
         1   01 Jun 2027 03:29:14.981   01 Jun 2027 03:29:48.046            33.065                Anadyr2          1033.281
         2   01 Jun 2027 03:30:18.438   01 Jun 2027 03:31:20.347            61.909                Anadyr2          1934.656
         3   01 Jun 2027 03:31:37.272   01 Jun 2027 03:33:15.128            97.856               Magadan2          3058.000
         4   01 Jun 2027 03:33:43.057   01 Jun 2027 03:36:31.282           168.225               Magadan2          5257.031
         5   01 Jun 2027 03:36:31.453   01 Jun 2027 03:36:44.515            13.062                Anadyr2           408.188
         6   01 Jun 2027 05:04:42.515   01 Jun 2027 05:05:42.725            60.210               Magadan2          1881.563
         7   01 Jun 2027 05:05:51.139   01 Jun 2027 05:06:30.088            38.949               Magadan1          1217.156
         8   01 Jun 2027 05:06:30.088   01 Jun 2027 05:09:30.696           180.608               Magadan2          5644.000
         9   01 Jun 2027 05:09:30.696   01 Jun 2027 05:09:42.649            11.953               Magadan1           373.531
        10   01 Jun 2027 05:09:50.519   01 Jun 2027 05:11:41.962           111.443               Magadan1          3482.594
        11   01 Jun 2027 05:11:52.678   01 Jun 2027 05:12:04.905            12.227               Magadan1           382.094
        12   01 Jun 2027 05:12:04.905   01 Jun 2027 05:12:18.025            13.120               Magadan2           410.000
        13   01 Jun 2027 05:47:34.040   01 Jun 2027 05:50:01.869           147.829            RioGallegos          4619.656
        14   01 Jun 2027 05:50:46.434   01 Jun 2027 05:50:55.418             8.984            RioGallegos           280.750
        15   01 Jun 2027 06:26:11.163   01 Jun 2027 06:27:18.657            67.494                Sumatra          2109.187
        16   01 Jun 2027 06:42:21.336   01 Jun 2027 06:42:56.064            34.728                Irkutsk          1085.250
        17   01 Jun 2027 06:43:16.036   01 Jun 2027 06:44:40.665            84.629                Novosib          2644.656
        18   01 Jun 2027 06:44:43.313   01 Jun 2027 06:47:32.137           168.824                Irkutsk          5275.750
        19   01 Jun 2027 06:47:33.925   01 Jun 2027 06:48:07.074            33.149                Novosib          1035.906
        20   01 Jun 2027 06:48:35.936   01 Jun 2027 06:48:45.139             9.203              Murmansk1           287.594
        21   01 Jun 2027 07:23:04.852   01 Jun 2027 07:24:10.229            65.377            RioGallegos          2043.031
        22   01 Jun 2027 07:57:44.197   01 Jun 2027 07:58:39.596            55.399                Sumatra          1731.219
        23   01 Jun 2027 08:07:51.432   01 Jun 2027 08:10:00.117           128.685                  Delhi          4021.406
        24   01 Jun 2027 08:19:54.138   01 Jun 2027 08:20:58.491            64.353                Irkutsk          2011.031
        25   01 Jun 2027 08:21:02.679   01 Jun 2027 08:21:35.846            33.167                Norilsk          1036.469
        26   01 Jun 2027 08:21:45.354   01 Jun 2027 08:24:33.005           167.651              Murmansk1          5239.094
        27   01 Jun 2027 08:24:33.005   01 Jun 2027 08:25:54.653            81.648              Murmansk2          2551.500
        28   01 Jun 2027 09:42:04.132   01 Jun 2027 09:46:05.117           240.985                  Delhi          7530.781
        29   01 Jun 2027 09:58:27.776   01 Jun 2027 10:00:44.059           136.283                Novosib          4258.844
        30   01 Jun 2027 11:31:49.339   01 Jun 2027 11:36:37.116           287.777              Murmansk2          8993.031
        31   01 Jun 2027 11:36:37.116   01 Jun 2027 11:37:03.736            26.620              Murmansk1           831.875
        32   01 Jun 2027 11:39:12.502   01 Jun 2027 11:39:14.386             1.884                 Moscow            58.875
        33   01 Jun 2027 11:40:48.798   01 Jun 2027 11:41:23.872            35.074              Murmansk2          1096.063
        34   01 Jun 2027 12:40:54.123   01 Jun 2027 12:42:10.725            76.602               CapeTown          2393.812
        35   01 Jun 2027 12:43:39.968   01 Jun 2027 12:47:36.372           236.404               CapeTown          7387.625
        36   01 Jun 2027 13:06:53.562   01 Jun 2027 13:08:43.260           109.698              Murmansk1          3428.062
        37   01 Jun 2027 13:11:14.681   01 Jun 2027 13:11:47.258            32.577              Murmansk1          1018.031
        38   01 Jun 2027 13:12:04.760   01 Jun 2027 13:12:07.509             2.749              Murmansk2            85.906
        39   01 Jun 2027 13:12:13.130   01 Jun 2027 13:12:26.605            13.475              Murmansk2           421.094
        40   01 Jun 2027 13:20:51.446   01 Jun 2027 13:27:08.040           376.594                Anadyr2         11768.563
        41   01 Jun 2027 13:27:46.608   01 Jun 2027 13:30:24.390           157.782                Anadyr2          4930.687
        42   01 Jun 2027 14:56:24.258   01 Jun 2027 14:56:44.889            20.631                Anadyr2           644.719
        43   01 Jun 2027 14:57:47.106   01 Jun 2027 14:58:21.304            34.198                Anadyr1          1068.687
        44   01 Jun 2027 14:59:06.911   01 Jun 2027 14:59:14.998             8.087                Anadyr1           252.719
        45   01 Jun 2027 14:59:44.658   01 Jun 2027 15:00:01.184            16.526                Anadyr1           516.438
        46   01 Jun 2027 15:00:03.529   01 Jun 2027 15:06:17.956           374.427               Magadan1         11700.844
        47   01 Jun 2027 15:06:55.619   01 Jun 2027 15:07:39.950            44.331               Magadan2          1385.344
        48   01 Jun 2027 16:33:30.141   01 Jun 2027 16:33:47.091            16.950                Anadyr2           529.687
        49   01 Jun 2027 16:34:40.280   01 Jun 2027 16:36:47.483           127.203               Magadan2          3975.094
        50   01 Jun 2027 16:36:47.483   01 Jun 2027 16:37:20.714            33.231               Magadan1          1038.469
        51   01 Jun 2027 16:38:11.017   01 Jun 2027 16:38:53.087            42.070               Magadan1          1314.687
        52   01 Jun 2027 17:30:04.562   01 Jun 2027 17:32:05.226           120.664            RioGallegos          3770.750
        53   01 Jun 2027 18:08:09.280   01 Jun 2027 18:09:33.781            84.501                Anadyr1          2640.656
        54   01 Jun 2027 18:10:00.520   01 Jun 2027 18:11:05.159            64.639                Anadyr2          2019.969
        55   01 Jun 2027 18:11:06.574   01 Jun 2027 18:11:34.917            28.343               Magadan1           885.719
        56   01 Jun 2027 18:11:34.917   01 Jun 2027 18:12:49.750            74.833               Magadan2          2338.531
        57   01 Jun 2027 18:13:35.552   01 Jun 2027 18:17:26.560           231.008                Norilsk          7219.000
        58   01 Jun 2027 18:17:33.516   01 Jun 2027 18:23:13.558           340.042                Irkutsk         10626.313
        59   01 Jun 2027 18:31:20.565   01 Jun 2027 18:36:34.760           314.195                Sumatra          9818.594
        60   01 Jun 2027 19:53:04.453   01 Jun 2027 19:56:02.587           178.134                Novosib          5566.688
        61   01 Jun 2027 21:25:24.401   01 Jun 2027 21:29:16.124           231.723              Murmansk1          7241.344
        62   01 Jun 2027 21:34:45.488   01 Jun 2027 21:35:18.993            33.505                  Delhi          1047.031
        63   01 Jun 2027 22:53:07.367   01 Jun 2027 22:53:28.865            21.498                Anadyr2           671.812
        64   01 Jun 2027 22:57:14.958   01 Jun 2027 22:59:13.711           118.753               Magadan2          3711.031
        65   01 Jun 2027 22:59:37.410   01 Jun 2027 22:59:47.852            10.442               Magadan2           326.312
        66   01 Jun 2027 23:00:15.911   01 Jun 2027 23:02:53.986           158.075              Murmansk1          4939.844
        67   01 Jun 2027 23:02:53.986   01 Jun 2027 23:06:10.003           196.017              Murmansk2          6125.531
        68   01 Jun 2027 23:07:01.183   01 Jun 2027 23:10:22.953           201.770                 Moscow          6305.313
        69   01 Jun 2027 23:31:04.654   01 Jun 2027 23:33:01.269           116.615               CapeTown          3644.219
        70   01 Jun 2027 23:34:05.924   01 Jun 2027 23:36:15.134           129.210               CapeTown          4037.813
        71   02 Jun 2027 00:36:09.049   02 Jun 2027 00:36:38.673            29.624              Murmansk1           925.750
        72   02 Jun 2027 00:39:23.305   02 Jun 2027 00:39:41.809            18.504                 Moscow           578.250
        73   02 Jun 2027 00:41:45.010   02 Jun 2027 00:41:50.224             5.214                 Moscow           162.937
        74   02 Jun 2027 00:42:36.766   02 Jun 2027 00:42:48.829            12.063                 Moscow           376.969
        75   02 Jun 2027 00:47:42.757   02 Jun 2027 00:48:08.681            25.924                 Moscow           810.125
        76   02 Jun 2027 00:52:05.392   02 Jun 2027 00:52:15.455            10.063                 Moscow           314.469
        77   02 Jun 2027 01:03:17.117   02 Jun 2027 01:04:01.776            44.659               CapeTown          1395.594
        78   02 Jun 2027 01:04:57.260   02 Jun 2027 01:06:02.855            65.595               CapeTown          2049.844
        79   02 Jun 2027 01:59:59.338   02 Jun 2027 02:01:16.191            76.853                Anadyr2          2401.656
        80   02 Jun 2027 02:01:22.144   02 Jun 2027 02:02:53.003            90.859               Magadan2          2839.344
        81   02 Jun 2027 02:04:41.477   02 Jun 2027 02:05:46.511            65.034               Magadan2          2032.312
        82   02 Jun 2027 02:12:06.495   02 Jun 2027 02:13:25.489            78.994              Murmansk2          2468.563
        83   02 Jun 2027 02:14:46.620   02 Jun 2027 02:15:05.569            18.949              Murmansk2           592.156
        84   02 Jun 2027 02:15:25.736   02 Jun 2027 02:15:36.469            10.733              Murmansk1           335.406
        85   02 Jun 2027 02:15:54.323   02 Jun 2027 02:16:18.842            24.519                 Moscow           766.219
        86   02 Jun 2027 02:18:23.008   02 Jun 2027 02:19:54.153            91.145                 Moscow          2848.281
        87   02 Jun 2027 02:45:44.795   02 Jun 2027 02:45:57.794            12.999               CapeTown           406.219
        88   02 Jun 2027 02:46:23.547   02 Jun 2027 02:47:07.055            43.508               CapeTown          1359.625
        89   02 Jun 2027 03:42:02.084   02 Jun 2027 03:44:06.969           124.885                Anadyr2          3902.656
        90   02 Jun 2027 03:44:14.488   02 Jun 2027 03:46:11.512           117.024                Anadyr1          3657.000
        91   02 Jun 2027 05:18:47.458   02 Jun 2027 05:19:06.742            19.284                Irkutsk           602.625
        92   02 Jun 2027 05:19:39.423   02 Jun 2027 05:24:15.374           275.951               Magadan1          8623.469
        93   02 Jun 2027 06:40:22.986   02 Jun 2027 06:42:33.024           130.038                Sumatra          4063.687
        94   02 Jun 2027 06:54:56.508   02 Jun 2027 06:55:58.635            62.127                Irkutsk          1941.469
        95   02 Jun 2027 06:56:39.265   02 Jun 2027 06:56:58.855            19.590                Irkutsk           612.188
        96   02 Jun 2027 06:57:09.731   02 Jun 2027 06:57:38.978            29.247                Novosib           913.969
        97   02 Jun 2027 06:57:42.008   02 Jun 2027 06:57:52.166            10.158               Magadan1           317.438
        98   02 Jun 2027 06:58:00.265   02 Jun 2027 06:58:05.641             5.376               Magadan2           168.000
        99   02 Jun 2027 06:58:07.774   02 Jun 2027 07:00:15.087           127.313                Irkutsk          3978.531
       100   02 Jun 2027 08:33:31.358   02 Jun 2027 08:35:12.853           101.495                Irkutsk          3171.719
       101   02 Jun 2027 10:07:41.972   02 Jun 2027 10:07:59.943            17.971                Novosib           561.594
       102   02 Jun 2027 10:09:48.874   02 Jun 2027 10:10:01.260            12.386                Novosib           387.062
       103   02 Jun 2027 10:10:41.438   02 Jun 2027 10:10:52.433            10.995                Norilsk           343.594
       104   02 Jun 2027 10:10:59.813   02 Jun 2027 10:11:58.459            58.646                Novosib          1832.687
       105   02 Jun 2027 11:51:15.430   02 Jun 2027 11:52:15.460            60.030                Norilsk          1875.937
       106   02 Jun 2027 12:52:34.047   02 Jun 2027 12:55:50.985           196.938               CapeTown          6154.313
       107   02 Jun 2027 12:57:46.963   02 Jun 2027 12:58:01.985            15.022               CapeTown           469.437
       108   02 Jun 2027 13:19:12.343   02 Jun 2027 13:19:24.865            12.522              Murmansk1           391.313
       109   02 Jun 2027 13:19:32.515   02 Jun 2027 13:21:38.097           125.582              Murmansk2          3924.437
       110   02 Jun 2027 13:28:49.055   02 Jun 2027 13:29:07.936            18.881              Murmansk2           590.031
       111   02 Jun 2027 13:32:46.840   02 Jun 2027 13:37:02.252           255.412                Anadyr1          7981.625
       112   02 Jun 2027 13:40:54.142   02 Jun 2027 13:42:18.631            84.489                Anadyr2          2640.281
       113   02 Jun 2027 14:58:58.215   02 Jun 2027 15:00:04.672            66.457              Murmansk1          2076.781
       114   02 Jun 2027 15:08:24.954   02 Jun 2027 15:10:50.156           145.202                Anadyr1          4537.562
       115   02 Jun 2027 15:11:31.401   02 Jun 2027 15:11:44.154            12.753                Anadyr2           398.531
       116   02 Jun 2027 15:11:51.019   02 Jun 2027 15:17:41.313           350.294               Magadan2         10946.688
       117   02 Jun 2027 16:46:39.425   02 Jun 2027 16:48:57.101           137.676               Magadan2          4302.375
       118   02 Jun 2027 16:50:55.228   02 Jun 2027 16:51:09.929            14.701               Magadan1           459.406
       119   02 Jun 2027 16:54:00.040   02 Jun 2027 16:54:12.303            12.263               Magadan1           383.219
       120   02 Jun 2027 16:56:49.332   02 Jun 2027 16:58:16.021            86.689               Magadan2          2709.031
       121   02 Jun 2027 17:40:35.584   02 Jun 2027 17:43:20.457           164.873            RioGallegos          5152.281
       122   02 Jun 2027 18:22:20.645   02 Jun 2027 18:26:09.109           228.464                Norilsk          7139.500
       123   02 Jun 2027 18:27:50.339   02 Jun 2027 18:28:52.052            61.713                Norilsk          1928.531
       124   02 Jun 2027 18:29:38.567   02 Jun 2027 18:30:47.561            68.994                Irkutsk          2156.063
       125   02 Jun 2027 18:31:58.682   02 Jun 2027 18:32:56.077            57.395                Irkutsk          1793.594
       126   02 Jun 2027 18:42:12.797   02 Jun 2027 18:44:41.104           148.307                Sumatra          4634.594
       127   02 Jun 2027 18:46:16.308   02 Jun 2027 18:48:32.680           136.372                Sumatra          4261.625
       128   02 Jun 2027 18:50:27.712   02 Jun 2027 18:50:52.984            25.272                Sumatra           789.750
       129   02 Jun 2027 20:02:41.096   02 Jun 2027 20:03:48.151            67.055                Novosib          2095.469
       130   02 Jun 2027 20:05:31.306   02 Jun 2027 20:07:49.540           138.234                Novosib          4319.812
       131   02 Jun 2027 20:12:42.601   02 Jun 2027 20:14:34.928           112.327                  Delhi          3510.219
       132   02 Jun 2027 20:17:58.633   02 Jun 2027 20:18:10.381            11.748                  Delhi           367.125
       133   02 Jun 2027 21:37:04.106   02 Jun 2027 21:42:18.603           314.497              Murmansk1          9828.031
       134   02 Jun 2027 23:08:50.615   02 Jun 2027 23:09:23.168            32.553               Magadan1          1017.281
       135   02 Jun 2027 23:09:31.830   02 Jun 2027 23:09:47.293            15.463               Magadan1           483.219
       136   02 Jun 2027 23:10:52.212   02 Jun 2027 23:11:12.842            20.630               Magadan2           644.687
       137   02 Jun 2027 23:11:32.060   02 Jun 2027 23:11:37.761             5.701               Magadan1           178.156
       138   02 Jun 2027 23:12:14.223   02 Jun 2027 23:12:34.479            20.256               Magadan1           633.000
       139   02 Jun 2027 23:13:05.439   02 Jun 2027 23:13:49.658            44.219              Murmansk2          1381.844
       140   02 Jun 2027 23:13:57.850   02 Jun 2027 23:17:28.945           211.095              Murmansk1          6596.719
       141   02 Jun 2027 23:17:38.883   02 Jun 2027 23:19:57.879           138.996                 Moscow          4343.625
       142   02 Jun 2027 23:42:08.999   02 Jun 2027 23:44:34.807           145.808               CapeTown          4556.500
       143   02 Jun 2027 23:48:08.255   02 Jun 2027 23:50:06.196           117.941               CapeTown          3685.656
       144   03 Jun 2027 00:48:10.719   03 Jun 2027 00:48:26.608            15.889              Murmansk2           496.531
       145   03 Jun 2027 00:51:23.714   03 Jun 2027 00:52:25.409            61.695                 Moscow          1927.969
       146   03 Jun 2027 00:55:11.165   03 Jun 2027 00:55:18.625             7.460                 Moscow           233.125
       147   03 Jun 2027 00:56:45.925   03 Jun 2027 00:56:51.105             5.180                 Moscow           161.875
       148   03 Jun 2027 00:58:57.049   03 Jun 2027 00:59:45.974            48.925                 Moscow          1528.906
       149   03 Jun 2027 01:15:16.645   03 Jun 2027 01:15:59.714            43.069               CapeTown          1345.906
       150   03 Jun 2027 01:18:29.258   03 Jun 2027 01:18:30.210             0.952               CapeTown            29.750
       151   03 Jun 2027 01:19:19.321   03 Jun 2027 01:20:02.416            43.095               CapeTown          1346.719
       152   03 Jun 2027 02:12:02.821   03 Jun 2027 02:12:40.988            38.167                Anadyr1          1192.719
       153   03 Jun 2027 02:12:41.890   03 Jun 2027 02:12:57.231            15.341                Anadyr2           479.406
       154   03 Jun 2027 02:13:04.020   03 Jun 2027 02:13:38.059            34.039               Magadan2          1063.719
       155   03 Jun 2027 02:13:41.668   03 Jun 2027 02:14:55.700            74.032               Magadan1          2313.500
       156   03 Jun 2027 02:20:17.146   03 Jun 2027 02:20:22.511             5.365               Magadan2           167.656
       157   03 Jun 2027 02:20:39.002   03 Jun 2027 02:20:49.882            10.880                Norilsk           340.000
       158   03 Jun 2027 02:21:36.347   03 Jun 2027 02:21:42.708             6.361               Magadan1           198.781
       159   03 Jun 2027 02:24:07.503   03 Jun 2027 02:25:24.874            77.371              Murmansk1          2417.844
       160   03 Jun 2027 02:26:13.499   03 Jun 2027 02:27:07.283            53.784              Murmansk1          1680.750
       161   03 Jun 2027 02:27:32.139   03 Jun 2027 02:27:58.348            26.209                 Moscow           819.031
       162   03 Jun 2027 02:31:50.467   03 Jun 2027 02:32:03.600            13.133                 Moscow           410.406
       163   03 Jun 2027 02:33:32.732   03 Jun 2027 02:34:35.345            62.613                 Moscow          1956.656
       164   03 Jun 2027 02:55:29.288   03 Jun 2027 02:57:26.077           116.789               CapeTown          3649.656
       165   03 Jun 2027 03:54:40.312   03 Jun 2027 03:58:12.762           212.450                Anadyr2          6639.062
       166   03 Jun 2027 03:58:20.902   03 Jun 2027 03:58:54.466            33.564               Magadan2          1048.875
       167   03 Jun 2027 03:59:00.069   03 Jun 2027 03:59:12.478            12.409                Anadyr1           387.781
       168   03 Jun 2027 03:59:32.793   03 Jun 2027 04:00:34.208            61.415               Magadan2          1919.219
       169   03 Jun 2027 04:38:17.956   03 Jun 2027 04:39:58.175           100.219            RioGallegos          3131.844
       170   03 Jun 2027 05:30:31.088   03 Jun 2027 05:30:36.155             5.067               Magadan1           158.344
       171   03 Jun 2027 05:30:39.008   03 Jun 2027 05:31:49.151            70.143               Magadan1          2191.969
       172   03 Jun 2027 05:32:00.764   03 Jun 2027 05:34:54.400           173.636                Irkutsk          5426.125
       173   03 Jun 2027 05:35:25.640   03 Jun 2027 05:35:56.778            31.138                Irkutsk           973.062
       174   03 Jun 2027 05:36:40.996   03 Jun 2027 05:36:55.786            14.790                Novosib           462.188
       175   03 Jun 2027 07:07:50.972   03 Jun 2027 07:08:22.094            31.122                Novosib           972.562
       176   03 Jun 2027 07:08:27.309   03 Jun 2027 07:09:16.232            48.923                Novosib          1528.844
       177   03 Jun 2027 07:09:30.252   03 Jun 2027 07:10:36.683            66.431              Murmansk1          2075.969
       178   03 Jun 2027 07:11:19.155   03 Jun 2027 07:11:23.815             4.660                Norilsk           145.625
       179   03 Jun 2027 07:13:17.002   03 Jun 2027 07:13:25.866             8.864              Murmansk2           277.000
       180   03 Jun 2027 07:47:41.405   03 Jun 2027 07:48:11.837            30.432            RioGallegos           951.000
       181   03 Jun 2027 07:49:55.479   03 Jun 2027 07:50:08.834            13.355            RioGallegos           417.344
       182   03 Jun 2027 08:21:58.061   03 Jun 2027 08:23:32.240            94.179                Sumatra          2943.094
       183   03 Jun 2027 08:43:23.616   03 Jun 2027 08:44:21.883            58.267                Novosib          1820.844
       184   03 Jun 2027 08:44:58.918   03 Jun 2027 08:45:31.952            33.034                Norilsk          1032.313
       185   03 Jun 2027 08:45:46.309   03 Jun 2027 08:45:48.296             1.987                Norilsk            62.094
       186   03 Jun 2027 08:45:57.584   03 Jun 2027 08:46:28.322            30.738                Irkutsk           960.563
       187   03 Jun 2027 08:46:36.163   03 Jun 2027 08:46:39.787             3.624                Norilsk           113.250
       188   03 Jun 2027 08:47:17.697   03 Jun 2027 08:47:33.502            15.805                Irkutsk           493.906
       189   03 Jun 2027 08:48:57.783   03 Jun 2027 08:49:09.265            11.482              Murmansk1           358.812
       190   03 Jun 2027 10:06:38.562   03 Jun 2027 10:10:29.428           230.866                  Delhi          7214.562
       191   03 Jun 2027 10:21:32.462   03 Jun 2027 10:21:37.512             5.050                Novosib           157.812
       192   03 Jun 2027 10:22:50.213   03 Jun 2027 10:23:00.277            10.064                Novosib           314.500
       193   03 Jun 2027 10:24:30.949   03 Jun 2027 10:24:33.603             2.654                Novosib            82.938
       194   03 Jun 2027 12:00:42.191   03 Jun 2027 12:01:13.708            31.517                Norilsk           984.906
       195   03 Jun 2027 12:02:39.001   03 Jun 2027 12:03:15.346            36.345                Norilsk          1135.781
       196   03 Jun 2027 12:11:30.296   03 Jun 2027 12:12:41.148            70.852                Anadyr1          2214.125
       197   03 Jun 2027 13:10:25.418   03 Jun 2027 13:11:22.893            57.475               CapeTown          1796.094
       198   03 Jun 2027 13:11:48.021   03 Jun 2027 13:12:42.012            53.991               CapeTown          1687.219
       199   03 Jun 2027 13:14:29.090   03 Jun 2027 13:15:34.361            65.271               CapeTown          2039.719
       200   03 Jun 2027 13:31:33.312   03 Jun 2027 13:32:52.645            79.333              Murmansk1          2479.156
       201   03 Jun 2027 13:34:21.123   03 Jun 2027 13:35:05.754            44.631              Murmansk1          1394.719
       202   03 Jun 2027 13:38:45.622   03 Jun 2027 13:39:31.259            45.637              Murmansk2          1426.156
       203   03 Jun 2027 13:41:36.699   03 Jun 2027 13:41:52.744            16.045              Murmansk2           501.406
       204   03 Jun 2027 13:44:43.529   03 Jun 2027 13:47:56.021           192.492                Anadyr2          6015.375
       205   03 Jun 2027 13:52:45.538   03 Jun 2027 13:53:03.811            18.273                Anadyr2           571.031
       206   03 Jun 2027 13:53:13.096   03 Jun 2027 13:53:48.529            35.433                Anadyr1          1107.281
       207   03 Jun 2027 15:11:43.753   03 Jun 2027 15:12:47.589            63.836              Murmansk2          1994.875
       208   03 Jun 2027 15:14:03.073   03 Jun 2027 15:14:24.682            21.609              Murmansk1           675.281
       209   03 Jun 2027 15:15:38.112   03 Jun 2027 15:15:59.427            21.315              Murmansk1           666.094
       210   03 Jun 2027 15:16:07.236   03 Jun 2027 15:16:19.156            11.920              Murmansk2           372.500
       211   03 Jun 2027 15:17:13.358   03 Jun 2027 15:17:51.207            37.849              Murmansk1          1182.781
       212   03 Jun 2027 15:20:25.867   03 Jun 2027 15:21:24.800            58.933                Anadyr2          1841.656
       213   03 Jun 2027 15:22:35.125   03 Jun 2027 15:22:48.142            13.017                Anadyr2           406.781
       214   03 Jun 2027 15:23:21.769   03 Jun 2027 15:28:51.996           330.227               Magadan2         10319.594
       215   03 Jun 2027 15:29:13.296   03 Jun 2027 15:29:18.403             5.107               Magadan1           159.594
       216   03 Jun 2027 16:56:21.206   03 Jun 2027 16:56:53.728            32.522                Anadyr1          1016.313
       217   03 Jun 2027 16:58:39.171   03 Jun 2027 17:00:52.231           133.060               Magadan1          4158.125
       218   03 Jun 2027 17:02:31.559   03 Jun 2027 17:04:54.135           142.576               Magadan1          4455.500
       219   03 Jun 2027 17:51:54.673   03 Jun 2027 17:55:06.702           192.029            RioGallegos          6000.906
       220   03 Jun 2027 18:34:18.037   03 Jun 2027 18:35:46.582            88.545                Norilsk          2767.031
       221   03 Jun 2027 18:36:36.032   03 Jun 2027 18:38:29.532           113.500                Norilsk          3546.875
       222   03 Jun 2027 18:38:58.116   03 Jun 2027 18:39:50.159            52.043                Irkutsk          1626.344
       223   03 Jun 2027 18:41:40.933   03 Jun 2027 18:43:41.470           120.537                Irkutsk          3766.781
       224   03 Jun 2027 18:54:07.771   03 Jun 2027 18:57:57.903           230.132                Sumatra          7191.625
       225   03 Jun 2027 18:59:05.968   03 Jun 2027 18:59:56.379            50.411                Sumatra          1575.344
       226   03 Jun 2027 19:00:36.183   03 Jun 2027 19:01:02.793            26.610                Sumatra           831.563
       227   03 Jun 2027 20:14:30.884   03 Jun 2027 20:15:41.526            70.642                Novosib          2207.563
       228   03 Jun 2027 20:16:10.266   03 Jun 2027 20:17:35.454            85.188                Novosib          2662.125
       229   03 Jun 2027 20:23:35.850   03 Jun 2027 20:26:14.358           158.508                  Delhi          4953.375
       230   03 Jun 2027 20:30:02.700   03 Jun 2027 20:31:29.900            87.200                  Delhi          2725.000
       231   03 Jun 2027 21:48:51.923   03 Jun 2027 21:54:56.178           364.255              Murmansk2         11382.969
       232   03 Jun 2027 23:23:18.954   03 Jun 2027 23:23:28.364             9.410               Magadan1           294.062
       233   03 Jun 2027 23:24:16.226   03 Jun 2027 23:25:51.950            95.724              Murmansk1          2991.375
       234   03 Jun 2027 23:25:51.950   03 Jun 2027 23:27:43.263           111.313              Murmansk2          3478.531
       235   03 Jun 2027 23:27:55.366   03 Jun 2027 23:30:42.232           166.866                 Moscow          5214.563
       236   03 Jun 2027 23:53:25.694   03 Jun 2027 23:55:01.023            95.329               CapeTown          2979.031
       237   03 Jun 2027 23:58:05.720   04 Jun 2027 00:00:04.872           119.152               CapeTown          3723.500
       238   04 Jun 2027 01:00:12.397   04 Jun 2027 01:01:30.639            78.242              Murmansk2          2445.062
       239   04 Jun 2027 01:03:24.777   04 Jun 2027 01:03:58.041            33.264                 Moscow          1039.500
       240   04 Jun 2027 01:10:45.180   04 Jun 2027 01:11:13.526            28.346                 Moscow           885.812
       241   04 Jun 2027 01:12:17.873   04 Jun 2027 01:12:24.927             7.054                 Moscow           220.438
       242   04 Jun 2027 01:27:21.206   04 Jun 2027 01:28:12.628            51.422               CapeTown          1606.938
       243   04 Jun 2027 01:30:29.060   04 Jun 2027 01:31:32.534            63.474               CapeTown          1983.563
       244   04 Jun 2027 02:24:08.325   04 Jun 2027 02:24:26.973            18.648                Anadyr1           582.750
       245   04 Jun 2027 02:24:38.452   04 Jun 2027 02:25:02.410            23.958                Anadyr2           748.688
       246   04 Jun 2027 02:25:04.002   04 Jun 2027 02:26:49.858           105.856               Magadan2          3308.000
       247   04 Jun 2027 02:28:51.615   04 Jun 2027 02:29:16.255            24.640               Magadan2           770.000
       248   04 Jun 2027 02:32:19.875   04 Jun 2027 02:32:27.950             8.075               Magadan2           252.344
       249   04 Jun 2027 02:32:55.209   04 Jun 2027 02:32:56.651             1.442                Norilsk            45.062
       250   04 Jun 2027 02:33:04.572   04 Jun 2027 02:33:30.625            26.053               Magadan1           814.156
       251   04 Jun 2027 02:36:08.304   04 Jun 2027 02:37:40.102            91.798              Murmansk2          2868.688
       252   04 Jun 2027 02:39:37.272   04 Jun 2027 02:39:59.437            22.165                 Moscow           692.656
       253   04 Jun 2027 02:40:59.242   04 Jun 2027 02:41:06.023             6.781                 Moscow           211.906
       254   04 Jun 2027 02:41:41.723   04 Jun 2027 02:41:50.967             9.244                 Moscow           288.875
       255   04 Jun 2027 02:44:01.137   04 Jun 2027 02:44:10.720             9.583                 Moscow           299.469
       256   04 Jun 2027 02:46:56.015   04 Jun 2027 02:47:05.100             9.085                 Moscow           283.906
       257   04 Jun 2027 02:47:12.633   04 Jun 2027 02:47:21.689             9.056                 Moscow           283.000
       258   04 Jun 2027 02:48:10.200   04 Jun 2027 02:49:02.331            52.131                 Moscow          1629.094
       259   04 Jun 2027 03:59:40.502   04 Jun 2027 04:00:09.701            29.199               Magadan1           912.469
       260   04 Jun 2027 04:06:19.895   04 Jun 2027 04:06:37.726            17.831                Anadyr2           557.219
       261   04 Jun 2027 04:06:40.627   04 Jun 2027 04:07:07.200            26.573                Anadyr2           830.406
       262   04 Jun 2027 04:07:08.496   04 Jun 2027 04:07:44.030            35.534                Anadyr2          1110.437
       263   04 Jun 2027 04:07:57.162   04 Jun 2027 04:10:13.876           136.714                Anadyr2          4272.313
       264   04 Jun 2027 04:50:41.630   04 Jun 2027 04:51:25.478            43.848            RioGallegos          1370.250
       265   04 Jun 2027 05:43:42.067   04 Jun 2027 05:47:28.293           226.226                Irkutsk          7069.563
       266   04 Jun 2027 05:47:51.556   04 Jun 2027 05:48:35.569            44.013                Novosib          1375.406
       267   04 Jun 2027 07:19:57.485   04 Jun 2027 07:20:05.667             8.182                Irkutsk           255.687
       268   04 Jun 2027 07:21:11.949   04 Jun 2027 07:21:21.705             9.756                Irkutsk           304.875
       269   04 Jun 2027 07:23:21.033   04 Jun 2027 07:23:38.478            17.445                Norilsk           545.156
       270   04 Jun 2027 07:25:15.012   04 Jun 2027 07:25:27.624            12.612              Murmansk1           394.125
       271   04 Jun 2027 07:31:07.651   04 Jun 2027 07:31:57.457            49.806              Murmansk2          1556.437
       272   04 Jun 2027 08:34:14.402   04 Jun 2027 08:35:19.100            64.698                Sumatra          2021.813
       273   04 Jun 2027 08:39:01.650   04 Jun 2027 08:39:09.959             8.309                Sumatra           259.656
       274   04 Jun 2027 08:55:42.876   04 Jun 2027 08:56:03.387            20.511                Norilsk           640.969
       275   04 Jun 2027 08:56:20.888   04 Jun 2027 08:56:39.963            19.075                Irkutsk           596.094
       276   04 Jun 2027 08:56:41.603   04 Jun 2027 08:57:03.618            22.015                Novosib           687.969
       277   04 Jun 2027 08:57:41.293   04 Jun 2027 08:57:48.879             7.586                Norilsk           237.063
       278   04 Jun 2027 08:57:53.910   04 Jun 2027 08:58:07.804            13.894                Norilsk           434.188
       279   04 Jun 2027 08:58:23.458   04 Jun 2027 08:58:41.612            18.154                Irkutsk           567.312
       280   04 Jun 2027 08:59:09.382   04 Jun 2027 08:59:16.225             6.843                Norilsk           213.844
       281   04 Jun 2027 08:59:16.990   04 Jun 2027 08:59:25.352             8.362                Norilsk           261.312
       282   04 Jun 2027 08:59:57.239   04 Jun 2027 09:00:38.554            41.315                Norilsk          1291.094
       283   04 Jun 2027 10:19:06.942   04 Jun 2027 10:22:02.591           175.649                  Delhi          5489.031
       284   04 Jun 2027 10:35:53.441   04 Jun 2027 10:36:30.549            37.108                Norilsk          1159.625
       285   04 Jun 2027 12:08:27.907   04 Jun 2027 12:08:30.729             2.822              Murmansk1            88.188
       286   04 Jun 2027 12:09:10.423   04 Jun 2027 12:09:34.206            23.783              Murmansk2           743.219
       287   04 Jun 2027 12:10:31.260   04 Jun 2027 12:10:52.333            21.073              Murmansk2           658.531
       288   04 Jun 2027 12:12:37.401   04 Jun 2027 12:15:16.368           158.967                Norilsk          4967.719
       289   04 Jun 2027 12:22:18.878   04 Jun 2027 12:26:34.536           255.658                Anadyr1          7989.313
       290   04 Jun 2027 13:27:55.730   04 Jun 2027 13:28:28.551            32.821               CapeTown          1025.656
       291   04 Jun 2027 13:45:56.046   04 Jun 2027 13:46:21.993            25.947              Murmansk1           810.844
       292   04 Jun 2027 13:47:02.316   04 Jun 2027 13:47:59.139            56.823              Murmansk2          1775.719
       293   04 Jun 2027 13:56:41.219   04 Jun 2027 13:59:57.138           195.919                Anadyr1          6122.469
       294   04 Jun 2027 15:24:35.356   04 Jun 2027 15:27:15.332           159.976              Murmansk2          4999.250
       295   04 Jun 2027 15:32:26.957   04 Jun 2027 15:33:49.933            82.976                Anadyr2          2593.000
       296   04 Jun 2027 15:34:44.371   04 Jun 2027 15:35:16.897            32.526                Anadyr2          1016.438
       297   04 Jun 2027 15:35:19.880   04 Jun 2027 15:39:12.211           232.331               Magadan2          7260.344
       298   04 Jun 2027 15:40:53.160   04 Jun 2027 15:41:02.406             9.246               Magadan1           288.938
       299   04 Jun 2027 15:43:00.326   04 Jun 2027 15:44:39.770            99.444               Magadan2          3107.625
       300   04 Jun 2027 17:08:22.249   04 Jun 2027 17:09:00.091            37.842                Anadyr2          1182.563
       301   04 Jun 2027 17:10:39.428   04 Jun 2027 17:11:18.672            39.244               Magadan2          1226.375
       302   04 Jun 2027 17:12:50.379   04 Jun 2027 17:13:39.411            49.032               Magadan2          1532.250
       303   04 Jun 2027 17:14:21.979   04 Jun 2027 17:14:25.153             3.174               Magadan1            99.187
       304   04 Jun 2027 17:18:02.785   04 Jun 2027 17:18:11.269             8.484               Magadan2           265.125
       305   04 Jun 2027 17:19:05.415   04 Jun 2027 17:19:12.833             7.418               Magadan1           231.813
       306   04 Jun 2027 17:19:22.985   04 Jun 2027 17:20:10.758            47.773               Magadan1          1492.906
       307   04 Jun 2027 18:03:27.891   04 Jun 2027 18:06:56.352           208.461            RioGallegos          6514.406
       308   04 Jun 2027 18:08:01.854   04 Jun 2027 18:09:03.567            61.713            RioGallegos          1928.531
       309   04 Jun 2027 18:46:16.549   04 Jun 2027 18:49:21.143           184.594                Norilsk          5768.562
       310   04 Jun 2027 18:50:44.901   04 Jun 2027 18:52:18.613            93.712                Irkutsk          2928.500
       311   04 Jun 2027 18:53:42.415   04 Jun 2027 18:54:51.233            68.818                Irkutsk          2150.563
       312   04 Jun 2027 19:04:53.688   04 Jun 2027 19:07:00.579           126.891                Sumatra          3965.344
       313   04 Jun 2027 19:08:16.048   04 Jun 2027 19:09:31.688            75.640                Sumatra          2363.750
       314   04 Jun 2027 19:11:16.774   04 Jun 2027 19:11:49.480            32.706                Sumatra          1022.062
       315   04 Jun 2027 20:25:59.797   04 Jun 2027 20:27:24.937            85.140                Irkutsk          2660.625
       316   04 Jun 2027 20:27:32.212   04 Jun 2027 20:28:18.798            46.586                Novosib          1455.813
       317   04 Jun 2027 20:29:37.233   04 Jun 2027 20:30:23.553            46.320                Novosib          1447.500
       318   04 Jun 2027 20:34:53.770   04 Jun 2027 20:37:59.619           185.849                  Delhi          5807.781
       319   04 Jun 2027 20:42:01.108   04 Jun 2027 20:42:25.771            24.663                  Delhi           770.719
       320   04 Jun 2027 22:00:43.940   04 Jun 2027 22:04:46.053           242.113              Murmansk2          7566.031
       321   04 Jun 2027 22:05:56.739   04 Jun 2027 22:06:33.846            37.107              Murmansk1          1159.594
       322   04 Jun 2027 23:27:41.049   04 Jun 2027 23:27:48.115             7.066                Anadyr2           220.812
       323   04 Jun 2027 23:28:22.839   04 Jun 2027 23:28:54.766            31.927                Anadyr2           997.719
       324   04 Jun 2027 23:31:10.378   04 Jun 2027 23:31:31.428            21.050                Anadyr2           657.812
       325   04 Jun 2027 23:31:53.466   04 Jun 2027 23:32:21.892            28.426               Magadan2           888.313
       326   04 Jun 2027 23:32:40.638   04 Jun 2027 23:33:48.215            67.577               Magadan2          2111.781
       327   04 Jun 2027 23:36:16.969   04 Jun 2027 23:37:43.896            86.927              Murmansk2          2716.469
       328   04 Jun 2027 23:37:44.328   04 Jun 2027 23:39:11.372            87.044              Murmansk1          2720.125
       329   04 Jun 2027 23:39:43.932   04 Jun 2027 23:39:54.731            10.799              Murmansk1           337.469
       330   04 Jun 2027 23:40:53.701   04 Jun 2027 23:41:54.139            60.438                 Moscow          1888.688
       331   04 Jun 2027 23:42:13.422   04 Jun 2027 23:43:09.805            56.383                 Moscow          1761.969
       332   04 Jun 2027 23:45:48.432   04 Jun 2027 23:46:11.673            23.241              Murmansk1           726.281
       333   04 Jun 2027 23:47:55.671   04 Jun 2027 23:48:30.785            35.114                 Moscow          1097.312
       334   05 Jun 2027 00:04:51.291   05 Jun 2027 00:07:59.531           188.240               CapeTown          5882.500
       335   05 Jun 2027 01:12:14.066   05 Jun 2027 01:13:46.459            92.393              Murmansk2          2887.281
       336   05 Jun 2027 01:15:11.253   05 Jun 2027 01:15:47.298            36.045                Novosib          1126.406
       337   05 Jun 2027 01:15:50.214   05 Jun 2027 01:16:17.356            27.142              Murmansk2           848.187
       338   05 Jun 2027 01:16:46.601   05 Jun 2027 01:16:50.954             4.353                 Moscow           136.031
       339   05 Jun 2027 01:18:45.645   05 Jun 2027 01:18:57.761            12.116                 Moscow           378.625
       340   05 Jun 2027 01:19:44.103   05 Jun 2027 01:19:56.238            12.135                 Moscow           379.219
       341   05 Jun 2027 01:22:35.730   05 Jun 2027 01:22:38.002             2.272                 Moscow            71.000
       342   05 Jun 2027 01:24:26.836   05 Jun 2027 01:24:34.932             8.096                 Moscow           253.000
       343   05 Jun 2027 01:24:42.222   05 Jun 2027 01:24:52.363            10.141                 Moscow           316.906
       344   05 Jun 2027 01:26:06.457   05 Jun 2027 01:26:24.527            18.070                 Moscow           564.687
       345   05 Jun 2027 01:39:31.031   05 Jun 2027 01:40:59.040            88.009               CapeTown          2750.281
       346   05 Jun 2027 01:48:29.139   05 Jun 2027 01:48:41.569            12.430               CapeTown           388.438
       347   05 Jun 2027 02:36:15.934   05 Jun 2027 02:37:24.456            68.522                Anadyr1          2141.312
       348   05 Jun 2027 02:37:40.167   05 Jun 2027 02:38:17.926            37.759               Magadan2          1179.969
       349   05 Jun 2027 02:38:21.706   05 Jun 2027 02:39:32.404            70.698               Magadan1          2209.313
       350   05 Jun 2027 02:41:50.406   05 Jun 2027 02:42:02.560            12.154               Magadan2           379.813
       351   05 Jun 2027 02:44:21.867   05 Jun 2027 02:44:40.121            18.254                Norilsk           570.437
       352   05 Jun 2027 02:45:47.479   05 Jun 2027 02:46:14.298            26.819               Magadan1           838.094
       353   05 Jun 2027 02:48:08.870   05 Jun 2027 02:49:21.710            72.840              Murmansk2          2276.250
       354   05 Jun 2027 02:49:29.912   05 Jun 2027 02:49:30.284             0.372              Murmansk1            11.625
       355   05 Jun 2027 02:51:01.943   05 Jun 2027 02:51:31.559            29.616              Murmansk2           925.500
       356   05 Jun 2027 02:51:42.966   05 Jun 2027 02:52:43.714            60.748                 Moscow          1898.375
       357   05 Jun 2027 04:18:18.055   05 Jun 2027 04:19:58.089           100.034                Irkutsk          3126.063
       358   05 Jun 2027 04:20:29.338   05 Jun 2027 04:22:48.985           139.647                Irkutsk          4363.969
       359   05 Jun 2027 05:02:41.465   05 Jun 2027 05:03:51.149            69.684            RioGallegos          2177.625
       360   05 Jun 2027 05:56:11.813   05 Jun 2027 05:58:45.911           154.098                Irkutsk          4815.562
       361   05 Jun 2027 05:59:28.840   05 Jun 2027 06:00:10.366            41.526                Irkutsk          1297.687
       362   05 Jun 2027 07:33:05.340   05 Jun 2027 07:33:16.208            10.868              Murmansk2           339.625
       363   05 Jun 2027 07:33:33.850   05 Jun 2027 07:34:21.540            47.690              Murmansk2          1490.312
       364   05 Jun 2027 07:36:52.356   05 Jun 2027 07:36:55.422             3.066              Murmansk1            95.813
       365   05 Jun 2027 07:42:30.358   05 Jun 2027 07:42:49.288            18.930              Murmansk2           591.563
       366   05 Jun 2027 08:12:26.670   05 Jun 2027 08:13:14.146            47.476            RioGallegos          1483.625
       367   05 Jun 2027 08:46:38.504   05 Jun 2027 08:47:11.998            33.494                Sumatra          1046.688
       368   05 Jun 2027 08:48:06.288   05 Jun 2027 08:49:16.065            69.777                Sumatra          2180.531
       369   05 Jun 2027 09:09:34.019   05 Jun 2027 09:09:38.421             4.402              Murmansk2           137.563
       370   05 Jun 2027 09:09:44.608   05 Jun 2027 09:09:45.121             0.513              Murmansk2            16.031
       371   05 Jun 2027 09:11:03.988   05 Jun 2027 09:11:18.476            14.488                Novosib           452.750
       372   05 Jun 2027 09:11:51.982   05 Jun 2027 09:11:56.108             4.126                Novosib           128.937
       373   05 Jun 2027 10:31:45.353   05 Jun 2027 10:34:32.276           166.923                  Delhi          5216.344
       374   05 Jun 2027 10:48:08.535   05 Jun 2027 10:48:32.401            23.866                Norilsk           745.813
       375   05 Jun 2027 12:20:21.605   05 Jun 2027 12:21:07.464            45.859              Murmansk2          1433.094
       376   05 Jun 2027 12:22:32.659   05 Jun 2027 12:23:07.267            34.608              Murmansk1          1081.500
       377   05 Jun 2027 12:23:58.519   05 Jun 2027 12:24:15.681            17.162              Murmansk2           536.313
       378   05 Jun 2027 12:24:49.351   05 Jun 2027 12:26:13.783            84.432              Murmansk1          2638.500
       379   05 Jun 2027 12:26:17.604   05 Jun 2027 12:27:11.300            53.696                Norilsk          1678.000
       380   05 Jun 2027 12:28:35.086   05 Jun 2027 12:29:16.820            41.734              Murmansk1          1304.188
       381   05 Jun 2027 12:33:50.610   05 Jun 2027 12:39:42.214           351.604                Anadyr1         10987.625
       382   05 Jun 2027 13:56:50.685   05 Jun 2027 13:57:00.114             9.429              Murmansk2           294.656
       383   05 Jun 2027 13:58:59.511   05 Jun 2027 13:59:36.663            37.152              Murmansk1          1161.000
       384   05 Jun 2027 14:08:39.710   05 Jun 2027 14:11:58.097           198.387                Anadyr2          6199.594
       385   05 Jun 2027 15:08:57.570   05 Jun 2027 15:09:34.630            37.060               CapeTown          1158.125
       386   05 Jun 2027 15:37:36.531   05 Jun 2027 15:39:56.076           139.545              Murmansk2          4360.781
       387   05 Jun 2027 15:44:28.165   05 Jun 2027 15:44:57.374            29.209                Anadyr1           912.781
       388   05 Jun 2027 15:44:57.374   05 Jun 2027 15:46:38.912           101.538                Anadyr2          3173.062
       389   05 Jun 2027 15:47:07.086   05 Jun 2027 15:50:15.138           188.052               Magadan1          5876.625
       390   05 Jun 2027 15:50:15.138   05 Jun 2027 15:51:09.901            54.763               Magadan2          1711.344
       391   05 Jun 2027 15:55:11.929   05 Jun 2027 15:55:27.769            15.840               Magadan2           495.000
       392   05 Jun 2027 15:56:13.420   05 Jun 2027 15:56:37.747            24.327               Magadan2           760.219
       393   05 Jun 2027 17:20:23.124   05 Jun 2027 17:20:49.062            25.938                Anadyr2           810.562
       394   05 Jun 2027 17:21:04.389   05 Jun 2027 17:21:44.428            40.039                Anadyr2          1251.219
       395   05 Jun 2027 17:22:40.126   05 Jun 2027 17:24:08.021            87.895               Magadan1          2746.719
       396   05 Jun 2027 17:25:44.650   05 Jun 2027 17:25:46.014             1.364                Norilsk            42.625
       397   05 Jun 2027 17:26:21.248   05 Jun 2027 17:26:24.594             3.346               Magadan2           104.563
       398   05 Jun 2027 17:26:30.686   05 Jun 2027 17:28:25.738           115.052               Magadan2          3595.375
       399   05 Jun 2027 18:15:08.737   05 Jun 2027 18:17:48.268           159.531            RioGallegos          4985.344
       400   05 Jun 2027 18:18:02.867   05 Jun 2027 18:18:48.598            45.731            RioGallegos          1429.094
       401   05 Jun 2027 18:19:43.475   05 Jun 2027 18:21:27.414           103.939            RioGallegos          3248.094
       402   05 Jun 2027 18:59:14.792   05 Jun 2027 19:01:44.386           149.594                Norilsk          4674.812
       403   05 Jun 2027 19:02:34.948   05 Jun 2027 19:03:51.933            76.985                Irkutsk          2405.781
       404   05 Jun 2027 19:04:26.556   05 Jun 2027 19:05:42.302            75.746                Irkutsk          2367.062
       405   05 Jun 2027 19:16:29.836   05 Jun 2027 19:18:32.368           122.532                Sumatra          3829.125
       406   05 Jun 2027 19:20:12.406   05 Jun 2027 19:22:47.607           155.201                Sumatra          4850.031
       407   05 Jun 2027 20:38:28.422   05 Jun 2027 20:39:20.236            51.814                Novosib          1619.187
       408   05 Jun 2027 20:46:24.233   05 Jun 2027 20:47:39.353            75.120                  Delhi          2347.500
       409   05 Jun 2027 20:49:16.269   05 Jun 2027 20:49:49.553            33.284                  Delhi          1040.125
       410   05 Jun 2027 20:51:37.832   05 Jun 2027 20:53:11.900            94.068                  Delhi          2939.625
       411   05 Jun 2027 22:12:38.560   05 Jun 2027 22:16:44.771           246.211              Murmansk1          7694.094
       412   05 Jun 2027 22:17:14.886   05 Jun 2027 22:19:07.492           112.606              Murmansk2          3518.938
       413   05 Jun 2027 22:19:22.460   05 Jun 2027 22:22:35.474           193.014                 Moscow          6031.688
       414   05 Jun 2027 23:48:17.996   05 Jun 2027 23:48:31.853            13.857              Murmansk2           433.031
       415   05 Jun 2027 23:49:33.908   05 Jun 2027 23:49:42.605             8.697              Murmansk1           271.781
       416   05 Jun 2027 23:50:13.443   05 Jun 2027 23:50:26.231            12.788                Novosib           399.625
       417   05 Jun 2027 23:51:07.993   05 Jun 2027 23:51:14.433             6.440                Novosib           201.250
       418   05 Jun 2027 23:51:44.346   05 Jun 2027 23:51:45.435             1.089              Murmansk2            34.031
       419   05 Jun 2027 23:52:39.635   05 Jun 2027 23:55:12.514           152.879                 Moscow          4777.469
       420   05 Jun 2027 23:56:21.275   05 Jun 2027 23:58:13.165           111.890                 Moscow          3496.562
       421   06 Jun 2027 00:16:24.059   06 Jun 2027 00:17:43.824            79.765               CapeTown          2492.656
       422   06 Jun 2027 00:19:49.793   06 Jun 2027 00:21:46.964           117.171               CapeTown          3661.594
       423   06 Jun 2027 01:24:15.696   06 Jun 2027 01:25:33.694            77.998              Murmansk1          2437.438
       424   06 Jun 2027 01:27:28.611   06 Jun 2027 01:28:27.961            59.350                 Moscow          1854.687
       425   06 Jun 2027 01:33:01.086   06 Jun 2027 01:33:39.902            38.816                 Moscow          1213.000
       426   06 Jun 2027 01:51:46.577   06 Jun 2027 01:52:48.737            62.160               CapeTown          1942.500
       427   06 Jun 2027 02:01:34.042   06 Jun 2027 02:01:38.087             4.045               CapeTown           126.406
       428   06 Jun 2027 02:03:03.243   06 Jun 2027 02:03:43.761            40.518               CapeTown          1266.187
       429   06 Jun 2027 02:48:21.556   06 Jun 2027 02:51:15.849           174.293               Magadan1          5446.656
       430   06 Jun 2027 02:56:12.399   06 Jun 2027 02:56:28.612            16.213                Norilsk           506.656
       431   06 Jun 2027 02:57:05.507   06 Jun 2027 02:57:32.398            26.891                Norilsk           840.344
       432   06 Jun 2027 02:59:53.215   06 Jun 2027 03:00:00.606             7.391                Norilsk           230.969
       433   06 Jun 2027 03:00:09.158   06 Jun 2027 03:00:51.422            42.264              Murmansk2          1320.750
       434   06 Jun 2027 04:30:51.470   06 Jun 2027 04:31:54.140            62.670                Irkutsk          1958.438
       435   06 Jun 2027 04:33:42.655   06 Jun 2027 04:35:09.845            87.190                Irkutsk          2724.687
       436   06 Jun 2027 04:35:42.880   06 Jun 2027 04:36:23.925            41.045              Murmansk2          1282.656
       437   06 Jun 2027 05:12:47.199   06 Jun 2027 05:14:44.627           117.428            RioGallegos          3669.625
       438   06 Jun 2027 06:07:15.776   06 Jun 2027 06:08:19.050            63.274                Novosib          1977.312
       439   06 Jun 2027 06:08:48.951   06 Jun 2027 06:09:20.004            31.053                Novosib           970.406
       440   06 Jun 2027 06:09:49.059   06 Jun 2027 06:10:53.247            64.188               Magadan1          2005.875
       441   06 Jun 2027 06:11:00.179   06 Jun 2027 06:11:27.483            27.304               Magadan1           853.250
       442   06 Jun 2027 06:11:45.378   06 Jun 2027 06:11:50.767             5.389               Magadan2           168.406
       443   06 Jun 2027 06:16:28.323   06 Jun 2027 06:16:45.087            16.764                Norilsk           523.875
       444   06 Jun 2027 07:42:49.646   06 Jun 2027 07:42:57.697             8.051                Irkutsk           251.594
       445   06 Jun 2027 07:43:19.167   06 Jun 2027 07:43:50.287            31.120                Irkutsk           972.500
       446   06 Jun 2027 07:44:52.526   06 Jun 2027 07:45:35.733            43.207              Murmansk2          1350.219
       447   06 Jun 2027 07:46:15.091   06 Jun 2027 07:46:48.465            33.374              Murmansk2          1042.937
       448   06 Jun 2027 07:49:12.436   06 Jun 2027 07:49:30.568            18.132              Murmansk1           566.625
       449   06 Jun 2027 08:25:00.295   06 Jun 2027 08:25:51.560            51.265            RioGallegos          1602.031
       450   06 Jun 2027 08:27:28.789   06 Jun 2027 08:28:20.486            51.697            RioGallegos          1615.531
       451   06 Jun 2027 09:03:06.414   06 Jun 2027 09:03:38.663            32.249                Sumatra          1007.781
       452   06 Jun 2027 09:07:48.964   06 Jun 2027 09:08:38.222            49.258                Sumatra          1539.313
       453   06 Jun 2027 09:20:11.761   06 Jun 2027 09:20:48.401            36.640                Novosib          1145.000
       454   06 Jun 2027 09:20:51.081   06 Jun 2027 09:21:37.312            46.231                Novosib          1444.719
       455   06 Jun 2027 09:22:10.928   06 Jun 2027 09:22:26.155            15.227                Novosib           475.844
       456   06 Jun 2027 09:22:58.305   06 Jun 2027 09:23:00.794             2.489                Novosib            77.781
       457   06 Jun 2027 09:23:07.236   06 Jun 2027 09:23:16.708             9.472                Novosib           296.000
       458   06 Jun 2027 09:23:50.426   06 Jun 2027 09:24:02.528            12.102                Novosib           378.188
       459   06 Jun 2027 10:44:38.180   06 Jun 2027 10:46:28.660           110.480                  Delhi          3452.500
       460   06 Jun 2027 10:48:03.673   06 Jun 2027 10:48:29.073            25.400                  Delhi           793.750
       461   06 Jun 2027 10:57:08.227   06 Jun 2027 10:57:33.299            25.072                Novosib           783.500
       462   06 Jun 2027 11:00:34.364   06 Jun 2027 11:00:35.364             1.000                Norilsk            31.250
       463   06 Jun 2027 11:02:29.656   06 Jun 2027 11:02:34.423             4.767                Norilsk           148.969
       464   06 Jun 2027 12:30:24.341   06 Jun 2027 12:35:28.093           303.752              Murmansk2          9492.250
       465   06 Jun 2027 12:40:33.143   06 Jun 2027 12:40:55.413            22.270              Murmansk1           695.938
       466   06 Jun 2027 12:45:33.075   06 Jun 2027 12:49:19.087           226.012                Anadyr1          7062.875
       467   06 Jun 2027 12:50:42.066   06 Jun 2027 12:51:52.553            70.487                Anadyr2          2202.719
       468   06 Jun 2027 14:08:50.450   06 Jun 2027 14:09:08.485            18.035              Murmansk1           563.594
       469   06 Jun 2027 14:09:55.623   06 Jun 2027 14:10:57.298            61.675              Murmansk2          1927.344
       470   06 Jun 2027 14:16:08.461   06 Jun 2027 14:16:39.021            30.560              Murmansk2           955.000
       471   06 Jun 2027 14:20:38.842   06 Jun 2027 14:22:17.433            98.591                Anadyr1          3080.969
       472   06 Jun 2027 14:22:24.089   06 Jun 2027 14:24:11.932           107.843                Anadyr2          3370.094
       473   06 Jun 2027 14:26:11.529   06 Jun 2027 14:27:59.956           108.427               Magadan2          3388.344
       474   06 Jun 2027 15:51:59.069   06 Jun 2027 15:52:16.872            17.803              Murmansk1           556.344
       475   06 Jun 2027 15:56:29.467   06 Jun 2027 15:57:50.537            81.070                Anadyr2          2533.438
       476   06 Jun 2027 15:58:31.826   06 Jun 2027 15:58:35.156             3.330                Anadyr1           104.063
       477   06 Jun 2027 15:59:02.388   06 Jun 2027 16:02:04.577           182.189               Magadan2          5693.406
       478   06 Jun 2027 16:02:04.577   06 Jun 2027 16:04:26.494           141.917               Magadan1          4434.906
       479   06 Jun 2027 16:07:14.672   06 Jun 2027 16:07:28.191            13.519               Magadan1           422.469
       480   06 Jun 2027 17:32:23.775   06 Jun 2027 17:32:32.087             8.312                Anadyr1           259.750
       481   06 Jun 2027 17:33:06.698   06 Jun 2027 17:33:43.930            37.232                Anadyr1          1163.500
       482   06 Jun 2027 17:33:45.165   06 Jun 2027 17:34:25.153            39.988                Anadyr2          1249.625
