uniorb/output/strategy_4/Drop/Drop_KinoSat_110908.txt

KinoSat_110908
-------------------------
    Access    *     Start Time (UTCG)     *     Stop Time (UTCG)  *   Duration (s)        *       Station  *  Data (Mbytes)
         1   01 Jun 2027 03:02:47.840   01 Jun 2027 03:03:27.938            40.098                Anadyr2          1253.062
         2   01 Jun 2027 03:03:51.803   01 Jun 2027 03:04:13.851            22.048                Anadyr2           689.000
         3   01 Jun 2027 03:04:13.851   01 Jun 2027 03:05:15.437            61.586                Anadyr1          1924.562
         4   01 Jun 2027 03:05:23.284   01 Jun 2027 03:05:39.257            15.973                Anadyr2           499.156
         5   01 Jun 2027 03:06:54.669   01 Jun 2027 03:07:14.108            19.439                Anadyr2           607.469
         6   01 Jun 2027 04:37:57.811   01 Jun 2027 04:38:02.266             4.455               Magadan1           139.219
         7   01 Jun 2027 04:38:13.295   01 Jun 2027 04:40:40.623           147.328               Magadan2          4604.000
         8   01 Jun 2027 04:40:52.644   01 Jun 2027 04:40:59.121             6.477               Magadan1           202.406
         9   01 Jun 2027 04:41:05.519   01 Jun 2027 04:43:09.770           124.251                Anadyr1          3882.844
        10   01 Jun 2027 04:43:12.972   01 Jun 2027 04:43:37.438            24.466               Magadan1           764.562
        11   01 Jun 2027 04:44:20.712   01 Jun 2027 04:44:23.145             2.433              Murmansk1            76.031
        12   01 Jun 2027 04:44:31.014   01 Jun 2027 04:44:36.154             5.140              Murmansk1           160.625
        13   01 Jun 2027 04:44:40.673   01 Jun 2027 04:44:58.744            18.071               Magadan1           564.719
        14   01 Jun 2027 04:46:29.890   01 Jun 2027 04:47:09.719            39.829                Norilsk          1244.656
        15   01 Jun 2027 06:12:41.550   01 Jun 2027 06:14:58.854           137.304               Magadan1          4290.750
        16   01 Jun 2027 06:15:03.252   01 Jun 2027 06:15:27.437            24.185               Magadan2           755.781
        17   01 Jun 2027 06:15:39.793   01 Jun 2027 06:16:07.617            27.824                Anadyr1           869.500
        18   01 Jun 2027 06:16:07.617   01 Jun 2027 06:17:23.410            75.793                Anadyr2          2368.531
        19   01 Jun 2027 06:17:26.981   01 Jun 2027 06:17:52.109            25.128                Novosib           785.250
        20   01 Jun 2027 06:17:58.414   01 Jun 2027 06:18:20.760            22.346                Anadyr1           698.313
        21   01 Jun 2027 06:18:24.744   01 Jun 2027 06:20:07.179           102.435                Anadyr2          3201.094
        22   01 Jun 2027 06:20:09.030   01 Jun 2027 06:20:28.780            19.750              Murmansk2           617.188
        23   01 Jun 2027 06:20:34.120   01 Jun 2027 06:22:01.105            86.985              Murmansk1          2718.281
        24   01 Jun 2027 06:58:32.763   01 Jun 2027 06:58:44.462            11.699            RioGallegos           365.594
        25   01 Jun 2027 07:50:49.119   01 Jun 2027 07:51:14.437            25.318               Magadan2           791.188
        26   01 Jun 2027 07:51:52.422   01 Jun 2027 07:53:45.997           113.575               Magadan2          3549.219
        27   01 Jun 2027 07:53:55.291   01 Jun 2027 07:56:42.065           166.774                Irkutsk          5211.688
        28   01 Jun 2027 09:06:14.670   01 Jun 2027 09:06:18.694             4.024                Sumatra           125.750
        29   01 Jun 2027 09:15:58.157   01 Jun 2027 09:16:47.069            48.912                  Delhi          1528.500
        30   01 Jun 2027 09:29:24.013   01 Jun 2027 09:32:14.129           170.116                Irkutsk          5316.125
        31   01 Jun 2027 09:32:21.030   01 Jun 2027 09:33:30.008            68.978              Murmansk1          2155.562
        32   01 Jun 2027 09:35:25.410   01 Jun 2027 09:35:55.767            30.357                Norilsk           948.656
        33   01 Jun 2027 10:12:43.327   01 Jun 2027 10:14:06.397            83.070            RioGallegos          2595.937
        34   01 Jun 2027 10:14:56.082   01 Jun 2027 10:15:14.569            18.487            RioGallegos           577.719
        35   01 Jun 2027 10:50:39.610   01 Jun 2027 10:52:21.830           102.220                  Delhi          3194.375
        36   01 Jun 2027 11:05:41.161   01 Jun 2027 11:06:40.416            59.255                Norilsk          1851.719
        37   01 Jun 2027 11:06:53.671   01 Jun 2027 11:09:27.529           153.858                Novosib          4808.062
        38   01 Jun 2027 11:09:36.818   01 Jun 2027 11:09:58.315            21.497                Norilsk           671.781
        39   01 Jun 2027 12:34:48.570   01 Jun 2027 12:38:07.512           198.942                 Moscow          6216.938
        40   01 Jun 2027 12:38:17.367   01 Jun 2027 12:41:15.513           178.146              Murmansk1          5567.062
        41   01 Jun 2027 12:41:15.513   01 Jun 2027 12:41:56.362            40.849              Murmansk2          1276.531
        42   01 Jun 2027 12:42:27.653   01 Jun 2027 12:42:46.432            18.779              Murmansk2           586.844
        43   01 Jun 2027 12:42:50.189   01 Jun 2027 12:43:36.504            46.315                Norilsk          1447.344
        44   01 Jun 2027 12:46:15.444   01 Jun 2027 12:47:23.485            68.041                Norilsk          2126.281
        45   01 Jun 2027 13:49:08.991   01 Jun 2027 13:52:35.013           206.022               CapeTown          6438.188
        46   01 Jun 2027 13:54:12.188   01 Jun 2027 13:55:21.304            69.116               CapeTown          2159.875
        47   01 Jun 2027 14:15:32.381   01 Jun 2027 14:17:25.843           113.462              Murmansk1          3545.687
        48   01 Jun 2027 14:29:16.101   01 Jun 2027 14:31:54.759           158.658                Anadyr1          4958.063
        49   01 Jun 2027 14:36:18.452   01 Jun 2027 14:37:20.336            61.884                Anadyr1          1933.875
        50   01 Jun 2027 15:55:08.965   01 Jun 2027 15:58:59.710           230.745              Murmansk2          7210.781
        51   01 Jun 2027 16:04:52.437   01 Jun 2027 16:06:52.700           120.263                Anadyr1          3758.219
        52   01 Jun 2027 16:07:49.681   01 Jun 2027 16:08:23.659            33.978                Anadyr1          1061.812
        53   01 Jun 2027 16:09:20.948   01 Jun 2027 16:11:39.454           138.506               Magadan1          4328.312
        54   01 Jun 2027 16:12:43.009   01 Jun 2027 16:14:07.702            84.693               Magadan2          2646.656
        55   01 Jun 2027 17:40:47.448   01 Jun 2027 17:42:29.066           101.618                Anadyr1          3175.563
        56   01 Jun 2027 17:42:36.208   01 Jun 2027 17:44:51.731           135.523                Anadyr2          4235.094
        57   01 Jun 2027 17:45:03.172   01 Jun 2027 17:45:06.735             3.563               Magadan1           111.344
        58   01 Jun 2027 17:45:57.198   01 Jun 2027 17:46:40.058            42.860               Magadan2          1339.375
        59   01 Jun 2027 17:46:40.058   01 Jun 2027 17:46:59.238            19.180               Magadan1           599.375
        60   01 Jun 2027 17:50:11.938   01 Jun 2027 17:50:24.590            12.652               Magadan1           395.375
        61   01 Jun 2027 18:37:26.975   01 Jun 2027 18:39:47.971           140.996            RioGallegos          4406.125
        62   01 Jun 2027 19:16:36.952   01 Jun 2027 19:18:24.264           107.312                Anadyr1          3353.500
        63   01 Jun 2027 19:18:25.380   01 Jun 2027 19:18:40.147            14.767                Anadyr2           461.469
        64   01 Jun 2027 19:18:49.516   01 Jun 2027 19:22:45.098           235.582                Norilsk          7361.938
        65   01 Jun 2027 19:23:52.138   01 Jun 2027 19:27:09.309           197.171                Irkutsk          6161.594
        66   01 Jun 2027 19:39:04.026   01 Jun 2027 19:41:11.624           127.598                Sumatra          3987.437
        67   01 Jun 2027 19:44:37.173   01 Jun 2027 19:45:42.510            65.337                Sumatra          2041.781
        68   01 Jun 2027 19:46:35.996   01 Jun 2027 19:46:59.641            23.645                Sumatra           738.906
        69   01 Jun 2027 20:55:45.190   01 Jun 2027 20:55:57.089            11.899                Norilsk           371.844
        70   01 Jun 2027 20:56:04.786   01 Jun 2027 20:56:35.381            30.595                Norilsk           956.094
        71   01 Jun 2027 20:58:27.749   01 Jun 2027 21:00:13.422           105.673                Irkutsk          3302.281
        72   01 Jun 2027 21:00:45.999   01 Jun 2027 21:02:49.503           123.504                Novosib          3859.500
        73   01 Jun 2027 21:09:53.240   01 Jun 2027 21:11:09.038            75.798                  Delhi          2368.688
        74   01 Jun 2027 21:13:14.135   01 Jun 2027 21:13:49.637            35.502                  Delhi          1109.438
        75   01 Jun 2027 22:27:15.512   01 Jun 2027 22:27:59.534            44.022                Anadyr1          1375.688
        76   01 Jun 2027 22:28:00.906   01 Jun 2027 22:28:05.896             4.990                Anadyr1           155.938
        77   01 Jun 2027 22:31:05.465   01 Jun 2027 22:32:18.068            72.603               Magadan1          2268.844
        78   01 Jun 2027 22:33:05.348   01 Jun 2027 22:34:17.056            71.708               Magadan1          2240.875
        79   01 Jun 2027 22:34:20.368   01 Jun 2027 22:36:09.081           108.713                Novosib          3397.281
        80   01 Jun 2027 22:36:27.936   01 Jun 2027 22:38:23.969           116.033              Murmansk1          3626.031
        81   01 Jun 2027 22:41:41.430   01 Jun 2027 22:42:08.378            26.948                  Delhi           842.125
        82   01 Jun 2027 23:59:25.298   01 Jun 2027 23:59:35.622            10.324                Anadyr1           322.625
        83   02 Jun 2027 00:00:13.152   02 Jun 2027 00:01:50.787            97.635                Anadyr2          3051.094
        84   02 Jun 2027 00:05:17.250   02 Jun 2027 00:05:26.294             9.044                Anadyr2           282.625
        85   02 Jun 2027 00:05:29.427   02 Jun 2027 00:06:57.121            87.694               Magadan1          2740.437
        86   02 Jun 2027 00:06:57.121   02 Jun 2027 00:07:39.618            42.497               Magadan2          1328.031
        87   02 Jun 2027 00:08:43.465   02 Jun 2027 00:10:37.849           114.384              Murmansk1          3574.500
        88   02 Jun 2027 00:10:46.016   02 Jun 2027 00:12:46.362           120.346              Murmansk2          3760.813
        89   02 Jun 2027 00:12:52.438   02 Jun 2027 00:14:19.585            87.147                 Moscow          2723.344
        90   02 Jun 2027 00:38:57.343   02 Jun 2027 00:41:08.034           130.691               CapeTown          4084.094
        91   02 Jun 2027 01:37:11.156   02 Jun 2027 01:38:24.996            73.840               Magadan2          2307.500
        92   02 Jun 2027 01:44:37.855   02 Jun 2027 01:44:38.209             0.354              Murmansk2            11.063
        93   02 Jun 2027 01:45:30.542   02 Jun 2027 01:46:18.579            48.037              Murmansk2          1501.156
        94   02 Jun 2027 01:46:41.185   02 Jun 2027 01:47:16.580            35.395              Murmansk1          1106.094
        95   02 Jun 2027 01:47:51.328   02 Jun 2027 01:49:15.745            84.417                 Moscow          2638.031
        96   02 Jun 2027 01:52:06.615   02 Jun 2027 01:52:16.630            10.015                 Moscow           312.969
        97   02 Jun 2027 02:11:44.126   02 Jun 2027 02:12:59.840            75.714               CapeTown          2366.062
        98   02 Jun 2027 02:20:29.036   02 Jun 2027 02:20:57.994            28.958               CapeTown           904.938
        99   02 Jun 2027 03:09:39.908   02 Jun 2027 03:09:41.793             1.885                Anadyr2            58.906
       100   02 Jun 2027 03:10:19.939   02 Jun 2027 03:10:26.729             6.790               Magadan2           212.187
       101   02 Jun 2027 03:11:07.239   02 Jun 2027 03:11:09.138             1.899               Magadan2            59.344
       102   02 Jun 2027 03:11:41.120   02 Jun 2027 03:12:13.297            32.177               Magadan2          1005.531
       103   02 Jun 2027 03:14:28.251   02 Jun 2027 03:15:13.663            45.412               Magadan1          1419.125
       104   02 Jun 2027 03:15:28.659   02 Jun 2027 03:19:05.532           216.873                Anadyr1          6777.281
       105   02 Jun 2027 04:53:17.033   02 Jun 2027 04:53:41.781            24.748               Magadan1           773.375
       106   02 Jun 2027 04:53:45.871   02 Jun 2027 04:56:20.426           154.555                Anadyr1          4829.844
       107   02 Jun 2027 06:28:09.797   02 Jun 2027 06:28:35.032            25.235                Anadyr1           788.594
       108   02 Jun 2027 06:28:52.195   02 Jun 2027 06:32:41.319           229.124               Magadan1          7160.125
       109   02 Jun 2027 08:04:40.267   02 Jun 2027 08:05:05.316            25.049                Novosib           782.781
       110   02 Jun 2027 08:05:15.450   02 Jun 2027 08:06:39.792            84.342                Irkutsk          2635.688
       111   02 Jun 2027 08:06:47.336   02 Jun 2027 08:07:12.801            25.465                Novosib           795.781
       112   02 Jun 2027 08:07:13.408   02 Jun 2027 08:08:43.283            89.875                Irkutsk          2808.594
       113   02 Jun 2027 09:22:45.380   02 Jun 2027 09:23:20.676            35.296                Sumatra          1103.000
       114   02 Jun 2027 09:42:26.066   02 Jun 2027 09:42:31.941             5.875                Novosib           183.594
       115   02 Jun 2027 09:42:35.898   02 Jun 2027 09:42:55.328            19.430                Novosib           607.187
       116   02 Jun 2027 09:43:02.381   02 Jun 2027 09:43:55.123            52.742                Novosib          1648.188
       117   02 Jun 2027 09:44:38.004   02 Jun 2027 09:44:51.772            13.768                Novosib           430.250
       118   02 Jun 2027 11:02:57.445   02 Jun 2027 11:06:21.550           204.105                  Delhi          6378.281
       119   02 Jun 2027 11:18:13.054   02 Jun 2027 11:18:34.627            21.573                Novosib           674.156
       120   02 Jun 2027 11:18:48.480   02 Jun 2027 11:19:58.208            69.728                Novosib          2179.000
       121   02 Jun 2027 11:20:05.325   02 Jun 2027 11:20:07.096             1.771                Novosib            55.344
       122   02 Jun 2027 11:20:24.841   02 Jun 2027 11:20:31.205             6.364                Norilsk           198.875
       123   02 Jun 2027 12:46:51.555   02 Jun 2027 12:47:51.364            59.809                 Moscow          1869.031
       124   02 Jun 2027 12:48:34.273   02 Jun 2027 12:48:48.070            13.797                 Moscow           431.156
       125   02 Jun 2027 12:49:37.698   02 Jun 2027 12:51:04.327            86.629                 Moscow          2707.156
       126   02 Jun 2027 12:51:07.125   02 Jun 2027 12:52:17.841            70.716              Murmansk2          2209.875
       127   02 Jun 2027 12:53:25.602   02 Jun 2027 12:54:39.822            74.220              Murmansk1          2319.375
       128   02 Jun 2027 12:55:40.068   02 Jun 2027 12:55:55.612            15.544                Norilsk           485.750
       129   02 Jun 2027 12:57:22.473   02 Jun 2027 12:57:42.662            20.189                Norilsk           630.906
       130   02 Jun 2027 14:00:52.460   02 Jun 2027 14:03:35.835           163.375               CapeTown          5105.469
       131   02 Jun 2027 14:04:29.767   02 Jun 2027 14:05:06.536            36.769               CapeTown          1149.031
       132   02 Jun 2027 14:11:45.141   02 Jun 2027 14:12:36.325            51.184               CapeTown          1599.500
       133   02 Jun 2027 14:27:52.514   02 Jun 2027 14:29:35.709           103.195              Murmansk2          3224.844
       134   02 Jun 2027 14:29:54.556   02 Jun 2027 14:31:17.317            82.761              Murmansk2          2586.281
       135   02 Jun 2027 14:41:12.377   02 Jun 2027 14:43:15.810           123.433                Anadyr1          3857.281
       136   02 Jun 2027 15:36:32.486   02 Jun 2027 15:36:56.718            24.232               CapeTown           757.250
       137   02 Jun 2027 15:44:58.821   02 Jun 2027 15:45:03.906             5.085               CapeTown           158.906
       138   02 Jun 2027 16:07:52.561   02 Jun 2027 16:10:02.303           129.742              Murmansk1          4054.437
       139   02 Jun 2027 16:10:57.703   02 Jun 2027 16:11:16.716            19.013              Murmansk1           594.156
       140   02 Jun 2027 16:16:53.325   02 Jun 2027 16:18:39.295           105.970                Anadyr1          3311.563
       141   02 Jun 2027 16:18:48.612   02 Jun 2027 16:19:50.874            62.262                Anadyr2          1945.688
       142   02 Jun 2027 16:19:53.421   02 Jun 2027 16:23:01.223           187.802               Magadan2          5868.813
       143   02 Jun 2027 16:23:13.369   02 Jun 2027 16:23:33.906            20.537               Magadan1           641.781
       144   02 Jun 2027 17:52:48.721   02 Jun 2027 17:54:30.508           101.787                Anadyr2          3180.844
       145   02 Jun 2027 17:54:30.822   02 Jun 2027 17:55:18.253            47.431                Anadyr1          1482.219
       146   02 Jun 2027 17:55:25.682   02 Jun 2027 17:57:27.650           121.968               Magadan1          3811.500
       147   02 Jun 2027 17:58:39.040   02 Jun 2027 17:59:34.969            55.929               Magadan1          1747.781
       148   02 Jun 2027 18:02:49.338   02 Jun 2027 18:02:57.826             8.488               Magadan2           265.250
       149   02 Jun 2027 18:48:36.009   02 Jun 2027 18:51:31.172           175.163            RioGallegos          5473.844
       150   02 Jun 2027 18:55:07.677   02 Jun 2027 18:55:20.135            12.458            RioGallegos           389.312
       151   02 Jun 2027 19:28:36.031   02 Jun 2027 19:28:38.664             2.633                Anadyr2            82.281
       152   02 Jun 2027 19:29:56.115   02 Jun 2027 19:30:07.724            11.609                Anadyr1           362.781
       153   02 Jun 2027 19:30:21.663   02 Jun 2027 19:30:25.020             3.357                Anadyr1           104.906
       154   02 Jun 2027 19:30:46.444   02 Jun 2027 19:33:10.180           143.736                Norilsk          4491.750
       155   02 Jun 2027 19:33:36.192   02 Jun 2027 19:34:44.765            68.573                Norilsk          2142.906
       156   02 Jun 2027 19:35:32.141   02 Jun 2027 19:36:42.061            69.920                Irkutsk          2185.000
       157   02 Jun 2027 19:37:27.268   02 Jun 2027 19:37:29.191             1.923                Irkutsk            60.094
       158   02 Jun 2027 19:38:02.322   02 Jun 2027 19:38:53.849            51.527                Norilsk          1610.219
       159   02 Jun 2027 19:39:34.844   02 Jun 2027 19:40:33.184            58.340                Irkutsk          1823.125
       160   02 Jun 2027 19:41:51.950   02 Jun 2027 19:41:55.335             3.385                Irkutsk           105.781
       161   02 Jun 2027 19:50:11.023   02 Jun 2027 19:51:01.029            50.006                Sumatra          1562.688
       162   02 Jun 2027 19:51:22.733   02 Jun 2027 19:54:09.846           167.113                Sumatra          5222.281
       163   02 Jun 2027 19:55:10.084   02 Jun 2027 19:56:35.051            84.967                Sumatra          2655.219
       164   02 Jun 2027 21:11:02.279   02 Jun 2027 21:12:00.715            58.436                Novosib          1826.125
       165   02 Jun 2027 21:13:05.871   02 Jun 2027 21:13:22.889            17.018                Novosib           531.813
       166   02 Jun 2027 21:17:40.362   02 Jun 2027 21:18:34.507            54.145                Novosib          1692.031
       167   02 Jun 2027 21:20:25.661   02 Jun 2027 21:22:43.348           137.687                  Delhi          4302.719
       168   02 Jun 2027 22:42:47.879   02 Jun 2027 22:43:05.570            17.691                Norilsk           552.844
       169   02 Jun 2027 22:43:22.120   02 Jun 2027 22:44:00.821            38.701               Magadan2          1209.406
       170   02 Jun 2027 22:45:23.425   02 Jun 2027 22:49:05.757           222.332              Murmansk1          6947.875
       171   02 Jun 2027 22:49:55.204   02 Jun 2027 22:51:19.507            84.303              Murmansk2          2634.469
       172   03 Jun 2027 00:11:07.310   03 Jun 2027 00:11:17.921            10.611                Anadyr2           331.594
       173   03 Jun 2027 00:13:36.680   03 Jun 2027 00:14:02.050            25.370                Anadyr2           792.812
       174   03 Jun 2027 00:14:06.671   03 Jun 2027 00:14:15.234             8.563                Anadyr2           267.594
       175   03 Jun 2027 00:16:05.261   03 Jun 2027 00:16:27.339            22.078                Anadyr2           689.938
       176   03 Jun 2027 00:16:48.714   03 Jun 2027 00:17:08.221            19.507                Anadyr1           609.594
       177   03 Jun 2027 00:17:52.796   03 Jun 2027 00:19:38.257           105.461               Magadan1          3295.656
       178   03 Jun 2027 00:20:09.444   03 Jun 2027 00:20:43.806            34.362               Magadan1          1073.812
       179   03 Jun 2027 00:21:15.163   03 Jun 2027 00:24:47.506           212.343              Murmansk2          6635.719
       180   03 Jun 2027 00:24:53.628   03 Jun 2027 00:25:26.610            32.982                 Moscow          1030.688
       181   03 Jun 2027 00:25:41.164   03 Jun 2027 00:25:49.991             8.827                 Moscow           275.844
       182   03 Jun 2027 00:26:23.540   03 Jun 2027 00:26:43.222            19.682                 Moscow           615.063
       183   03 Jun 2027 00:32:14.345   03 Jun 2027 00:32:19.271             4.926                 Moscow           153.937
       184   03 Jun 2027 00:34:05.830   03 Jun 2027 00:34:22.795            16.965                 Moscow           530.156
       185   03 Jun 2027 00:50:09.661   03 Jun 2027 00:51:54.686           105.025               CapeTown          3282.031
       186   03 Jun 2027 00:54:43.280   03 Jun 2027 00:55:58.896            75.616               CapeTown          2363.000
       187   03 Jun 2027 01:48:41.381   03 Jun 2027 01:49:37.558            56.177               Magadan2          1755.531
       188   03 Jun 2027 01:49:54.018   03 Jun 2027 01:50:20.442            26.424               Magadan1           825.750
       189   03 Jun 2027 01:56:39.587   03 Jun 2027 01:58:10.573            90.986              Murmansk2          2843.313
       190   03 Jun 2027 01:58:42.607   03 Jun 2027 01:59:00.010            17.403              Murmansk1           543.844
       191   03 Jun 2027 01:59:16.743   03 Jun 2027 02:00:22.304            65.561                Novosib          2048.781
       192   03 Jun 2027 02:07:41.231   03 Jun 2027 02:07:46.523             5.292                 Moscow           165.375
       193   03 Jun 2027 02:09:27.821   03 Jun 2027 02:09:35.175             7.354                 Moscow           229.812
       194   03 Jun 2027 02:10:42.560   03 Jun 2027 02:11:43.093            60.533                 Moscow          1891.656
       195   03 Jun 2027 02:23:46.703   03 Jun 2027 02:23:55.222             8.519               CapeTown           266.219
       196   03 Jun 2027 02:26:48.976   03 Jun 2027 02:26:57.792             8.816               CapeTown           275.500
       197   03 Jun 2027 02:30:42.634   03 Jun 2027 02:32:24.979           102.345               CapeTown          3198.281
       198   03 Jun 2027 03:26:29.581   03 Jun 2027 03:28:21.309           111.728               Magadan2          3491.500
       199   03 Jun 2027 03:28:25.028   03 Jun 2027 03:29:38.480            73.452                Anadyr2          2295.375
       200   03 Jun 2027 03:29:38.480   03 Jun 2027 03:29:52.740            14.260                Anadyr1           445.625
       201   03 Jun 2027 03:30:00.360   03 Jun 2027 03:31:10.752            70.392               Magadan2          2199.750
       202   03 Jun 2027 03:31:46.993   03 Jun 2027 03:32:16.866            29.873               Magadan2           933.531
       203   03 Jun 2027 05:03:48.082   03 Jun 2027 05:04:52.331            64.249                Irkutsk          2007.781
       204   03 Jun 2027 05:05:07.606   03 Jun 2027 05:05:33.032            25.426                Irkutsk           794.562
       205   03 Jun 2027 05:06:14.158   03 Jun 2027 05:06:19.816             5.658                Irkutsk           176.812
       206   03 Jun 2027 06:39:34.257   03 Jun 2027 06:40:14.294            40.037                Novosib          1251.156
       207   03 Jun 2027 06:40:15.826   03 Jun 2027 06:40:37.789            21.963                Novosib           686.344
       208   03 Jun 2027 06:40:50.601   03 Jun 2027 06:41:11.340            20.739               Magadan2           648.094
       209   03 Jun 2027 06:41:25.534   03 Jun 2027 06:41:31.796             6.262                Anadyr1           195.688
       210   03 Jun 2027 06:41:37.908   03 Jun 2027 06:42:11.004            33.096               Magadan2          1034.250
       211   03 Jun 2027 06:42:12.039   03 Jun 2027 06:42:31.681            19.642                Anadyr1           613.813
       212   03 Jun 2027 06:42:49.498   03 Jun 2027 06:43:05.238            15.740               Magadan1           491.875
       213   03 Jun 2027 06:43:30.864   03 Jun 2027 06:43:46.409            15.545               Magadan1           485.781
       214   03 Jun 2027 06:44:19.807   03 Jun 2027 06:44:36.871            17.064               Magadan2           533.250
       215   03 Jun 2027 06:49:59.656   03 Jun 2027 06:50:09.709            10.053              Murmansk1           314.156
       216   03 Jun 2027 08:03:09.929   03 Jun 2027 08:03:53.067            43.138                Sumatra          1348.063
       217   03 Jun 2027 08:15:40.142   03 Jun 2027 08:16:12.240            32.098                Irkutsk          1003.062
       218   03 Jun 2027 08:16:22.102   03 Jun 2027 08:16:44.600            22.498                Irkutsk           703.063
       219   03 Jun 2027 08:16:50.396   03 Jun 2027 08:17:01.150            10.754                Irkutsk           336.062
       220   03 Jun 2027 08:17:54.302   03 Jun 2027 08:18:21.496            27.194                Irkutsk           849.813
       221   03 Jun 2027 08:18:31.939   03 Jun 2027 08:19:25.542            53.603                Novosib          1675.094
       222   03 Jun 2027 08:19:32.996   03 Jun 2027 08:19:55.325            22.329                Irkutsk           697.781
       223   03 Jun 2027 08:20:09.384   03 Jun 2027 08:20:45.168            35.784                Irkutsk          1118.250
       224   03 Jun 2027 08:56:17.441   03 Jun 2027 08:57:04.839            47.398            RioGallegos          1481.188
       225   03 Jun 2027 09:00:20.013   03 Jun 2027 09:01:00.258            40.245            RioGallegos          1257.656
       226   03 Jun 2027 09:30:35.061   03 Jun 2027 09:32:07.265            92.204                Sumatra          2881.375
       227   03 Jun 2027 09:52:02.063   03 Jun 2027 09:52:21.354            19.291              Murmansk1           602.844
       228   03 Jun 2027 09:54:09.558   03 Jun 2027 09:54:09.887             0.329                Norilsk            10.281
       229   03 Jun 2027 09:54:14.653   03 Jun 2027 09:54:55.750            41.097                Novosib          1284.281
       230   03 Jun 2027 09:55:01.333   03 Jun 2027 09:55:19.606            18.273                Novosib           571.031
       231   03 Jun 2027 09:55:35.055   03 Jun 2027 09:55:42.186             7.131                Irkutsk           222.844
       232   03 Jun 2027 09:55:59.285   03 Jun 2027 09:56:32.959            33.674                Novosib          1052.312
       233   03 Jun 2027 11:15:22.575   03 Jun 2027 11:18:55.388           212.813                  Delhi          6650.406
       234   03 Jun 2027 11:29:47.122   03 Jun 2027 11:30:08.354            21.232                Novosib           663.500
       235   03 Jun 2027 11:30:24.417   03 Jun 2027 11:31:40.539            76.122                Norilsk          2378.813
       236   03 Jun 2027 11:31:57.772   03 Jun 2027 11:32:10.949            13.177                Novosib           411.781
       237   03 Jun 2027 11:32:29.527   03 Jun 2027 11:32:56.009            26.482                Norilsk           827.562
       238   03 Jun 2027 12:59:15.826   03 Jun 2027 12:59:55.528            39.702                 Moscow          1240.688
       239   03 Jun 2027 13:00:29.235   03 Jun 2027 13:00:33.799             4.564                 Moscow           142.625
       240   03 Jun 2027 13:00:41.360   03 Jun 2027 13:01:44.145            62.785                 Moscow          1962.031
       241   03 Jun 2027 13:02:29.125   03 Jun 2027 13:03:59.583            90.458              Murmansk2          2826.812
       242   03 Jun 2027 13:05:33.598   03 Jun 2027 13:06:12.544            38.946              Murmansk2          1217.062
       243   03 Jun 2027 13:08:37.878   03 Jun 2027 13:09:44.785            66.907                Norilsk          2090.844
       244   03 Jun 2027 13:11:24.469   03 Jun 2027 13:11:43.984            19.515                Norilsk           609.844
       245   03 Jun 2027 13:19:03.301   03 Jun 2027 13:19:09.374             6.073                Anadyr1           189.781
       246   03 Jun 2027 14:12:40.654   03 Jun 2027 14:14:09.345            88.691               CapeTown          2771.594
       247   03 Jun 2027 14:15:05.998   03 Jun 2027 14:15:49.229            43.231               CapeTown          1350.969
       248   03 Jun 2027 14:40:14.888   03 Jun 2027 14:40:39.631            24.743              Murmansk1           773.219
       249   03 Jun 2027 14:41:29.127   03 Jun 2027 14:42:48.282            79.155              Murmansk2          2473.594
       250   03 Jun 2027 14:43:35.596   03 Jun 2027 14:43:58.772            23.176              Murmansk1           724.250
       251   03 Jun 2027 14:53:09.763   03 Jun 2027 14:55:19.776           130.013                Anadyr2          4062.906
       252   03 Jun 2027 15:00:46.385   03 Jun 2027 15:01:15.452            29.067                Anadyr2           908.344
       253   03 Jun 2027 15:48:45.534   03 Jun 2027 15:49:22.728            37.194               CapeTown          1162.313
       254   03 Jun 2027 15:53:13.284   03 Jun 2027 15:53:33.140            19.856               CapeTown           620.500
       255   03 Jun 2027 15:53:50.319   03 Jun 2027 15:54:02.692            12.373               CapeTown           386.656
       256   03 Jun 2027 16:20:41.479   03 Jun 2027 16:22:54.498           133.019              Murmansk2          4156.844
       257   03 Jun 2027 16:23:18.662   03 Jun 2027 16:23:55.904            37.242              Murmansk1          1163.812
       258   03 Jun 2027 16:28:54.406   03 Jun 2027 16:30:39.150           104.744                Anadyr1          3273.250
       259   03 Jun 2027 16:30:50.553   03 Jun 2027 16:31:06.332            15.779                Anadyr2           493.094
       260   03 Jun 2027 16:31:44.114   03 Jun 2027 16:36:08.467           264.353               Magadan2          8261.031
       261   03 Jun 2027 18:04:49.872   03 Jun 2027 18:07:32.954           163.082                Anadyr2          5096.312
       262   03 Jun 2027 18:08:06.099   03 Jun 2027 18:08:29.747            23.648                Anadyr2           739.000
       263   03 Jun 2027 18:08:58.581   03 Jun 2027 18:09:28.694            30.113               Magadan1           941.031
       264   03 Jun 2027 18:09:35.944   03 Jun 2027 18:10:07.536            31.592               Magadan1           987.250
       265   03 Jun 2027 18:12:46.983   03 Jun 2027 18:13:17.999            31.016               Magadan2           969.250
       266   03 Jun 2027 18:19:03.547   03 Jun 2027 18:19:12.560             9.013               Magadan1           281.656
       267   03 Jun 2027 18:19:32.778   03 Jun 2027 18:19:57.903            25.125               Magadan2           785.156
       268   03 Jun 2027 19:00:04.941   03 Jun 2027 19:03:18.613           193.672            RioGallegos          6052.250
       269   03 Jun 2027 19:40:34.585   03 Jun 2027 19:42:40.041           125.456                Anadyr2          3920.500
       270   03 Jun 2027 19:42:44.631   03 Jun 2027 19:46:45.000           240.369                Norilsk          7511.531
       271   03 Jun 2027 19:47:17.400   03 Jun 2027 19:47:29.708            12.308                Irkutsk           384.625
       272   03 Jun 2027 19:48:05.250   03 Jun 2027 19:49:00.934            55.684                Irkutsk          1740.125
       273   03 Jun 2027 19:49:29.528   03 Jun 2027 19:49:41.216            11.688                Irkutsk           365.250
       274   03 Jun 2027 20:01:33.409   03 Jun 2027 20:04:37.441           184.032                Sumatra          5751.000
       275   03 Jun 2027 20:06:16.565   03 Jun 2027 20:07:25.433            68.868                Sumatra          2152.125
       276   03 Jun 2027 21:22:27.384   03 Jun 2027 21:23:54.469            87.085                Irkutsk          2721.406
       277   03 Jun 2027 21:24:02.234   03 Jun 2027 21:25:14.292            72.058                Novosib          2251.813
       278   03 Jun 2027 21:31:36.256   03 Jun 2027 21:34:24.754           168.498                  Delhi          5265.563
       279   03 Jun 2027 21:38:05.114   03 Jun 2027 21:39:17.755            72.641                  Delhi          2270.031
       280   03 Jun 2027 22:56:02.118   03 Jun 2027 22:56:27.475            25.357               Magadan1           792.406
       281   03 Jun 2027 22:57:14.175   03 Jun 2027 23:03:46.810           392.635              Murmansk2         12269.844
       282   04 Jun 2027 00:28:34.051   04 Jun 2027 00:29:35.661            61.610               Magadan2          1925.313
       283   04 Jun 2027 00:29:47.037   04 Jun 2027 00:30:08.482            21.445               Magadan2           670.156
       284   04 Jun 2027 00:30:35.308   04 Jun 2027 00:30:35.764             0.456               Magadan2            14.250
       285   04 Jun 2027 00:30:38.768   04 Jun 2027 00:30:52.698            13.930               Magadan2           435.313
       286   04 Jun 2027 00:31:41.044   04 Jun 2027 00:32:07.546            26.502               Magadan2           828.187
       287   04 Jun 2027 00:32:44.412   04 Jun 2027 00:35:04.665           140.253              Murmansk1          4382.906
       288   04 Jun 2027 00:36:19.232   04 Jun 2027 00:36:55.924            36.692                 Moscow          1146.625
       289   04 Jun 2027 00:37:50.404   04 Jun 2027 00:38:52.616            62.212                 Moscow          1944.125
       290   04 Jun 2027 00:42:53.617   04 Jun 2027 00:43:22.322            28.705                 Moscow           897.031
       291   04 Jun 2027 01:01:31.976   04 Jun 2027 01:03:17.789           105.813               CapeTown          3306.656
       292   04 Jun 2027 01:05:56.392   04 Jun 2027 01:06:48.289            51.897               CapeTown          1621.781
       293   04 Jun 2027 01:59:01.171   04 Jun 2027 01:59:29.332            28.161                Anadyr1           880.031
       294   04 Jun 2027 02:00:12.795   04 Jun 2027 02:01:03.109            50.314               Magadan1          1572.313
       295   04 Jun 2027 02:01:24.765   04 Jun 2027 02:01:55.643            30.878               Magadan2           964.937
       296   04 Jun 2027 02:02:30.246   04 Jun 2027 02:02:57.011            26.765               Magadan2           836.406
       297   04 Jun 2027 02:08:11.452   04 Jun 2027 02:08:29.610            18.158               Magadan1           567.438
       298   04 Jun 2027 02:08:41.319   04 Jun 2027 02:10:05.340            84.021              Murmansk1          2625.656
       299   04 Jun 2027 02:10:42.563   04 Jun 2027 02:10:54.964            12.401              Murmansk2           387.531
       300   04 Jun 2027 02:11:32.355   04 Jun 2027 02:12:10.890            38.535                Novosib          1204.219
       301   04 Jun 2027 02:15:28.288   04 Jun 2027 02:15:54.033            25.745                Novosib           804.531
       302   04 Jun 2027 02:20:47.360   04 Jun 2027 02:21:28.467            41.107                 Moscow          1284.594
       303   04 Jun 2027 02:35:54.439   04 Jun 2027 02:36:15.386            20.947               CapeTown           654.594
       304   04 Jun 2027 02:38:54.962   04 Jun 2027 02:39:49.283            54.321               CapeTown          1697.531
       305   04 Jun 2027 02:46:25.768   04 Jun 2027 02:47:12.929            47.161               CapeTown          1473.781
       306   04 Jun 2027 03:38:35.211   04 Jun 2027 03:41:27.551           172.340                Anadyr2          5385.625
       307   04 Jun 2027 03:43:48.061   04 Jun 2027 03:44:00.438            12.377                Anadyr2           386.781
       308   04 Jun 2027 03:45:21.436   04 Jun 2027 03:45:26.235             4.799                Anadyr2           149.969
       309   04 Jun 2027 05:14:37.160   04 Jun 2027 05:15:08.006            30.846                Irkutsk           963.937
       310   04 Jun 2027 05:19:01.142   04 Jun 2027 05:19:04.832             3.690                Irkutsk           115.312
       311   04 Jun 2027 06:51:42.937   04 Jun 2027 06:51:48.884             5.947               Magadan2           185.844
       312   04 Jun 2027 06:52:31.763   04 Jun 2027 06:52:49.726            17.963                Novosib           561.344
       313   04 Jun 2027 06:52:55.665   04 Jun 2027 06:52:58.200             2.535               Magadan2            79.219
       314   04 Jun 2027 06:53:08.219   04 Jun 2027 06:53:27.508            19.289               Magadan2           602.781
       315   04 Jun 2027 06:53:35.788   04 Jun 2027 06:53:40.015             4.227               Magadan2           132.094
       316   04 Jun 2027 06:53:40.015   04 Jun 2027 06:54:49.991            69.976               Magadan1          2186.750
       317   04 Jun 2027 06:55:08.400   04 Jun 2027 06:56:01.275            52.875               Magadan2          1652.344
       318   04 Jun 2027 06:56:09.039   04 Jun 2027 06:56:14.948             5.909               Magadan2           184.656
       319   04 Jun 2027 06:56:38.798   04 Jun 2027 06:56:40.530             1.732              Murmansk1            54.125
       320   04 Jun 2027 07:02:03.828   04 Jun 2027 07:02:09.624             5.796              Murmansk2           181.125
       321   04 Jun 2027 07:02:20.032   04 Jun 2027 07:03:30.206            70.174              Murmansk2          2192.937
       322   04 Jun 2027 08:27:59.206   04 Jun 2027 08:28:05.284             6.078                Irkutsk           189.938
       323   04 Jun 2027 08:28:12.710   04 Jun 2027 08:28:47.141            34.431                Irkutsk          1075.969
       324   04 Jun 2027 08:29:25.469   04 Jun 2027 08:29:32.412             6.943                Irkutsk           216.969
       325   04 Jun 2027 08:30:27.475   04 Jun 2027 08:31:02.514            35.039                Irkutsk          1094.969
       326   04 Jun 2027 08:31:23.771   04 Jun 2027 08:31:39.355            15.584                Irkutsk           487.000
       327   04 Jun 2027 08:32:03.707   04 Jun 2027 08:32:55.780            52.073                Novosib          1627.281
       328   04 Jun 2027 09:08:42.978   04 Jun 2027 09:09:11.775            28.797            RioGallegos           899.906
       329   04 Jun 2027 09:42:55.962   04 Jun 2027 09:44:00.948            64.986                Sumatra          2030.813
       330   04 Jun 2027 09:52:38.171   04 Jun 2027 09:52:53.478            15.307                Sumatra           478.344
       331   04 Jun 2027 10:05:22.053   04 Jun 2027 10:05:28.024             5.971                Novosib           186.594
       332   04 Jun 2027 10:05:58.051   04 Jun 2027 10:06:16.010            17.959                Novosib           561.219
       333   04 Jun 2027 10:06:44.055   04 Jun 2027 10:07:03.998            19.943                Norilsk           623.219
       334   04 Jun 2027 10:07:10.470   04 Jun 2027 10:07:24.233            13.763                Novosib           430.094
       335   04 Jun 2027 10:07:33.107   04 Jun 2027 10:08:02.968            29.861                Novosib           933.156
       336   04 Jun 2027 10:08:07.906   04 Jun 2027 10:08:47.213            39.307              Murmansk1          1228.344
       337   04 Jun 2027 11:27:56.724   04 Jun 2027 11:28:42.453            45.729                  Delhi          1429.031
       338   04 Jun 2027 11:28:42.616   04 Jun 2027 11:30:36.289           113.673                  Delhi          3552.281
       339   04 Jun 2027 11:41:39.791   04 Jun 2027 11:41:40.856             1.065                Novosib            33.281
       340   04 Jun 2027 11:44:02.577   04 Jun 2027 11:44:29.149            26.572                Norilsk           830.375
       341   04 Jun 2027 13:11:06.664   04 Jun 2027 13:11:59.213            52.549                 Moscow          1642.156
       342   04 Jun 2027 13:12:22.444   04 Jun 2027 13:12:37.388            14.944                 Moscow           467.000
       343   04 Jun 2027 13:14:37.559   04 Jun 2027 13:15:43.851            66.292              Murmansk2          2071.625
       344   04 Jun 2027 13:21:53.075   04 Jun 2027 13:24:13.829           140.754                Norilsk          4398.562
       345   04 Jun 2027 14:24:32.700   04 Jun 2027 14:26:00.046            87.346               CapeTown          2729.563
       346   04 Jun 2027 14:27:22.831   04 Jun 2027 14:27:32.484             9.653               CapeTown           301.656
       347   04 Jun 2027 14:29:09.876   04 Jun 2027 14:30:24.959            75.083               CapeTown          2346.344
       348   04 Jun 2027 14:50:34.753   04 Jun 2027 14:50:37.306             2.553                 Moscow            79.781
       349   04 Jun 2027 14:52:39.622   04 Jun 2027 14:55:20.689           161.067              Murmansk2          5033.344
       350   04 Jun 2027 15:01:27.136   04 Jun 2027 15:01:34.813             7.677              Murmansk1           239.906
       351   04 Jun 2027 15:05:08.020   04 Jun 2027 15:07:11.707           123.687                Anadyr2          3865.219
       352   04 Jun 2027 15:07:18.294   04 Jun 2027 15:07:57.803            39.509                Anadyr1          1234.656
       353   04 Jun 2027 15:11:55.153   04 Jun 2027 15:12:22.400            27.247                Anadyr1           851.469
       354   04 Jun 2027 15:16:10.188   04 Jun 2027 15:16:21.255            11.067                Anadyr1           345.844
       355   04 Jun 2027 16:02:11.292   04 Jun 2027 16:04:12.749           121.457               CapeTown          3795.531
       356   04 Jun 2027 16:33:38.082   04 Jun 2027 16:35:20.522           102.440              Murmansk2          3201.250
       357   04 Jun 2027 16:35:57.358   04 Jun 2027 16:36:51.649            54.291              Murmansk2          1696.594
       358   04 Jun 2027 16:40:55.621   04 Jun 2027 16:41:08.630            13.009                Anadyr2           406.531
       359   04 Jun 2027 16:41:09.032   04 Jun 2027 16:42:21.559            72.527                Anadyr1          2266.469
       360   04 Jun 2027 16:43:37.127   04 Jun 2027 16:46:20.556           163.429               Magadan1          5107.156
       361   04 Jun 2027 16:50:15.367   04 Jun 2027 16:50:34.500            19.133               Magadan2           597.906
       362   04 Jun 2027 16:53:10.867   04 Jun 2027 16:53:49.440            38.573               Magadan1          1205.406
       363   04 Jun 2027 18:16:50.866   04 Jun 2027 18:19:45.251           174.385                Anadyr1          5449.531
       364   04 Jun 2027 18:19:57.271   04 Jun 2027 18:21:06.108            68.837               Magadan2          2151.156
       365   04 Jun 2027 18:21:29.033   04 Jun 2027 18:21:53.337            24.304               Magadan2           759.500
       366   04 Jun 2027 18:22:47.165   04 Jun 2027 18:23:16.286            29.121               Magadan1           910.031
       367   04 Jun 2027 18:26:04.089   04 Jun 2027 18:26:17.788            13.699               Magadan1           428.094
       368   04 Jun 2027 18:28:34.840   04 Jun 2027 18:29:21.958            47.118               Magadan2          1472.437
       369   04 Jun 2027 19:11:43.297   04 Jun 2027 19:13:59.037           135.740            RioGallegos          4241.875
       370   04 Jun 2027 19:14:32.735   04 Jun 2027 19:15:09.167            36.432            RioGallegos          1138.500
       371   04 Jun 2027 19:15:38.956   04 Jun 2027 19:16:40.833            61.877            RioGallegos          1933.656
       372   04 Jun 2027 19:18:01.420   04 Jun 2027 19:18:10.435             9.015            RioGallegos           281.719
       373   04 Jun 2027 19:54:15.253   04 Jun 2027 19:54:25.682            10.429                Anadyr2           325.906
       374   04 Jun 2027 19:54:43.746   04 Jun 2027 19:58:45.675           241.929                Norilsk          7560.281
       375   04 Jun 2027 19:59:06.338   04 Jun 2027 20:00:07.795            61.457                Irkutsk          1920.531
       376   04 Jun 2027 20:01:06.795   04 Jun 2027 20:01:58.626            51.831                Irkutsk          1619.719
       377   04 Jun 2027 20:13:06.214   04 Jun 2027 20:16:29.869           203.655                Sumatra          6364.219
       378   04 Jun 2027 21:34:28.564   04 Jun 2027 21:35:40.419            71.855                Irkutsk          2245.469
       379   04 Jun 2027 21:36:21.145   04 Jun 2027 21:36:58.173            37.028                Novosib          1157.125
       380   04 Jun 2027 21:37:23.989   04 Jun 2027 21:37:28.540             4.551                Novosib           142.219
       381   04 Jun 2027 21:41:12.255   04 Jun 2027 21:41:25.856            13.601                Novosib           425.031
       382   04 Jun 2027 21:43:02.555   04 Jun 2027 21:44:51.521           108.966                  Delhi          3405.188
       383   04 Jun 2027 21:47:45.455   04 Jun 2027 21:48:37.945            52.490                  Delhi          1640.313
       384   04 Jun 2027 21:51:00.061   04 Jun 2027 21:52:17.142            77.081                  Delhi          2408.781
       385   04 Jun 2027 23:06:57.616   04 Jun 2027 23:08:50.363           112.747               Magadan1          3523.344
       386   04 Jun 2027 23:09:08.006   04 Jun 2027 23:13:00.932           232.926              Murmansk2          7278.938
       387   04 Jun 2027 23:13:39.015   04 Jun 2027 23:14:16.031            37.016              Murmansk1          1156.750
       388   04 Jun 2027 23:14:22.573   04 Jun 2027 23:15:47.103            84.530              Murmansk1          2641.563
       389   04 Jun 2027 23:16:30.454   04 Jun 2027 23:17:23.805            53.351                 Moscow          1667.219
       390   05 Jun 2027 00:40:03.352   05 Jun 2027 00:41:21.771            78.419               Magadan2          2450.594
       391   05 Jun 2027 00:41:34.647   05 Jun 2027 00:41:46.701            12.054               Magadan1           376.688
       392   05 Jun 2027 00:42:03.945   05 Jun 2027 00:42:34.313            30.368               Magadan1           949.000
       393   05 Jun 2027 00:42:55.355   05 Jun 2027 00:43:42.611            47.256               Magadan2          1476.750
       394   05 Jun 2027 00:44:45.393   05 Jun 2027 00:45:27.092            41.699              Murmansk1          1303.094
       395   05 Jun 2027 00:45:54.406   05 Jun 2027 00:46:31.567            37.161              Murmansk2          1161.281
       396   05 Jun 2027 00:47:45.192   05 Jun 2027 00:49:27.404           102.212                Novosib          3194.125
       397   05 Jun 2027 00:49:38.585   05 Jun 2027 00:49:56.505            17.920                 Moscow           560.000
       398   05 Jun 2027 00:50:32.919   05 Jun 2027 00:50:41.525             8.606                 Moscow           268.938
       399   05 Jun 2027 00:55:14.422   05 Jun 2027 00:55:28.371            13.949                 Moscow           435.906
       400   05 Jun 2027 01:13:02.048   05 Jun 2027 01:14:21.174            79.126               CapeTown          2472.687
       401   05 Jun 2027 01:19:38.566   05 Jun 2027 01:19:43.950             5.384               CapeTown           168.250
       402   05 Jun 2027 01:23:21.025   05 Jun 2027 01:23:51.079            30.054               CapeTown           939.187
       403   05 Jun 2027 02:08:48.957   05 Jun 2027 02:08:55.350             6.393                Anadyr1           199.781
       404   05 Jun 2027 02:09:15.633   05 Jun 2027 02:09:40.792            25.159                Anadyr1           786.219
       405   05 Jun 2027 02:10:37.022   05 Jun 2027 02:11:08.143            31.121                Anadyr1           972.531
       406   05 Jun 2027 02:11:45.545   05 Jun 2027 02:12:52.340            66.795               Magadan1          2087.344
       407   05 Jun 2027 02:14:29.844   05 Jun 2027 02:14:33.243             3.399               Magadan2           106.219
       408   05 Jun 2027 02:16:58.464   05 Jun 2027 02:17:25.507            27.043               Magadan2           845.094
       409   05 Jun 2027 02:19:33.275   05 Jun 2027 02:19:48.964            15.689                Norilsk           490.281
       410   05 Jun 2027 02:20:43.015   05 Jun 2027 02:21:09.350            26.335              Murmansk1           822.969
       411   05 Jun 2027 02:21:09.350   05 Jun 2027 02:22:41.114            91.764              Murmansk2          2867.625
       412   05 Jun 2027 02:23:55.704   05 Jun 2027 02:24:26.091            30.387                 Moscow           949.594
       413   05 Jun 2027 02:25:54.753   05 Jun 2027 02:26:12.971            18.218                Novosib           569.313
       414   05 Jun 2027 02:29:43.032   05 Jun 2027 02:30:37.248            54.216                 Moscow          1694.250
       415   05 Jun 2027 02:48:30.920   05 Jun 2027 02:49:00.989            30.069               CapeTown           939.656
       416   05 Jun 2027 02:57:57.129   05 Jun 2027 02:58:14.896            17.767               CapeTown           555.219
       417   05 Jun 2027 02:59:05.815   05 Jun 2027 02:59:07.667             1.852               CapeTown            57.875
       418   05 Jun 2027 03:50:31.178   05 Jun 2027 03:50:53.093            21.915               Magadan1           684.844
       419   05 Jun 2027 03:50:57.919   05 Jun 2027 03:52:30.312            92.393               Magadan1          2887.281
       420   05 Jun 2027 03:52:30.312   05 Jun 2027 03:52:58.523            28.211               Magadan2           881.594
       421   05 Jun 2027 03:53:00.886   05 Jun 2027 03:53:20.111            19.225               Magadan2           600.781
       422   05 Jun 2027 03:53:28.845   05 Jun 2027 03:54:21.226            52.381                Anadyr2          1636.906
       423   05 Jun 2027 03:54:49.858   05 Jun 2027 03:55:14.185            24.327               Magadan1           760.219
       424   05 Jun 2027 03:55:14.284   05 Jun 2027 03:56:43.783            89.499               Magadan1          2796.844
       425   05 Jun 2027 03:56:57.850   05 Jun 2027 03:57:19.511            21.661                Anadyr2           676.906
       426   05 Jun 2027 05:30:01.706   05 Jun 2027 05:30:30.982            29.276                Anadyr2           914.875
       427   05 Jun 2027 05:30:55.106   05 Jun 2027 05:31:03.602             8.496               Magadan2           265.500
       428   05 Jun 2027 07:03:53.485   05 Jun 2027 07:04:38.119            44.634               Magadan1          1394.813
       429   05 Jun 2027 07:04:42.054   05 Jun 2027 07:04:44.595             2.541               Magadan2            79.406
       430   05 Jun 2027 07:05:01.445   05 Jun 2027 07:05:10.583             9.138               Magadan1           285.562
       431   05 Jun 2027 07:05:10.583   05 Jun 2027 07:05:36.071            25.488               Magadan2           796.500
       432   05 Jun 2027 07:06:19.878   05 Jun 2027 07:06:24.759             4.881                Irkutsk           152.531
       433   05 Jun 2027 07:06:25.242   05 Jun 2027 07:06:34.800             9.558                Norilsk           298.688
       434   05 Jun 2027 07:06:49.981   05 Jun 2027 07:07:11.472            21.491               Magadan1           671.594
       435   05 Jun 2027 07:07:11.472   05 Jun 2027 07:07:53.317            41.845               Magadan2          1307.656
       436   05 Jun 2027 07:08:00.455   05 Jun 2027 07:08:19.324            18.869               Magadan2           589.656
       437   05 Jun 2027 07:08:34.323   05 Jun 2027 07:09:46.816            72.493              Murmansk1          2265.406
       438   05 Jun 2027 08:28:17.163   05 Jun 2027 08:29:28.406            71.243                Sumatra          2226.344
       439   05 Jun 2027 08:39:06.194   05 Jun 2027 08:39:51.562            45.368                Irkutsk          1417.750
       440   05 Jun 2027 08:40:02.856   05 Jun 2027 08:40:43.729            40.873                Novosib          1277.281
       441   05 Jun 2027 08:40:49.330   05 Jun 2027 08:41:06.185            16.855                Novosib           526.719
       442   05 Jun 2027 08:41:40.623   05 Jun 2027 08:41:55.039            14.416                Irkutsk           450.500
       443   05 Jun 2027 08:42:10.826   05 Jun 2027 08:43:23.395            72.569                Novosib          2267.781
       444   05 Jun 2027 08:43:34.262   05 Jun 2027 08:43:42.257             7.995                Novosib           249.844
       445   05 Jun 2027 08:43:49.048   05 Jun 2027 08:45:00.659            71.611                Novosib          2237.844
       446   05 Jun 2027 09:24:56.986   05 Jun 2027 09:25:16.166            19.180            RioGallegos           599.375
       447   05 Jun 2027 09:55:25.901   05 Jun 2027 09:56:00.286            34.385                Sumatra          1074.531
       448   05 Jun 2027 10:02:39.665   05 Jun 2027 10:03:03.743            24.078                Sumatra           752.438
       449   05 Jun 2027 10:06:02.077   05 Jun 2027 10:06:23.025            20.948                  Delhi           654.625
       450   05 Jun 2027 10:11:04.879   05 Jun 2027 10:11:39.900            35.021                  Delhi          1094.406
       451   05 Jun 2027 10:16:51.177   05 Jun 2027 10:17:20.331            29.154                Irkutsk           911.063
       452   05 Jun 2027 10:18:04.792   05 Jun 2027 10:18:16.737            11.945                Novosib           373.281
       453   05 Jun 2027 10:19:22.915   05 Jun 2027 10:19:44.320            21.405                Novosib           668.906
       454   05 Jun 2027 10:19:56.885   05 Jun 2027 10:19:58.124             1.239                Novosib            38.719
       455   05 Jun 2027 10:20:06.161   05 Jun 2027 10:20:17.126            10.965                Novosib           342.656
       456   05 Jun 2027 10:20:36.514   05 Jun 2027 10:20:39.950             3.436                Novosib           107.375
       457   05 Jun 2027 11:40:52.690   05 Jun 2027 11:40:59.686             6.996                  Delhi           218.625
       458   05 Jun 2027 11:41:03.841   05 Jun 2027 11:43:17.545           133.704                  Delhi          4178.250
       459   05 Jun 2027 11:57:29.504   05 Jun 2027 11:57:42.046            12.542                Norilsk           391.938
       460   05 Jun 2027 12:01:34.112   05 Jun 2027 12:01:37.437             3.325                Norilsk           103.906
       461   05 Jun 2027 13:23:19.091   05 Jun 2027 13:23:54.173            35.082                 Moscow          1096.313
       462   05 Jun 2027 13:25:03.395   05 Jun 2027 13:25:55.249            51.854                 Moscow          1620.438
       463   05 Jun 2027 13:27:21.945   05 Jun 2027 13:28:10.383            48.438              Murmansk2          1513.687
       464   05 Jun 2027 13:29:13.530   05 Jun 2027 13:29:37.742            24.212              Murmansk2           756.625
       465   05 Jun 2027 13:31:40.272   05 Jun 2027 13:33:06.009            85.737                 Moscow          2679.281
       466   05 Jun 2027 13:36:15.879   05 Jun 2027 13:36:33.351            17.472              Murmansk2           546.000
       467   05 Jun 2027 13:36:54.408   05 Jun 2027 13:37:08.855            14.447              Murmansk1           451.469
       468   05 Jun 2027 13:37:08.855   05 Jun 2027 13:37:41.392            32.537              Murmansk2          1016.781
       469   05 Jun 2027 13:42:06.654   05 Jun 2027 13:44:09.030           122.376                Anadyr2          3824.250
       470   05 Jun 2027 13:48:01.843   05 Jun 2027 13:48:44.739            42.896                Anadyr1          1340.500
       471   05 Jun 2027 14:42:18.426   05 Jun 2027 14:43:37.808            79.382               CapeTown          2480.688
       472   05 Jun 2027 15:05:06.849   05 Jun 2027 15:06:18.045            71.196              Murmansk1          2224.875
       473   05 Jun 2027 15:07:34.674   05 Jun 2027 15:07:38.506             3.832              Murmansk1           119.750
       474   05 Jun 2027 15:07:38.506   05 Jun 2027 15:08:03.042            24.536              Murmansk2           766.750
       475   05 Jun 2027 15:09:35.094   05 Jun 2027 15:09:56.371            21.277              Murmansk2           664.906
       476   05 Jun 2027 15:11:15.724   05 Jun 2027 15:11:23.489             7.765              Murmansk1           242.656
       477   05 Jun 2027 15:11:56.829   05 Jun 2027 15:13:07.257            70.428              Murmansk2          2200.875
       478   05 Jun 2027 15:17:06.975   05 Jun 2027 15:18:05.540            58.565                Anadyr1          1830.156
       479   05 Jun 2027 15:18:43.270   05 Jun 2027 15:19:05.856            22.586                Anadyr1           705.813
       480   05 Jun 2027 15:19:19.373   05 Jun 2027 15:20:32.718            73.345                Anadyr2          2292.031
       481   05 Jun 2027 15:27:37.756   05 Jun 2027 15:28:29.492            51.736                Anadyr2          1616.750
       482   05 Jun 2027 16:46:49.580   05 Jun 2027 16:49:24.005           154.425              Murmansk2          4825.781
