uniorb/output/strategy_4/Drop/Drop_KinoSat_110508.txt

KinoSat_110508
-------------------------
    Access    *     Start Time (UTCG)     *     Stop Time (UTCG)  *   Duration (s)        *       Station  *  Data (Mbytes)
         1   01 Jun 2027 03:20:51.089   01 Jun 2027 03:21:24.768            33.679               Magadan2          4209.875
         2   01 Jun 2027 03:21:28.767   01 Jun 2027 03:22:01.289            32.522               Magadan2          4065.250
         3   01 Jun 2027 03:22:22.246   01 Jun 2027 03:22:41.546            19.300               Magadan1          2412.500
         4   01 Jun 2027 03:22:51.670   01 Jun 2027 03:23:07.097            15.427               Magadan1          1928.375
         5   01 Jun 2027 03:23:07.097   01 Jun 2027 03:23:39.214            32.117               Magadan2          4014.625
         6   01 Jun 2027 03:24:34.543   01 Jun 2027 03:24:47.173            12.630                Anadyr1          1578.750
         7   01 Jun 2027 03:25:19.721   01 Jun 2027 03:25:47.414            27.693                Anadyr2          3461.625
         8   01 Jun 2027 04:56:51.152   01 Jun 2027 04:57:23.975            32.823                Novosib          4102.875
         9   01 Jun 2027 04:57:39.308   01 Jun 2027 04:58:13.594            34.286                Norilsk          4285.750
        10   01 Jun 2027 04:58:17.098   01 Jun 2027 04:59:30.560            73.462               Magadan2          9182.750
        11   01 Jun 2027 04:59:57.179   01 Jun 2027 05:00:29.483            32.304                Norilsk          4038.000
        12   01 Jun 2027 05:00:41.838   01 Jun 2027 05:01:39.642            57.804                Irkutsk          7225.500
        13   01 Jun 2027 05:02:32.928   01 Jun 2027 05:02:36.806             3.878                Norilsk           484.750
        14   01 Jun 2027 05:05:01.159   01 Jun 2027 05:05:16.895            15.736                Norilsk          1967.000
        15   01 Jun 2027 05:36:24.942   01 Jun 2027 05:37:06.418            41.476            RioGallegos          5184.500
        16   01 Jun 2027 06:11:48.967   01 Jun 2027 06:13:32.568           103.601                Sumatra         12950.125
        17   01 Jun 2027 06:26:17.439   01 Jun 2027 06:27:06.892            49.453                  Delhi          6181.625
        18   01 Jun 2027 06:33:15.819   01 Jun 2027 06:33:54.507            38.688                Norilsk          4836.000
        19   01 Jun 2027 06:34:01.864   01 Jun 2027 06:34:28.541            26.677                Norilsk          3334.625
        20   01 Jun 2027 06:34:41.643   01 Jun 2027 06:34:58.947            17.304              Murmansk2          2163.000
        21   01 Jun 2027 06:35:13.935   01 Jun 2027 06:36:25.716            71.781                Irkutsk          8972.625
        22   01 Jun 2027 06:36:34.229   01 Jun 2027 06:36:58.104            23.875                Norilsk          2984.375
        23   01 Jun 2027 06:37:23.940   01 Jun 2027 06:38:38.341            74.401              Murmansk2          9300.125
        24   01 Jun 2027 06:38:47.278   01 Jun 2027 06:39:15.868            28.590                Norilsk          3573.750
        25   01 Jun 2027 07:49:07.572   01 Jun 2027 07:49:12.549             4.977                Sumatra           622.125
        26   01 Jun 2027 07:50:50.322   01 Jun 2027 07:51:15.862            25.540                Sumatra          3192.500
        27   01 Jun 2027 07:55:37.086   01 Jun 2027 07:56:14.820            37.734                  Delhi          4716.750
        28   01 Jun 2027 07:57:31.770   01 Jun 2027 07:58:02.068            30.298                  Delhi          3787.250
        29   01 Jun 2027 07:58:41.776   01 Jun 2027 07:58:50.359             8.583                  Delhi          1072.875
        30   01 Jun 2027 08:11:45.184   01 Jun 2027 08:12:14.243            29.059              Murmansk1          3632.375
        31   01 Jun 2027 08:12:25.578   01 Jun 2027 08:16:05.492           219.914              Murmansk1         27489.250
        32   01 Jun 2027 09:47:48.894   01 Jun 2027 09:47:54.746             5.852              Murmansk2           731.500
        33   01 Jun 2027 09:48:15.834   01 Jun 2027 09:52:47.768           271.934                 Moscow         33991.750
        34   01 Jun 2027 09:52:48.355   01 Jun 2027 09:56:18.550           210.195              Murmansk2         26274.375
        35   01 Jun 2027 10:56:58.762   01 Jun 2027 11:01:53.475           294.713               CapeTown         36839.125
        36   01 Jun 2027 11:16:18.777   01 Jun 2027 11:17:03.305            44.528                 Moscow          5566.000
        37   01 Jun 2027 11:35:00.965   01 Jun 2027 11:40:59.468           358.503                Anadyr2         44812.875
        38   01 Jun 2027 14:48:28.061   01 Jun 2027 14:50:37.507           129.446               Magadan2         16180.750
        39   01 Jun 2027 14:53:50.298   01 Jun 2027 14:53:57.940             7.642               Magadan2           955.250
        40   01 Jun 2027 14:57:23.080   01 Jun 2027 14:57:45.665            22.585               Magadan1          2823.125
        41   01 Jun 2027 14:59:42.794   01 Jun 2027 14:59:48.143             5.349               Magadan1           668.625
        42   01 Jun 2027 17:19:50.836   01 Jun 2027 17:22:24.132           153.296            RioGallegos         19162.000
        43   01 Jun 2027 18:06:11.687   01 Jun 2027 18:10:30.186           258.499                Novosib         32312.375
        44   01 Jun 2027 19:52:01.235   01 Jun 2027 19:53:59.649           118.414                  Delhi         14801.750
        45   01 Jun 2027 21:15:16.829   01 Jun 2027 21:19:28.180           251.351              Murmansk2         31418.875
        46   01 Jun 2027 21:19:55.863   01 Jun 2027 21:24:27.840           271.977                 Moscow         25706.126
        47   02 Jun 2027 05:11:00.354   02 Jun 2027 05:11:34.950            34.596                Irkutsk          4324.500
        48   02 Jun 2027 05:12:08.944   02 Jun 2027 05:13:06.085            57.141               Magadan2          7142.625
        49   02 Jun 2027 05:13:22.958   02 Jun 2027 05:13:44.425            21.467                Irkutsk          2683.375
        50   02 Jun 2027 05:13:58.216   02 Jun 2027 05:14:55.076            56.860                Novosib          7107.500
        51   02 Jun 2027 05:15:46.606   02 Jun 2027 05:16:37.121            50.515              Murmansk1          6314.375
        52   02 Jun 2027 05:16:49.659   02 Jun 2027 05:18:40.770           111.111              Murmansk2         13888.875
        53   02 Jun 2027 05:20:21.195   02 Jun 2027 05:22:23.075           121.880              Murmansk1         15235.000
        54   02 Jun 2027 05:56:05.285   02 Jun 2027 06:01:18.188           312.903            RioGallegos         39112.875
        55   02 Jun 2027 06:30:39.004   02 Jun 2027 06:33:47.615           188.611                Sumatra         23576.375
        56   02 Jun 2027 06:49:41.218   02 Jun 2027 06:54:43.921           302.703                Norilsk         37837.875
        57   02 Jun 2027 06:56:04.037   02 Jun 2027 06:57:05.650            61.613              Murmansk1          7701.625
        58   02 Jun 2027 07:29:26.421   02 Jun 2027 07:36:04.848           398.427            RioGallegos         49803.375
        59   02 Jun 2027 08:01:15.833   02 Jun 2027 08:09:20.215           484.382                Sumatra         60547.750
        60   02 Jun 2027 08:14:51.125   02 Jun 2027 08:15:15.663            24.538                Novosib          3067.250
        61   02 Jun 2027 08:15:44.355   02 Jun 2027 08:19:10.030           205.675                  Delhi         25709.375
        62   02 Jun 2027 08:25:12.746   02 Jun 2027 08:27:04.032           111.286                Novosib         13910.750
        63   02 Jun 2027 08:27:05.856   02 Jun 2027 08:30:43.800           217.944                Norilsk         27243.000
        64   02 Jun 2027 08:31:58.649   02 Jun 2027 08:32:30.317            31.668              Murmansk1          3958.500
        65   02 Jun 2027 09:47:03.163   02 Jun 2027 09:53:07.277           364.114                  Delhi         45514.250
        66   02 Jun 2027 10:01:05.942   02 Jun 2027 10:01:35.144            29.202                 Moscow          3650.250
        67   02 Jun 2027 10:02:51.730   02 Jun 2027 10:06:32.041           220.311                Norilsk         27538.875
        68   02 Jun 2027 10:06:56.103   02 Jun 2027 10:08:19.825            83.722              Murmansk1         10465.250
        69   02 Jun 2027 11:33:40.291   02 Jun 2027 11:35:16.171            95.880              Murmansk2         11985.000
        70   02 Jun 2027 11:35:16.171   02 Jun 2027 11:44:17.826           541.655              Murmansk1         67706.875
        71   02 Jun 2027 11:46:48.012   02 Jun 2027 11:54:39.102           471.090                Anadyr2         58886.250
        72   02 Jun 2027 12:41:23.155   02 Jun 2027 12:49:52.004           508.849               CapeTown         63606.125
        73   02 Jun 2027 13:26:31.556   02 Jun 2027 13:28:41.097           129.541               Magadan1         16192.625
        74   02 Jun 2027 16:43:35.196   02 Jun 2027 16:45:29.113           113.917                Irkutsk         14239.625
        75   02 Jun 2027 18:17:25.089   02 Jun 2027 18:23:50.363           385.274                Novosib         48159.250
        76   02 Jun 2027 20:05:04.255   02 Jun 2027 20:05:22.309            18.054                  Delhi          2256.750
        77   02 Jun 2027 21:26:59.666   02 Jun 2027 21:27:44.749            45.083              Murmansk1          5635.375
        78   02 Jun 2027 21:28:40.034   02 Jun 2027 21:31:21.132           161.098              Murmansk2         20137.250
        79   02 Jun 2027 21:31:55.127   02 Jun 2027 21:38:08.897           373.770                 Moscow         46721.250
        80   03 Jun 2027 03:48:12.048   03 Jun 2027 03:49:59.493           107.445               Magadan2         13430.625
        81   03 Jun 2027 03:50:00.506   03 Jun 2027 03:53:34.288           213.782                Norilsk         26722.750
        82   03 Jun 2027 05:26:20.064   03 Jun 2027 05:27:03.672            43.608                Norilsk          5451.000
        83   03 Jun 2027 05:27:42.816   03 Jun 2027 05:28:31.170            48.354              Murmansk1          6044.250
        84   03 Jun 2027 05:28:41.147   03 Jun 2027 05:30:28.630           107.483              Murmansk2         13435.375
        85   03 Jun 2027 05:32:19.591   03 Jun 2027 05:34:12.704           113.113              Murmansk1         14139.125
        86   03 Jun 2027 06:08:00.646   03 Jun 2027 06:13:17.137           316.491            RioGallegos         39561.375
        87   03 Jun 2027 06:42:45.955   03 Jun 2027 06:48:07.385           321.430                Sumatra         40178.750
        88   03 Jun 2027 06:50:46.251   03 Jun 2027 06:55:34.517           288.266                Irkutsk         36033.250
        89   03 Jun 2027 07:01:35.359   03 Jun 2027 07:01:35.624             0.265                Irkutsk            33.125
        90   03 Jun 2027 07:01:38.708   03 Jun 2027 07:03:19.940           101.232                Novosib         12654.000
        91   03 Jun 2027 07:03:23.234   03 Jun 2027 07:06:57.308           214.074              Murmansk1         26759.250
        92   03 Jun 2027 07:08:05.058   03 Jun 2027 07:09:01.031            55.973              Murmansk2          6996.625
        93   03 Jun 2027 07:39:45.946   03 Jun 2027 07:47:41.405           475.459            RioGallegos         59432.375
        94   03 Jun 2027 08:14:28.903   03 Jun 2027 08:20:00.634           331.731                Sumatra         41466.375
        95   03 Jun 2027 08:26:46.455   03 Jun 2027 08:32:18.190           331.735                  Delhi         41466.875
        96   03 Jun 2027 08:32:39.488   03 Jun 2027 08:33:40.738            61.250                Irkutsk          7656.250
        97   03 Jun 2027 08:37:17.858   03 Jun 2027 08:39:00.106           102.248                Novosib         12781.000
        98   03 Jun 2027 08:39:04.889   03 Jun 2027 08:42:45.353           220.464                Norilsk         27558.000
        99   03 Jun 2027 08:43:59.831   03 Jun 2027 08:44:29.850            30.019              Murmansk1          3752.375
       100   03 Jun 2027 10:13:30.359   03 Jun 2027 10:14:14.164            43.805                Norilsk          5475.625
       101   03 Jun 2027 10:14:23.499   03 Jun 2027 10:16:52.245           148.746                 Moscow         18593.250
       102   03 Jun 2027 10:16:52.590   03 Jun 2027 10:18:29.312            96.722                Norilsk         12090.250
       103   03 Jun 2027 10:18:53.256   03 Jun 2027 10:20:21.236            87.980              Murmansk1         10997.500
       104   03 Jun 2027 11:42:56.374   03 Jun 2027 11:44:05.696            69.322                 Moscow          8665.250
       105   03 Jun 2027 11:46:43.586   03 Jun 2027 11:47:04.025            20.439              Murmansk2          2554.875
       106   03 Jun 2027 11:47:09.912   03 Jun 2027 11:52:26.737           316.825                 Moscow         39603.125
       107   03 Jun 2027 11:52:47.243   03 Jun 2027 11:56:19.260           212.017              Murmansk2         26502.125
       108   03 Jun 2027 11:59:48.358   03 Jun 2027 12:07:20.751           452.393                Anadyr1         56549.125
       109   03 Jun 2027 13:00:23.388   03 Jun 2027 13:06:06.891           343.503               CapeTown         42937.875
       110   03 Jun 2027 13:23:13.194   03 Jun 2027 13:32:04.624           531.430              Murmansk2         66428.750
       111   03 Jun 2027 13:34:03.337   03 Jun 2027 13:38:20.520           257.183                Anadyr1         32147.875
       112   03 Jun 2027 13:39:10.384   03 Jun 2027 13:41:25.974           135.590               Magadan2         16948.750
       113   03 Jun 2027 13:43:33.004   03 Jun 2027 13:44:13.825            40.821               Magadan1          5102.625
       114   03 Jun 2027 16:54:06.039   03 Jun 2027 16:59:31.606           325.567                Irkutsk         40695.875
       115   03 Jun 2027 18:28:56.850   03 Jun 2027 18:36:49.136           472.286                Novosib         59035.750
       116   03 Jun 2027 21:38:23.778   03 Jun 2027 21:39:40.029            76.251              Murmansk1          9531.375
       117   03 Jun 2027 21:41:23.493   03 Jun 2027 21:43:43.525           140.032              Murmansk1         17504.000
       118   03 Jun 2027 21:43:51.597   03 Jun 2027 21:47:24.443           212.846                 Moscow         26605.750
       119   03 Jun 2027 21:48:41.757   03 Jun 2027 21:50:17.496            95.739                 Moscow          8241.500
       120   04 Jun 2027 04:00:38.520   04 Jun 2027 04:01:22.482            43.962                Anadyr1          5495.250
       121   04 Jun 2027 04:01:59.163   04 Jun 2027 04:07:11.179           312.016                Norilsk         39002.000
       122   04 Jun 2027 04:07:28.159   04 Jun 2027 04:09:32.065           123.906              Murmansk2         15488.250
       123   04 Jun 2027 05:16:15.547   04 Jun 2027 05:17:07.302            51.755                Sumatra          6469.375
       124   04 Jun 2027 05:38:12.666   04 Jun 2027 05:38:46.984            34.318                Norilsk          4289.750
       125   04 Jun 2027 05:38:54.096   04 Jun 2027 05:39:07.603            13.507                Novosib          1688.375
       126   04 Jun 2027 05:39:39.637   04 Jun 2027 05:40:24.116            44.479              Murmansk2          5559.875
       127   04 Jun 2027 05:40:33.385   04 Jun 2027 05:42:35.679           122.294              Murmansk1         15286.750
       128   04 Jun 2027 05:44:18.443   04 Jun 2027 05:46:03.002           104.559              Murmansk2         13069.875
       129   04 Jun 2027 06:19:54.192   04 Jun 2027 06:25:14.888           320.696            RioGallegos         40087.000
       130   04 Jun 2027 06:54:29.612   04 Jun 2027 07:00:06.768           337.156                Sumatra         42144.500
       131   04 Jun 2027 07:02:30.618   04 Jun 2027 07:04:30.244           119.626                Novosib         14953.250
       132   04 Jun 2027 07:05:06.766   04 Jun 2027 07:07:25.555           138.789                Irkutsk         17348.625
       133   04 Jun 2027 07:13:13.631   04 Jun 2027 07:13:51.284            37.653                Novosib          4706.625
       134   04 Jun 2027 07:14:13.092   04 Jun 2027 07:18:47.465           274.373                Norilsk         34296.625
       135   04 Jun 2027 07:20:06.269   04 Jun 2027 07:20:57.074            50.805              Murmansk1          6350.625
       136   04 Jun 2027 07:52:48.371   04 Jun 2027 07:59:07.145           378.774            RioGallegos         47346.750
       137   04 Jun 2027 08:38:28.549   04 Jun 2027 08:44:12.349           343.800                  Delhi         42975.000
       138   04 Jun 2027 08:45:11.106   04 Jun 2027 08:45:47.228            36.122                Norilsk          4515.250
       139   04 Jun 2027 08:49:41.557   04 Jun 2027 08:54:46.719           305.162                Norilsk         38145.250
       140   04 Jun 2027 08:56:01.159   04 Jun 2027 08:56:29.733            28.574              Murmansk1          3571.750
       141   04 Jun 2027 10:18:40.415   04 Jun 2027 10:19:18.040            37.625                 Moscow          4703.125
       142   04 Jun 2027 10:24:50.407   04 Jun 2027 10:30:24.982           334.575                Norilsk         41821.875
       143   04 Jun 2027 10:30:50.972   04 Jun 2027 10:32:22.752            91.780              Murmansk1         11472.500
       144   04 Jun 2027 11:54:50.979   04 Jun 2027 12:04:19.907           568.928                 Moscow         71116.000
       145   04 Jun 2027 12:04:45.750   04 Jun 2027 12:08:20.533           214.783              Murmansk2         26847.875
       146   04 Jun 2027 12:10:32.053   04 Jun 2027 12:19:57.500           565.447                Anadyr1         70680.875
       147   04 Jun 2027 13:08:30.873   04 Jun 2027 13:17:57.535           566.662               CapeTown         70832.750
       148   04 Jun 2027 13:35:49.717   04 Jun 2027 13:39:47.753           238.036              Murmansk2         29754.500
       149   04 Jun 2027 13:49:31.162   04 Jun 2027 13:55:44.186           373.024               Magadan2         46628.000
       150   04 Jun 2027 17:05:25.696   04 Jun 2027 17:11:14.562           348.866                Irkutsk         43608.250
       151   04 Jun 2027 17:21:16.727   04 Jun 2027 17:22:53.288            96.561                Sumatra         12070.125
       152   04 Jun 2027 17:24:20.104   04 Jun 2027 17:26:39.542           139.438                Sumatra         17429.750
       153   04 Jun 2027 18:41:38.992   04 Jun 2027 18:43:53.653           134.661                Novosib         16832.625
       154   04 Jun 2027 18:45:59.322   04 Jun 2027 18:47:11.736            72.414                Novosib          9051.750
       155   04 Jun 2027 21:50:31.672   04 Jun 2027 21:51:15.516            43.844              Murmansk2          5480.500
       156   04 Jun 2027 21:53:56.291   04 Jun 2027 21:55:39.050           102.759                 Moscow         12844.875
       157   04 Jun 2027 21:56:25.748   04 Jun 2027 21:59:49.988           204.240                 Moscow         23207.376
       158   05 Jun 2027 04:12:44.384   05 Jun 2027 04:13:15.337            30.953                Novosib          3869.125
       159   05 Jun 2027 04:13:57.531   05 Jun 2027 04:14:19.140            21.609                Novosib          2701.125
       160   05 Jun 2027 04:14:51.319   05 Jun 2027 04:20:49.228           357.909              Murmansk1         44738.625
       161   05 Jun 2027 05:26:35.282   05 Jun 2027 05:28:11.970            96.688                Sumatra         12086.000
       162   05 Jun 2027 05:50:05.940   05 Jun 2027 05:51:14.238            68.298                Norilsk          8537.250
       163   05 Jun 2027 05:51:37.031   05 Jun 2027 05:52:26.372            49.341              Murmansk2          6167.625
       164   05 Jun 2027 05:52:26.372   05 Jun 2027 05:54:48.748           142.376              Murmansk1         17797.000
       165   05 Jun 2027 05:56:17.712   05 Jun 2027 05:57:54.019            96.307              Murmansk2         12038.375
       166   05 Jun 2027 06:31:45.487   05 Jun 2027 06:37:11.264           325.777            RioGallegos         40722.125
       167   05 Jun 2027 07:06:05.907   05 Jun 2027 07:12:00.533           354.626                Sumatra         44328.250
       168   05 Jun 2027 07:13:59.142   05 Jun 2027 07:15:22.278            83.136                Irkutsk         10392.000
       169   05 Jun 2027 07:15:54.952   05 Jun 2027 07:19:37.689           222.737                Irkutsk         27842.125
       170   05 Jun 2027 07:24:34.502   05 Jun 2027 07:24:52.574            18.072                Novosib          2259.000
       171   05 Jun 2027 07:25:45.713   05 Jun 2027 07:27:13.150            87.437                 Moscow         10929.625
       172   05 Jun 2027 07:27:17.214   05 Jun 2027 07:30:37.855           200.641              Murmansk1         25080.125
       173   05 Jun 2027 07:32:07.629   05 Jun 2027 07:32:53.732            46.103              Murmansk2          5762.875
       174   05 Jun 2027 08:06:19.576   05 Jun 2027 08:10:07.238           227.662            RioGallegos         28457.750
       175   05 Jun 2027 08:50:03.806   05 Jun 2027 08:56:02.580           358.774                  Delhi         44846.750
       176   05 Jun 2027 09:01:26.569   05 Jun 2027 09:02:47.456            80.887                Novosib         10110.875
       177   05 Jun 2027 09:02:48.412   05 Jun 2027 09:06:47.842           239.430                Norilsk         29928.750
       178   05 Jun 2027 09:08:02.621   05 Jun 2027 09:08:29.928            27.307              Murmansk1          3413.375
       179   05 Jun 2027 10:30:36.157   05 Jun 2027 10:31:19.348            43.191                 Moscow          5398.875
       180   05 Jun 2027 10:36:44.250   05 Jun 2027 10:42:18.318           334.068                Norilsk         41758.500
       181   05 Jun 2027 10:42:49.198   05 Jun 2027 10:44:24.345            95.147              Murmansk2         11893.375
       182   05 Jun 2027 12:05:50.071   05 Jun 2027 12:16:10.846           620.775                 Moscow         77596.875
       183   05 Jun 2027 12:16:44.720   05 Jun 2027 12:20:21.605           216.885              Murmansk1         27110.625
       184   05 Jun 2027 12:22:29.831   05 Jun 2027 12:32:30.088           600.257                Anadyr2         75032.125
       185   05 Jun 2027 13:20:20.503   05 Jun 2027 13:29:43.048           562.545               CapeTown         70318.125
       186   05 Jun 2027 13:48:29.923   05 Jun 2027 13:50:21.094           111.171              Murmansk2         13896.375
       187   05 Jun 2027 14:01:14.986   05 Jun 2027 14:07:52.576           397.590               Magadan1         49698.750
       188   05 Jun 2027 16:30:25.660   05 Jun 2027 16:33:11.247           165.587            RioGallegos         20698.375
       189   05 Jun 2027 17:16:59.360   05 Jun 2027 17:20:39.368           220.008                Irkutsk         27501.000
       190   05 Jun 2027 17:23:18.396   05 Jun 2027 17:23:50.423            32.027                Irkutsk          4003.375
       191   05 Jun 2027 17:32:02.739   05 Jun 2027 17:34:31.475           148.736                Sumatra         18592.000
       192   05 Jun 2027 17:36:22.213   05 Jun 2027 17:38:21.796           119.583                Sumatra         14947.875
       193   05 Jun 2027 18:55:54.765   05 Jun 2027 18:56:22.733            27.968                Novosib          3496.000
       194   05 Jun 2027 19:02:40.191   05 Jun 2027 19:04:24.612           104.421                  Delhi         13052.625
       195   05 Jun 2027 19:06:23.190   05 Jun 2027 19:07:29.227            66.037                  Delhi          8254.625
       196   05 Jun 2027 20:27:58.265   05 Jun 2027 20:29:16.405            78.140              Murmansk2          9767.500
       197   05 Jun 2027 22:03:51.009   05 Jun 2027 22:06:14.480           143.471              Murmansk1         14371.750
       198   06 Jun 2027 04:25:57.696   06 Jun 2027 04:26:54.316            56.620                Norilsk          7077.500
       199   06 Jun 2027 04:26:54.380   06 Jun 2027 04:34:53.147           478.767              Murmansk1         59845.875
       200   06 Jun 2027 05:37:36.048   06 Jun 2027 05:38:31.771            55.723                Sumatra          6965.375
       201   06 Jun 2027 05:40:23.287   06 Jun 2027 05:40:34.719            11.432                Sumatra          1429.000
       202   06 Jun 2027 05:42:53.437   06 Jun 2027 05:43:32.326            38.889                Sumatra          4861.125
       203   06 Jun 2027 06:01:44.705   06 Jun 2027 06:01:55.903            11.198                Irkutsk          1399.750
       204   06 Jun 2027 06:01:59.882   06 Jun 2027 06:03:21.890            82.008                Norilsk         10251.000
       205   06 Jun 2027 06:03:34.959   06 Jun 2027 06:06:43.466           188.507              Murmansk2         23563.375
       206   06 Jun 2027 06:08:17.360   06 Jun 2027 06:09:45.767            88.407              Murmansk1         11050.875
       207   06 Jun 2027 06:43:33.911   06 Jun 2027 06:49:06.013           332.102            RioGallegos         41512.750
       208   06 Jun 2027 07:17:32.981   06 Jun 2027 07:23:48.359           375.378                Sumatra         46922.250
       209   06 Jun 2027 07:27:57.465   06 Jun 2027 07:32:54.240           296.775                Irkutsk         37096.875
       210   06 Jun 2027 07:37:48.695   06 Jun 2027 07:42:51.219           302.524                Norilsk         37815.500
       211   06 Jun 2027 07:44:09.125   06 Jun 2027 07:44:50.971            41.846              Murmansk2          5230.750
       212   06 Jun 2027 09:01:29.317   06 Jun 2027 09:07:48.194           378.877                  Delhi         47359.625
       213   06 Jun 2027 09:07:56.777   06 Jun 2027 09:08:44.387            47.610                Novosib          5951.250
       214   06 Jun 2027 09:13:14.997   06 Jun 2027 09:14:37.855            82.858                Novosib         10357.250
       215   06 Jun 2027 09:15:04.304   06 Jun 2027 09:18:48.653           224.349                Norilsk         28043.625
       216   06 Jun 2027 09:19:01.625   06 Jun 2027 09:20:30.401            88.776              Murmansk2         11097.000
       217   06 Jun 2027 10:43:20.031   06 Jun 2027 10:45:14.846           114.815                 Moscow         14351.875
       218   06 Jun 2027 10:48:20.529   06 Jun 2027 10:52:54.627           274.098                 Moscow         34262.250
       219   06 Jun 2027 10:52:58.476   06 Jun 2027 10:54:07.883            69.407                Norilsk          8675.875
       220   06 Jun 2027 10:54:47.897   06 Jun 2027 10:56:25.987            98.090              Murmansk1         12261.250
       221   06 Jun 2027 12:05:35.234   06 Jun 2027 12:05:52.213            16.979               CapeTown          2122.375
       222   06 Jun 2027 12:18:34.156   06 Jun 2027 12:27:58.846           564.690                 Moscow         70586.250
       223   06 Jun 2027 12:28:36.894   06 Jun 2027 12:32:22.415           225.521              Murmansk1         28190.125
       224   06 Jun 2027 12:34:23.590   06 Jun 2027 12:39:49.254           325.664                Anadyr2         40708.000
       225   06 Jun 2027 12:42:19.459   06 Jun 2027 12:43:15.783            56.324                Anadyr1          7040.500
       226   06 Jun 2027 14:13:03.146   06 Jun 2027 14:16:40.684           217.538               Magadan2         27192.250
       227   06 Jun 2027 14:18:48.379   06 Jun 2027 14:19:58.297            69.918               Magadan2          8739.750
       228   06 Jun 2027 16:41:40.458   06 Jun 2027 16:44:58.027           197.569            RioGallegos         24696.125
       229   06 Jun 2027 17:30:46.165   06 Jun 2027 17:34:56.851           250.686                Irkutsk         31335.750
       230   06 Jun 2027 17:43:13.662   06 Jun 2027 17:46:49.515           215.853                Sumatra         26981.625
       231   06 Jun 2027 17:47:57.869   06 Jun 2027 17:49:00.793            62.924                Sumatra          7865.500
       232   06 Jun 2027 17:50:46.218   06 Jun 2027 17:51:27.050            40.832                Sumatra          5104.000
       233   06 Jun 2027 19:13:25.246   06 Jun 2027 19:15:23.218           117.972                  Delhi         14746.500
       234   06 Jun 2027 19:17:47.363   06 Jun 2027 19:18:14.969            27.606                  Delhi          3450.750
       235   06 Jun 2027 20:39:55.523   06 Jun 2027 20:41:57.322           121.799              Murmansk1         15224.875
       236   06 Jun 2027 22:16:50.380   06 Jun 2027 22:18:16.136            85.756              Murmansk2         10719.500
       237   06 Jun 2027 22:46:05.764   06 Jun 2027 22:48:19.869           134.105               CapeTown          1410.625
       238   07 Jun 2027 04:36:48.776   07 Jun 2027 04:36:59.398            10.622               Magadan1          1327.750
       239   07 Jun 2027 04:38:05.682   07 Jun 2027 04:42:51.747           286.065              Murmansk2         35758.125
       240   07 Jun 2027 04:42:51.747   07 Jun 2027 04:43:06.945            15.198              Murmansk1          1899.750
       241   07 Jun 2027 05:51:07.377   07 Jun 2027 05:52:11.707            64.330                Sumatra          8041.250
       242   07 Jun 2027 06:13:50.533   07 Jun 2027 06:15:26.376            95.843                Norilsk         11980.375
       243   07 Jun 2027 06:15:33.377   07 Jun 2027 06:16:32.795            59.418              Murmansk2          7427.250
       244   07 Jun 2027 06:16:32.795   07 Jun 2027 06:18:39.430           126.635              Murmansk1         15829.375
       245   07 Jun 2027 06:18:45.805   07 Jun 2027 06:18:54.040             8.235                Norilsk          1029.375
       246   07 Jun 2027 06:20:17.349   07 Jun 2027 06:21:38.270            80.921              Murmansk2         10115.125
       247   07 Jun 2027 06:55:18.499   07 Jun 2027 07:00:58.810           340.311            RioGallegos         42538.875
       248   07 Jun 2027 07:28:47.269   07 Jun 2027 07:35:29.546           402.277                Sumatra         50284.625
       249   07 Jun 2027 07:38:57.499   07 Jun 2027 07:45:11.956           374.457                Irkutsk         46807.125
       250   07 Jun 2027 07:49:09.252   07 Jun 2027 07:51:23.782           134.530                Novosib         16816.250
       251   07 Jun 2027 07:51:27.452   07 Jun 2027 07:54:53.101           205.649                Norilsk         25706.125
       252   07 Jun 2027 07:56:10.713   07 Jun 2027 07:56:48.752            38.039              Murmansk2          4754.875
       253   07 Jun 2027 09:12:38.537   07 Jun 2027 09:19:28.081           409.544                  Delhi         51193.000
       254   07 Jun 2027 09:19:52.030   07 Jun 2027 09:19:58.933             6.903                Novosib           862.875
       255   07 Jun 2027 09:20:14.960   07 Jun 2027 09:20:49.263            34.303                Novosib          4287.875
       256   07 Jun 2027 09:25:33.359   07 Jun 2027 09:26:25.125            51.766                Novosib          6470.750
       257   07 Jun 2027 09:26:26.074   07 Jun 2027 09:30:49.069           262.995                Norilsk         32874.375
       258   07 Jun 2027 09:30:52.004   07 Jun 2027 09:32:31.124            99.120              Murmansk2         12390.000
       259   07 Jun 2027 10:55:20.028   07 Jun 2027 10:57:14.138           114.110                 Moscow         14263.750
       260   07 Jun 2027 10:58:27.589   07 Jun 2027 11:08:27.653           600.064              Murmansk1         75008.000
       261   07 Jun 2027 11:13:30.703   07 Jun 2027 11:15:58.629           147.926                Anadyr2         18490.750
       262   07 Jun 2027 12:13:18.833   07 Jun 2027 12:15:02.688           103.855               CapeTown         12981.875
       263   07 Jun 2027 12:47:39.761   07 Jun 2027 12:48:47.643            67.882                Anadyr1          8485.250
       264   07 Jun 2027 14:24:54.291   07 Jun 2027 14:28:12.565           198.274               Magadan1         24784.250
       265   07 Jun 2027 14:28:35.243   07 Jun 2027 14:28:41.721             6.478               Magadan2           809.750
       266   07 Jun 2027 14:30:57.849   07 Jun 2027 14:32:01.458            63.609               Magadan1          7951.125
       267   07 Jun 2027 16:53:11.713   07 Jun 2027 16:56:48.080           216.367            RioGallegos         27045.875
       268   07 Jun 2027 16:58:13.446   07 Jun 2027 16:59:25.652            72.206            RioGallegos          9025.750
       269   07 Jun 2027 17:44:04.270   07 Jun 2027 17:47:16.415           192.145                Irkutsk         24018.125
       270   07 Jun 2027 17:58:27.467   07 Jun 2027 18:01:48.185           200.718                Sumatra         25089.750
       271   07 Jun 2027 19:24:39.942   07 Jun 2027 19:27:33.287           173.345                  Delhi         21668.125
       272   07 Jun 2027 20:50:24.785   07 Jun 2027 20:50:27.992             3.207              Murmansk1           400.875
       273   07 Jun 2027 20:51:51.101   07 Jun 2027 20:52:28.571            37.470              Murmansk2          4683.750
       274   07 Jun 2027 20:54:03.849   07 Jun 2027 20:54:19.679            15.830              Murmansk2          1978.750
       275   07 Jun 2027 22:59:18.066   07 Jun 2027 23:01:38.030           139.964               CapeTown         17495.500
       276   08 Jun 2027 04:53:23.351   08 Jun 2027 04:54:39.524            76.173              Murmansk2          9521.625
       277   08 Jun 2027 04:54:52.125   08 Jun 2027 04:55:05.455            13.330                Norilsk          1666.250
       278   08 Jun 2027 04:56:40.840   08 Jun 2027 04:59:00.097           139.257              Murmansk1         17407.125
       279   08 Jun 2027 05:32:24.820   08 Jun 2027 05:37:31.816           306.996            RioGallegos         38374.500
       280   08 Jun 2027 06:11:25.133   08 Jun 2027 06:11:48.797            23.664                Sumatra          2958.000
       281   08 Jun 2027 06:13:06.170   08 Jun 2027 06:14:31.447            85.277                Irkutsk         10659.625
       282   08 Jun 2027 06:15:18.118   08 Jun 2027 06:20:34.211           316.093                Irkutsk         39511.625
       283   08 Jun 2027 06:25:52.237   08 Jun 2027 06:30:55.408           303.171                Norilsk         37896.375
       284   08 Jun 2027 06:32:17.644   08 Jun 2027 06:33:31.521            73.877              Murmansk2          9234.625
       285   08 Jun 2027 07:06:57.578   08 Jun 2027 07:12:49.164           351.586            RioGallegos         43948.250
       286   08 Jun 2027 07:39:40.081   08 Jun 2027 07:47:02.837           442.756                Sumatra         55344.500
       287   08 Jun 2027 07:51:26.553   08 Jun 2027 07:53:57.949           151.396                  Delhi         18924.500
       288   08 Jun 2027 08:01:52.041   08 Jun 2027 08:06:54.952           302.911                Norilsk         37863.875
       289   08 Jun 2027 08:08:11.575   08 Jun 2027 08:08:47.031            35.456              Murmansk1          4432.000
       290   08 Jun 2027 09:23:06.149   08 Jun 2027 09:31:00.310           474.161                  Delhi         59270.125
       291   08 Jun 2027 09:31:20.135   08 Jun 2027 09:33:24.901           124.766                Novosib         15595.750
       292   08 Jun 2027 09:37:46.496   08 Jun 2027 09:42:48.980           302.484                Norilsk         37810.500
       293   08 Jun 2027 09:43:14.909   08 Jun 2027 09:44:32.057            77.148              Murmansk1          9643.500
       294   08 Jun 2027 11:06:12.279   08 Jun 2027 11:06:16.428             4.149                 Moscow           518.625
       295   08 Jun 2027 11:10:28.569   08 Jun 2027 11:20:29.307           600.738              Murmansk2         75092.250
       296   08 Jun 2027 11:26:14.283   08 Jun 2027 11:29:10.185           175.902                Anadyr1         21987.750
       297   08 Jun 2027 14:36:47.622   08 Jun 2027 14:40:43.085           235.463               Magadan1         29432.875
       298   08 Jun 2027 17:06:41.878   08 Jun 2027 17:11:13.427           271.549            RioGallegos         33943.625
       299   08 Jun 2027 17:50:03.477   08 Jun 2027 17:51:08.083            64.606                Norilsk          8075.750
       300   08 Jun 2027 18:11:47.120   08 Jun 2027 18:12:49.389            62.269                Sumatra          7783.625
       301   08 Jun 2027 19:38:29.899   08 Jun 2027 19:43:09.743           279.844                  Delhi         34980.500
       302   08 Jun 2027 21:03:10.235   08 Jun 2027 21:06:37.587           207.352              Murmansk1         25919.000
       303   08 Jun 2027 21:06:48.116   08 Jun 2027 21:07:33.517            45.401              Murmansk2          5675.125
       304   08 Jun 2027 21:08:10.939   08 Jun 2027 21:10:45.725           154.786                 Moscow         19348.250
       305   08 Jun 2027 23:11:59.490   08 Jun 2027 23:12:47.090            47.600               CapeTown          5950.000
       306   09 Jun 2027 05:01:57.794   09 Jun 2027 05:03:02.414            64.620                Novosib          8077.500
       307   09 Jun 2027 05:05:13.417   09 Jun 2027 05:07:07.751           114.334              Murmansk1         14291.750
       308   09 Jun 2027 05:08:38.215   09 Jun 2027 05:10:48.559           130.344              Murmansk2         16293.000
       309   09 Jun 2027 05:44:23.000   09 Jun 2027 05:49:32.797           309.797            RioGallegos         38724.625
       310   09 Jun 2027 06:23:04.408   09 Jun 2027 06:24:06.272            61.864                Sumatra          7733.000
       311   09 Jun 2027 06:26:19.990   09 Jun 2027 06:32:03.919           343.929                Irkutsk         42991.125
       312   09 Jun 2027 06:37:41.728   09 Jun 2027 06:38:24.329            42.601                Novosib          5325.125
       313   09 Jun 2027 06:38:32.264   09 Jun 2027 06:42:56.917           264.653                Norilsk         33081.625
       314   09 Jun 2027 06:44:18.217   09 Jun 2027 06:45:25.503            67.286              Murmansk2          8410.750
       315   09 Jun 2027 07:18:27.833   09 Jun 2027 07:24:36.353           368.520            RioGallegos         46065.000
       316   09 Jun 2027 07:49:23.582   09 Jun 2027 07:58:25.925           542.343                Sumatra         67792.875
       317   09 Jun 2027 08:02:52.127   09 Jun 2027 08:03:33.602            41.475                Novosib          5184.375
       318   09 Jun 2027 08:03:46.619   09 Jun 2027 08:06:34.944           168.325                  Delhi         21040.625
       319   09 Jun 2027 08:13:22.463   09 Jun 2027 08:15:21.317           118.854                Novosib         14856.750
       320   09 Jun 2027 08:15:21.584   09 Jun 2027 08:16:45.041            83.457              Murmansk1         10432.125
       321   09 Jun 2027 08:16:45.041   09 Jun 2027 08:18:34.419           109.378              Murmansk2         13672.250
       322   09 Jun 2027 08:20:12.369   09 Jun 2027 08:20:45.769            33.400              Murmansk2          4175.000
       323   09 Jun 2027 09:34:06.357   09 Jun 2027 09:42:21.127           494.770                  Delhi         61846.250
       324   09 Jun 2027 09:42:39.394   09 Jun 2027 09:45:08.413           149.019                Novosib         18627.375
       325   09 Jun 2027 09:50:16.710   09 Jun 2027 09:54:48.232           271.522                Norilsk         33940.250
       326   09 Jun 2027 09:54:52.411   09 Jun 2027 09:56:33.182           100.771              Murmansk2         12596.375
       327   09 Jun 2027 11:17:58.587   09 Jun 2027 11:18:42.744            44.157                 Moscow          5519.625
       328   09 Jun 2027 11:22:55.098   09 Jun 2027 11:23:46.821            51.723              Murmansk1          6465.375
       329   09 Jun 2027 11:24:14.461   09 Jun 2027 11:28:50.045           275.584                 Moscow         34448.000
       330   09 Jun 2027 11:29:07.654   09 Jun 2027 11:32:30.922           203.268              Murmansk2         25408.500
       331   09 Jun 2027 11:38:52.613   09 Jun 2027 11:42:06.517           193.904                Anadyr2         24238.000
       332   09 Jun 2027 12:37:08.496   09 Jun 2027 12:39:06.032           117.536               CapeTown         14692.000
       333   09 Jun 2027 14:48:42.629   09 Jun 2027 14:50:52.280           129.651               Magadan2         16206.375
       334   09 Jun 2027 14:51:13.955   09 Jun 2027 14:52:44.743            90.788               Magadan2         11348.500
       335   09 Jun 2027 17:20:06.340   09 Jun 2027 17:22:38.431           152.091            RioGallegos         19011.375
       336   09 Jun 2027 18:06:25.546   09 Jun 2027 18:10:45.984           260.438                Novosib         32554.750
       337   09 Jun 2027 18:13:03.469   09 Jun 2027 18:13:37.894            34.425                Irkutsk          4303.125
       338   09 Jun 2027 19:52:16.847   09 Jun 2027 19:54:13.737           116.890                  Delhi         14611.250
       339   09 Jun 2027 21:15:33.406   09 Jun 2027 21:16:35.883            62.477              Murmansk2          7809.625
       340   09 Jun 2027 21:16:48.390   09 Jun 2027 21:21:02.700           254.310              Murmansk1         31788.750
       341   09 Jun 2027 21:21:39.177   09 Jun 2027 21:22:32.378            53.201                 Moscow          6650.125
       342   09 Jun 2027 21:24:42.835   09 Jun 2027 21:25:22.392            39.557                 Moscow          4944.625
       343   10 Jun 2027 05:14:03.470   10 Jun 2027 05:14:12.459             8.989                Novosib          1123.625
       344   10 Jun 2027 05:16:01.352   10 Jun 2027 05:16:52.618            51.266              Murmansk1          6408.250
       345   10 Jun 2027 05:17:04.185   10 Jun 2027 05:18:55.265           111.080              Murmansk2         13885.000
       346   10 Jun 2027 05:20:36.129   10 Jun 2027 05:22:37.567           121.438              Murmansk1         15179.750
       347   10 Jun 2027 05:56:19.872   10 Jun 2027 06:01:32.803           312.931            RioGallegos         39116.375
       348   10 Jun 2027 06:31:10.508   10 Jun 2027 06:36:17.108           306.600                Sumatra         38325.000
       349   10 Jun 2027 06:37:21.912   10 Jun 2027 06:44:01.112           399.200                Irkutsk         49900.000
       350   10 Jun 2027 06:49:55.882   10 Jun 2027 06:54:58.555           302.673                Norilsk         37834.125
       351   10 Jun 2027 06:56:19.033   10 Jun 2027 06:57:20.211            61.178              Murmansk1          7647.250
       352   10 Jun 2027 07:29:40.266   10 Jun 2027 07:36:19.223           398.957            RioGallegos         49869.625
       353   10 Jun 2027 08:01:31.127   10 Jun 2027 08:09:34.087           482.960                Sumatra         60370.000
       354   10 Jun 2027 08:15:05.930   10 Jun 2027 08:15:30.352            24.422                Novosib          3052.750
       355   10 Jun 2027 08:15:59.135   10 Jun 2027 08:20:35.101           275.966                  Delhi         34495.750
       356   10 Jun 2027 08:20:40.435   10 Jun 2027 08:21:49.340            68.905                Irkutsk          8613.125
       357   10 Jun 2027 08:25:28.108   10 Jun 2027 08:27:18.608           110.500                Novosib         13812.500
       358   10 Jun 2027 08:27:21.798   10 Jun 2027 08:30:58.434           216.636                Norilsk         27079.500
       359   10 Jun 2027 08:32:13.373   10 Jun 2027 08:32:44.928            31.555              Murmansk2          3944.375
       360   10 Jun 2027 09:47:18.880   10 Jun 2027 09:53:20.953           362.073                  Delhi         45259.125
       361   10 Jun 2027 10:01:20.917   10 Jun 2027 10:01:50.065            29.148                 Moscow          3643.500
       362   10 Jun 2027 10:03:07.775   10 Jun 2027 10:06:46.627           218.852                Norilsk         27356.500
       363   10 Jun 2027 10:07:11.238   10 Jun 2027 10:08:34.459            83.221              Murmansk1         10402.625
       364   10 Jun 2027 11:31:14.869   10 Jun 2027 11:40:46.373           571.504                 Moscow         71438.000
       365   10 Jun 2027 11:41:05.134   10 Jun 2027 11:44:32.459           207.325              Murmansk2         25915.625
       366   10 Jun 2027 11:51:26.563   10 Jun 2027 11:54:54.248           207.685                Anadyr1         25960.625
       367   10 Jun 2027 12:48:55.797   10 Jun 2027 12:54:25.874           330.077               CapeTown         41259.625
       368   10 Jun 2027 13:10:40.223   10 Jun 2027 13:13:44.800           184.577                 Moscow         23072.125
       369   10 Jun 2027 13:13:56.663   10 Jun 2027 13:16:45.171           168.508              Murmansk2         21063.500
       370   10 Jun 2027 13:26:45.588   10 Jun 2027 13:31:16.251           270.663               Magadan1         33832.875
       371   10 Jun 2027 16:43:47.546   10 Jun 2027 16:45:46.421           118.875                Irkutsk         14859.375
       372   10 Jun 2027 18:17:39.300   10 Jun 2027 18:24:05.775           386.475                Novosib         48309.375
       373   10 Jun 2027 20:05:19.554   10 Jun 2027 20:05:36.566            17.012                  Delhi          2126.500
       374   10 Jun 2027 21:27:15.254   10 Jun 2027 21:27:59.180            43.926              Murmansk2          5490.750
       375   10 Jun 2027 21:28:55.241   10 Jun 2027 21:31:35.722           160.481              Murmansk1         20060.125
       376   10 Jun 2027 21:32:10.063   10 Jun 2027 21:38:24.163           374.100                 Moscow         46762.500
       377   11 Jun 2027 03:48:25.831   11 Jun 2027 03:50:14.093           108.262               Magadan1         13532.750
       378   11 Jun 2027 03:50:15.125   11 Jun 2027 03:51:20.591            65.466                Norilsk          8183.250
       379   11 Jun 2027 05:25:42.312   11 Jun 2027 05:26:03.101            20.789                Irkutsk          2598.625
       380   11 Jun 2027 05:27:10.781   11 Jun 2027 05:27:16.366             5.585                Novosib           698.125
       381   11 Jun 2027 05:27:57.573   11 Jun 2027 05:28:46.624            49.051              Murmansk2          6131.375
       382   11 Jun 2027 05:28:55.683   11 Jun 2027 05:30:39.722           104.039              Murmansk1         13004.875
       383   11 Jun 2027 05:30:43.264   11 Jun 2027 05:31:05.201            21.937                Norilsk          2742.125
       384   11 Jun 2027 05:32:34.537   11 Jun 2027 05:34:27.204           112.667              Murmansk2         14083.375
       385   11 Jun 2027 06:08:15.218   11 Jun 2027 06:13:31.734           316.516            RioGallegos         39564.500
       386   11 Jun 2027 06:43:00.431   11 Jun 2027 06:48:22.028           321.597                Sumatra         40199.625
       387   11 Jun 2027 06:51:02.913   11 Jun 2027 06:55:49.165           286.252                Irkutsk         35781.500
       388   11 Jun 2027 07:01:49.998   11 Jun 2027 07:01:50.189             0.191                Irkutsk            23.875
       389   11 Jun 2027 07:01:53.283   11 Jun 2027 07:03:34.583           101.300                Novosib         12662.500
       390   11 Jun 2027 07:03:39.430   11 Jun 2027 07:07:11.979           212.549              Murmansk1         26568.625
       391   11 Jun 2027 07:08:20.061   11 Jun 2027 07:09:15.600            55.539              Murmansk2          6942.375
       392   11 Jun 2027 07:40:01.221   11 Jun 2027 07:47:55.681           474.460            RioGallegos         59307.500
       393   11 Jun 2027 08:14:44.703   11 Jun 2027 08:20:13.979           329.276                Sumatra         41159.500
       394   11 Jun 2027 08:27:00.906   11 Jun 2027 08:32:32.757           331.851                  Delhi         41481.375
       395   11 Jun 2027 08:32:54.681   11 Jun 2027 08:33:57.069            62.388                Irkutsk          7798.500
       396   11 Jun 2027 08:37:33.202   11 Jun 2027 08:39:14.664           101.462                Novosib         12682.750
       397   11 Jun 2027 08:39:20.848   11 Jun 2027 08:42:59.984           219.136                Norilsk         27392.000
       398   11 Jun 2027 08:44:14.558   11 Jun 2027 08:44:44.465            29.907              Murmansk2          3738.375
       399   11 Jun 2027 10:14:06.463   11 Jun 2027 10:18:43.880           277.417                Norilsk         34677.125
       400   11 Jun 2027 10:18:59.706   11 Jun 2027 10:20:35.871            96.165              Murmansk2         12020.625
       401   11 Jun 2027 11:43:10.933   11 Jun 2027 11:44:20.423            69.490                 Moscow          8686.250
       402   11 Jun 2027 11:46:58.218   11 Jun 2027 11:47:20.243            22.025              Murmansk2          2753.125
       403   11 Jun 2027 11:47:25.070   11 Jun 2027 11:52:41.280           316.210                 Moscow         39526.250
       404   11 Jun 2027 11:53:03.162   11 Jun 2027 11:56:33.890           210.728              Murmansk2         26341.000
       405   11 Jun 2027 12:00:03.353   11 Jun 2027 12:07:35.831           452.478                Anadyr2         56559.750
       406   11 Jun 2027 13:00:37.770   11 Jun 2027 13:06:21.425           343.655               CapeTown         42956.875
       407   11 Jun 2027 13:23:28.235   11 Jun 2027 13:32:19.203           530.968              Murmansk1         66371.000
       408   11 Jun 2027 13:34:17.958   11 Jun 2027 13:38:35.369           257.411                Anadyr2         32176.375
       409   11 Jun 2027 13:39:25.455   11 Jun 2027 13:41:40.499           135.044               Magadan1         16880.500
       410   11 Jun 2027 13:43:48.046   11 Jun 2027 13:44:29.187            41.141               Magadan1          5142.625
       411   11 Jun 2027 16:54:20.043   11 Jun 2027 16:59:47.219           327.176                Irkutsk         40897.000
       412   11 Jun 2027 18:29:11.198   11 Jun 2027 18:36:59.663           468.465                Novosib         58558.125
       413   11 Jun 2027 21:38:35.234   11 Jun 2027 21:39:41.219            65.985              Murmansk2          8248.125
       414   11 Jun 2027 21:41:38.642   11 Jun 2027 21:43:30.978           112.336              Murmansk1         14042.000
       415   11 Jun 2027 21:43:39.623   11 Jun 2027 21:47:39.432           239.809                 Moscow         29976.125
       416   11 Jun 2027 21:48:56.648   11 Jun 2027 21:50:32.544            95.896                 Moscow         10891.126
       417   12 Jun 2027 04:00:53.746   12 Jun 2027 04:01:38.448            44.702                Anadyr2          5587.750
       418   12 Jun 2027 04:02:03.223   12 Jun 2027 04:07:25.770           322.547                Norilsk         40318.375
       419   12 Jun 2027 04:07:44.228   12 Jun 2027 04:09:12.092            87.864              Murmansk2         10983.000
       420   12 Jun 2027 05:16:28.379   12 Jun 2027 05:17:21.562            53.183                Sumatra          6647.875
       421   12 Jun 2027 05:18:59.691   12 Jun 2027 05:20:36.580            96.889                Sumatra         12111.125
       422   12 Jun 2027 05:38:27.896   12 Jun 2027 05:39:03.479            35.583                Norilsk          4447.875
       423   12 Jun 2027 05:39:09.039   12 Jun 2027 05:39:22.291            13.252                Novosib          1656.500
       424   12 Jun 2027 05:39:54.406   12 Jun 2027 05:40:39.533            45.127              Murmansk1          5640.875
       425   12 Jun 2027 05:40:47.931   12 Jun 2027 05:42:54.583           126.652              Murmansk2         15831.500
       426   12 Jun 2027 05:44:33.399   12 Jun 2027 05:46:17.513           104.114              Murmansk1         13014.250
       427   12 Jun 2027 06:20:08.737   12 Jun 2027 06:25:29.467           320.730            RioGallegos         40091.250
       428   12 Jun 2027 06:54:44.003   12 Jun 2027 07:00:21.339           337.336                Sumatra         42167.000
       429   12 Jun 2027 07:02:45.198   12 Jun 2027 07:07:36.991           291.793                Novosib         36474.125
       430   12 Jun 2027 07:13:28.012   12 Jun 2027 07:14:05.767            37.755                Novosib          4719.375
       431   12 Jun 2027 07:14:29.813   12 Jun 2027 07:19:02.102           272.289                Norilsk         34036.125
       432   12 Jun 2027 07:20:21.279   12 Jun 2027 07:21:11.650            50.371              Murmansk1          6296.375
       433   12 Jun 2027 07:53:03.861   12 Jun 2027 07:59:21.236           377.375            RioGallegos         47171.875
       434   12 Jun 2027 08:38:42.924   12 Jun 2027 08:44:26.871           343.947                  Delhi         42993.375
       435   12 Jun 2027 08:45:25.736   12 Jun 2027 08:45:29.420             3.684                Norilsk           460.500
       436   12 Jun 2027 08:49:56.200   12 Jun 2027 08:55:01.347           305.147                Norilsk         38143.375
       437   12 Jun 2027 08:56:15.888   12 Jun 2027 08:56:44.353            28.465              Murmansk2          3558.125
       438   12 Jun 2027 10:18:55.076   12 Jun 2027 10:19:32.676            37.600                 Moscow          4700.000
       439   12 Jun 2027 10:25:04.811   12 Jun 2027 10:30:39.523           334.712                Norilsk         41839.000
       440   12 Jun 2027 10:31:06.133   12 Jun 2027 10:32:37.387            91.254              Murmansk2         11406.750
       441   12 Jun 2027 11:55:05.516   12 Jun 2027 12:04:34.425           568.909                 Moscow         71113.625
       442   12 Jun 2027 12:05:01.688   12 Jun 2027 12:08:35.158           213.470              Murmansk1         26683.750
       443   12 Jun 2027 12:10:46.608   12 Jun 2027 12:20:12.526           565.918                Anadyr2         70739.750
       444   12 Jun 2027 13:08:45.391   12 Jun 2027 13:18:12.009           566.618               CapeTown         70827.250
       445   12 Jun 2027 13:36:04.800   12 Jun 2027 13:40:47.318           282.518              Murmansk1         35314.750
       446   12 Jun 2027 13:49:45.561   12 Jun 2027 13:53:32.724           227.163               Magadan1         28395.375
       447   12 Jun 2027 13:54:06.205   12 Jun 2027 13:57:25.350           199.145               Magadan2         24893.125
       448   12 Jun 2027 17:05:39.944   12 Jun 2027 17:11:29.481           349.537                Irkutsk         43692.125
       449   12 Jun 2027 17:21:30.207   12 Jun 2027 17:23:07.604            97.397                Sumatra         12174.625
       450   12 Jun 2027 17:24:35.103   12 Jun 2027 17:26:54.219           139.116                Sumatra         17389.500
       451   12 Jun 2027 18:41:55.146   12 Jun 2027 18:44:08.491           133.345                Novosib         16668.125
       452   12 Jun 2027 20:16:53.220   12 Jun 2027 20:18:13.220            80.000              Murmansk1         10000.000
       453   12 Jun 2027 21:50:48.163   12 Jun 2027 21:52:11.307            83.144              Murmansk1         10393.000
       454   12 Jun 2027 21:54:10.757   12 Jun 2027 21:55:53.939           103.182                 Moscow         12897.750
       455   12 Jun 2027 21:56:41.358   12 Jun 2027 21:58:09.067            87.709                 Moscow         10963.625
       456   12 Jun 2027 22:00:04.918   12 Jun 2027 22:00:59.027            54.109                 Moscow          1979.250
       457   13 Jun 2027 04:13:04.182   13 Jun 2027 04:13:40.996            36.814                Irkutsk          4601.750
       458   13 Jun 2027 04:14:13.513   13 Jun 2027 04:14:33.964            20.451                Novosib          2556.375
       459   13 Jun 2027 04:15:08.602   13 Jun 2027 04:20:07.276           298.674              Murmansk2         37334.250
       460   13 Jun 2027 05:26:49.031   13 Jun 2027 05:28:27.118            98.087                Sumatra         12260.875
       461   13 Jun 2027 05:50:21.190   13 Jun 2027 05:51:29.044            67.854                Norilsk          8481.750
       462   13 Jun 2027 05:51:51.811   13 Jun 2027 05:52:40.928            49.117              Murmansk2          6139.625
       463   13 Jun 2027 05:52:40.928   13 Jun 2027 05:55:06.235           145.307              Murmansk1         18163.375
       464   13 Jun 2027 05:56:32.678   13 Jun 2027 05:58:08.537            95.859              Murmansk2         11982.375
       465   13 Jun 2027 06:32:00.000   13 Jun 2027 06:37:25.825           325.825            RioGallegos         40728.125
       466   13 Jun 2027 07:06:20.195   13 Jun 2027 07:12:15.035           354.840                Sumatra         44355.000
       467   13 Jun 2027 07:14:14.047   13 Jun 2027 07:15:38.562            84.515                Irkutsk         10564.375
       468   13 Jun 2027 07:16:09.491   13 Jun 2027 07:19:53.448           223.957                Irkutsk         27994.625
       469   13 Jun 2027 07:24:48.451   13 Jun 2027 07:25:08.063            19.612                Novosib          2451.500
       470   13 Jun 2027 07:25:58.171   13 Jun 2027 07:27:37.738            99.567                Novosib         12445.875
       471   13 Jun 2027 07:27:45.082   13 Jun 2027 07:31:03.964           198.882                Norilsk         24860.250
       472   13 Jun 2027 07:32:22.643   13 Jun 2027 07:33:08.316            45.673              Murmansk2          5709.125
       473   13 Jun 2027 08:06:35.684   13 Jun 2027 08:10:20.754           225.070            RioGallegos         28133.750
       474   13 Jun 2027 08:50:18.081   13 Jun 2027 08:56:17.051           358.970                  Delhi         44871.250
       475   13 Jun 2027 09:01:41.882   13 Jun 2027 09:03:01.967            80.085                Novosib         10010.625
       476   13 Jun 2027 09:03:04.407   13 Jun 2027 09:07:02.464           238.057                Norilsk         29757.125
       477   13 Jun 2027 09:08:17.353   13 Jun 2027 09:08:44.550            27.197              Murmansk1          3399.625
       478   13 Jun 2027 10:30:50.798   13 Jun 2027 10:31:33.976            43.178                 Moscow          5397.250
       479   13 Jun 2027 10:37:01.010   13 Jun 2027 10:42:32.820           331.810                Norilsk         41476.250
       480   13 Jun 2027 10:43:04.370   13 Jun 2027 10:44:38.980            94.610              Murmansk1         11826.250
       481   13 Jun 2027 12:06:58.255   13 Jun 2027 12:16:25.331           567.076                 Moscow         70884.500
       482   13 Jun 2027 12:17:00.671   13 Jun 2027 12:20:36.228           215.557              Murmansk2         26944.625
