uniorb/output/strategy_4/Drop/Drop_KinoSat_111102.txt

KinoSat_111102
-------------------------
    Access    *     Start Time (UTCG)     *     Stop Time (UTCG)  *   Duration (s)        *       Station  *  Data (Mbytes)
         1   01 Jun 2027 03:54:12.440   01 Jun 2027 03:58:07.571           235.131               Magadan2          7347.844
         2   01 Jun 2027 04:04:58.196   01 Jun 2027 04:05:20.719            22.523              Murmansk1           703.844
         3   01 Jun 2027 04:05:28.537   01 Jun 2027 04:05:33.103             4.566                Norilsk           142.688
         4   01 Jun 2027 04:05:59.554   01 Jun 2027 04:06:15.914            16.360              Murmansk2           511.250
         5   01 Jun 2027 04:07:49.102   01 Jun 2027 04:08:04.106            15.004              Murmansk2           468.875
         6   01 Jun 2027 04:09:02.507   01 Jun 2027 04:09:05.450             2.943              Murmansk1            91.969
         7   01 Jun 2027 04:09:11.214   01 Jun 2027 04:09:25.971            14.757                 Moscow           461.156
         8   01 Jun 2027 04:10:05.757   01 Jun 2027 04:10:27.471            21.714              Murmansk1           678.562
         9   01 Jun 2027 04:10:28.513   01 Jun 2027 04:11:08.430            39.917              Murmansk2          1247.406
        10   01 Jun 2027 05:27:48.740   01 Jun 2027 05:28:54.730            65.990               Magadan2          2062.187
        11   01 Jun 2027 05:28:58.808   01 Jun 2027 05:29:26.431            27.623               Magadan1           863.219
        12   01 Jun 2027 05:29:34.787   01 Jun 2027 05:29:53.416            18.629                Anadyr2           582.156
        13   01 Jun 2027 05:30:23.870   01 Jun 2027 05:34:52.929           269.059                Anadyr2          8408.094
        14   01 Jun 2027 06:15:42.887   01 Jun 2027 06:15:51.541             8.654            RioGallegos           270.438
        15   01 Jun 2027 07:02:57.300   01 Jun 2027 07:07:45.395           288.095               Magadan1          9002.969
        16   01 Jun 2027 07:07:52.272   01 Jun 2027 07:08:11.282            19.010               Magadan1           594.062
        17   01 Jun 2027 07:08:30.301   01 Jun 2027 07:09:56.324            86.023                Anadyr1          2688.219
        18   01 Jun 2027 07:10:11.416   01 Jun 2027 07:10:33.658            22.242                Novosib           695.062
        19   01 Jun 2027 07:10:48.629   01 Jun 2027 07:10:58.613             9.984                Norilsk           312.000
        20   01 Jun 2027 07:11:36.794   01 Jun 2027 07:13:43.001           126.207              Murmansk1          3943.969
        21   01 Jun 2027 07:45:40.470   01 Jun 2027 07:47:35.122           114.652            RioGallegos          3582.875
        22   01 Jun 2027 08:41:00.604   01 Jun 2027 08:44:27.937           207.333               Magadan1          6479.156
        23   01 Jun 2027 08:44:37.209   01 Jun 2027 08:45:31.711            54.502                Irkutsk          1703.187
        24   01 Jun 2027 08:46:17.370   01 Jun 2027 08:46:21.097             3.727                Irkutsk           116.469
        25   01 Jun 2027 08:48:43.928   01 Jun 2027 08:49:13.382            29.454              Murmansk1           920.437
        26   01 Jun 2027 09:21:14.439   01 Jun 2027 09:25:32.850           258.411            RioGallegos          8075.344
        27   01 Jun 2027 09:55:52.532   01 Jun 2027 09:58:36.372           163.840                Sumatra          5120.000
        28   01 Jun 2027 10:17:40.833   01 Jun 2027 10:18:01.104            20.271                Norilsk           633.469
        29   01 Jun 2027 10:18:06.293   01 Jun 2027 10:18:26.804            20.511              Murmansk2           640.969
        30   01 Jun 2027 10:18:52.428   01 Jun 2027 10:21:20.604           148.176              Murmansk2          4630.500
        31   01 Jun 2027 10:21:25.940   01 Jun 2027 10:22:16.923            50.983              Murmansk2          1593.219
        32   01 Jun 2027 10:22:16.923   01 Jun 2027 10:22:50.172            33.249              Murmansk1          1039.031
        33   01 Jun 2027 11:40:13.694   01 Jun 2027 11:40:35.043            21.349                  Delhi           667.156
        34   01 Jun 2027 11:40:54.130   01 Jun 2027 11:42:15.330            81.200                  Delhi          2537.500
        35   01 Jun 2027 11:55:23.657   01 Jun 2027 11:55:28.969             5.312              Murmansk1           166.000
        36   01 Jun 2027 11:55:36.769   01 Jun 2027 11:56:21.479            44.710                Norilsk          1397.188
        37   01 Jun 2027 11:56:31.594   01 Jun 2027 11:57:58.384            86.790                Novosib          2712.187
        38   01 Jun 2027 11:58:24.257   01 Jun 2027 11:59:23.143            58.886                 Moscow          1840.188
        39   01 Jun 2027 12:02:10.708   01 Jun 2027 12:02:23.185            12.477                Norilsk           389.906
        40   01 Jun 2027 12:02:44.163   01 Jun 2027 12:03:16.310            32.147                Norilsk          1004.594
        41   01 Jun 2027 12:04:32.606   01 Jun 2027 12:04:55.526            22.920              Murmansk2           716.250
        42   01 Jun 2027 13:24:28.482   01 Jun 2027 13:28:29.604           241.122                 Moscow          7535.062
        43   01 Jun 2027 13:28:39.179   01 Jun 2027 13:33:55.124           315.945              Murmansk1          9873.281
        44   01 Jun 2027 13:34:24.222   01 Jun 2027 13:36:45.083           140.861                Norilsk          4401.906
        45   01 Jun 2027 13:37:24.437   01 Jun 2027 13:38:35.148            70.711                Norilsk          2209.719
        46   01 Jun 2027 13:39:11.775   01 Jun 2027 13:40:51.402            99.627              Murmansk2          3113.344
        47   01 Jun 2027 14:41:30.714   01 Jun 2027 14:42:10.946            40.232               CapeTown          1257.250
        48   01 Jun 2027 14:43:30.443   01 Jun 2027 14:43:49.504            19.061               CapeTown           595.656
        49   01 Jun 2027 14:44:39.278   01 Jun 2027 14:46:57.512           138.234               CapeTown          4319.812
        50   01 Jun 2027 14:48:17.628   01 Jun 2027 14:49:37.109            79.481               CapeTown          2483.781
        51   01 Jun 2027 15:09:14.416   01 Jun 2027 15:09:37.587            23.171                 Moscow           724.094
        52   01 Jun 2027 15:09:45.728   01 Jun 2027 15:10:06.407            20.679                 Moscow           646.219
        53   01 Jun 2027 15:10:23.547   01 Jun 2027 15:11:29.432            65.885                 Moscow          2058.906
        54   01 Jun 2027 15:12:24.921   01 Jun 2027 15:12:46.606            21.685                 Moscow           677.656
        55   01 Jun 2027 15:13:19.796   01 Jun 2027 15:13:44.151            24.355              Murmansk2           761.094
        56   01 Jun 2027 15:13:55.608   01 Jun 2027 15:15:52.892           117.284              Murmansk1          3665.125
        57   01 Jun 2027 15:15:52.892   01 Jun 2027 15:16:35.093            42.201              Murmansk2          1318.781
        58   01 Jun 2027 15:16:46.897   01 Jun 2027 15:16:50.003             3.106              Murmansk2            97.063
        59   01 Jun 2027 15:21:43.811   01 Jun 2027 15:22:07.659            23.848                Anadyr2           745.250
        60   01 Jun 2027 15:22:40.717   01 Jun 2027 15:23:12.246            31.529                Anadyr2           985.281
        61   01 Jun 2027 15:23:30.432   01 Jun 2027 15:23:43.919            13.487                Anadyr2           421.469
        62   01 Jun 2027 15:23:47.037   01 Jun 2027 15:24:02.554            15.517                Anadyr1           484.906
        63   01 Jun 2027 15:24:16.400   01 Jun 2027 15:24:56.385            39.985                Anadyr2          1249.531
        64   01 Jun 2027 15:26:03.344   01 Jun 2027 15:27:30.468            87.124                Anadyr1          2722.625
        65   01 Jun 2027 15:28:22.081   01 Jun 2027 15:28:26.223             4.142                Anadyr1           129.438
        66   01 Jun 2027 15:28:26.223   01 Jun 2027 15:28:29.164             2.941                Anadyr2            91.906
        67   01 Jun 2027 16:44:29.616   01 Jun 2027 16:45:02.155            32.539              Murmansk1          1016.844
        68   01 Jun 2027 16:46:17.487   01 Jun 2027 16:47:13.924            56.437              Murmansk1          1763.656
        69   01 Jun 2027 16:48:49.449   01 Jun 2027 16:50:17.616            88.167              Murmansk2          2755.219
        70   01 Jun 2027 16:50:57.949   01 Jun 2027 16:51:12.011            14.062              Murmansk1           439.438
        71   01 Jun 2027 16:51:52.717   01 Jun 2027 16:52:29.916            37.199              Murmansk1          1162.469
        72   01 Jun 2027 16:57:37.747   01 Jun 2027 16:58:14.370            36.623                Anadyr2          1144.469
        73   01 Jun 2027 16:58:55.919   01 Jun 2027 16:59:19.192            23.273                Anadyr2           727.281
        74   01 Jun 2027 16:59:29.306   01 Jun 2027 17:00:07.923            38.617               Magadan2          1206.781
        75   01 Jun 2027 17:00:07.923   01 Jun 2027 17:00:51.717            43.794               Magadan1          1368.562
        76   01 Jun 2027 17:01:48.029   01 Jun 2027 17:02:10.678            22.649               Magadan1           707.781
        77   01 Jun 2027 17:03:47.660   01 Jun 2027 17:04:19.444            31.784               Magadan2           993.250
        78   01 Jun 2027 17:05:21.168   01 Jun 2027 17:05:45.852            24.684                Anadyr2           771.375
        79   01 Jun 2027 17:06:09.207   01 Jun 2027 17:06:30.017            20.810                Anadyr1           650.313
        80   01 Jun 2027 18:30:27.189   01 Jun 2027 18:33:40.485           193.296                Anadyr1          6040.500
        81   01 Jun 2027 18:33:40.655   01 Jun 2027 18:34:21.349            40.694                Anadyr1          1271.688
        82   01 Jun 2027 18:34:45.251   01 Jun 2027 18:35:18.680            33.429                Anadyr2          1044.656
        83   01 Jun 2027 18:35:30.933   01 Jun 2027 18:36:05.590            34.657               Magadan1          1083.031
        84   01 Jun 2027 18:37:33.098   01 Jun 2027 18:38:05.396            32.298                Anadyr2          1009.312
        85   01 Jun 2027 18:39:31.708   01 Jun 2027 18:39:49.316            17.608               Magadan2           550.250
        86   01 Jun 2027 18:40:49.060   01 Jun 2027 18:41:04.717            15.657               Magadan2           489.281
        87   01 Jun 2027 18:41:06.159   01 Jun 2027 18:41:44.091            37.932               Magadan2          1185.375
        88   01 Jun 2027 18:43:10.068   01 Jun 2027 18:43:41.928            31.860               Magadan2           995.625
        89   01 Jun 2027 19:27:49.670   01 Jun 2027 19:29:57.387           127.717            RioGallegos          3991.156
        90   01 Jun 2027 19:30:05.882   01 Jun 2027 19:30:27.833            21.951            RioGallegos           685.969
        91   01 Jun 2027 20:06:17.781   01 Jun 2027 20:06:41.254            23.473                Anadyr1           733.531
        92   01 Jun 2027 20:08:10.791   01 Jun 2027 20:08:19.986             9.195                Anadyr2           287.344
        93   01 Jun 2027 20:08:31.123   01 Jun 2027 20:12:14.569           223.446                Norilsk          6982.687
        94   01 Jun 2027 20:13:43.963   01 Jun 2027 20:16:38.823           174.860                Irkutsk          5464.375
        95   01 Jun 2027 20:18:42.909   01 Jun 2027 20:19:19.688            36.779                Irkutsk          1149.344
        96   01 Jun 2027 20:29:17.970   01 Jun 2027 20:31:01.556           103.586                Sumatra          3237.063
        97   01 Jun 2027 21:42:33.762   01 Jun 2027 21:42:35.793             2.031                Anadyr2            63.469
        98   01 Jun 2027 21:44:11.506   01 Jun 2027 21:45:32.283            80.777                Norilsk          2524.281
        99   01 Jun 2027 21:45:38.110   01 Jun 2027 21:46:10.999            32.889                Norilsk          1027.781
       100   01 Jun 2027 21:48:08.649   01 Jun 2027 21:49:37.110            88.461                Irkutsk          2764.406
       101   01 Jun 2027 21:52:21.725   01 Jun 2027 21:52:24.178             2.453                Novosib            76.656
       102   01 Jun 2027 21:53:10.937   01 Jun 2027 21:53:47.200            36.263                Norilsk          1133.219
       103   01 Jun 2027 21:53:51.068   01 Jun 2027 21:54:14.034            22.966                Novosib           717.688
       104   01 Jun 2027 21:55:53.854   01 Jun 2027 21:56:21.073            27.219                Novosib           850.594
       105   01 Jun 2027 21:57:56.002   01 Jun 2027 21:58:18.586            22.584                Novosib           705.750
       106   01 Jun 2027 22:00:34.037   01 Jun 2027 22:00:50.241            16.204                Irkutsk           506.375
       107   01 Jun 2027 22:05:13.687   01 Jun 2027 22:06:17.999            64.312                Sumatra          2009.750
       108   01 Jun 2027 22:10:46.064   01 Jun 2027 22:10:58.422            12.358                Sumatra           386.187
       109   01 Jun 2027 22:11:35.185   01 Jun 2027 22:11:51.513            16.328                Sumatra           510.250
       110   01 Jun 2027 22:46:22.979   01 Jun 2027 22:46:59.724            36.745            RioGallegos          1148.281
       111   01 Jun 2027 23:15:55.250   01 Jun 2027 23:16:25.856            30.606                Anadyr2           956.437
       112   01 Jun 2027 23:16:48.203   01 Jun 2027 23:18:06.553            78.350                Anadyr1          2448.437
       113   01 Jun 2027 23:20:11.243   01 Jun 2027 23:20:25.090            13.847                Norilsk           432.719
       114   01 Jun 2027 23:20:46.674   01 Jun 2027 23:21:48.856            62.182               Magadan2          1943.188
       115   01 Jun 2027 23:21:48.856   01 Jun 2027 23:22:12.621            23.765               Magadan1           742.656
       116   01 Jun 2027 23:23:26.865   01 Jun 2027 23:24:56.894            90.029              Murmansk2          2813.406
       117   01 Jun 2027 23:24:56.894   01 Jun 2027 23:25:50.725            53.831              Murmansk1          1682.219
       118   01 Jun 2027 23:26:07.313   01 Jun 2027 23:26:44.400            37.087              Murmansk1          1158.969
       119   01 Jun 2027 23:31:23.287   01 Jun 2027 23:32:24.883            61.596                  Delhi          1924.875
       120   01 Jun 2027 23:39:21.801   01 Jun 2027 23:40:55.567            93.766                  Delhi          2930.188
       121   02 Jun 2027 00:49:14.627   02 Jun 2027 00:49:52.774            38.147                Anadyr2          1192.094
       122   02 Jun 2027 00:49:54.800   02 Jun 2027 00:50:13.109            18.309                Anadyr2           572.156
       123   02 Jun 2027 00:50:52.806   02 Jun 2027 00:51:52.421            59.615                Anadyr1          1862.969
       124   02 Jun 2027 00:54:25.606   02 Jun 2027 00:55:03.385            37.779                Anadyr1          1180.594
       125   02 Jun 2027 00:55:14.351   02 Jun 2027 00:55:33.318            18.967                Anadyr1           592.719
       126   02 Jun 2027 00:55:37.171   02 Jun 2027 00:56:58.425            81.254               Magadan1          2539.188
       127   02 Jun 2027 00:57:39.403   02 Jun 2027 00:58:26.363            46.960               Magadan2          1467.500
       128   02 Jun 2027 00:58:27.069   02 Jun 2027 00:59:39.466            72.397              Murmansk2          2262.406
       129   02 Jun 2027 01:02:07.736   02 Jun 2027 01:02:59.636            51.900              Murmansk1          1621.875
       130   02 Jun 2027 01:05:43.536   02 Jun 2027 01:06:02.122            18.586                Novosib           580.813
       131   02 Jun 2027 01:07:09.037   02 Jun 2027 01:07:25.161            16.124                 Moscow           503.875
       132   02 Jun 2027 01:08:07.374   02 Jun 2027 01:08:33.700            26.326              Murmansk2           822.688
       133   02 Jun 2027 01:10:37.079   02 Jun 2027 01:11:27.174            50.095                 Moscow          1565.469
       134   02 Jun 2027 01:29:05.230   02 Jun 2027 01:29:32.839            27.609               CapeTown           862.781
       135   02 Jun 2027 01:32:08.029   02 Jun 2027 01:32:43.406            35.377               CapeTown          1105.531
       136   02 Jun 2027 02:22:57.693   02 Jun 2027 02:24:34.653            96.960                Anadyr2          3030.000
       137   02 Jun 2027 02:25:10.111   02 Jun 2027 02:25:33.300            23.189                Anadyr1           724.656
       138   02 Jun 2027 02:25:55.572   02 Jun 2027 02:25:55.731             0.159                Anadyr1             4.969
       139   02 Jun 2027 02:26:17.284   02 Jun 2027 02:26:31.919            14.635                Anadyr2           457.344
       140   02 Jun 2027 02:27:06.488   02 Jun 2027 02:28:26.377            79.889               Magadan2          2496.531
       141   02 Jun 2027 02:30:36.999   02 Jun 2027 02:30:53.997            16.998               Magadan2           531.187
       142   02 Jun 2027 02:31:42.975   02 Jun 2027 02:32:11.693            28.718               Magadan2           897.438
       143   02 Jun 2027 02:34:17.244   02 Jun 2027 02:35:57.100            99.856              Murmansk1          3120.500
       144   02 Jun 2027 02:37:03.624   02 Jun 2027 02:37:22.798            19.174                Novosib           599.187
       145   02 Jun 2027 02:40:01.808   02 Jun 2027 02:40:36.970            35.162                Novosib          1098.812
       146   02 Jun 2027 02:43:54.284   02 Jun 2027 02:44:02.160             7.876                Novosib           246.125
       147   02 Jun 2027 02:45:27.630   02 Jun 2027 02:45:39.967            12.337                 Moscow           385.531
       148   02 Jun 2027 02:47:12.688   02 Jun 2027 02:48:24.274            71.586                 Moscow          2237.062
       149   02 Jun 2027 03:10:14.249   02 Jun 2027 03:10:57.822            43.573               CapeTown          1361.656
       150   02 Jun 2027 04:04:25.328   02 Jun 2027 04:04:54.014            28.686               Magadan1           896.437
       151   02 Jun 2027 04:05:21.155   02 Jun 2027 04:08:40.500           199.345               Magadan2          6229.531
       152   02 Jun 2027 04:08:40.500   02 Jun 2027 04:10:26.280           105.780               Magadan1          3305.625
       153   02 Jun 2027 05:42:54.456   02 Jun 2027 05:45:11.698           137.242                Anadyr2          4288.812
       154   02 Jun 2027 05:45:11.698   02 Jun 2027 05:45:49.333            37.635                Anadyr1          1176.094
       155   02 Jun 2027 05:46:19.855   02 Jun 2027 05:46:52.070            32.215                Anadyr1          1006.719
       156   02 Jun 2027 07:17:17.961   02 Jun 2027 07:18:03.627            45.666                Anadyr1          1427.062
       157   02 Jun 2027 07:18:27.124   02 Jun 2027 07:21:37.403           190.279                Anadyr2          5946.219
       158   02 Jun 2027 07:21:49.022   02 Jun 2027 07:22:51.074            62.052                Novosib          1939.125
       159   02 Jun 2027 08:53:36.506   02 Jun 2027 08:55:04.439            87.933               Magadan2          2747.906
       160   02 Jun 2027 08:55:50.865   02 Jun 2027 08:56:08.953            18.088               Magadan1           565.250
       161   02 Jun 2027 08:56:35.412   02 Jun 2027 08:57:47.640            72.228                Irkutsk          2257.125
       162   02 Jun 2027 08:57:52.765   02 Jun 2027 08:58:35.512            42.747                Novosib          1335.844
       163   02 Jun 2027 09:34:20.352   02 Jun 2027 09:34:47.759            27.407            RioGallegos           856.469
       164   02 Jun 2027 09:36:19.082   02 Jun 2027 09:36:37.357            18.275            RioGallegos           571.094
       165   02 Jun 2027 09:37:47.644   02 Jun 2027 09:38:09.803            22.159            RioGallegos           692.469
       166   02 Jun 2027 09:45:33.062   02 Jun 2027 09:45:38.885             5.823            RioGallegos           181.969
       167   02 Jun 2027 10:07:57.415   02 Jun 2027 10:10:16.695           139.280                Sumatra          4352.500
       168   02 Jun 2027 10:16:28.275   02 Jun 2027 10:16:43.063            14.788                Sumatra           462.125
       169   02 Jun 2027 10:28:07.581   02 Jun 2027 10:28:29.024            21.443                  Delhi           670.094
       170   02 Jun 2027 10:29:14.014   02 Jun 2027 10:29:37.337            23.323                Irkutsk           728.844
       171   02 Jun 2027 10:30:39.754   02 Jun 2027 10:30:43.076             3.322                Irkutsk           103.812
       172   02 Jun 2027 10:30:56.825   02 Jun 2027 10:31:38.630            41.805                Norilsk          1306.406
       173   02 Jun 2027 10:31:45.016   02 Jun 2027 10:31:57.909            12.893                Novosib           402.906
       174   02 Jun 2027 10:31:58.752   02 Jun 2027 10:32:08.719             9.967                Irkutsk           311.469
       175   02 Jun 2027 10:32:09.852   02 Jun 2027 10:32:10.745             0.893                Norilsk            27.906
       176   02 Jun 2027 10:32:11.872   02 Jun 2027 10:32:57.927            46.055                Norilsk          1439.219
       177   02 Jun 2027 10:33:55.492   02 Jun 2027 10:34:00.562             5.070                Novosib           158.437
       178   02 Jun 2027 10:34:48.308   02 Jun 2027 10:34:54.867             6.559                Novosib           204.969
       179   02 Jun 2027 11:15:31.513   02 Jun 2027 11:16:03.153            31.640            RioGallegos           988.750
       180   02 Jun 2027 11:16:07.101   02 Jun 2027 11:16:28.762            21.661            RioGallegos           676.906
       181   02 Jun 2027 11:17:24.355   02 Jun 2027 11:17:59.388            35.033            RioGallegos          1094.781
       182   02 Jun 2027 11:52:28.515   02 Jun 2027 11:53:41.071            72.556                  Delhi          2267.375
       183   02 Jun 2027 12:05:37.243   02 Jun 2027 12:05:49.452            12.209                Novosib           381.531
       184   02 Jun 2027 12:06:15.769   02 Jun 2027 12:06:47.930            32.161                Novosib          1005.031
       185   02 Jun 2027 12:08:52.170   02 Jun 2027 12:09:58.518            66.348                Novosib          2073.375
       186   02 Jun 2027 13:36:30.124   02 Jun 2027 13:38:51.350           141.226                 Moscow          4413.313
       187   02 Jun 2027 13:38:58.307   02 Jun 2027 13:40:05.648            67.341                 Moscow          2104.406
       188   02 Jun 2027 13:40:56.604   02 Jun 2027 13:41:30.346            33.742              Murmansk2          1054.438
       189   02 Jun 2027 13:42:12.129   02 Jun 2027 13:43:14.250            62.121              Murmansk2          1941.281
       190   02 Jun 2027 13:45:41.966   02 Jun 2027 13:46:32.594            50.628                Norilsk          1582.125
       191   02 Jun 2027 14:50:39.761   02 Jun 2027 14:52:30.059           110.298               CapeTown          3446.812
       192   02 Jun 2027 14:52:53.965   02 Jun 2027 14:54:03.383            69.418               CapeTown          2169.313
       193   02 Jun 2027 14:56:49.667   02 Jun 2027 14:56:55.530             5.863               CapeTown           183.219
       194   02 Jun 2027 15:14:53.667   02 Jun 2027 15:15:10.391            16.724                 Moscow           522.625
       195   02 Jun 2027 15:15:31.555   02 Jun 2027 15:16:02.034            30.479                 Moscow           952.469
       196   02 Jun 2027 15:18:49.194   02 Jun 2027 15:19:15.800            26.606              Murmansk2           831.437
       197   02 Jun 2027 15:21:12.993   02 Jun 2027 15:21:24.780            11.787              Murmansk2           368.344
       198   02 Jun 2027 15:21:33.806   02 Jun 2027 15:22:39.340            65.534              Murmansk2          2047.938
       199   02 Jun 2027 15:30:53.956   02 Jun 2027 15:33:00.920           126.964                Anadyr2          3967.625
       200   02 Jun 2027 15:34:25.796   02 Jun 2027 15:34:39.095            13.299                Anadyr1           415.594
       201   02 Jun 2027 15:35:26.508   02 Jun 2027 15:35:43.711            17.203                Anadyr2           537.594
       202   02 Jun 2027 15:36:17.650   02 Jun 2027 15:37:11.007            53.357                Anadyr1          1667.406
       203   02 Jun 2027 16:36:41.656   02 Jun 2027 16:37:01.710            20.054               CapeTown           626.688
       204   02 Jun 2027 16:57:11.135   02 Jun 2027 16:59:15.488           124.353              Murmansk2          3886.031
       205   02 Jun 2027 17:00:47.834   02 Jun 2027 17:01:19.870            32.036              Murmansk1          1001.125
       206   02 Jun 2027 17:02:58.820   02 Jun 2027 17:03:14.117            15.297              Murmansk1           478.031
       207   02 Jun 2027 17:06:33.136   02 Jun 2027 17:07:49.792            76.656                Anadyr1          2395.500
       208   02 Jun 2027 17:09:38.729   02 Jun 2027 17:10:04.796            26.067               Magadan2           814.594
       209   02 Jun 2027 17:11:55.578   02 Jun 2027 17:13:24.098            88.520               Magadan1          2766.250
       210   02 Jun 2027 17:17:31.083   02 Jun 2027 17:18:38.959            67.876               Magadan2          2121.125
       211   02 Jun 2027 18:42:28.578   02 Jun 2027 18:44:45.533           136.955                Anadyr1          4279.844
       212   02 Jun 2027 18:44:47.422   02 Jun 2027 18:46:58.077           130.655               Magadan1          4082.969
       213   02 Jun 2027 18:47:56.202   02 Jun 2027 18:48:30.242            34.040               Magadan1          1063.750
       214   02 Jun 2027 18:51:09.106   02 Jun 2027 18:51:56.322            47.216               Magadan1          1475.500
       215   02 Jun 2027 19:38:35.816   02 Jun 2027 19:41:12.622           156.806            RioGallegos          4900.187
       216   02 Jun 2027 19:42:50.175   02 Jun 2027 19:43:54.280            64.105            RioGallegos          2003.281
       217   02 Jun 2027 20:20:27.444   02 Jun 2027 20:22:40.567           133.123                Norilsk          4160.094
       218   02 Jun 2027 20:22:47.151   02 Jun 2027 20:24:14.820            87.669                Norilsk          2739.656
       219   02 Jun 2027 20:25:28.214   02 Jun 2027 20:26:12.083            43.869                Irkutsk          1370.906
       220   02 Jun 2027 20:28:00.546   02 Jun 2027 20:28:36.598            36.052                Irkutsk          1126.625
       221   02 Jun 2027 20:29:39.214   02 Jun 2027 20:30:28.539            49.325                Irkutsk          1541.406
       222   02 Jun 2027 20:40:13.917   02 Jun 2027 20:42:35.263           141.346                Sumatra          4417.062
       223   02 Jun 2027 20:44:24.725   02 Jun 2027 20:45:55.979            91.254                Sumatra          2851.688
       224   02 Jun 2027 21:57:23.782   02 Jun 2027 21:57:34.571            10.789                Norilsk           337.156
       225   02 Jun 2027 21:57:59.747   02 Jun 2027 21:58:11.295            11.548                Norilsk           360.875
       226   02 Jun 2027 21:58:35.172   02 Jun 2027 21:59:13.609            38.437               Magadan2          1201.156
       227   02 Jun 2027 22:00:47.239   02 Jun 2027 22:04:25.005           217.766                Novosib          6805.187
       228   02 Jun 2027 22:10:38.769   02 Jun 2027 22:12:30.979           112.210                  Delhi          3506.563
       229   02 Jun 2027 23:32:13.189   02 Jun 2027 23:32:26.350            13.161                Norilsk           411.281
       230   02 Jun 2027 23:32:35.090   02 Jun 2027 23:33:53.063            77.973                Norilsk          2436.656
       231   02 Jun 2027 23:35:08.731   02 Jun 2027 23:39:39.254           270.523              Murmansk2          8453.844
       232   02 Jun 2027 23:47:30.680   02 Jun 2027 23:49:14.338           103.658                  Delhi          3239.312
       233   03 Jun 2027 01:00:56.383   03 Jun 2027 01:01:18.600            22.217                Anadyr2           694.281
       234   03 Jun 2027 01:01:22.588   03 Jun 2027 01:01:23.338             0.750                Anadyr2            23.438
       235   03 Jun 2027 01:01:50.882   03 Jun 2027 01:01:52.185             1.303                Anadyr1            40.719
       236   03 Jun 2027 01:02:14.022   03 Jun 2027 01:02:54.122            40.100                Anadyr1          1253.125
       237   03 Jun 2027 01:03:38.499   03 Jun 2027 01:04:10.961            32.462                Anadyr1          1014.438
       238   03 Jun 2027 01:06:57.544   03 Jun 2027 01:08:57.977           120.433               Magadan2          3763.531
       239   03 Jun 2027 01:10:23.607   03 Jun 2027 01:12:42.118           138.511              Murmansk1          4328.469
       240   03 Jun 2027 01:14:10.072   03 Jun 2027 01:14:47.619            37.547                 Moscow          1173.344
       241   03 Jun 2027 01:18:01.761   03 Jun 2027 01:19:15.690            73.929                 Moscow          2310.281
       242   03 Jun 2027 01:41:18.690   03 Jun 2027 01:42:30.799            72.109               CapeTown          2253.406
       243   03 Jun 2027 02:34:47.696   03 Jun 2027 02:35:49.243            61.547                Anadyr2          1923.344
       244   03 Jun 2027 02:35:49.243   03 Jun 2027 02:36:37.027            47.784                Anadyr1          1493.250
       245   03 Jun 2027 02:38:36.171   03 Jun 2027 02:39:30.537            54.366               Magadan1          1698.938
       246   03 Jun 2027 02:39:54.211   03 Jun 2027 02:40:21.765            27.554               Magadan1           861.063
       247   03 Jun 2027 02:44:00.298   03 Jun 2027 02:44:13.915            13.617                Norilsk           425.531
       248   03 Jun 2027 02:44:41.354   03 Jun 2027 02:45:14.463            33.109                Norilsk          1034.656
       249   03 Jun 2027 02:46:19.051   03 Jun 2027 02:46:40.362            21.311              Murmansk1           665.969
       250   03 Jun 2027 02:46:46.933   03 Jun 2027 02:47:31.550            44.617              Murmansk2          1394.281
       251   03 Jun 2027 02:48:00.068   03 Jun 2027 02:48:31.110            31.042              Murmansk1           970.062
       252   03 Jun 2027 02:48:51.702   03 Jun 2027 02:49:19.973            28.271                Novosib           883.469
       253   03 Jun 2027 02:54:51.507   03 Jun 2027 02:56:19.323            87.816                 Moscow          2744.250
       254   03 Jun 2027 04:16:49.751   03 Jun 2027 04:20:24.376           214.625               Magadan2          6707.031
       255   03 Jun 2027 04:21:03.877   03 Jun 2027 04:21:11.131             7.254               Magadan2           226.687
       256   03 Jun 2027 05:55:23.138   03 Jun 2027 05:56:50.387            87.249               Magadan2          2726.531
       257   03 Jun 2027 07:28:06.469   03 Jun 2027 07:28:09.426             2.957               Magadan1            92.406
       258   03 Jun 2027 07:28:12.962   03 Jun 2027 07:28:15.301             2.339               Magadan2            73.094
       259   03 Jun 2027 07:28:25.725   03 Jun 2027 07:28:59.056            33.331               Magadan1          1041.594
       260   03 Jun 2027 07:29:06.243   03 Jun 2027 07:29:35.842            29.599               Magadan1           924.969
       261   03 Jun 2027 07:30:07.633   03 Jun 2027 07:31:28.638            81.005                Anadyr2          2531.406
       262   03 Jun 2027 07:31:41.715   03 Jun 2027 07:31:50.450             8.735               Magadan1           272.969
       263   03 Jun 2027 07:32:43.369   03 Jun 2027 07:32:48.083             4.714                Irkutsk           147.313
       264   03 Jun 2027 07:32:50.171   03 Jun 2027 07:32:57.831             7.660               Magadan1           239.375
       265   03 Jun 2027 07:32:58.842   03 Jun 2027 07:33:40.768            41.926               Magadan1          1310.188
       266   03 Jun 2027 07:34:03.930   03 Jun 2027 07:34:14.776            10.846               Magadan2           338.938
       267   03 Jun 2027 07:34:14.776   03 Jun 2027 07:34:19.266             4.490               Magadan1           140.313
       268   03 Jun 2027 07:35:52.739   03 Jun 2027 07:36:04.542            11.803                Norilsk           368.844
       269   03 Jun 2027 07:37:36.185   03 Jun 2027 07:37:58.671            22.486              Murmansk1           702.688
       270   03 Jun 2027 08:09:18.325   03 Jun 2027 08:09:38.302            19.977            RioGallegos           624.281
       271   03 Jun 2027 08:09:55.866   03 Jun 2027 08:10:39.487            43.621            RioGallegos          1363.156
       272   03 Jun 2027 08:46:28.162   03 Jun 2027 08:48:18.627           110.465                Sumatra          3452.031
       273   03 Jun 2027 09:07:06.903   03 Jun 2027 09:07:53.870            46.967                Irkutsk          1467.719
       274   03 Jun 2027 09:08:21.941   03 Jun 2027 09:08:32.356            10.415                Irkutsk           325.469
       275   03 Jun 2027 09:08:50.379   03 Jun 2027 09:09:29.851            39.472                Irkutsk          1233.500
       276   03 Jun 2027 09:09:35.431   03 Jun 2027 09:10:15.233            39.802                Novosib          1243.813
       277   03 Jun 2027 09:45:47.432   03 Jun 2027 09:46:03.418            15.986            RioGallegos           499.563
       278   03 Jun 2027 09:47:44.971   03 Jun 2027 09:48:03.426            18.455            RioGallegos           576.719
       279   03 Jun 2027 09:50:38.123   03 Jun 2027 09:50:48.892            10.769            RioGallegos           336.531
       280   03 Jun 2027 09:54:43.118   03 Jun 2027 09:55:24.748            41.630            RioGallegos          1300.938
       281   03 Jun 2027 10:20:08.221   03 Jun 2027 10:21:06.208            57.987                Sumatra          1812.094
       282   03 Jun 2027 10:42:45.430   03 Jun 2027 10:43:29.577            44.147                Irkutsk          1379.594
       283   03 Jun 2027 10:43:41.882   03 Jun 2027 10:43:50.896             9.014                Novosib           281.688
       284   03 Jun 2027 10:43:53.528   03 Jun 2027 10:43:56.172             2.644                Novosib            82.625
       285   03 Jun 2027 10:44:03.125   03 Jun 2027 10:44:38.501            35.376                Novosib          1105.500
       286   03 Jun 2027 10:44:51.752   03 Jun 2027 10:45:40.756            49.004                Norilsk          1531.375
       287   03 Jun 2027 10:45:45.260   03 Jun 2027 10:45:56.981            11.721                Novosib           366.281
       288   03 Jun 2027 12:04:50.117   03 Jun 2027 12:07:41.488           171.371                  Delhi          5355.344
       289   03 Jun 2027 12:13:05.370   03 Jun 2027 12:13:26.379            21.009                Novosib           656.531
       290   03 Jun 2027 12:13:58.052   03 Jun 2027 12:14:31.985            33.933                Novosib          1060.406
       291   03 Jun 2027 12:17:16.422   03 Jun 2027 12:17:57.031            40.609                Novosib          1269.031
       292   03 Jun 2027 13:48:34.728   03 Jun 2027 13:49:53.253            78.525                 Moscow          2453.906
       293   03 Jun 2027 13:50:37.676   03 Jun 2027 13:52:51.856           134.180                 Moscow          4193.125
       294   03 Jun 2027 13:54:09.062   03 Jun 2027 13:54:56.504            47.442              Murmansk1          1482.563
       295   03 Jun 2027 13:57:48.631   03 Jun 2027 13:59:48.123           119.492                Norilsk          3734.125
       296   03 Jun 2027 14:01:41.708   03 Jun 2027 14:02:09.785            28.077                Norilsk           877.406
       297   03 Jun 2027 14:09:14.821   03 Jun 2027 14:09:46.991            32.170                Anadyr1          1005.313
       298   03 Jun 2027 14:09:56.881   03 Jun 2027 14:10:34.490            37.609                Anadyr1          1175.281
       299   03 Jun 2027 14:10:39.576   03 Jun 2027 14:11:18.708            39.132                Anadyr2          1222.875
       300   03 Jun 2027 15:04:36.272   03 Jun 2027 15:05:39.952            63.680               CapeTown          1990.000
       301   03 Jun 2027 15:13:03.970   03 Jun 2027 15:13:57.763            53.793               CapeTown          1681.031
       302   03 Jun 2027 15:31:33.544   03 Jun 2027 15:32:05.179            31.635              Murmansk2           988.594
       303   03 Jun 2027 15:34:01.695   03 Jun 2027 15:34:40.958            39.263              Murmansk2          1226.969
       304   03 Jun 2027 15:39:01.348   03 Jun 2027 15:39:20.142            18.794              Murmansk2           587.313
       305   03 Jun 2027 15:42:50.957   03 Jun 2027 15:45:01.743           130.786                Anadyr1          4087.062
       306   03 Jun 2027 15:48:07.034   03 Jun 2027 15:48:18.808            11.774                Anadyr1           367.938
       307   03 Jun 2027 15:49:06.407   03 Jun 2027 15:49:12.254             5.847                Anadyr2           182.719
       308   03 Jun 2027 15:51:19.907   03 Jun 2027 15:51:25.136             5.229                Anadyr2           163.406
       309   03 Jun 2027 16:39:55.173   03 Jun 2027 16:40:27.664            32.491               CapeTown          1015.344
       310   03 Jun 2027 16:44:35.624   03 Jun 2027 16:45:49.238            73.614               CapeTown          2300.438
       311   03 Jun 2027 17:09:57.329   03 Jun 2027 17:11:16.828            79.499              Murmansk2          2484.344
       312   03 Jun 2027 17:11:19.864   03 Jun 2027 17:12:45.121            85.257              Murmansk2          2664.281
       313   03 Jun 2027 17:18:34.212   03 Jun 2027 17:19:16.181            41.969                Anadyr2          1311.531
       314   03 Jun 2027 17:20:11.404   03 Jun 2027 17:20:55.302            43.898                Anadyr1          1371.812
       315   03 Jun 2027 17:21:28.173   03 Jun 2027 17:23:15.662           107.489               Magadan1          3359.031
       316   03 Jun 2027 17:30:43.237   03 Jun 2027 17:31:05.661            22.424               Magadan2           700.750
       317   03 Jun 2027 18:54:29.868   03 Jun 2027 18:56:27.614           117.746                Anadyr2          3679.562
       318   03 Jun 2027 18:56:35.215   03 Jun 2027 18:58:23.167           107.952                Anadyr1          3373.500
       319   03 Jun 2027 18:59:09.198   03 Jun 2027 19:00:40.213            91.015               Magadan2          2844.219
       320   03 Jun 2027 19:05:58.257   03 Jun 2027 19:06:11.013            12.756               Magadan1           398.625
       321   03 Jun 2027 19:06:45.378   03 Jun 2027 19:07:14.010            28.632               Magadan1           894.750
       322   03 Jun 2027 19:08:56.192   03 Jun 2027 19:09:35.445            39.253               Magadan1          1226.656
       323   03 Jun 2027 19:49:57.861   03 Jun 2027 19:52:57.265           179.404            RioGallegos          5606.375
       324   03 Jun 2027 19:56:28.227   03 Jun 2027 19:56:34.145             5.918            RioGallegos           184.937
       325   03 Jun 2027 20:32:25.220   03 Jun 2027 20:35:34.069           188.849                Norilsk          5901.531
       326   03 Jun 2027 20:37:03.847   03 Jun 2027 20:38:35.690            91.843                Irkutsk          2870.094
       327   03 Jun 2027 20:40:09.352   03 Jun 2027 20:40:28.562            19.210                Irkutsk           600.313
       328   03 Jun 2027 20:46:00.807   03 Jun 2027 20:46:28.024            27.217                Irkutsk           850.531
       329   03 Jun 2027 20:51:29.948   03 Jun 2027 20:54:16.832           166.884                Sumatra          5215.125
       330   03 Jun 2027 20:57:52.215   03 Jun 2027 20:58:23.209            30.994                Sumatra           968.562
       331   03 Jun 2027 22:08:14.830   03 Jun 2027 22:08:47.985            33.155                Norilsk          1036.094
       332   03 Jun 2027 22:08:51.332   03 Jun 2027 22:09:17.287            25.955               Magadan1           811.094
       333   03 Jun 2027 22:12:07.518   03 Jun 2027 22:13:10.428            62.910                Irkutsk          1965.938
       334   03 Jun 2027 22:13:19.754   03 Jun 2027 22:15:47.243           147.489                Novosib          4609.031
       335   03 Jun 2027 22:21:36.974   03 Jun 2027 22:24:07.594           150.620                  Delhi          4706.875
       336   03 Jun 2027 23:42:58.775   03 Jun 2027 23:43:24.577            25.802                Anadyr2           806.312
       337   03 Jun 2027 23:44:15.055   03 Jun 2027 23:44:51.727            36.672                Norilsk          1146.000
       338   03 Jun 2027 23:45:12.748   03 Jun 2027 23:45:49.245            36.497                Norilsk          1140.531
       339   03 Jun 2027 23:46:00.614   03 Jun 2027 23:46:48.921            48.307               Magadan1          1509.594
       340   03 Jun 2027 23:46:57.653   03 Jun 2027 23:48:52.321           114.668              Murmansk2          3583.375
       341   03 Jun 2027 23:49:00.147   03 Jun 2027 23:50:34.639            94.492              Murmansk1          2952.875
       342   03 Jun 2027 23:52:10.038   03 Jun 2027 23:53:06.626            56.588              Murmansk2          1768.375
       343   04 Jun 2027 00:39:06.621   04 Jun 2027 00:39:27.102            20.481            RioGallegos           640.031
       344   04 Jun 2027 00:41:39.640   04 Jun 2027 00:42:12.515            32.875            RioGallegos          1027.344
       345   04 Jun 2027 01:12:38.725   04 Jun 2027 01:13:00.281            21.556                Anadyr1           673.625
       346   04 Jun 2027 01:13:11.325   04 Jun 2027 01:13:21.576            10.251                Anadyr2           320.344
       347   04 Jun 2027 01:13:48.095   04 Jun 2027 01:13:50.245             2.150                Anadyr1            67.187
       348   04 Jun 2027 01:14:14.712   04 Jun 2027 01:14:55.466            40.754                Anadyr1          1273.562
       349   04 Jun 2027 01:15:25.853   04 Jun 2027 01:15:55.435            29.582                Anadyr2           924.437
       350   04 Jun 2027 01:18:29.563   04 Jun 2027 01:18:47.318            17.755               Magadan1           554.844
       351   04 Jun 2027 01:18:56.030   04 Jun 2027 01:20:32.391            96.361               Magadan2          3011.281
       352   04 Jun 2027 01:20:32.391   04 Jun 2027 01:20:58.442            26.051               Magadan1           814.094
       353   04 Jun 2027 01:22:24.195   04 Jun 2027 01:23:42.305            78.110              Murmansk1          2440.937
       354   04 Jun 2027 01:23:42.786   04 Jun 2027 01:24:27.956            45.170              Murmansk2          1411.562
       355   04 Jun 2027 01:26:02.360   04 Jun 2027 01:26:34.674            32.314                 Moscow          1009.813
       356   04 Jun 2027 01:30:17.876   04 Jun 2027 01:30:57.932            40.056                 Moscow          1251.750
       357   04 Jun 2027 01:35:33.094   04 Jun 2027 01:37:47.097           134.003                  Delhi          4187.594
       358   04 Jun 2027 02:46:39.184   04 Jun 2027 02:47:53.268            74.084                Anadyr1          2315.125
       359   04 Jun 2027 02:49:39.571   04 Jun 2027 02:49:47.728             8.157                Anadyr1           254.906
       360   04 Jun 2027 02:49:59.863   04 Jun 2027 02:50:12.507            12.644                Anadyr1           395.125
       361   04 Jun 2027 02:50:32.115   04 Jun 2027 02:51:21.622            49.507               Magadan1          1547.094
       362   04 Jun 2027 02:52:14.402   04 Jun 2027 02:52:48.777            34.375               Magadan2          1074.219
       363   04 Jun 2027 02:56:01.089   04 Jun 2027 02:56:09.584             8.495                Norilsk           265.469
       364   04 Jun 2027 02:56:33.209   04 Jun 2027 02:57:06.749            33.540                Norilsk          1048.125
       365   04 Jun 2027 02:58:20.860   04 Jun 2027 02:58:59.309            38.449              Murmansk1          1201.531
       366   04 Jun 2027 03:05:12.984   04 Jun 2027 03:07:11.407           118.423                Norilsk          3700.719
       367   04 Jun 2027 03:07:51.113   04 Jun 2027 03:11:02.613           191.500              Murmansk1          5984.375
       368   04 Jun 2027 03:25:30.571   04 Jun 2027 03:27:43.929           133.358               CapeTown          4167.438
       369   04 Jun 2027 04:22:17.534   04 Jun 2027 04:24:12.019           114.485                Anadyr2          3577.656
       370   04 Jun 2027 04:24:15.852   04 Jun 2027 04:25:06.770            50.918               Magadan2          1591.187
       371   04 Jun 2027 04:28:32.713   04 Jun 2027 04:29:51.678            78.965               Magadan1          2467.656
       372   04 Jun 2027 04:29:59.269   04 Jun 2027 04:31:16.225            76.956                Anadyr2          2404.875
       373   04 Jun 2027 04:31:41.358   04 Jun 2027 04:31:42.558             1.200                Anadyr2            37.500
       374   04 Jun 2027 06:07:19.603   04 Jun 2027 06:08:53.138            93.535               Magadan2          2922.969
       375   04 Jun 2027 06:08:54.239   04 Jun 2027 06:09:12.494            18.255               Magadan1           570.469
       376   04 Jun 2027 06:09:13.997   04 Jun 2027 06:10:37.113            83.116                Anadyr1          2597.375
       377   04 Jun 2027 07:39:45.568   04 Jun 2027 07:40:05.775            20.207               Magadan2           631.469
       378   04 Jun 2027 07:40:17.064   04 Jun 2027 07:40:35.085            18.021               Magadan1           563.156
       379   04 Jun 2027 07:40:47.636   04 Jun 2027 07:41:02.480            14.844               Magadan2           463.875
       380   04 Jun 2027 07:41:07.815   04 Jun 2027 07:41:43.764            35.949               Magadan2          1123.406
       381   04 Jun 2027 07:42:38.132   04 Jun 2027 07:42:51.769            13.637               Magadan1           426.156
       382   04 Jun 2027 07:42:51.769   04 Jun 2027 07:43:11.231            19.462               Magadan2           608.187
       383   04 Jun 2027 07:43:30.188   04 Jun 2027 07:43:39.932             9.744               Magadan1           304.500
       384   04 Jun 2027 07:44:50.765   04 Jun 2027 07:45:02.124            11.359               Magadan1           354.969
       385   04 Jun 2027 07:45:03.196   04 Jun 2027 07:45:23.842            20.646              Murmansk2           645.187
       386   04 Jun 2027 07:45:27.112   04 Jun 2027 07:45:55.412            28.300               Magadan2           884.375
       387   04 Jun 2027 07:46:08.557   04 Jun 2027 07:46:14.699             6.142               Magadan1           191.937
       388   04 Jun 2027 07:47:50.717   04 Jun 2027 07:48:13.372            22.655                Norilsk           707.969
       389   04 Jun 2027 07:49:56.830   04 Jun 2027 07:50:19.020            22.190              Murmansk1           693.437
       390   04 Jun 2027 08:21:12.029   04 Jun 2027 08:22:06.241            54.212            RioGallegos          1694.125
       391   04 Jun 2027 08:57:12.836   04 Jun 2027 08:58:01.660            48.824                Sumatra          1525.750
       392   04 Jun 2027 09:02:23.825   04 Jun 2027 09:02:52.982            29.157                Sumatra           911.156
       393   04 Jun 2027 09:18:00.281   04 Jun 2027 09:18:05.658             5.377                Irkutsk           168.031
       394   04 Jun 2027 09:18:15.068   04 Jun 2027 09:18:59.715            44.647                Novosib          1395.219
       395   04 Jun 2027 09:19:10.181   04 Jun 2027 09:19:14.335             4.154                Irkutsk           129.813
       396   04 Jun 2027 09:19:16.855   04 Jun 2027 09:19:43.367            26.512                Novosib           828.500
       397   04 Jun 2027 09:19:53.278   04 Jun 2027 09:20:51.419            58.141                Novosib          1816.906
       398   04 Jun 2027 09:21:20.368   04 Jun 2027 09:21:40.474            20.106                Irkutsk           628.313
       399   04 Jun 2027 09:22:10.962   04 Jun 2027 09:22:25.917            14.955                Irkutsk           467.344
       400   04 Jun 2027 09:58:10.651   04 Jun 2027 09:58:38.862            28.211            RioGallegos           881.594
       401   04 Jun 2027 09:59:06.724   04 Jun 2027 09:59:29.587            22.863            RioGallegos           714.469
       402   04 Jun 2027 10:02:15.617   04 Jun 2027 10:03:04.674            49.057            RioGallegos          1533.031
       403   04 Jun 2027 10:32:25.678   04 Jun 2027 10:33:57.070            91.392                Sumatra          2856.000
       404   04 Jun 2027 10:53:36.050   04 Jun 2027 10:54:07.540            31.490                Irkutsk           984.062
       405   04 Jun 2027 10:55:19.674   04 Jun 2027 10:55:28.811             9.137                Novosib           285.531
       406   04 Jun 2027 10:56:04.741   04 Jun 2027 10:56:14.775            10.034                Novosib           313.562
       407   04 Jun 2027 10:56:27.710   04 Jun 2027 10:56:31.432             3.722                Irkutsk           116.313
       408   04 Jun 2027 10:56:46.192   04 Jun 2027 10:57:25.233            39.041                Novosib          1220.031
       409   04 Jun 2027 10:57:51.981   04 Jun 2027 10:58:03.564            11.583                Novosib           361.969
       410   04 Jun 2027 12:17:19.812   04 Jun 2027 12:20:38.215           198.403                  Delhi          6200.094
       411   04 Jun 2027 12:25:43.958   04 Jun 2027 12:25:44.802             0.844                Novosib            26.375
       412   04 Jun 2027 12:26:34.206   04 Jun 2027 12:27:04.613            30.407                Novosib           950.219
       413   04 Jun 2027 12:28:00.635   04 Jun 2027 12:28:27.486            26.851                Novosib           839.094
       414   04 Jun 2027 12:28:30.198   04 Jun 2027 12:28:52.628            22.430                Novosib           700.938
       415   04 Jun 2027 12:33:49.519   04 Jun 2027 12:34:23.478            33.959                Norilsk          1061.219
       416   04 Jun 2027 14:00:42.403   04 Jun 2027 14:02:33.478           111.075                 Moscow          3471.094
       417   04 Jun 2027 14:04:13.780   04 Jun 2027 14:06:20.628           126.848              Murmansk1          3964.000
       418   04 Jun 2027 14:06:20.628   04 Jun 2027 14:07:41.376            80.748              Murmansk2          2523.375
       419   04 Jun 2027 14:09:50.051   04 Jun 2027 14:10:07.136            17.085              Murmansk2           533.906
       420   04 Jun 2027 14:10:52.854   04 Jun 2027 14:12:56.171           123.317                Norilsk          3853.656
       421   04 Jun 2027 14:20:20.404   04 Jun 2027 14:21:47.331            86.927                Anadyr1          2716.469
       422   04 Jun 2027 14:22:16.593   04 Jun 2027 14:22:41.172            24.579                Anadyr1           768.094
       423   04 Jun 2027 14:24:24.579   04 Jun 2027 14:24:55.027            30.448                Anadyr2           951.500
       424   04 Jun 2027 15:39:50.655   04 Jun 2027 15:40:41.661            51.006                 Moscow          1593.937
       425   04 Jun 2027 15:42:07.926   04 Jun 2027 15:42:37.484            29.558              Murmansk1           923.688
       426   04 Jun 2027 15:45:13.741   04 Jun 2027 15:45:36.522            22.781              Murmansk2           711.906
       427   04 Jun 2027 15:49:03.866   04 Jun 2027 15:49:24.775            20.909              Murmansk1           653.406
       428   04 Jun 2027 15:50:58.492   04 Jun 2027 15:51:06.421             7.929              Murmansk1           247.781
       429   04 Jun 2027 15:51:21.268   04 Jun 2027 15:52:02.968            41.700              Murmansk1          1303.125
       430   04 Jun 2027 15:54:48.922   04 Jun 2027 15:55:55.732            66.810                Anadyr2          2087.813
       431   04 Jun 2027 15:56:07.607   04 Jun 2027 15:57:07.513            59.906                Anadyr1          1872.062
       432   04 Jun 2027 16:55:07.516   04 Jun 2027 16:55:31.043            23.527               CapeTown           735.219
       433   04 Jun 2027 17:00:51.413   04 Jun 2027 17:01:00.102             8.689               CapeTown           271.531
       434   04 Jun 2027 17:22:49.779   04 Jun 2027 17:26:59.268           249.489              Murmansk2          7796.531
       435   04 Jun 2027 17:30:35.455   04 Jun 2027 17:31:09.788            34.333                Anadyr1          1072.906
       436   04 Jun 2027 17:33:20.284   04 Jun 2027 17:35:15.665           115.381               Magadan2          3605.656
       437   04 Jun 2027 17:38:52.132   04 Jun 2027 17:39:25.295            33.163               Magadan1          1036.344
       438   04 Jun 2027 19:06:31.020   04 Jun 2027 19:10:26.325           235.305                Anadyr1          7353.281
       439   04 Jun 2027 19:10:37.227   04 Jun 2027 19:12:02.327            85.100               Magadan2          2659.375
       440   04 Jun 2027 19:13:49.605   04 Jun 2027 19:13:56.663             7.058               Magadan2           220.563
       441   04 Jun 2027 19:14:18.959   04 Jun 2027 19:14:34.820            15.861               Magadan2           495.656
       442   04 Jun 2027 19:17:22.636   04 Jun 2027 19:17:35.508            12.872               Magadan2           402.250
       443   04 Jun 2027 19:19:15.417   04 Jun 2027 19:19:24.259             8.842               Magadan2           276.312
       444   04 Jun 2027 19:20:34.433   04 Jun 2027 19:20:49.864            15.431               Magadan2           482.219
       445   04 Jun 2027 20:01:32.592   04 Jun 2027 20:04:39.197           186.605            RioGallegos          5831.406
       446   04 Jun 2027 20:04:40.919   04 Jun 2027 20:04:45.770             4.851            RioGallegos           151.594
       447   04 Jun 2027 20:06:48.667   04 Jun 2027 20:08:08.605            79.938            RioGallegos          2498.062
       448   04 Jun 2027 20:43:10.491   04 Jun 2027 20:43:22.685            12.194                Anadyr1           381.063
       449   04 Jun 2027 20:43:49.401   04 Jun 2027 20:44:27.341            37.940                Anadyr1          1185.625
       450   04 Jun 2027 20:44:43.670   04 Jun 2027 20:47:04.702           141.032                Norilsk          4407.250
       451   04 Jun 2027 20:47:33.842   04 Jun 2027 20:48:15.208            41.366                Norilsk          1292.688
       452   04 Jun 2027 20:49:28.430   04 Jun 2027 20:49:33.457             5.027                Irkutsk           157.094
       453   04 Jun 2027 20:50:35.797   04 Jun 2027 20:52:13.801            98.004                Irkutsk          3062.625
       454   04 Jun 2027 21:02:58.284   04 Jun 2027 21:04:18.206            79.922                Sumatra          2497.562
       455   04 Jun 2027 21:04:49.539   04 Jun 2027 21:06:05.021            75.482                Sumatra          2358.813
       456   04 Jun 2027 22:21:58.058   04 Jun 2027 22:22:36.885            38.827                Norilsk          1213.344
       457   04 Jun 2027 22:23:18.526   04 Jun 2027 22:23:28.153             9.627               Magadan2           300.844
       458   04 Jun 2027 22:23:50.564   04 Jun 2027 22:24:00.942            10.378               Magadan1           324.312
       459   04 Jun 2027 22:24:05.137   04 Jun 2027 22:24:46.804            41.667               Magadan2          1302.094
       460   04 Jun 2027 22:25:16.742   04 Jun 2027 22:25:29.676            12.934                Novosib           404.187
       461   04 Jun 2027 22:25:58.178   04 Jun 2027 22:26:30.413            32.235                Novosib          1007.344
       462   04 Jun 2027 22:28:04.493   04 Jun 2027 22:29:11.188            66.695                Novosib          2084.219
       463   04 Jun 2027 22:32:57.139   04 Jun 2027 22:35:03.978           126.839                  Delhi          3963.719
       464   04 Jun 2027 22:37:52.412   04 Jun 2027 22:39:23.981            91.569                  Delhi          2861.531
       465   04 Jun 2027 23:56:16.811   04 Jun 2027 23:57:06.475            49.664                Norilsk          1552.000
       466   04 Jun 2027 23:57:41.096   04 Jun 2027 23:58:32.890            51.794               Magadan1          1618.562
       467   04 Jun 2027 23:58:46.839   04 Jun 2027 23:59:21.485            34.646               Magadan1          1082.687
       468   04 Jun 2027 23:59:45.964   05 Jun 2027 00:02:32.112           166.148              Murmansk2          5192.125
       469   05 Jun 2027 00:04:11.481   05 Jun 2027 00:04:51.561            40.080              Murmansk1          1252.500
       470   05 Jun 2027 00:16:44.975   05 Jun 2027 00:16:48.142             3.167                  Delhi            98.969
       471   05 Jun 2027 00:17:06.409   05 Jun 2027 00:17:36.184            29.775                  Delhi           930.469
       472   05 Jun 2027 00:50:40.787   05 Jun 2027 00:50:48.976             8.189            RioGallegos           255.906
       473   05 Jun 2027 00:52:24.512   05 Jun 2027 00:52:49.168            24.656            RioGallegos           770.500
       474   05 Jun 2027 01:24:21.810   05 Jun 2027 01:24:41.547            19.737                Anadyr1           616.781
       475   05 Jun 2027 01:25:04.902   05 Jun 2027 01:25:44.153            39.251                Anadyr1          1226.594
       476   05 Jun 2027 01:25:48.902   05 Jun 2027 01:25:54.774             5.872                Anadyr1           183.500
       477   05 Jun 2027 01:26:15.124   05 Jun 2027 01:26:56.796            41.672                Anadyr1          1302.250
       478   05 Jun 2027 01:27:33.380   05 Jun 2027 01:27:47.511            14.131                Anadyr2           441.594
       479   05 Jun 2027 01:29:59.454   05 Jun 2027 01:30:40.535            41.081               Magadan1          1283.781
       480   05 Jun 2027 01:30:58.596   05 Jun 2027 01:32:02.841            64.245               Magadan2          2007.656
       481   05 Jun 2027 01:32:02.841   05 Jun 2027 01:32:19.194            16.353               Magadan1           511.031
       482   05 Jun 2027 01:32:59.592   05 Jun 2027 01:33:46.552            46.960               Magadan1          1467.500
