uniorb/output/strategy_4/Drop/Drop_KinoSat_110107.txt

KinoSat_110107
-------------------------
    Access    *     Start Time (UTCG)     *     Stop Time (UTCG)  *   Duration (s)        *       Station  *  Data (Mbytes)
         1   01 Jun 2027 03:49:58.094   01 Jun 2027 03:50:30.260            32.166                Norilsk          4020.750
         2   01 Jun 2027 03:50:57.056   01 Jun 2027 03:51:21.780            24.724              Murmansk1          3090.500
         3   01 Jun 2027 03:51:21.780   01 Jun 2027 03:51:59.529            37.749              Murmansk2          4718.625
         4   01 Jun 2027 03:52:19.985   01 Jun 2027 03:54:07.391           107.406                Irkutsk         13425.750
         5   01 Jun 2027 03:54:21.726   01 Jun 2027 03:54:43.530            21.804                Norilsk          2725.500
         6   01 Jun 2027 04:30:32.994   01 Jun 2027 04:31:34.232            61.238            RioGallegos          7654.750
         7   01 Jun 2027 04:32:25.036   01 Jun 2027 04:33:42.068            77.032            RioGallegos          9629.000
         8   01 Jun 2027 05:05:53.068   01 Jun 2027 05:08:34.188           161.120                Sumatra         20140.000
         9   01 Jun 2027 05:28:20.883   01 Jun 2027 05:28:37.598            16.715                Novosib          2089.375
        10   01 Jun 2027 05:29:15.250   01 Jun 2027 05:30:18.874            63.624                Norilsk          7953.000
        11   01 Jun 2027 05:30:28.346   01 Jun 2027 05:31:32.411            64.065              Murmansk2          8008.125
        12   01 Jun 2027 05:33:55.483   01 Jun 2027 05:34:34.471            38.988                Norilsk          4873.500
        13   01 Jun 2027 06:49:56.985   01 Jun 2027 06:51:09.078            72.093                  Delhi          9011.625
        14   01 Jun 2027 07:03:34.756   01 Jun 2027 07:04:11.887            37.131                Norilsk          4641.375
        15   01 Jun 2027 07:04:19.346   01 Jun 2027 07:04:43.844            24.498              Murmansk2          3062.250
        16   01 Jun 2027 07:04:54.269   01 Jun 2027 07:05:07.933            13.664                 Moscow          1708.000
        17   01 Jun 2027 07:05:18.531   01 Jun 2027 07:06:13.428            54.897                Novosib          6862.125
        18   01 Jun 2027 07:06:37.331   01 Jun 2027 07:07:02.863            25.532                Norilsk          3191.500
        19   01 Jun 2027 10:26:35.046   01 Jun 2027 10:27:16.347            41.301                Anadyr1          5162.625
        20   01 Jun 2027 10:35:58.211   01 Jun 2027 10:36:42.391            44.180                Anadyr1          5522.500
        21   01 Jun 2027 10:36:55.292   01 Jun 2027 10:38:14.487            79.195                Anadyr2          9899.375
        22   01 Jun 2027 12:05:01.008   01 Jun 2027 12:09:06.662           245.654               Magadan1         30706.750
        23   01 Jun 2027 13:49:21.218   01 Jun 2027 13:50:11.747            50.529               Magadan2          6316.125
        24   01 Jun 2027 15:21:31.015   01 Jun 2027 15:25:55.338           264.323                Irkutsk         33040.375
        25   01 Jun 2027 15:36:35.182   01 Jun 2027 15:40:44.872           249.690                Sumatra         31211.250
        26   01 Jun 2027 17:03:50.962   01 Jun 2027 17:05:42.994           112.032                Novosib         14004.000
        27   01 Jun 2027 17:06:02.267   01 Jun 2027 17:11:07.537           305.270                  Delhi         27767.250
        28   02 Jun 2027 04:44:08.285   02 Jun 2027 04:44:26.137            17.852            RioGallegos          2231.500
        29   02 Jun 2027 05:17:23.424   02 Jun 2027 05:20:10.602           167.178                Sumatra         20897.250
        30   02 Jun 2027 05:24:05.477   02 Jun 2027 05:24:10.542             5.065                  Delhi           633.125
        31   02 Jun 2027 05:29:31.252   02 Jun 2027 05:31:35.563           124.311                  Delhi         15538.875
        32   02 Jun 2027 05:41:36.426   02 Jun 2027 05:42:42.447            66.021              Murmansk2          8252.625
        33   02 Jun 2027 05:42:43.432   02 Jun 2027 05:43:36.641            53.209                Novosib          6651.125
        34   02 Jun 2027 05:43:41.758   02 Jun 2027 05:44:58.876            77.118                 Moscow          9639.750
        35   02 Jun 2027 05:45:14.125   02 Jun 2027 05:47:23.480           129.355              Murmansk2         16169.375
        36   02 Jun 2027 07:02:56.636   02 Jun 2027 07:05:28.620           151.984                  Delhi         18998.000
        37   02 Jun 2027 07:08:41.337   02 Jun 2027 07:09:37.711            56.374                 Moscow          7046.750
        38   02 Jun 2027 07:17:29.942   02 Jun 2027 07:17:44.070            14.128                Novosib          1766.000
        39   02 Jun 2027 07:18:51.581   02 Jun 2027 07:21:02.065           130.484                Norilsk         16310.500
        40   02 Jun 2027 07:21:29.023   02 Jun 2027 07:24:50.289           201.266              Murmansk1         25158.250
        41   02 Jun 2027 08:24:47.194   02 Jun 2027 08:31:16.261           389.067               CapeTown         48633.375
        42   02 Jun 2027 08:44:58.224   02 Jun 2027 08:45:24.478            26.254                 Moscow          3281.750
        43   02 Jun 2027 08:47:39.958   02 Jun 2027 08:48:07.830            27.872                 Moscow          3484.000
        44   02 Jun 2027 08:48:24.254   02 Jun 2027 08:49:30.616            66.362              Murmansk2          8295.250
        45   02 Jun 2027 08:51:09.664   02 Jun 2027 08:52:32.896            83.232              Murmansk1         10404.000
        46   02 Jun 2027 08:52:32.896   02 Jun 2027 08:53:28.940            56.044              Murmansk2          7005.500
        47   02 Jun 2027 08:56:07.321   02 Jun 2027 08:57:23.925            76.604              Murmansk2          9575.500
        48   02 Jun 2027 09:03:23.965   02 Jun 2027 09:06:49.429           205.464                Anadyr1         25683.000
        49   02 Jun 2027 12:16:56.820   02 Jun 2027 12:18:29.207            92.387               Magadan1         11548.375
        50   02 Jun 2027 12:21:52.197   02 Jun 2027 12:22:03.727            11.530               Magadan1          1441.250
        51   02 Jun 2027 12:22:53.074   02 Jun 2027 12:24:16.040            82.966               Magadan2         10370.750
        52   02 Jun 2027 12:24:37.768   02 Jun 2027 12:28:32.440           234.672               Magadan1         29334.000
        53   02 Jun 2027 14:45:38.224   02 Jun 2027 14:48:48.613           190.389            RioGallegos         23798.625
        54   02 Jun 2027 15:37:33.517   02 Jun 2027 15:39:25.104           111.587                Irkutsk         13948.375
        55   02 Jun 2027 15:48:51.161   02 Jun 2027 15:52:02.350           191.189                Sumatra         23898.625
        56   02 Jun 2027 17:08:07.841   02 Jun 2027 17:10:35.215           147.374                Novosib         18421.750
        57   02 Jun 2027 17:16:55.257   02 Jun 2027 17:17:40.259            45.002                Novosib          5625.250
        58   02 Jun 2027 17:19:59.528   02 Jun 2027 17:22:08.699           129.171                  Delhi         16146.375
        59   02 Jun 2027 18:53:47.389   02 Jun 2027 18:55:57.986           130.597                  Delhi         16324.625
        60   02 Jun 2027 20:21:36.520   02 Jun 2027 20:22:42.429            65.909                 Moscow          8238.625
        61   02 Jun 2027 20:24:19.161   02 Jun 2027 20:26:37.943           138.782                 Moscow         10236.375
        62   03 Jun 2027 05:30:21.234   03 Jun 2027 05:30:52.546            31.312                Sumatra          3914.000
        63   03 Jun 2027 05:36:04.549   03 Jun 2027 05:38:16.791           132.242                  Delhi         16530.250
        64   03 Jun 2027 05:43:48.552   03 Jun 2027 05:45:42.147           113.595                  Delhi         14199.375
        65   03 Jun 2027 05:53:59.714   03 Jun 2027 05:54:44.489            44.775              Murmansk1          5596.875
        66   03 Jun 2027 05:54:44.489   03 Jun 2027 05:55:07.334            22.845              Murmansk2          2855.625
        67   03 Jun 2027 05:55:47.079   03 Jun 2027 05:56:19.707            32.628              Murmansk2          4078.500
        68   03 Jun 2027 05:57:05.019   03 Jun 2027 05:57:05.334             0.315                 Moscow            39.375
        69   03 Jun 2027 05:57:07.409   03 Jun 2027 05:58:30.912            83.503              Murmansk1         10437.875
        70   03 Jun 2027 07:20:25.434   03 Jun 2027 07:20:47.021            21.587                  Delhi          2698.375
        71   03 Jun 2027 07:21:09.940   03 Jun 2027 07:23:04.867           114.927                 Moscow         14365.875
        72   03 Jun 2027 07:29:33.402   03 Jun 2027 07:29:55.256            21.854              Murmansk1          2731.750
        73   03 Jun 2027 07:30:57.810   03 Jun 2027 07:35:02.391           244.581                Norilsk         30572.625
        74   03 Jun 2027 07:35:17.895   03 Jun 2027 07:36:51.710            93.815              Murmansk2         11726.875
        75   03 Jun 2027 08:35:55.740   03 Jun 2027 08:44:23.401           507.661               CapeTown         63457.625
        76   03 Jun 2027 08:57:16.905   03 Jun 2027 08:59:29.657           132.752                 Moscow         16594.000
        77   03 Jun 2027 09:00:37.706   03 Jun 2027 09:01:21.510            43.804              Murmansk1          5475.500
        78   03 Jun 2027 09:01:41.322   03 Jun 2027 09:05:58.971           257.649                 Moscow         32206.125
        79   03 Jun 2027 09:08:08.265   03 Jun 2027 09:09:26.820            78.555              Murmansk2          9819.375
        80   03 Jun 2027 09:15:13.328   03 Jun 2027 09:20:54.667           341.339                Anadyr1         42667.375
        81   03 Jun 2027 09:21:47.921   03 Jun 2027 09:23:33.616           105.695                Anadyr2         13211.875
        82   03 Jun 2027 10:54:39.331   03 Jun 2027 10:57:49.852           190.521               Magadan1         23815.125
        83   03 Jun 2027 12:26:27.204   03 Jun 2027 12:26:28.068             0.864                Anadyr2           108.000
        84   03 Jun 2027 12:28:53.815   03 Jun 2027 12:30:02.517            68.702               Magadan1          8587.750
        85   03 Jun 2027 12:31:07.539   03 Jun 2027 12:31:11.467             3.928                Anadyr2           491.000
        86   03 Jun 2027 12:34:27.748   03 Jun 2027 12:38:26.616           238.868               Magadan2         29858.500
        87   03 Jun 2027 14:04:39.068   03 Jun 2027 14:04:45.075             6.007               Magadan1           750.875
        88   03 Jun 2027 14:07:56.768   03 Jun 2027 14:09:54.020           117.252               Magadan2         14656.500
        89   03 Jun 2027 14:58:05.290   03 Jun 2027 15:02:07.003           241.713            RioGallegos         30214.125
        90   03 Jun 2027 15:52:45.174   03 Jun 2027 15:53:48.039            62.865                Irkutsk          7858.125
        91   03 Jun 2027 15:57:57.112   03 Jun 2027 16:01:00.692           183.580                Sumatra         22947.500
        92   03 Jun 2027 17:20:05.338   03 Jun 2027 17:21:07.702            62.364                Novosib          7795.500
        93   03 Jun 2027 17:26:36.420   03 Jun 2027 17:27:47.205            70.785                Novosib          8848.125
        94   03 Jun 2027 17:30:03.064   03 Jun 2027 17:33:30.171           207.107                  Delhi         25888.375
        95   03 Jun 2027 19:03:51.548   03 Jun 2027 19:05:24.635            93.087                  Delhi         11635.875
        96   03 Jun 2027 20:33:34.837   03 Jun 2027 20:35:35.718           120.881                 Moscow         15110.125
        97   03 Jun 2027 20:36:32.602   03 Jun 2027 20:38:32.239           119.637                 Moscow         10492.751
        98   04 Jun 2027 05:44:11.827   04 Jun 2027 05:45:01.569            49.742                Sumatra          6217.750
        99   04 Jun 2027 05:46:44.381   04 Jun 2027 05:47:16.391            32.010                Sumatra          4001.250
       100   04 Jun 2027 05:48:08.980   04 Jun 2027 05:49:38.602            89.622                  Delhi         11202.750
       101   04 Jun 2027 05:55:57.630   04 Jun 2027 05:56:58.826            61.196                  Delhi          7649.500
       102   04 Jun 2027 06:06:02.474   04 Jun 2027 06:06:46.442            43.968              Murmansk1          5496.000
       103   04 Jun 2027 06:06:48.110   04 Jun 2027 06:09:11.155           143.045                 Moscow         17880.625
       104   04 Jun 2027 06:09:24.118   04 Jun 2027 06:11:46.325           142.207              Murmansk1         17775.875
       105   04 Jun 2027 07:32:31.754   04 Jun 2027 07:32:49.496            17.742                 Moscow          2217.750
       106   04 Jun 2027 07:35:17.672   04 Jun 2027 07:35:31.928            14.256                 Moscow          1782.000
       107   04 Jun 2027 07:42:51.008   04 Jun 2027 07:46:59.003           247.995                Norilsk         30999.375
       108   04 Jun 2027 07:47:09.535   04 Jun 2027 07:48:53.242           103.707              Murmansk1         12963.375
       109   04 Jun 2027 08:47:21.388   04 Jun 2027 08:56:35.678           554.290               CapeTown         69286.250
       110   04 Jun 2027 09:09:39.637   04 Jun 2027 09:12:56.112           196.475                 Moscow         24559.375
       111   04 Jun 2027 09:13:11.575   04 Jun 2027 09:13:18.856             7.281              Murmansk2           910.125
       112   04 Jun 2027 09:13:30.351   04 Jun 2027 09:14:17.922            47.571                 Moscow          5946.375
       113   04 Jun 2027 09:15:12.595   04 Jun 2027 09:19:11.782           239.187              Murmansk1         29898.375
       114   04 Jun 2027 09:20:53.129   04 Jun 2027 09:21:31.294            38.165              Murmansk1          4770.625
       115   04 Jun 2027 09:27:05.656   04 Jun 2027 09:32:29.851           324.195                Anadyr2         40524.375
       116   04 Jun 2027 09:34:23.692   04 Jun 2027 09:36:12.550           108.858                Anadyr1         13607.250
       117   04 Jun 2027 11:05:17.143   04 Jun 2027 11:05:26.947             9.804                Anadyr2          1225.500
       118   04 Jun 2027 11:06:11.311   04 Jun 2027 11:10:15.930           244.619               Magadan2         30577.375
       119   04 Jun 2027 12:38:28.602   04 Jun 2027 12:38:28.621             0.019                Anadyr1             2.375
       120   04 Jun 2027 12:39:56.874   04 Jun 2027 12:41:24.742            87.868                Anadyr1         10983.500
       121   04 Jun 2027 12:43:21.021   04 Jun 2027 12:45:43.993           142.972               Magadan2         17871.500
       122   04 Jun 2027 12:45:43.993   04 Jun 2027 12:46:59.033            75.040               Magadan1          9380.000
       123   04 Jun 2027 14:16:40.884   04 Jun 2027 14:16:43.859             2.975               Magadan1           371.875
       124   04 Jun 2027 14:24:43.402   04 Jun 2027 14:26:16.996            93.594               Magadan1         11699.250
       125   04 Jun 2027 15:08:29.409   04 Jun 2027 15:11:13.618           164.209            RioGallegos         20526.125
       126   04 Jun 2027 15:56:12.972   04 Jun 2027 15:57:31.777            78.805                Irkutsk          9850.625
       127   04 Jun 2027 15:59:00.171   04 Jun 2027 16:01:17.197           137.026                Irkutsk         17128.250
       128   04 Jun 2027 16:09:54.759   04 Jun 2027 16:12:48.780           174.021                Sumatra         21752.625
       129   04 Jun 2027 17:32:03.853   04 Jun 2027 17:32:20.384            16.531                Novosib          2066.375
       130   04 Jun 2027 17:32:51.812   04 Jun 2027 17:34:26.266            94.454                Novosib         11806.750
       131   04 Jun 2027 17:39:30.224   04 Jun 2027 17:42:19.966           169.742                  Delhi         21217.750
       132   04 Jun 2027 19:16:54.836   04 Jun 2027 19:17:48.685            53.849                  Delhi          6731.125
       133   04 Jun 2027 20:42:18.586   04 Jun 2027 20:42:19.876             1.290              Murmansk2           161.250
       134   04 Jun 2027 20:44:36.750   04 Jun 2027 20:45:04.613            27.863              Murmansk2          3482.875
       135   04 Jun 2027 20:45:34.054   04 Jun 2027 20:48:42.686           188.632                 Moscow         23579.000
       136   04 Jun 2027 22:54:55.976   04 Jun 2027 22:54:59.955             3.979               CapeTown           497.375
       137   05 Jun 2027 04:15:55.676   05 Jun 2027 04:18:18.319           142.643                Sumatra         17830.375
       138   05 Jun 2027 04:23:30.756   05 Jun 2027 04:25:34.568           123.812                Sumatra         15476.500
       139   05 Jun 2027 04:41:24.378   05 Jun 2027 04:41:37.320            12.942                Norilsk          1617.750
       140   05 Jun 2027 04:42:26.145   05 Jun 2027 04:48:36.259           370.114              Murmansk2         46264.250
       141   05 Jun 2027 06:00:19.044   05 Jun 2027 06:04:54.279           275.235                  Delhi         34404.375
       142   05 Jun 2027 06:08:14.146   05 Jun 2027 06:12:02.315           228.169                Novosib         28521.125
       143   05 Jun 2027 06:12:13.368   05 Jun 2027 06:13:10.235            56.867                 Moscow          7108.375
       144   05 Jun 2027 06:17:59.199   05 Jun 2027 06:18:33.524            34.325                Novosib          4290.625
       145   05 Jun 2027 06:18:33.757   05 Jun 2027 06:20:13.753            99.996                 Moscow         12499.500
       146   05 Jun 2027 06:20:16.429   05 Jun 2027 06:22:33.929           137.500              Murmansk2         17187.500
       147   05 Jun 2027 06:23:19.955   05 Jun 2027 06:23:55.002            35.047              Murmansk2          4380.875
       148   05 Jun 2027 07:44:31.130   05 Jun 2027 07:45:46.545            75.415                 Moscow          9426.875
       149   05 Jun 2027 07:47:36.947   05 Jun 2027 07:50:32.736           175.789                 Moscow         21973.625
       150   05 Jun 2027 07:53:53.585   05 Jun 2027 08:00:28.582           394.997              Murmansk1         49374.625
       151   05 Jun 2027 08:00:54.792   05 Jun 2027 08:00:54.867             0.075              Murmansk2             9.375
       152   05 Jun 2027 08:58:56.818   05 Jun 2027 09:05:42.830           406.012               CapeTown         50751.500
       153   05 Jun 2027 09:27:14.193   05 Jun 2027 09:30:03.059           168.866              Murmansk1         21108.250
       154   05 Jun 2027 09:34:45.716   05 Jun 2027 09:35:00.520            14.804              Murmansk2          1850.500
       155   05 Jun 2027 09:39:00.071   05 Jun 2027 09:44:13.936           313.865                Anadyr1         39233.125
       156   05 Jun 2027 09:46:16.573   05 Jun 2027 09:48:31.237           134.664                Anadyr2         16833.000
       157   05 Jun 2027 11:08:45.316   05 Jun 2027 11:09:03.201            17.885              Murmansk1          2235.625
       158   05 Jun 2027 11:09:53.440   05 Jun 2027 11:10:11.137            17.697              Murmansk1          2212.125
       159   05 Jun 2027 11:14:35.098   05 Jun 2027 11:14:49.188            14.090                Anadyr2          1761.250
       160   05 Jun 2027 11:17:52.515   05 Jun 2027 11:21:26.131           213.616               Magadan1         26702.000
       161   05 Jun 2027 12:52:50.516   05 Jun 2027 12:53:31.294            40.778               Magadan1          5097.250
       162   05 Jun 2027 12:54:56.063   05 Jun 2027 12:59:25.610           269.547               Magadan2         33693.375
       163   05 Jun 2027 14:28:42.924   05 Jun 2027 14:28:43.300             0.376               Magadan2            47.000
       164   05 Jun 2027 15:20:24.187   05 Jun 2027 15:22:17.730           113.543            RioGallegos         14192.875
       165   05 Jun 2027 15:28:47.070   05 Jun 2027 15:29:55.700            68.630            RioGallegos          8578.750
       166   05 Jun 2027 16:11:12.710   05 Jun 2027 16:13:10.249           117.539                Irkutsk         14692.375
       167   05 Jun 2027 16:21:57.999   05 Jun 2027 16:23:53.117           115.118                Sumatra         14389.750
       168   05 Jun 2027 16:25:02.506   05 Jun 2027 16:26:54.759           112.253                Sumatra         14031.625
       169   05 Jun 2027 17:47:13.621   05 Jun 2027 17:47:44.724            31.103                Novosib          3887.875
       170   05 Jun 2027 17:51:25.012   05 Jun 2027 17:54:10.393           165.381                  Delhi         20672.625
       171   05 Jun 2027 18:00:57.009   05 Jun 2027 18:00:57.881             0.872                  Delhi           109.000
       172   05 Jun 2027 19:28:43.815   05 Jun 2027 19:29:09.815            26.000                  Delhi          3250.000
       173   05 Jun 2027 20:57:16.551   05 Jun 2027 20:59:00.799           104.248              Murmansk1         13031.000
       174   05 Jun 2027 21:00:49.584   05 Jun 2027 21:02:25.194            95.610                 Moscow         11951.250
       175   05 Jun 2027 21:24:13.842   05 Jun 2027 21:26:43.189           149.347               CapeTown         18668.375
       176   06 Jun 2027 02:54:58.729   06 Jun 2027 02:56:13.292            74.563                Sumatra          9320.375
       177   06 Jun 2027 03:18:31.168   06 Jun 2027 03:19:46.678            75.510                Novosib          9438.750
       178   06 Jun 2027 03:19:58.690   06 Jun 2027 03:21:23.175            84.485                Norilsk         10560.625
       179   06 Jun 2027 04:28:01.765   06 Jun 2027 04:29:31.890            90.125                Sumatra         11265.625
       180   06 Jun 2027 04:35:44.047   06 Jun 2027 04:37:45.414           121.367                Sumatra         15170.875
       181   06 Jun 2027 04:52:52.344   06 Jun 2027 04:53:08.538            16.194              Murmansk2          2024.250
       182   06 Jun 2027 04:54:24.883   06 Jun 2027 04:56:38.590           133.707                 Moscow         16713.375
       183   06 Jun 2027 04:56:53.743   06 Jun 2027 04:57:26.450            32.707                Norilsk          4088.375
       184   06 Jun 2027 04:58:02.944   06 Jun 2027 04:59:18.330            75.386              Murmansk1          9423.250
       185   06 Jun 2027 06:12:35.230   06 Jun 2027 06:14:58.956           143.726                  Delhi         17965.750
       186   06 Jun 2027 06:18:58.063   06 Jun 2027 06:19:09.343            11.280                  Delhi          1410.000
       187   06 Jun 2027 06:20:39.550   06 Jun 2027 06:22:07.034            87.484                  Delhi         10935.500
       188   06 Jun 2027 06:22:13.818   06 Jun 2027 06:24:17.623           123.805                Novosib         15475.625
       189   06 Jun 2027 06:24:32.387   06 Jun 2027 06:25:03.628            31.241                 Moscow          3905.125
       190   06 Jun 2027 06:30:00.636   06 Jun 2027 06:30:28.268            27.632                Norilsk          3454.000
       191   06 Jun 2027 06:30:32.785   06 Jun 2027 06:31:49.776            76.991              Murmansk1          9623.875
       192   06 Jun 2027 06:31:49.776   06 Jun 2027 06:34:35.141           165.365              Murmansk2         20670.625
       193   06 Jun 2027 06:35:12.487   06 Jun 2027 06:36:24.620            72.133              Murmansk2          9016.625
       194   06 Jun 2027 06:36:37.395   06 Jun 2027 06:36:49.937            12.542              Murmansk2          1567.750
       195   06 Jun 2027 07:59:51.092   06 Jun 2027 08:00:47.064            55.972                 Moscow          6996.500
       196   06 Jun 2027 08:05:09.920   06 Jun 2027 08:10:45.446           335.526                Norilsk         41940.750
       197   06 Jun 2027 08:10:55.071   06 Jun 2027 08:12:56.556           121.485              Murmansk1         15185.625
       198   06 Jun 2027 09:10:38.917   06 Jun 2027 09:16:48.656           369.739               CapeTown         46217.375
       199   06 Jun 2027 09:37:30.154   06 Jun 2027 09:38:25.034            54.880              Murmansk1          6860.000
       200   06 Jun 2027 09:39:15.848   06 Jun 2027 09:42:52.387           216.539              Murmansk2         27067.375
       201   06 Jun 2027 09:44:12.111   06 Jun 2027 09:45:54.186           102.075              Murmansk1         12759.375
       202   06 Jun 2027 09:50:56.022   06 Jun 2027 09:52:47.860           111.838                Anadyr1         13979.750
       203   06 Jun 2027 09:54:07.588   06 Jun 2027 09:56:02.861           115.273                Anadyr2         14409.125
       204   06 Jun 2027 09:56:47.624   06 Jun 2027 10:00:29.461           221.837                Anadyr1         27729.625
       205   06 Jun 2027 11:26:35.929   06 Jun 2027 11:26:46.376            10.447                Anadyr1          1305.875
       206   06 Jun 2027 11:29:39.014   06 Jun 2027 11:35:55.182           376.168               Magadan1         47021.000
       207   06 Jun 2027 13:04:49.938   06 Jun 2027 13:05:21.552            31.614               Magadan2          3951.750
       208   06 Jun 2027 13:07:49.244   06 Jun 2027 13:09:42.531           113.287               Magadan1         14160.875
       209   06 Jun 2027 15:00:31.053   06 Jun 2027 15:02:49.926           138.873                Sumatra         17359.125
       210   06 Jun 2027 15:32:20.589   06 Jun 2027 15:33:44.818            84.229            RioGallegos         10528.625
       211   06 Jun 2027 15:41:47.896   06 Jun 2027 15:43:00.647            72.751            RioGallegos          9093.875
       212   06 Jun 2027 16:23:21.602   06 Jun 2027 16:25:05.182           103.580                Irkutsk         12947.500
       213   06 Jun 2027 16:34:07.030   06 Jun 2027 16:35:13.857            66.827                Sumatra          8353.375
       214   06 Jun 2027 16:35:35.216   06 Jun 2027 16:36:54.222            79.006                  Delhi          9875.750
       215   06 Jun 2027 16:41:48.349   06 Jun 2027 16:42:56.928            68.579                Sumatra          8572.375
       216   06 Jun 2027 18:03:23.303   06 Jun 2027 18:05:17.965           114.662                  Delhi         14332.750
       217   06 Jun 2027 18:06:35.694   06 Jun 2027 18:08:28.919           113.225                  Delhi         14153.125
       218   06 Jun 2027 19:39:44.926   06 Jun 2027 19:39:58.344            13.418                 Moscow          1677.250
       219   06 Jun 2027 21:08:23.418   06 Jun 2027 21:09:26.649            63.231              Murmansk2          7903.875
       220   06 Jun 2027 21:09:34.759   06 Jun 2027 21:09:56.291            21.532                 Moscow          2691.500
       221   06 Jun 2027 21:11:27.884   06 Jun 2027 21:12:53.449            85.565                 Moscow         10695.625
       222   06 Jun 2027 21:34:39.240   06 Jun 2027 21:35:12.499            33.259               CapeTown          4157.375
       223   06 Jun 2027 21:41:18.113   06 Jun 2027 21:42:31.858            73.745               CapeTown          9218.125
       224   07 Jun 2027 03:05:56.964   07 Jun 2027 03:09:41.262           224.298                Sumatra         21718.625
       225   07 Jun 2027 03:30:14.303   07 Jun 2027 03:30:34.930            20.627              Murmansk1          2578.375
       226   07 Jun 2027 04:40:13.880   07 Jun 2027 04:40:58.500            44.620                Sumatra          5577.500
       227   07 Jun 2027 04:42:48.911   07 Jun 2027 04:44:18.392            89.481                Sumatra         11185.125
       228   07 Jun 2027 05:05:26.635   07 Jun 2027 05:07:55.238           148.603                Novosib         18575.375
       229   07 Jun 2027 05:08:03.636   07 Jun 2027 05:08:49.429            45.793                 Moscow          5724.125
       230   07 Jun 2027 05:09:53.283   07 Jun 2027 05:11:46.372           113.089              Murmansk2         14136.125
       231   07 Jun 2027 06:24:58.422   07 Jun 2027 06:26:49.316           110.894                  Delhi         13861.750
       232   07 Jun 2027 06:34:13.926   07 Jun 2027 06:36:36.681           142.755                Novosib         17844.375
       233   07 Jun 2027 06:36:36.901   07 Jun 2027 06:37:24.833            47.932                 Moscow          5991.500
       234   07 Jun 2027 06:41:56.464   07 Jun 2027 06:47:20.583           324.119                Norilsk         40514.875
       235   07 Jun 2027 06:47:30.686   07 Jun 2027 06:48:03.122            32.436              Murmansk2          4054.500
       236   07 Jun 2027 06:48:13.007   07 Jun 2027 06:48:37.014            24.007              Murmansk2          3000.875
       237   07 Jun 2027 08:08:38.615   07 Jun 2027 08:08:52.217            13.602                 Moscow          1700.250
       238   07 Jun 2027 08:11:45.486   07 Jun 2027 08:14:39.313           173.827                 Moscow         21728.375
       239   07 Jun 2027 08:15:22.401   07 Jun 2027 08:15:34.971            12.570              Murmansk1          1571.250
       240   07 Jun 2027 08:16:33.730   07 Jun 2027 08:18:19.503           105.773                 Moscow         13221.625
       241   07 Jun 2027 08:18:36.925   07 Jun 2027 08:19:03.496            26.571              Murmansk1          3321.375
       242   07 Jun 2027 08:19:14.763   07 Jun 2027 08:22:32.121           197.358                Norilsk         24669.750
       243   07 Jun 2027 08:29:00.952   07 Jun 2027 08:31:47.140           166.188                Anadyr1         20773.500
       244   07 Jun 2027 09:27:42.501   07 Jun 2027 09:28:12.940            30.439               CapeTown          3804.875
       245   07 Jun 2027 10:02:53.153   07 Jun 2027 10:06:33.437           220.284                Anadyr2         27535.500
       246   07 Jun 2027 10:06:51.317   07 Jun 2027 10:12:26.037           334.720                Anadyr2         41840.000
       247   07 Jun 2027 11:41:29.005   07 Jun 2027 11:43:22.929           113.924               Magadan1         14240.500
       248   07 Jun 2027 13:16:49.927   07 Jun 2027 13:17:14.228            24.301               Magadan2          3037.625
       249   07 Jun 2027 13:17:55.746   07 Jun 2027 13:21:03.660           187.914               Magadan1         23489.250
       250   07 Jun 2027 15:11:24.479   07 Jun 2027 15:19:45.667           501.188                Sumatra         62648.500
       251   07 Jun 2027 16:37:45.269   07 Jun 2027 16:38:06.824            21.555                Novosib          2694.375
       252   07 Jun 2027 16:46:31.101   07 Jun 2027 16:50:01.697           210.596                  Delhi         26324.500
       253   07 Jun 2027 18:15:24.902   07 Jun 2027 18:16:42.622            77.720                  Delhi          9715.000
       254   07 Jun 2027 18:18:35.339   07 Jun 2027 18:20:19.376           104.037                  Delhi         13004.625
       255   07 Jun 2027 19:50:26.423   07 Jun 2027 19:51:23.693            57.270                 Moscow          7158.750
       256   07 Jun 2027 21:21:36.091   07 Jun 2027 21:21:50.966            14.875                 Moscow          1859.375
       257   07 Jun 2027 21:29:30.110   07 Jun 2027 21:30:32.463            62.353                 Moscow          7794.125
       258   07 Jun 2027 21:31:12.060   07 Jun 2027 21:31:22.313            10.253                 Moscow          1281.625
       259   07 Jun 2027 21:45:34.861   07 Jun 2027 21:46:41.647            66.786               CapeTown          8348.250
       260   07 Jun 2027 21:48:03.097   07 Jun 2027 21:48:38.784            35.687               CapeTown          4460.875
       261   07 Jun 2027 21:51:44.908   07 Jun 2027 21:53:24.601            99.693               CapeTown         12461.625
       262   08 Jun 2027 03:17:08.542   08 Jun 2027 03:17:25.713            17.171                Sumatra          2146.375
       263   08 Jun 2027 03:18:42.757   08 Jun 2027 03:24:42.790           360.033                Sumatra          5047.124
       264   08 Jun 2027 04:52:32.869   08 Jun 2027 04:52:34.430             1.561                Sumatra           195.125
       265   08 Jun 2027 04:54:31.942   08 Jun 2027 04:56:43.707           131.765                Sumatra         16470.625
       266   08 Jun 2027 05:18:11.752   08 Jun 2027 05:20:58.696           166.944                 Moscow         20868.000
       267   08 Jun 2027 05:21:44.338   08 Jun 2027 05:23:12.085            87.747              Murmansk1         10968.375
       268   08 Jun 2027 06:45:56.154   08 Jun 2027 06:48:59.827           183.673                Novosib         22959.125
       269   08 Jun 2027 06:49:29.977   08 Jun 2027 06:49:47.885            17.908                 Moscow          2238.500
       270   08 Jun 2027 06:53:51.642   08 Jun 2027 06:54:40.235            48.593                Norilsk          6074.125
       271   08 Jun 2027 06:55:05.737   08 Jun 2027 06:57:29.146           143.409                 Moscow         17926.125
       272   08 Jun 2027 06:57:45.844   08 Jun 2027 06:59:01.326            75.482              Murmansk2          9435.250
       273   08 Jun 2027 08:20:46.940   08 Jun 2027 08:25:19.400           272.460                 Moscow         34057.500
       274   08 Jun 2027 08:27:22.000   08 Jun 2027 08:30:35.516           193.516              Murmansk1         24189.500
       275   08 Jun 2027 08:32:20.740   08 Jun 2027 08:34:43.563           142.823              Murmansk2         17852.875
       276   08 Jun 2027 08:40:16.916   08 Jun 2027 08:45:12.334           295.418                Anadyr2         36927.250
       277   08 Jun 2027 10:19:29.771   08 Jun 2027 10:19:49.069            19.298                Anadyr1          2412.250
       278   08 Jun 2027 10:22:13.280   08 Jun 2027 10:24:24.692           131.412                Anadyr2         16426.500
       279   08 Jun 2027 11:53:21.498   08 Jun 2027 11:53:58.865            37.367               Magadan1          4670.875
       280   08 Jun 2027 11:55:38.472   08 Jun 2027 11:56:19.288            40.816               Magadan2          5102.000
       281   08 Jun 2027 12:02:46.157   08 Jun 2027 12:03:57.949            71.792               Magadan1          8974.000
       282   08 Jun 2027 13:28:50.399   08 Jun 2027 13:31:11.982           141.583               Magadan2         17697.875
       283   08 Jun 2027 13:33:49.755   08 Jun 2027 13:36:23.445           153.690               Magadan1         19211.250
       284   08 Jun 2027 15:12:04.191   08 Jun 2027 15:13:30.288            86.097                Irkutsk         10762.125
       285   08 Jun 2027 15:24:27.097   08 Jun 2027 15:29:59.714           332.617                Sumatra         41577.125
       286   08 Jun 2027 16:52:52.702   08 Jun 2027 17:01:39.126           526.424                  Delhi         65803.000
       287   08 Jun 2027 20:03:09.923   08 Jun 2027 20:03:10.304             0.381                 Moscow            47.625
       288   08 Jun 2027 21:33:37.987   08 Jun 2027 21:36:12.803           154.816                 Moscow         19352.000
       289   08 Jun 2027 21:57:46.702   08 Jun 2027 21:58:17.423            30.721               CapeTown          3840.125
       290   08 Jun 2027 22:00:18.999   08 Jun 2027 22:00:33.664            14.665               CapeTown          1833.125
       291   08 Jun 2027 22:04:21.281   08 Jun 2027 22:04:43.779            22.498               CapeTown          2812.250
       292   09 Jun 2027 03:28:43.529   09 Jun 2027 03:30:39.896           116.367                Sumatra          1912.000
       293   09 Jun 2027 05:19:33.066   09 Jun 2027 05:21:50.381           137.315                  Delhi         17164.375
       294   09 Jun 2027 05:30:17.321   09 Jun 2027 05:30:23.142             5.821                 Moscow           727.625
       295   09 Jun 2027 05:30:42.974   09 Jun 2027 05:30:52.033             9.059              Murmansk2          1132.375
       296   09 Jun 2027 05:30:54.847   09 Jun 2027 05:31:53.714            58.867                Novosib          7358.375
       297   09 Jun 2027 05:32:10.652   09 Jun 2027 05:33:06.795            56.143                 Moscow          7017.875
       298   09 Jun 2027 05:33:36.129   09 Jun 2027 05:35:22.046           105.917              Murmansk2         13239.625
       299   09 Jun 2027 06:58:44.608   09 Jun 2027 06:59:59.005            74.397                Novosib          9299.625
       300   09 Jun 2027 07:00:47.445   09 Jun 2027 07:01:48.382            60.937                 Moscow          7617.125
       301   09 Jun 2027 07:06:42.131   09 Jun 2027 07:06:52.776            10.645                Norilsk          1330.625
       302   09 Jun 2027 07:06:53.969   09 Jun 2027 07:11:51.470           297.501              Murmansk1         37187.625
       303   09 Jun 2027 08:14:40.572   09 Jun 2027 08:17:35.120           174.548               CapeTown         21818.500
       304   09 Jun 2027 08:32:58.521   09 Jun 2027 08:37:21.329           262.808                 Moscow         32851.000
       305   09 Jun 2027 08:39:23.119   09 Jun 2027 08:41:39.925           136.806              Murmansk2         17100.750
       306   09 Jun 2027 08:41:55.120   09 Jun 2027 08:42:33.586            38.466              Murmansk1          4808.250
       307   09 Jun 2027 08:44:08.826   09 Jun 2027 08:46:08.456           119.630              Murmansk1         14953.750
       308   09 Jun 2027 08:51:53.739   09 Jun 2027 08:58:14.118           380.379                Anadyr1         47547.375
       309   09 Jun 2027 10:26:49.997   09 Jun 2027 10:27:30.870            40.873                Anadyr2          5109.125
       310   09 Jun 2027 12:02:39.440   09 Jun 2027 12:03:34.012            54.572                Anadyr2          6821.500
       311   09 Jun 2027 12:04:54.594   09 Jun 2027 12:05:40.671            46.077                Anadyr1          5759.625
       312   09 Jun 2027 12:06:29.223   09 Jun 2027 12:09:25.836           176.613               Magadan2         22076.625
       313   09 Jun 2027 13:40:51.292   09 Jun 2027 13:42:51.141           119.849               Magadan1         14981.125
       314   09 Jun 2027 13:49:36.518   09 Jun 2027 13:50:26.761            50.243               Magadan2          6280.375
       315   09 Jun 2027 15:25:02.679   09 Jun 2027 15:27:10.864           128.185                Irkutsk         16023.125
       316   09 Jun 2027 15:34:33.966   09 Jun 2027 15:40:58.839           384.873                Sumatra         48109.125
       317   09 Jun 2027 17:04:06.742   09 Jun 2027 17:05:57.893           111.151                Novosib         13893.875
       318   09 Jun 2027 17:06:20.447   09 Jun 2027 17:13:45.360           444.913                  Delhi         55614.125
       319   09 Jun 2027 20:18:29.662   09 Jun 2027 20:19:26.410            56.748                 Moscow          7093.500
       320   09 Jun 2027 21:48:47.812   09 Jun 2027 21:50:22.971            95.159                 Moscow         11840.999
       321   10 Jun 2027 05:17:39.388   10 Jun 2027 05:19:06.077            86.689                Sumatra         10836.125
       322   10 Jun 2027 05:24:20.386   10 Jun 2027 05:24:39.603            19.217                  Delhi          2402.125
       323   10 Jun 2027 05:31:50.640   10 Jun 2027 05:33:53.809           123.169                  Delhi         15396.125
       324   10 Jun 2027 05:42:07.269   10 Jun 2027 05:45:13.982           186.713                 Moscow         23339.125
       325   10 Jun 2027 05:45:28.676   10 Jun 2027 05:46:36.049            67.373              Murmansk2          8421.625
       326   10 Jun 2027 05:47:24.363   10 Jun 2027 05:47:29.321             4.958                Norilsk           619.750
       327   10 Jun 2027 07:08:56.166   10 Jun 2027 07:09:54.670            58.504                 Moscow          7313.000
       328   10 Jun 2027 07:11:34.984   10 Jun 2027 07:12:13.252            38.268                 Moscow          4783.500
       329   10 Jun 2027 07:12:53.557   10 Jun 2027 07:13:44.930            51.373                 Moscow          6421.625
       330   10 Jun 2027 07:17:45.460   10 Jun 2027 07:17:58.333            12.873                Novosib          1609.125
       331   10 Jun 2027 07:18:54.820   10 Jun 2027 07:25:05.300           370.480              Murmansk2         46310.000
       332   10 Jun 2027 08:25:00.789   10 Jun 2027 08:31:32.968           392.179               CapeTown         49022.375
       333   10 Jun 2027 08:47:54.699   10 Jun 2027 08:48:18.591            23.892                 Moscow          2986.500
       334   10 Jun 2027 08:48:39.494   10 Jun 2027 08:49:47.552            68.058              Murmansk2          8507.250
       335   10 Jun 2027 08:51:24.392   10 Jun 2027 08:53:44.258           139.866              Murmansk1         17483.250
       336   10 Jun 2027 08:56:21.967   10 Jun 2027 08:57:38.665            76.698              Murmansk2          9587.250
       337   10 Jun 2027 09:03:38.648   10 Jun 2027 09:11:04.224           445.576                Anadyr2         55697.000
       338   10 Jun 2027 12:17:11.715   10 Jun 2027 12:22:07.692           295.977               Magadan1         36997.125
       339   10 Jun 2027 12:24:31.741   10 Jun 2027 12:26:43.758           132.017               Magadan1         16502.125
       340   10 Jun 2027 14:48:06.080   10 Jun 2027 14:49:14.155            68.075            RioGallegos          8509.375
       341   10 Jun 2027 15:32:36.027   10 Jun 2027 15:34:38.511           122.484                Irkutsk         15310.500
       342   10 Jun 2027 15:37:49.064   10 Jun 2027 15:37:53.403             4.339                Irkutsk           542.375
       343   10 Jun 2027 15:39:41.246   10 Jun 2027 15:42:06.552           145.306                Irkutsk         18163.250
       344   10 Jun 2027 15:46:19.916   10 Jun 2027 15:49:06.404           166.488                Sumatra         20811.000
       345   10 Jun 2027 17:08:22.751   10 Jun 2027 17:10:50.581           147.830                Novosib         18478.750
       346   10 Jun 2027 17:16:07.512   10 Jun 2027 17:17:54.603           107.091                  Delhi         13386.375
       347   10 Jun 2027 17:20:15.722   10 Jun 2027 17:22:22.724           127.002                  Delhi         15875.250
       348   10 Jun 2027 18:54:13.849   10 Jun 2027 18:56:12.860           119.011                  Delhi         14876.375
       349   10 Jun 2027 20:21:51.450   10 Jun 2027 20:22:56.847            65.397                 Moscow          8174.625
       350   10 Jun 2027 20:31:22.420   10 Jun 2027 20:31:24.554             2.134                 Moscow           266.750
       351   10 Jun 2027 22:04:57.403   10 Jun 2027 22:05:42.716            45.313                 Moscow          5664.125
       352   10 Jun 2027 22:22:29.067   10 Jun 2027 22:24:12.705           103.638               CapeTown          5870.750
       353   11 Jun 2027 05:36:19.565   11 Jun 2027 05:38:30.890           131.325                  Delhi         16415.625
       354   11 Jun 2027 05:44:03.559   11 Jun 2027 05:45:57.254           113.695                  Delhi         14211.875
       355   11 Jun 2027 05:54:01.830   11 Jun 2027 05:54:58.714            56.884                Novosib          7110.500
       356   11 Jun 2027 05:55:02.113   11 Jun 2027 05:56:31.586            89.473                Norilsk         11184.125
       357   11 Jun 2027 05:57:19.439   11 Jun 2027 05:57:20.429             0.990                 Moscow           123.750
       358   11 Jun 2027 05:57:21.967   11 Jun 2027 05:58:47.900            85.933              Murmansk1         10741.625
       359   11 Jun 2027 05:59:26.170   11 Jun 2027 05:59:31.016             4.846                Norilsk           605.750
       360   11 Jun 2027 07:20:50.060   11 Jun 2027 07:23:19.665           149.605                 Moscow         18700.625
       361   11 Jun 2027 07:29:48.028   11 Jun 2027 07:30:20.641            32.613              Murmansk2          4076.625
       362   11 Jun 2027 07:31:12.814   11 Jun 2027 07:35:17.349           244.535                Norilsk         30566.875
       363   11 Jun 2027 07:35:32.595   11 Jun 2027 07:37:06.725            94.130              Murmansk1         11766.250
       364   11 Jun 2027 08:36:09.848   11 Jun 2027 08:44:39.548           509.700               CapeTown         63712.500
       365   11 Jun 2027 08:57:32.315   11 Jun 2027 08:59:44.569           132.254                 Moscow         16531.750
       366   11 Jun 2027 09:00:52.985   11 Jun 2027 09:01:38.374            45.389              Murmansk2          5673.625
       367   11 Jun 2027 09:03:53.515   11 Jun 2027 09:06:22.802           149.287              Murmansk1         18660.875
       368   11 Jun 2027 09:08:22.918   11 Jun 2027 09:09:41.581            78.663              Murmansk1          9832.875
       369   11 Jun 2027 09:15:28.095   11 Jun 2027 09:23:49.486           501.391                Anadyr1         62673.875
       370   11 Jun 2027 10:54:53.533   11 Jun 2027 10:58:06.546           193.013               Magadan1         24126.625
       371   11 Jun 2027 12:29:08.736   11 Jun 2027 12:30:16.904            68.168               Magadan2          8521.000
       372   11 Jun 2027 12:34:42.553   11 Jun 2027 12:38:41.553           239.000               Magadan1         29875.000
       373   11 Jun 2027 14:57:09.231   11 Jun 2027 14:58:20.873            71.642            RioGallegos          8955.250
       374   11 Jun 2027 15:01:07.280   11 Jun 2027 15:02:21.460            74.180            RioGallegos          9272.500
       375   11 Jun 2027 15:44:31.207   11 Jun 2027 15:46:15.936           104.729                Irkutsk         13091.125
       376   11 Jun 2027 15:58:11.987   11 Jun 2027 16:02:31.452           259.465                Sumatra         32433.125
       377   11 Jun 2027 17:20:20.274   11 Jun 2027 17:21:22.139            61.865                Novosib          7733.125
       378   11 Jun 2027 17:23:06.772   11 Jun 2027 17:25:20.564           133.792                Novosib         16724.000
       379   11 Jun 2027 17:27:54.040   11 Jun 2027 17:33:44.441           350.401                  Delhi         43800.125
       380   11 Jun 2027 20:33:49.789   11 Jun 2027 20:35:51.739           121.950                 Moscow         15243.750
       381   11 Jun 2027 22:35:01.893   11 Jun 2027 22:35:39.674            37.781               CapeTown          3181.250
       382   12 Jun 2027 05:44:31.027   12 Jun 2027 05:45:16.055            45.028                Sumatra          5628.500
       383   12 Jun 2027 05:46:58.736   12 Jun 2027 05:47:27.015            28.279                Sumatra          3534.875
       384   12 Jun 2027 05:48:24.119   12 Jun 2027 05:49:52.830            88.711                  Delhi         11088.875
       385   12 Jun 2027 05:51:30.718   12 Jun 2027 05:53:15.737           105.019                  Delhi         13127.375
       386   12 Jun 2027 06:06:17.370   12 Jun 2027 06:07:03.752            46.382              Murmansk2          5797.750
       387   12 Jun 2027 06:07:04.112   12 Jun 2027 06:09:26.241           142.129                 Moscow         17766.125
       388   12 Jun 2027 06:09:38.856   12 Jun 2027 06:11:36.720           117.864              Murmansk2         14733.000
       389   12 Jun 2027 07:32:46.696   12 Jun 2027 07:33:07.415            20.719                 Moscow          2589.875
       390   12 Jun 2027 07:35:32.437   12 Jun 2027 07:35:46.708            14.271                 Moscow          1783.875
       391   12 Jun 2027 07:43:06.037   12 Jun 2027 07:47:13.932           247.895                Norilsk         30986.875
       392   12 Jun 2027 07:47:24.248   12 Jun 2027 07:49:08.260           104.012              Murmansk1         13001.500
       393   12 Jun 2027 08:47:35.757   12 Jun 2027 08:56:50.184           554.427               CapeTown         69303.375
       394   12 Jun 2027 09:09:55.136   12 Jun 2027 09:16:01.031           365.895                 Moscow         45736.875
       395   12 Jun 2027 09:16:23.248   12 Jun 2027 09:18:14.743           111.495              Murmansk1         13936.875
       396   12 Jun 2027 09:18:14.743   12 Jun 2027 09:18:24.264             9.521              Murmansk2          1190.125
       397   12 Jun 2027 09:18:37.056   12 Jun 2027 09:19:28.866            51.810              Murmansk2          6476.250
       398   12 Jun 2027 09:27:20.480   12 Jun 2027 09:36:28.314           547.834                Anadyr2         68479.250
       399   12 Jun 2027 11:06:25.793   12 Jun 2027 11:09:56.283           210.490               Magadan1         26311.250
       400   12 Jun 2027 12:41:06.710   12 Jun 2027 12:41:58.879            52.169               Magadan1          6521.125
       401   12 Jun 2027 12:43:36.369   12 Jun 2027 12:45:55.589           139.220               Magadan2         17402.500
       402   12 Jun 2027 12:45:55.589   12 Jun 2027 12:46:04.768             9.179               Magadan1          1147.375
       403   12 Jun 2027 14:16:55.911   12 Jun 2027 14:16:58.554             2.643               Magadan2           330.375
       404   12 Jun 2027 14:17:45.145   12 Jun 2027 14:17:57.462            12.317               Magadan2          1539.625
       405   12 Jun 2027 14:20:59.738   12 Jun 2027 14:21:39.445            39.707               Magadan1          4963.375
       406   12 Jun 2027 15:08:44.254   12 Jun 2027 15:11:27.172           162.918            RioGallegos         20364.750
       407   12 Jun 2027 15:13:55.161   12 Jun 2027 15:14:03.757             8.596            RioGallegos          1074.500
       408   12 Jun 2027 15:56:27.893   12 Jun 2027 15:59:15.459           167.566                Irkutsk         20945.750
       409   12 Jun 2027 16:02:58.352   12 Jun 2027 16:05:58.759           180.407                Irkutsk         22550.875
       410   12 Jun 2027 16:10:09.752   12 Jun 2027 16:13:02.530           172.778                Sumatra         21597.250
       411   12 Jun 2027 17:32:18.810   12 Jun 2027 17:32:35.722            16.912                Novosib          2114.000
       412   12 Jun 2027 17:39:16.379   12 Jun 2027 17:41:52.775           156.396                Novosib         19549.500
       413   12 Jun 2027 17:42:35.235   12 Jun 2027 17:44:01.745            86.510                  Delhi         10813.750
       414   12 Jun 2027 19:17:09.109   12 Jun 2027 19:18:02.750            53.641                  Delhi          6705.125
       415   12 Jun 2027 20:42:33.598   12 Jun 2027 20:42:34.579             0.981              Murmansk1           122.625
       416   12 Jun 2027 20:45:49.026   12 Jun 2027 20:46:27.467            38.441                 Moscow          4805.125
       417   12 Jun 2027 20:48:57.848   12 Jun 2027 20:50:42.841           104.993                 Moscow         13124.125
       418   13 Jun 2027 03:06:38.498   13 Jun 2027 03:08:17.893            99.395              Murmansk1         12424.375
       419   13 Jun 2027 04:16:10.730   13 Jun 2027 04:18:32.245           141.515                Sumatra         17689.375
       420   13 Jun 2027 04:33:03.203   13 Jun 2027 04:34:12.837            69.634                Irkutsk          8704.250
       421   13 Jun 2027 04:41:31.251   13 Jun 2027 04:42:19.041            47.790              Murmansk2          5973.750
       422   13 Jun 2027 04:42:40.618   13 Jun 2027 04:48:53.865           373.247              Murmansk1         46655.875
       423   13 Jun 2027 06:00:34.297   13 Jun 2027 06:05:09.035           274.738                  Delhi         34342.250
       424   13 Jun 2027 06:08:29.665   13 Jun 2027 06:08:52.988            23.323                Novosib          2915.375
       425   13 Jun 2027 06:10:27.752   13 Jun 2027 06:12:17.369           109.617                Novosib         13702.125
       426   13 Jun 2027 06:12:28.763   13 Jun 2027 06:13:51.679            82.916                 Moscow         10364.500
       427   13 Jun 2027 06:18:13.368   13 Jun 2027 06:19:37.366            83.998                Novosib         10499.750
       428   13 Jun 2027 06:19:57.282   13 Jun 2027 06:20:51.743            54.461              Murmansk2          6807.625
       429   13 Jun 2027 06:20:51.743   13 Jun 2027 06:22:39.761           108.018              Murmansk1         13502.250
       430   13 Jun 2027 06:22:50.888   13 Jun 2027 06:23:24.700            33.812              Murmansk1          4226.500
       431   13 Jun 2027 07:44:46.132   13 Jun 2027 07:46:02.006            75.874                 Moscow          9484.250
       432   13 Jun 2027 07:47:51.721   13 Jun 2027 07:49:17.954            86.233                 Moscow         10779.125
       433   13 Jun 2027 07:53:55.142   13 Jun 2027 07:57:40.435           225.293                 Moscow         28161.625
       434   13 Jun 2027 07:57:57.807   13 Jun 2027 08:01:09.888           192.081              Murmansk1         24010.125
       435   13 Jun 2027 08:59:11.355   13 Jun 2027 09:05:56.457           405.102               CapeTown         50637.750
       436   13 Jun 2027 09:25:25.938   13 Jun 2027 09:26:49.590            83.652              Murmansk2         10456.500
       437   13 Jun 2027 09:27:28.928   13 Jun 2027 09:29:03.803            94.875              Murmansk2         11859.375
       438   13 Jun 2027 09:29:03.803   13 Jun 2027 09:30:33.166            89.363              Murmansk1         11170.375
       439   13 Jun 2027 09:34:26.323   13 Jun 2027 09:34:42.929            16.606              Murmansk2          2075.750
       440   13 Jun 2027 09:35:01.763   13 Jun 2027 09:35:15.919            14.156              Murmansk2          1769.500
       441   13 Jun 2027 09:39:14.937   13 Jun 2027 09:48:46.128           571.191                Anadyr2         71398.875
       442   13 Jun 2027 11:14:50.091   13 Jun 2027 11:15:03.844            13.753                Anadyr1          1719.125
       443   13 Jun 2027 11:18:07.144   13 Jun 2027 11:19:59.392           112.248               Magadan1         14031.000
       444   13 Jun 2027 12:53:05.475   13 Jun 2027 12:55:51.924           166.449               Magadan2         20806.125
       445   13 Jun 2027 13:03:03.277   13 Jun 2027 13:03:12.405             9.128               Magadan2          1141.000
       446   13 Jun 2027 14:28:57.956   13 Jun 2027 14:29:49.574            51.618               Magadan2          6452.250
       447   13 Jun 2027 14:38:32.497   13 Jun 2027 14:38:34.225             1.728               Magadan1           216.000
       448   13 Jun 2027 14:49:43.607   13 Jun 2027 14:50:07.414            23.807                Sumatra          2975.875
       449   13 Jun 2027 15:20:39.073   13 Jun 2027 15:22:31.854           112.781            RioGallegos         14097.625
       450   13 Jun 2027 15:29:02.781   13 Jun 2027 15:31:39.248           156.467            RioGallegos         19558.375
       451   13 Jun 2027 16:11:27.919   13 Jun 2027 16:13:24.967           117.048                Irkutsk         14631.000
       452   13 Jun 2027 16:22:13.113   13 Jun 2027 16:24:07.171           114.058                Sumatra         14257.250
       453   13 Jun 2027 16:29:53.266   13 Jun 2027 16:31:54.433           121.167                Sumatra         15145.875
       454   13 Jun 2027 17:48:00.180   13 Jun 2027 17:49:11.387            71.207                Novosib          8900.875
       455   13 Jun 2027 17:51:39.923   13 Jun 2027 17:54:24.162           164.239                  Delhi         20529.875
       456   13 Jun 2027 18:01:12.838   13 Jun 2027 18:01:12.851             0.013                  Delhi             1.625
       457   13 Jun 2027 19:28:59.558   13 Jun 2027 19:29:24.048            24.490                  Delhi          3061.250
       458   13 Jun 2027 20:57:31.769   13 Jun 2027 20:59:15.851           104.082              Murmansk2         13010.250
       459   13 Jun 2027 21:01:04.681   13 Jun 2027 21:02:39.976            95.295                 Moscow         11911.875
       460   13 Jun 2027 21:24:24.810   13 Jun 2027 21:26:57.727           152.917               CapeTown         19114.625
