uniorb/output/strategy_4/Drop/Drop_KinoSat_111003.txt

KinoSat_111003
-------------------------
    Access    *     Start Time (UTCG)     *     Stop Time (UTCG)  *   Duration (s)        *       Station  *  Data (Mbytes)
         1   01 Jun 2027 03:47:44.407   01 Jun 2027 03:47:58.744            14.337                Anadyr1           448.031
         2   01 Jun 2027 03:48:11.890   01 Jun 2027 03:48:20.640             8.750                Anadyr1           273.438
         3   01 Jun 2027 03:48:22.821   01 Jun 2027 03:48:36.093            13.272               Magadan1           414.750
         4   01 Jun 2027 03:48:57.009   01 Jun 2027 03:49:10.474            13.465               Magadan2           420.781
         5   01 Jun 2027 03:49:20.654   01 Jun 2027 03:49:48.915            28.261                Anadyr1           883.156
         6   01 Jun 2027 03:50:05.662   01 Jun 2027 03:51:08.349            62.687                Anadyr1          1958.969
         7   01 Jun 2027 03:51:08.349   01 Jun 2027 03:51:24.088            15.739                Anadyr2           491.844
         8   01 Jun 2027 03:51:30.541   01 Jun 2027 03:52:09.983            39.442               Magadan2          1232.563
         9   01 Jun 2027 03:52:09.983   01 Jun 2027 03:52:22.944            12.961               Magadan1           405.031
        10   01 Jun 2027 05:24:39.625   01 Jun 2027 05:24:59.593            19.968               Magadan1           624.000
        11   01 Jun 2027 05:24:59.593   01 Jun 2027 05:25:03.559             3.966               Magadan2           123.938
        12   01 Jun 2027 05:25:04.813   01 Jun 2027 05:25:32.079            27.266                Norilsk           852.063
        13   01 Jun 2027 05:25:39.051   01 Jun 2027 05:28:58.808           199.757               Magadan1          6242.406
        14   01 Jun 2027 06:58:09.054   01 Jun 2027 06:58:38.138            29.084                Norilsk           908.875
        15   01 Jun 2027 06:58:47.529   01 Jun 2027 07:01:50.051           182.522               Magadan2          5703.813
        16   01 Jun 2027 07:01:54.020   01 Jun 2027 07:02:46.881            52.861                Norilsk          1651.906
        17   01 Jun 2027 07:02:57.300   01 Jun 2027 07:04:37.057            99.757               Magadan2          3117.406
        18   01 Jun 2027 07:04:37.219   01 Jun 2027 07:04:56.963            19.744              Murmansk1           617.000
        19   01 Jun 2027 07:07:55.211   01 Jun 2027 07:07:59.987             4.776              Murmansk1           149.250
        20   01 Jun 2027 07:09:46.135   01 Jun 2027 07:10:13.551            27.416              Murmansk2           856.750
        21   01 Jun 2027 07:39:36.586   01 Jun 2027 07:42:35.277           178.691            RioGallegos          5584.094
        22   01 Jun 2027 08:16:16.833   01 Jun 2027 08:17:02.414            45.581                Sumatra          1424.406
        23   01 Jun 2027 08:36:24.606   01 Jun 2027 08:36:50.229            25.623               Magadan2           800.719
        24   01 Jun 2027 08:36:53.600   01 Jun 2027 08:40:31.872           218.272                Irkutsk          6821.000
        25   01 Jun 2027 08:41:32.458   01 Jun 2027 08:42:03.155            30.697                Novosib           959.281
        26   01 Jun 2027 09:15:59.298   01 Jun 2027 09:16:58.370            59.072            RioGallegos          1846.000
        27   01 Jun 2027 09:20:00.243   01 Jun 2027 09:20:05.507             5.264            RioGallegos           164.500
        28   01 Jun 2027 09:20:25.074   01 Jun 2027 09:20:47.752            22.678            RioGallegos           708.688
        29   01 Jun 2027 09:50:21.617   01 Jun 2027 09:51:34.482            72.865                Sumatra          2277.031
        30   01 Jun 2027 10:00:26.964   01 Jun 2027 10:01:10.688            43.724                  Delhi          1366.375
        31   01 Jun 2027 10:12:29.639   01 Jun 2027 10:13:33.124            63.485                Novosib          1983.906
        32   01 Jun 2027 10:13:39.214   01 Jun 2027 10:13:52.328            13.114                Irkutsk           409.812
        33   01 Jun 2027 10:14:14.561   01 Jun 2027 10:16:05.598           111.037                Novosib          3469.906
        34   01 Jun 2027 10:16:16.838   01 Jun 2027 10:16:23.410             6.572                Novosib           205.375
        35   01 Jun 2027 10:16:24.959   01 Jun 2027 10:17:22.047            57.088              Murmansk2          1784.000
        36   01 Jun 2027 11:35:00.993   01 Jun 2027 11:36:14.935            73.942                  Delhi          2310.688
        37   01 Jun 2027 11:49:26.354   01 Jun 2027 11:49:40.647            14.293              Murmansk2           446.656
        38   01 Jun 2027 11:49:49.496   01 Jun 2027 11:53:09.407           199.911                Norilsk          6247.219
        39   01 Jun 2027 11:53:17.289   01 Jun 2027 11:53:22.599             5.310                Novosib           165.937
        40   01 Jun 2027 13:18:49.839   01 Jun 2027 13:21:52.545           182.706                 Moscow          5709.563
        41   01 Jun 2027 13:22:21.050   01 Jun 2027 13:26:33.650           252.600              Murmansk1          7893.750
        42   01 Jun 2027 13:29:22.763   01 Jun 2027 13:29:54.812            32.049                Norilsk          1001.531
        43   01 Jun 2027 13:30:19.024   01 Jun 2027 13:31:32.835            73.811                Norilsk          2306.594
        44   01 Jun 2027 13:34:45.017   01 Jun 2027 13:35:11.504            26.487              Murmansk2           827.719
        45   01 Jun 2027 13:40:14.544   01 Jun 2027 13:40:42.041            27.497                Anadyr2           859.281
        46   01 Jun 2027 14:32:45.173   01 Jun 2027 14:36:20.591           215.418               CapeTown          6731.813
        47   01 Jun 2027 14:40:22.593   01 Jun 2027 14:41:30.714            68.121               CapeTown          2128.781
        48   01 Jun 2027 14:43:49.504   01 Jun 2027 14:44:39.278            49.774               CapeTown          1555.438
        49   01 Jun 2027 15:03:18.120   01 Jun 2027 15:03:59.160            41.040                 Moscow          1282.500
        50   01 Jun 2027 15:04:27.379   01 Jun 2027 15:05:36.291            68.912                 Moscow          2153.500
        51   01 Jun 2027 15:07:14.467   01 Jun 2027 15:09:11.100           116.633              Murmansk1          3644.781
        52   01 Jun 2027 15:13:08.133   01 Jun 2027 15:14:40.812            92.679                Anadyr2          2896.219
        53   01 Jun 2027 15:16:38.787   01 Jun 2027 15:17:16.254            37.467                Anadyr1          1170.844
        54   01 Jun 2027 15:18:34.974   01 Jun 2027 15:19:51.738            76.764                Anadyr2          2398.875
        55   01 Jun 2027 15:19:51.738   01 Jun 2027 15:20:25.448            33.710                Anadyr1          1053.437
        56   01 Jun 2027 15:21:00.354   01 Jun 2027 15:21:43.811            43.457                Anadyr2          1358.031
        57   01 Jun 2027 15:22:07.659   01 Jun 2027 15:22:40.717            33.058                Anadyr2          1033.063
        58   01 Jun 2027 15:23:12.246   01 Jun 2027 15:23:30.432            18.186                Anadyr1           568.312
        59   01 Jun 2027 16:40:03.167   01 Jun 2027 16:41:22.649            79.482              Murmansk1          2483.813
        60   01 Jun 2027 16:42:12.813   01 Jun 2027 16:42:58.310            45.497              Murmansk1          1421.781
        61   01 Jun 2027 16:44:18.433   01 Jun 2027 16:45:02.155            43.722              Murmansk2          1366.313
        62   01 Jun 2027 16:45:06.461   01 Jun 2027 16:45:28.468            22.007              Murmansk2           687.719
        63   01 Jun 2027 16:48:50.408   01 Jun 2027 16:49:25.846            35.438                Anadyr2          1107.437
        64   01 Jun 2027 16:50:15.629   01 Jun 2027 16:50:32.584            16.955                Anadyr2           529.844
        65   01 Jun 2027 16:51:29.804   01 Jun 2027 16:51:59.506            29.702                Anadyr2           928.187
        66   01 Jun 2027 16:52:34.000   01 Jun 2027 16:55:39.368           185.368               Magadan2          5792.750
        67   01 Jun 2027 16:57:24.340   01 Jun 2027 16:57:50.344            26.004               Magadan2           812.625
        68   01 Jun 2027 17:01:05.222   01 Jun 2027 17:01:39.911            34.689                Anadyr2          1084.031
        69   01 Jun 2027 18:24:45.944   01 Jun 2027 18:26:36.519           110.575                Anadyr2          3455.469
        70   01 Jun 2027 18:27:03.797   01 Jun 2027 18:30:08.937           185.140               Magadan1          5785.625
        71   01 Jun 2027 18:31:37.556   01 Jun 2027 18:32:30.413            52.857               Magadan2          1651.781
        72   01 Jun 2027 18:34:05.279   01 Jun 2027 18:35:02.466            57.187               Magadan1          1787.094
        73   01 Jun 2027 18:37:47.906   01 Jun 2027 18:38:14.515            26.609               Magadan1           831.531
        74   01 Jun 2027 18:39:20.358   01 Jun 2027 18:39:31.708            11.350               Magadan1           354.688
        75   01 Jun 2027 18:39:49.316   01 Jun 2027 18:39:50.206             0.890               Magadan2            27.812
        76   01 Jun 2027 19:20:21.779   01 Jun 2027 19:23:20.060           178.281            RioGallegos          5571.281
        77   01 Jun 2027 19:26:54.760   01 Jun 2027 19:27:16.520            21.760            RioGallegos           680.000
        78   01 Jun 2027 20:02:42.332   01 Jun 2027 20:04:24.613           102.281                Norilsk          3196.281
        79   01 Jun 2027 20:05:04.935   01 Jun 2027 20:05:13.730             8.795               Magadan2           274.844
        80   01 Jun 2027 20:05:15.012   01 Jun 2027 20:06:36.052            81.040                Norilsk          2532.500
        81   01 Jun 2027 20:07:21.911   01 Jun 2027 20:07:28.490             6.579                Norilsk           205.594
        82   01 Jun 2027 20:07:39.929   01 Jun 2027 20:08:19.497            39.568                Irkutsk          1236.500
        83   01 Jun 2027 20:08:30.578   01 Jun 2027 20:09:08.269            37.691                Irkutsk          1177.844
        84   01 Jun 2027 20:10:29.117   01 Jun 2027 20:10:50.588            21.471                Irkutsk           670.969
        85   01 Jun 2027 20:12:21.514   01 Jun 2027 20:13:43.963            82.449                Irkutsk          2576.531
        86   01 Jun 2027 20:16:38.823   01 Jun 2027 20:16:47.299             8.476                Irkutsk           264.875
        87   01 Jun 2027 20:23:08.403   01 Jun 2027 20:24:39.703            91.300                Sumatra          2853.125
        88   01 Jun 2027 20:25:15.922   01 Jun 2027 20:25:50.489            34.567                Sumatra          1080.219
        89   01 Jun 2027 20:27:04.627   01 Jun 2027 20:28:20.546            75.919                Sumatra          2372.469
        90   01 Jun 2027 21:39:06.914   01 Jun 2027 21:39:08.482             1.568               Magadan2            49.000
        91   01 Jun 2027 21:39:14.165   01 Jun 2027 21:39:24.207            10.042               Magadan2           313.813
        92   01 Jun 2027 21:39:32.570   01 Jun 2027 21:39:54.231            21.661               Magadan2           676.906
        93   01 Jun 2027 21:40:17.654   01 Jun 2027 21:40:35.275            17.621               Magadan2           550.656
        94   01 Jun 2027 21:42:23.872   01 Jun 2027 21:43:38.013            74.141                Irkutsk          2316.906
        95   01 Jun 2027 21:43:46.584   01 Jun 2027 21:44:19.148            32.564                Novosib          1017.625
        96   01 Jun 2027 21:45:47.234   01 Jun 2027 21:46:10.568            23.334                Novosib           729.188
        97   01 Jun 2027 21:48:09.369   01 Jun 2027 21:48:45.347            35.978                Novosib          1124.312
        98   01 Jun 2027 21:50:28.309   01 Jun 2027 21:52:21.725           113.416                Novosib          3544.250
        99   01 Jun 2027 21:52:22.380   01 Jun 2027 21:53:12.015            49.635                  Delhi          1551.094
       100   01 Jun 2027 21:56:53.718   01 Jun 2027 21:57:55.458            61.740                  Delhi          1929.375
       101   01 Jun 2027 23:10:48.140   01 Jun 2027 23:11:16.967            28.827                Anadyr2           900.844
       102   01 Jun 2027 23:12:07.454   01 Jun 2027 23:12:09.624             2.170                Anadyr2            67.812
       103   01 Jun 2027 23:13:10.678   01 Jun 2027 23:14:05.628            54.950                Anadyr2          1717.187
       104   01 Jun 2027 23:14:31.064   01 Jun 2027 23:15:06.957            35.893                Norilsk          1121.656
       105   01 Jun 2027 23:15:11.962   01 Jun 2027 23:15:43.600            31.638               Magadan1           988.687
       106   01 Jun 2027 23:16:16.126   01 Jun 2027 23:16:28.842            12.716               Magadan2           397.375
       107   01 Jun 2027 23:17:16.623   01 Jun 2027 23:21:03.740           227.117              Murmansk1          7097.406
       108   01 Jun 2027 23:22:51.957   01 Jun 2027 23:23:31.882            39.925              Murmansk1          1247.656
       109   01 Jun 2027 23:30:38.451   01 Jun 2027 23:31:23.287            44.836                  Delhi          1401.125
       110   01 Jun 2027 23:36:49.422   01 Jun 2027 23:38:22.453            93.031                  Delhi          2907.219
       111   02 Jun 2027 00:42:58.938   02 Jun 2027 00:43:15.783            16.845                Anadyr2           526.406
       112   02 Jun 2027 00:44:07.188   02 Jun 2027 00:44:55.404            48.216                Anadyr2          1506.750
       113   02 Jun 2027 00:45:38.673   02 Jun 2027 00:45:41.879             3.206                Anadyr2           100.188
       114   02 Jun 2027 00:45:45.465   02 Jun 2027 00:46:10.515            25.050                Anadyr2           782.812
       115   02 Jun 2027 00:48:51.896   02 Jun 2027 00:50:57.174           125.278               Magadan2          3914.937
       116   02 Jun 2027 00:52:40.585   02 Jun 2027 00:54:12.145            91.560              Murmansk1          2861.250
       117   02 Jun 2027 00:54:28.676   02 Jun 2027 00:55:20.779            52.103              Murmansk2          1628.219
       118   02 Jun 2027 00:56:20.473   02 Jun 2027 00:57:26.686            66.213                 Moscow          2069.156
       119   02 Jun 2027 01:03:41.896   02 Jun 2027 01:03:59.787            17.891                 Moscow           559.094
       120   02 Jun 2027 01:06:09.400   02 Jun 2027 01:06:36.013            26.613                 Moscow           831.656
       121   02 Jun 2027 01:09:20.773   02 Jun 2027 01:09:37.337            16.564                  Delhi           517.625
       122   02 Jun 2027 01:21:54.249   02 Jun 2027 01:22:27.809            33.560               CapeTown          1048.750
       123   02 Jun 2027 01:24:31.358   02 Jun 2027 01:25:38.915            67.557               CapeTown          2111.156
       124   02 Jun 2027 02:16:57.330   02 Jun 2027 02:18:01.915            64.585                Anadyr1          2018.281
       125   02 Jun 2027 02:19:14.916   02 Jun 2027 02:19:21.291             6.375                Anadyr2           199.219
       126   02 Jun 2027 02:19:24.605   02 Jun 2027 02:19:51.466            26.861                Anadyr1           839.406
       127   02 Jun 2027 02:20:29.645   02 Jun 2027 02:21:07.975            38.330               Magadan2          1197.812
       128   02 Jun 2027 02:21:45.565   02 Jun 2027 02:22:06.349            20.784               Magadan2           649.500
       129   02 Jun 2027 02:22:32.913   02 Jun 2027 02:23:12.551            39.638               Magadan2          1238.688
       130   02 Jun 2027 02:26:33.002   02 Jun 2027 02:27:15.294            42.292                Norilsk          1321.625
       131   02 Jun 2027 02:28:36.895   02 Jun 2027 02:28:47.100            10.205              Murmansk1           318.906
       132   02 Jun 2027 02:28:51.262   02 Jun 2027 02:29:26.527            35.265              Murmansk2          1102.031
       133   02 Jun 2027 02:30:16.247   02 Jun 2027 02:30:25.923             9.676              Murmansk2           302.375
       134   02 Jun 2027 02:31:18.261   02 Jun 2027 02:31:50.406            32.145                Novosib          1004.531
       135   02 Jun 2027 02:32:50.549   02 Jun 2027 02:33:04.357            13.808                Novosib           431.500
       136   02 Jun 2027 02:33:45.334   02 Jun 2027 02:33:53.409             8.075              Murmansk2           252.344
       137   02 Jun 2027 02:34:15.637   02 Jun 2027 02:34:57.574            41.937                Novosib          1310.531
       138   02 Jun 2027 02:39:49.842   02 Jun 2027 02:40:31.924            42.082              Murmansk2          1315.062
       139   02 Jun 2027 02:42:27.613   02 Jun 2027 02:43:19.386            51.773                 Moscow          1617.906
       140   02 Jun 2027 03:04:20.136   02 Jun 2027 03:04:37.121            16.985               CapeTown           530.781
       141   02 Jun 2027 03:05:59.190   02 Jun 2027 03:06:17.371            18.181               CapeTown           568.156
       142   02 Jun 2027 03:07:23.205   02 Jun 2027 03:08:25.877            62.672               CapeTown          1958.500
       143   02 Jun 2027 03:58:47.912   02 Jun 2027 04:04:25.328           337.416               Magadan1         10544.250
       144   02 Jun 2027 05:37:32.973   02 Jun 2027 05:38:33.463            60.490                Irkutsk          1890.313
       145   02 Jun 2027 05:38:56.051   02 Jun 2027 05:39:21.012            24.961                Anadyr2           780.031
       146   02 Jun 2027 05:39:43.553   02 Jun 2027 05:40:20.418            36.865                Anadyr2          1152.031
       147   02 Jun 2027 07:13:03.992   02 Jun 2027 07:13:36.747            32.755                Anadyr2          1023.594
       148   02 Jun 2027 07:13:47.129   02 Jun 2027 07:14:58.039            70.910               Magadan2          2215.937
       149   02 Jun 2027 07:14:58.039   02 Jun 2027 07:16:32.222            94.183               Magadan1          2943.219
       150   02 Jun 2027 08:49:25.544   02 Jun 2027 08:50:33.084            67.540                Irkutsk          2110.625
       151   02 Jun 2027 08:50:54.220   02 Jun 2027 08:52:42.189           107.969                Irkutsk          3374.031
       152   02 Jun 2027 09:29:03.281   02 Jun 2027 09:29:13.186             9.905            RioGallegos           309.531
       153   02 Jun 2027 09:32:16.596   02 Jun 2027 09:32:25.282             8.686            RioGallegos           271.438
       154   02 Jun 2027 09:33:16.485   02 Jun 2027 09:33:28.840            12.355            RioGallegos           386.094
       155   02 Jun 2027 09:33:43.493   02 Jun 2027 09:34:20.352            36.859            RioGallegos          1151.844
       156   02 Jun 2027 09:36:37.357   02 Jun 2027 09:37:26.985            49.628            RioGallegos          1550.875
       157   02 Jun 2027 10:02:37.421   02 Jun 2027 10:04:08.596            91.175                Sumatra          2849.219
       158   02 Jun 2027 10:10:58.533   02 Jun 2027 10:12:08.971            70.438                Sumatra          2201.187
       159   02 Jun 2027 10:25:49.574   02 Jun 2027 10:26:05.861            16.287                Novosib           508.969
       160   02 Jun 2027 10:26:08.652   02 Jun 2027 10:26:10.432             1.780                Norilsk            55.625
       161   02 Jun 2027 10:26:16.770   02 Jun 2027 10:26:41.925            25.155                Novosib           786.094
       162   02 Jun 2027 10:26:43.782   02 Jun 2027 10:26:56.503            12.721                Norilsk           397.531
       163   02 Jun 2027 10:27:00.574   02 Jun 2027 10:27:34.301            33.727                Novosib          1053.969
       164   02 Jun 2027 10:27:42.078   02 Jun 2027 10:27:46.628             4.550                Irkutsk           142.187
       165   02 Jun 2027 10:27:52.978   02 Jun 2027 10:28:03.468            10.490                Norilsk           327.813
       166   02 Jun 2027 11:47:28.655   02 Jun 2027 11:50:52.727           204.072                  Delhi          6377.250
       167   02 Jun 2027 12:00:06.001   02 Jun 2027 12:00:13.131             7.130                Norilsk           222.813
       168   02 Jun 2027 12:00:24.159   02 Jun 2027 12:00:32.956             8.797                Novosib           274.906
       169   02 Jun 2027 12:00:53.772   02 Jun 2027 12:00:58.543             4.771                Norilsk           149.094
       170   02 Jun 2027 12:01:11.656   02 Jun 2027 12:01:45.975            34.319                Novosib          1072.469
       171   02 Jun 2027 12:02:12.079   02 Jun 2027 12:02:56.885            44.806                Novosib          1400.188
       172   02 Jun 2027 12:04:05.372   02 Jun 2027 12:05:09.677            64.305                Novosib          2009.531
       173   02 Jun 2027 12:09:32.359   02 Jun 2027 12:09:34.945             2.586                Norilsk            80.812
       174   02 Jun 2027 12:10:39.128   02 Jun 2027 12:10:46.099             6.971              Murmansk2           217.844
       175   02 Jun 2027 13:30:56.784   02 Jun 2027 13:32:14.621            77.837                 Moscow          2432.406
       176   02 Jun 2027 13:32:44.300   02 Jun 2027 13:33:19.741            35.441                 Moscow          1107.531
       177   02 Jun 2027 13:34:28.298   02 Jun 2027 13:36:05.319            97.021              Murmansk1          3031.906
       178   02 Jun 2027 13:36:07.245   02 Jun 2027 13:36:20.361            13.116              Murmansk2           409.875
       179   02 Jun 2027 13:37:37.383   02 Jun 2027 13:37:47.919            10.536              Murmansk1           329.250
       180   02 Jun 2027 13:38:19.771   02 Jun 2027 13:39:11.939            52.168              Murmansk2          1630.250
       181   02 Jun 2027 13:39:26.857   02 Jun 2027 13:40:00.443            33.586              Murmansk1          1049.563
       182   02 Jun 2027 13:40:53.966   02 Jun 2027 13:41:17.665            23.699                Norilsk           740.594
       183   02 Jun 2027 13:41:56.920   02 Jun 2027 13:42:23.341            26.421                Norilsk           825.656
       184   02 Jun 2027 13:43:44.871   02 Jun 2027 13:44:11.090            26.219                Norilsk           819.344
       185   02 Jun 2027 13:50:45.744   02 Jun 2027 13:54:53.241           247.497                Anadyr1          7734.281
       186   02 Jun 2027 15:12:28.278   02 Jun 2027 15:13:04.961            36.683              Murmansk1          1146.344
       187   02 Jun 2027 15:15:44.763   02 Jun 2027 15:16:41.426            56.663              Murmansk2          1770.719
       188   02 Jun 2027 15:22:39.340   02 Jun 2027 15:23:08.677            29.337              Murmansk2           916.781
       189   02 Jun 2027 15:25:05.848   02 Jun 2027 15:26:12.155            66.307                Anadyr2          2072.094
       190   02 Jun 2027 15:26:12.155   02 Jun 2027 15:26:24.266            12.111                Anadyr1           378.469
       191   02 Jun 2027 15:26:42.120   02 Jun 2027 15:28:26.172           104.052                Anadyr1          3251.625
       192   02 Jun 2027 15:35:56.699   02 Jun 2027 15:36:12.457            15.758                Anadyr1           492.437
       193   02 Jun 2027 16:52:54.024   02 Jun 2027 16:55:30.666           156.642              Murmansk2          4895.062
       194   02 Jun 2027 16:57:06.609   02 Jun 2027 16:57:21.456            14.847              Murmansk1           463.969
       195   02 Jun 2027 17:00:51.571   02 Jun 2027 17:02:32.216           100.645                Anadyr1          3145.156
       196   02 Jun 2027 17:03:38.452   02 Jun 2027 17:05:48.323           129.871               Magadan1          4058.469
       197   02 Jun 2027 17:09:25.691   02 Jun 2027 17:09:30.021             4.330               Magadan1           135.313
       198   02 Jun 2027 18:36:47.084   02 Jun 2027 18:38:38.056           110.972                Anadyr2          3467.875
       199   02 Jun 2027 18:39:04.104   02 Jun 2027 18:43:18.700           254.596               Magadan2          7956.125
       200   02 Jun 2027 18:46:36.802   02 Jun 2027 18:47:08.771            31.969               Magadan2           999.031
       201   02 Jun 2027 19:31:54.235   02 Jun 2027 19:35:08.138           193.903            RioGallegos          6059.469
       202   02 Jun 2027 19:37:30.820   02 Jun 2027 19:38:16.137            45.317            RioGallegos          1416.156
       203   02 Jun 2027 20:15:02.994   02 Jun 2027 20:17:00.096           117.102               Magadan2          3659.437
       204   02 Jun 2027 20:17:16.683   02 Jun 2027 20:19:01.005           104.322                Norilsk          3260.063
       205   02 Jun 2027 20:19:10.400   02 Jun 2027 20:21:08.502           118.102                Irkutsk          3690.688
       206   02 Jun 2027 20:21:32.866   02 Jun 2027 20:22:52.994            80.128                Irkutsk          2504.000
       207   02 Jun 2027 20:33:21.030   02 Jun 2027 20:34:27.468            66.438                Sumatra          2076.188
       208   02 Jun 2027 20:35:25.431   02 Jun 2027 20:36:27.166            61.735                Sumatra          1929.219
       209   02 Jun 2027 20:40:05.608   02 Jun 2027 20:40:13.917             8.309                Sumatra           259.656
       210   02 Jun 2027 21:53:16.737   02 Jun 2027 21:53:28.187            11.450               Magadan2           357.812
       211   02 Jun 2027 21:53:28.187   02 Jun 2027 21:53:42.506            14.319               Magadan1           447.469
       212   02 Jun 2027 21:54:10.766   02 Jun 2027 21:54:32.956            22.190               Magadan1           693.437
       213   02 Jun 2027 21:54:48.294   02 Jun 2027 21:56:08.059            79.765                Novosib          2492.656
       214   02 Jun 2027 21:56:20.088   02 Jun 2027 21:57:40.825            80.737                Novosib          2523.031
       215   02 Jun 2027 22:03:21.498   02 Jun 2027 22:04:24.022            62.524                  Delhi          1953.875
       216   02 Jun 2027 22:05:04.586   02 Jun 2027 22:06:13.529            68.943                  Delhi          2154.469
       217   02 Jun 2027 22:09:07.281   02 Jun 2027 22:09:50.495            43.214                  Delhi          1350.438
       218   02 Jun 2027 23:24:32.667   02 Jun 2027 23:24:48.566            15.899                Anadyr1           496.844
       219   02 Jun 2027 23:26:06.799   02 Jun 2027 23:26:32.396            25.597                Anadyr2           799.906
       220   02 Jun 2027 23:26:32.807   02 Jun 2027 23:27:07.536            34.729                Norilsk          1085.281
       221   02 Jun 2027 23:27:14.023   02 Jun 2027 23:28:01.551            47.528                Norilsk          1485.250
       222   02 Jun 2027 23:28:05.204   02 Jun 2027 23:28:07.880             2.676                Norilsk            83.625
       223   02 Jun 2027 23:28:12.176   02 Jun 2027 23:29:10.179            58.003               Magadan1          1812.594
       224   02 Jun 2027 23:30:05.061   02 Jun 2027 23:32:53.667           168.606              Murmansk1          5268.937
       225   02 Jun 2027 23:34:52.725   02 Jun 2027 23:35:08.731            16.006              Murmansk2           500.187
       226   02 Jun 2027 23:40:46.889   02 Jun 2027 23:42:01.643            74.754                  Delhi          2336.063
       227   03 Jun 2027 00:54:41.837   03 Jun 2027 00:55:36.287            54.450                Anadyr1          1701.563
       228   03 Jun 2027 00:55:36.287   03 Jun 2027 00:56:05.672            29.385                Anadyr2           918.281
       229   03 Jun 2027 00:56:49.831   03 Jun 2027 00:57:14.485            24.654                Anadyr2           770.437
       230   03 Jun 2027 00:57:26.688   03 Jun 2027 00:57:43.183            16.495                Anadyr2           515.469
       231   03 Jun 2027 00:57:55.971   03 Jun 2027 00:58:02.833             6.862                Anadyr2           214.438
       232   03 Jun 2027 01:00:22.253   03 Jun 2027 01:00:50.580            28.327               Magadan2           885.219
       233   03 Jun 2027 01:01:28.660   03 Jun 2027 01:03:13.558           104.898               Magadan2          3278.062
       234   03 Jun 2027 01:04:41.399   03 Jun 2027 01:05:43.391            61.992              Murmansk2          1937.250
       235   03 Jun 2027 01:05:46.987   03 Jun 2027 01:06:37.024            50.037              Murmansk1          1563.656
       236   03 Jun 2027 01:07:32.644   03 Jun 2027 01:07:57.450            24.806                Novosib           775.188
       237   03 Jun 2027 01:08:14.268   03 Jun 2027 01:08:23.388             9.120                 Moscow           285.000
       238   03 Jun 2027 01:08:54.829   03 Jun 2027 01:09:18.918            24.089                 Moscow           752.781
       239   03 Jun 2027 01:09:51.505   03 Jun 2027 01:09:57.619             6.114                 Moscow           191.062
       240   03 Jun 2027 01:10:34.744   03 Jun 2027 01:10:54.871            20.127                 Moscow           628.969
       241   03 Jun 2027 01:14:47.619   03 Jun 2027 01:14:56.161             8.542                 Moscow           266.937
       242   03 Jun 2027 01:19:15.690   03 Jun 2027 01:19:29.761            14.071                 Moscow           439.719
       243   03 Jun 2027 01:33:19.069   03 Jun 2027 01:34:12.462            53.393               CapeTown          1668.531
       244   03 Jun 2027 01:37:36.049   03 Jun 2027 01:38:48.663            72.614               CapeTown          2269.188
       245   03 Jun 2027 02:28:50.004   03 Jun 2027 02:30:01.244            71.240                Anadyr2          2226.250
       246   03 Jun 2027 02:31:18.870   03 Jun 2027 02:31:21.665             2.795                Anadyr1            87.344
       247   03 Jun 2027 02:32:01.430   03 Jun 2027 02:32:49.737            48.307               Magadan2          1509.594
       248   03 Jun 2027 02:32:49.737   03 Jun 2027 02:33:08.016            18.279               Magadan1           571.219
       249   03 Jun 2027 02:35:21.646   03 Jun 2027 02:35:42.472            20.826               Magadan2           650.812
       250   03 Jun 2027 02:37:54.871   03 Jun 2027 02:38:04.196             9.325                Norilsk           291.406
       251   03 Jun 2027 02:39:53.696   03 Jun 2027 02:40:03.222             9.526                Norilsk           297.688
       252   03 Jun 2027 02:40:08.383   03 Jun 2027 02:40:38.587            30.204                Norilsk           943.875
       253   03 Jun 2027 02:40:38.654   03 Jun 2027 02:41:19.927            41.273              Murmansk2          1289.781
       254   03 Jun 2027 02:41:21.210   03 Jun 2027 02:41:21.801             0.591              Murmansk2            18.469
       255   03 Jun 2027 02:41:22.236   03 Jun 2027 02:42:15.021            52.785              Murmansk2          1649.531
       256   03 Jun 2027 02:42:54.797   03 Jun 2027 02:43:01.807             7.010              Murmansk2           219.063
       257   03 Jun 2027 02:43:35.428   03 Jun 2027 02:43:54.964            19.536                Novosib           610.500
       258   03 Jun 2027 02:46:19.732   03 Jun 2027 02:46:21.069             1.337                Novosib            41.781
       259   03 Jun 2027 02:49:32.064   03 Jun 2027 02:49:43.781            11.717                 Moscow           366.156
       260   03 Jun 2027 02:50:47.939   03 Jun 2027 02:50:52.115             4.176                 Moscow           130.500
       261   03 Jun 2027 02:50:55.545   03 Jun 2027 02:51:24.465            28.920                 Moscow           903.750
       262   03 Jun 2027 03:07:54.690   03 Jun 2027 03:08:32.988            38.298               CapeTown          1196.812
       263   03 Jun 2027 03:13:55.955   03 Jun 2027 03:14:18.724            22.769               CapeTown           711.531
       264   03 Jun 2027 04:11:06.657   03 Jun 2027 04:12:58.691           112.034               Magadan2          3501.063
       265   03 Jun 2027 04:12:58.691   03 Jun 2027 04:16:08.084           189.393               Magadan1          5918.531
       266   03 Jun 2027 05:49:27.862   03 Jun 2027 05:50:56.473            88.611               Magadan2          2769.094
       267   03 Jun 2027 05:51:21.819   03 Jun 2027 05:52:51.652            89.833                Anadyr2          2807.281
       268   03 Jun 2027 07:23:48.321   03 Jun 2027 07:23:56.855             8.534               Magadan1           266.687
       269   03 Jun 2027 07:24:48.447   03 Jun 2027 07:24:55.011             6.564               Magadan2           205.125
       270   03 Jun 2027 07:25:20.401   03 Jun 2027 07:25:46.587            26.186               Magadan1           818.313
       271   03 Jun 2027 07:26:58.304   03 Jun 2027 07:27:17.264            18.960               Magadan2           592.500
       272   03 Jun 2027 07:27:31.525   03 Jun 2027 07:27:55.376            23.851              Murmansk1           745.344
       273   03 Jun 2027 07:28:04.081   03 Jun 2027 07:28:19.016            14.935              Murmansk1           466.719
       274   03 Jun 2027 07:28:19.016   03 Jun 2027 07:28:25.429             6.413              Murmansk2           200.406
       275   03 Jun 2027 07:32:23.127   03 Jun 2027 07:32:37.029            13.902              Murmansk1           434.438
       276   03 Jun 2027 07:37:36.185   03 Jun 2027 07:37:44.013             7.828              Murmansk2           244.625
       277   03 Jun 2027 08:06:00.691   03 Jun 2027 08:06:41.390            40.699            RioGallegos          1271.844
       278   03 Jun 2027 08:10:39.487   03 Jun 2027 08:11:01.527            22.040            RioGallegos           688.750
       279   03 Jun 2027 08:39:07.706   03 Jun 2027 08:39:54.604            46.898                Sumatra          1465.563
       280   03 Jun 2027 08:40:42.482   03 Jun 2027 08:41:36.800            54.318                Sumatra          1697.437
       281   03 Jun 2027 08:58:54.796   03 Jun 2027 08:59:00.401             5.605                Irkutsk           175.156
       282   03 Jun 2027 09:00:05.185   03 Jun 2027 09:00:16.128            10.943                Irkutsk           341.969
       283   03 Jun 2027 09:00:49.463   03 Jun 2027 09:01:02.020            12.557                Irkutsk           392.406
       284   03 Jun 2027 09:01:11.689   03 Jun 2027 09:01:31.370            19.681                Irkutsk           615.031
       285   03 Jun 2027 09:02:38.638   03 Jun 2027 09:02:47.866             9.228                Irkutsk           288.375
       286   03 Jun 2027 09:03:25.594   03 Jun 2027 09:03:32.799             7.205                Irkutsk           225.156
       287   03 Jun 2027 09:03:38.895   03 Jun 2027 09:04:33.185            54.290              Murmansk2          1696.562
       288   03 Jun 2027 09:40:48.563   03 Jun 2027 09:41:21.991            33.428            RioGallegos          1044.625
       289   03 Jun 2027 09:42:07.452   03 Jun 2027 09:42:40.786            33.334            RioGallegos          1041.687
       290   03 Jun 2027 10:15:00.854   03 Jun 2027 10:16:05.225            64.371                Sumatra          2011.594
       291   03 Jun 2027 10:22:45.014   03 Jun 2027 10:23:37.378            52.364                  Delhi          1636.375
       292   03 Jun 2027 10:37:12.268   03 Jun 2027 10:37:22.497            10.229                Novosib           319.656
       293   03 Jun 2027 10:38:39.218   03 Jun 2027 10:38:44.226             5.008                Norilsk           156.500
       294   03 Jun 2027 10:39:10.560   03 Jun 2027 10:39:10.710             0.150                Novosib             4.687
       295   03 Jun 2027 10:39:24.237   03 Jun 2027 10:39:46.514            22.277                Novosib           696.156
       296   03 Jun 2027 10:39:54.461   03 Jun 2027 10:40:05.234            10.773                Norilsk           336.656
       297   03 Jun 2027 10:40:07.368   03 Jun 2027 10:40:26.177            18.809              Murmansk2           587.781
       298   03 Jun 2027 12:00:06.096   03 Jun 2027 12:01:07.847            61.751                  Delhi          1929.719
       299   03 Jun 2027 12:02:29.226   03 Jun 2027 12:04:50.117           140.891                  Delhi          4402.844
       300   03 Jun 2027 12:15:53.777   03 Jun 2027 12:16:07.262            13.485                Norilsk           421.406
       301   03 Jun 2027 12:16:56.690   03 Jun 2027 12:17:29.917            33.227                Norilsk          1038.344
       302   03 Jun 2027 13:43:06.903   03 Jun 2027 13:43:20.723            13.820                 Moscow           431.875
       303   03 Jun 2027 13:43:42.763   03 Jun 2027 13:44:04.173            21.410                 Moscow           669.063
       304   03 Jun 2027 13:44:10.407   03 Jun 2027 13:44:41.760            31.353                 Moscow           979.781
       305   03 Jun 2027 13:46:37.291   03 Jun 2027 13:48:07.361            90.070              Murmansk1          2814.688
       306   03 Jun 2027 13:48:08.558   03 Jun 2027 13:48:18.252             9.694              Murmansk2           302.937
       307   03 Jun 2027 13:48:55.402   03 Jun 2027 13:49:39.155            43.753              Murmansk1          1367.281
       308   03 Jun 2027 13:52:48.750   03 Jun 2027 13:53:30.637            41.887              Murmansk2          1308.969
       309   03 Jun 2027 13:54:22.012   03 Jun 2027 13:55:52.487            90.475                Norilsk          2827.344
       310   03 Jun 2027 14:02:16.412   03 Jun 2027 14:04:34.244           137.832                Anadyr1          4307.250
       311   03 Jun 2027 14:05:19.394   03 Jun 2027 14:05:35.764            16.370                Anadyr1           511.563
       312   03 Jun 2027 14:07:06.761   03 Jun 2027 14:07:19.143            12.382                Anadyr2           386.938
       313   03 Jun 2027 15:03:34.181   03 Jun 2027 15:04:36.272            62.091               CapeTown          1940.344
       314   03 Jun 2027 15:24:44.338   03 Jun 2027 15:25:08.360            24.022              Murmansk1           750.688
       315   03 Jun 2027 15:27:34.075   03 Jun 2027 15:27:47.343            13.268              Murmansk1           414.625
       316   03 Jun 2027 15:28:04.378   03 Jun 2027 15:28:33.846            29.468                 Moscow           920.875
       317   03 Jun 2027 15:31:16.908   03 Jun 2027 15:31:33.544            16.636              Murmansk2           519.875
       318   03 Jun 2027 15:32:05.179   03 Jun 2027 15:32:19.362            14.183              Murmansk2           443.219
       319   03 Jun 2027 15:33:20.338   03 Jun 2027 15:33:35.060            14.722              Murmansk2           460.062
       320   03 Jun 2027 15:34:57.091   03 Jun 2027 15:35:08.808            11.717              Murmansk2           366.156
       321   03 Jun 2027 15:37:04.376   03 Jun 2027 15:38:42.753            98.377                Anadyr2          3074.281
       322   03 Jun 2027 15:38:42.753   03 Jun 2027 15:39:13.517            30.764                Anadyr1           961.375
       323   03 Jun 2027 15:43:11.741   03 Jun 2027 15:43:30.658            18.917                Anadyr2           591.156
       324   03 Jun 2027 15:47:21.679   03 Jun 2027 15:47:39.375            17.696                Anadyr1           553.000
       325   03 Jun 2027 15:47:47.741   03 Jun 2027 15:48:07.034            19.293                Anadyr1           602.906
       326   03 Jun 2027 16:39:10.206   03 Jun 2027 16:39:23.443            13.237               CapeTown           413.656
       327   03 Jun 2027 16:40:27.664   03 Jun 2027 16:42:24.639           116.975               CapeTown          3655.469
       328   03 Jun 2027 17:05:53.786   03 Jun 2027 17:06:48.917            55.131              Murmansk2          1722.844
       329   03 Jun 2027 17:09:06.172   03 Jun 2027 17:09:18.034            11.862              Murmansk1           370.688
       330   03 Jun 2027 17:09:32.815   03 Jun 2027 17:09:57.329            24.514              Murmansk2           766.062
       331   03 Jun 2027 17:12:52.859   03 Jun 2027 17:14:31.417            98.558                Anadyr2          3079.938
       332   03 Jun 2027 17:15:32.094   03 Jun 2027 17:16:30.272            58.178               Magadan2          1818.062
       333   03 Jun 2027 17:21:05.499   03 Jun 2027 17:21:12.830             7.331               Magadan2           229.094
       334   03 Jun 2027 17:21:29.349   03 Jun 2027 17:22:06.386            37.037               Magadan2          1157.406
       335   03 Jun 2027 18:48:48.063   03 Jun 2027 18:50:39.575           111.512                Anadyr2          3484.750
       336   03 Jun 2027 18:51:04.857   03 Jun 2027 18:55:22.188           257.331               Magadan2          8041.594
       337   03 Jun 2027 19:00:56.788   03 Jun 2027 19:01:13.001            16.213               Magadan1           506.656
       338   03 Jun 2027 19:01:18.656   03 Jun 2027 19:01:26.201             7.545               Magadan1           235.781
       339   03 Jun 2027 19:43:34.659   03 Jun 2027 19:46:59.190           204.531            RioGallegos          6391.594
       340   03 Jun 2027 19:48:29.167   03 Jun 2027 19:49:17.031            47.864            RioGallegos          1495.750
       341   03 Jun 2027 20:24:28.815   03 Jun 2027 20:24:53.826            25.011                Anadyr2           781.594
       342   03 Jun 2027 20:26:40.279   03 Jun 2027 20:30:27.525           227.246                Norilsk          7101.438
       343   03 Jun 2027 20:31:08.553   03 Jun 2027 20:32:06.720            58.167                Irkutsk          1817.719
       344   03 Jun 2027 20:44:56.465   03 Jun 2027 20:46:55.082           118.617                Sumatra          3706.781
       345   03 Jun 2027 20:49:12.815   03 Jun 2027 20:50:14.609            61.794                Sumatra          1931.063
       346   03 Jun 2027 22:03:19.108   03 Jun 2027 22:03:44.622            25.514               Magadan2           797.312
       347   03 Jun 2027 22:04:22.936   03 Jun 2027 22:04:23.711             0.775                Norilsk            24.219
       348   03 Jun 2027 22:04:36.900   03 Jun 2027 22:04:57.683            20.783               Magadan2           649.469
       349   03 Jun 2027 22:05:18.164   03 Jun 2027 22:05:36.767            18.603                Norilsk           581.344
       350   03 Jun 2027 22:05:51.637   03 Jun 2027 22:06:02.367            10.730               Magadan1           335.312
       351   03 Jun 2027 22:06:25.963   03 Jun 2027 22:07:25.448            59.485                Irkutsk          1858.906
       352   03 Jun 2027 22:07:59.275   03 Jun 2027 22:08:34.343            35.068                Novosib          1095.875
       353   03 Jun 2027 22:10:28.238   03 Jun 2027 22:12:08.360           100.122                Novosib          3128.813
       354   03 Jun 2027 22:14:51.133   03 Jun 2027 22:17:31.425           160.292                  Delhi          5009.125
       355   03 Jun 2027 23:34:49.440   03 Jun 2027 23:35:02.260            12.820                Anadyr2           400.625
       356   03 Jun 2027 23:35:06.299   03 Jun 2027 23:35:24.177            17.878                Anadyr2           558.688
       357   03 Jun 2027 23:38:34.420   03 Jun 2027 23:38:37.528             3.108                Norilsk            97.125
       358   03 Jun 2027 23:38:53.236   03 Jun 2027 23:40:38.083           104.847               Magadan2          3276.469
       359   03 Jun 2027 23:40:38.083   03 Jun 2027 23:40:55.629            17.546               Magadan1           548.312
       360   03 Jun 2027 23:41:03.142   03 Jun 2027 23:43:52.409           169.267              Murmansk2          5289.594
       361   03 Jun 2027 23:46:47.592   03 Jun 2027 23:47:30.372            42.780                 Moscow          1336.875
       362   03 Jun 2027 23:49:00.186   03 Jun 2027 23:49:10.677            10.491                 Moscow           327.844
       363   03 Jun 2027 23:50:20.434   03 Jun 2027 23:50:52.118            31.684                 Moscow           990.125
       364   03 Jun 2027 23:59:30.519   03 Jun 2027 23:59:56.478            25.959                  Delhi           811.219
       365   04 Jun 2027 01:06:25.578   04 Jun 2027 01:08:04.703            99.125                Anadyr2          3097.656
       366   04 Jun 2027 01:09:09.477   04 Jun 2027 01:09:36.669            27.192                Anadyr2           849.750
       367   04 Jun 2027 01:11:51.136   04 Jun 2027 01:13:45.241           114.105               Magadan1          3565.781
       368   04 Jun 2027 01:13:55.143   04 Jun 2027 01:14:20.553            25.410               Magadan1           794.062
       369   04 Jun 2027 01:16:42.502   04 Jun 2027 01:17:28.120            45.618              Murmansk1          1425.562
       370   04 Jun 2027 01:17:28.213   04 Jun 2027 01:18:30.758            62.545              Murmansk2          1954.531
       371   04 Jun 2027 01:18:33.612   04 Jun 2027 01:18:37.859             4.247              Murmansk2           132.719
       372   04 Jun 2027 01:19:27.827   04 Jun 2027 01:19:34.825             6.998                Novosib           218.688
       373   04 Jun 2027 01:20:09.726   04 Jun 2027 01:20:19.946            10.220                 Moscow           319.375
       374   04 Jun 2027 01:20:31.491   04 Jun 2027 01:20:42.038            10.547              Murmansk2           329.594
       375   04 Jun 2027 01:21:42.147   04 Jun 2027 01:21:56.210            14.063                 Moscow           439.469
       376   04 Jun 2027 01:22:22.741   04 Jun 2027 01:22:39.132            16.391                 Moscow           512.219
       377   04 Jun 2027 01:26:20.231   04 Jun 2027 01:27:24.373            64.142                Novosib          2004.438
       378   04 Jun 2027 01:46:15.752   04 Jun 2027 01:46:31.152            15.400               CapeTown           481.250
       379   04 Jun 2027 01:48:01.292   04 Jun 2027 01:49:30.105            88.813               CapeTown          2775.406
       380   04 Jun 2027 02:40:44.297   04 Jun 2027 02:42:01.019            76.722                Anadyr1          2397.563
       381   04 Jun 2027 02:43:10.470   04 Jun 2027 02:43:16.063             5.593                Anadyr2           174.781
       382   04 Jun 2027 02:43:34.601   04 Jun 2027 02:44:40.739            66.138               Magadan1          2066.812
       383   04 Jun 2027 02:49:00.570   04 Jun 2027 02:49:13.692            13.122               Magadan1           410.062
       384   04 Jun 2027 02:49:50.636   04 Jun 2027 02:50:07.411            16.775                Norilsk           524.219
       385   04 Jun 2027 02:52:40.373   04 Jun 2027 02:54:13.330            92.957              Murmansk1          2904.906
       386   04 Jun 2027 02:54:26.549   04 Jun 2027 02:54:41.872            15.323              Murmansk1           478.844
       387   04 Jun 2027 02:55:53.329   04 Jun 2027 02:56:27.428            34.099                 Moscow          1065.594
       388   04 Jun 2027 02:59:38.173   04 Jun 2027 02:59:42.371             4.198                 Moscow           131.188
       389   04 Jun 2027 03:00:08.051   04 Jun 2027 03:00:14.175             6.124                Norilsk           191.375
       390   04 Jun 2027 03:00:16.947   04 Jun 2027 03:00:18.674             1.727              Murmansk2            53.969
       391   04 Jun 2027 03:00:30.916   04 Jun 2027 03:01:07.505            36.589                Norilsk          1143.406
       392   04 Jun 2027 03:01:30.914   04 Jun 2027 03:03:12.566           101.652              Murmansk2          3176.625
       393   04 Jun 2027 03:03:12.566   04 Jun 2027 03:03:38.637            26.071              Murmansk1           814.719
       394   04 Jun 2027 04:16:47.553   04 Jun 2027 04:17:07.120            19.567               Magadan1           611.469
       395   04 Jun 2027 04:17:47.292   04 Jun 2027 04:18:00.030            12.738               Magadan1           398.063
       396   04 Jun 2027 04:23:29.799   04 Jun 2027 04:25:06.770            96.971               Magadan1          3030.344
       397   04 Jun 2027 04:25:23.848   04 Jun 2027 04:25:41.035            17.187                Norilsk           537.094
       398   04 Jun 2027 04:25:50.411   04 Jun 2027 04:26:21.592            31.181                Anadyr2           974.406
       399   04 Jun 2027 06:01:17.178   04 Jun 2027 06:01:38.724            21.546               Magadan2           673.312
       400   04 Jun 2027 06:01:53.448   04 Jun 2027 06:02:12.158            18.710                Irkutsk           584.688
       401   04 Jun 2027 06:02:21.190   04 Jun 2027 06:03:09.530            48.340                Norilsk          1510.625
       402   04 Jun 2027 06:03:21.804   04 Jun 2027 06:03:33.794            11.990                Irkutsk           374.687
       403   04 Jun 2027 07:35:15.958   04 Jun 2027 07:35:25.305             9.347               Magadan2           292.094
       404   04 Jun 2027 07:35:28.976   04 Jun 2027 07:36:09.113            40.137               Magadan1          1254.281
       405   04 Jun 2027 07:36:21.041   04 Jun 2027 07:36:40.934            19.893               Magadan2           621.656
       406   04 Jun 2027 07:36:42.602   04 Jun 2027 07:37:22.686            40.084               Magadan1          1252.625
       407   04 Jun 2027 07:37:48.505   04 Jun 2027 07:38:58.017            69.512               Magadan1          2172.250
       408   04 Jun 2027 07:39:14.184   04 Jun 2027 07:39:18.106             3.922                Irkutsk           122.563
       409   04 Jun 2027 07:39:19.759   04 Jun 2027 07:39:42.842            23.083              Murmansk1           721.344
       410   04 Jun 2027 07:39:45.568   04 Jun 2027 07:40:05.775            20.207               Magadan1           631.469
       411   04 Jun 2027 07:40:07.176   04 Jun 2027 07:40:43.382            36.206              Murmansk2          1131.437
       412   04 Jun 2027 08:15:25.116   04 Jun 2027 08:16:15.634            50.518            RioGallegos          1578.688
       413   04 Jun 2027 08:50:47.099   04 Jun 2027 08:51:32.445            45.346                Sumatra          1417.062
       414   04 Jun 2027 08:53:05.577   04 Jun 2027 08:54:06.570            60.993                Sumatra          1906.031
       415   04 Jun 2027 09:13:41.437   04 Jun 2027 09:14:39.316            57.879                Irkutsk          1808.719
       416   04 Jun 2027 09:14:43.390   04 Jun 2027 09:15:08.561            25.171                Irkutsk           786.594
       417   04 Jun 2027 09:15:21.030   04 Jun 2027 09:16:31.340            70.310                Irkutsk          2197.188
       418   04 Jun 2027 09:56:34.312   04 Jun 2027 09:57:03.233            28.921            RioGallegos           903.781
       419   04 Jun 2027 10:27:34.216   04 Jun 2027 10:28:04.147            29.931                Sumatra           935.344
       420   04 Jun 2027 10:31:55.367   04 Jun 2027 10:32:25.678            30.311                Sumatra           947.219
       421   04 Jun 2027 10:47:01.212   04 Jun 2027 10:47:19.819            18.607                  Delhi           581.469
       422   04 Jun 2027 10:48:59.468   04 Jun 2027 10:49:05.901             6.433                Novosib           201.031
       423   04 Jun 2027 10:50:19.164   04 Jun 2027 10:50:24.471             5.307                Norilsk           165.844
       424   04 Jun 2027 10:51:10.558   04 Jun 2027 10:51:56.127            45.569                Norilsk          1424.031
       425   04 Jun 2027 10:52:02.434   04 Jun 2027 10:52:15.964            13.530                Novosib           422.812
       426   04 Jun 2027 12:12:57.397   04 Jun 2027 12:15:19.516           142.119                  Delhi          4441.219
       427   04 Jun 2027 12:21:30.013   04 Jun 2027 12:22:33.894            63.881                Novosib          1996.281
       428   04 Jun 2027 12:24:23.933   04 Jun 2027 12:25:26.855            62.922                Novosib          1966.313
       429   04 Jun 2027 12:30:36.300   04 Jun 2027 12:30:57.650            21.350                Norilsk           667.187
       430   04 Jun 2027 13:35:48.061   04 Jun 2027 13:37:38.919           110.858               CapeTown          3464.312
       431   04 Jun 2027 13:39:17.140   04 Jun 2027 13:40:19.176            62.036               CapeTown          1938.625
       432   04 Jun 2027 13:55:20.392   04 Jun 2027 13:55:58.734            38.342                 Moscow          1198.187
       433   04 Jun 2027 13:56:12.221   04 Jun 2027 13:56:42.057            29.836                 Moscow           932.375
       434   04 Jun 2027 13:58:48.086   04 Jun 2027 13:59:40.547            52.461              Murmansk2          1639.406
       435   04 Jun 2027 14:01:40.907   04 Jun 2027 14:02:23.023            42.116              Murmansk2          1316.125
       436   04 Jun 2027 14:08:27.649   04 Jun 2027 14:09:17.993            50.344              Murmansk2          1573.250
       437   04 Jun 2027 14:13:58.467   04 Jun 2027 14:15:48.178           109.711                Anadyr1          3428.469
       438   04 Jun 2027 14:16:20.553   04 Jun 2027 14:17:35.050            74.497                Anadyr2          2328.031
       439   04 Jun 2027 14:19:07.608   04 Jun 2027 14:20:57.654           110.046                Anadyr2          3438.938
       440   04 Jun 2027 15:37:12.374   04 Jun 2027 15:37:26.537            14.163              Murmansk2           442.594
       441   04 Jun 2027 15:39:16.909   04 Jun 2027 15:39:28.404            11.495              Murmansk1           359.219
       442   04 Jun 2027 15:41:30.518   04 Jun 2027 15:41:46.127            15.609              Murmansk1           487.781
       443   04 Jun 2027 15:49:03.556   04 Jun 2027 15:51:37.989           154.433                Anadyr2          4826.031
       444   04 Jun 2027 15:54:49.474   04 Jun 2027 15:55:33.917            44.443               Magadan1          1388.844
       445   04 Jun 2027 15:55:33.917   04 Jun 2027 15:56:07.974            34.057               Magadan2          1064.281
       446   04 Jun 2027 17:19:14.158   04 Jun 2027 17:21:29.885           135.727              Murmansk1          4241.469
       447   04 Jun 2027 17:24:54.243   04 Jun 2027 17:27:32.596           158.353                Anadyr1          4948.531
       448   04 Jun 2027 17:27:47.564   04 Jun 2027 17:28:20.607            33.043               Magadan1          1032.594
       449   04 Jun 2027 17:28:42.088   04 Jun 2027 17:28:58.241            16.153               Magadan2           504.781
       450   04 Jun 2027 17:28:58.241   04 Jun 2027 17:29:27.840            29.599               Magadan1           924.969
       451   04 Jun 2027 17:33:09.259   04 Jun 2027 17:33:20.284            11.025               Magadan2           344.531
       452   04 Jun 2027 17:38:18.717   04 Jun 2027 17:38:25.266             6.549               Magadan1           204.656
       453   04 Jun 2027 17:38:32.456   04 Jun 2027 17:38:43.820            11.364               Magadan1           355.125
       454   04 Jun 2027 19:00:48.826   04 Jun 2027 19:04:36.011           227.185                Anadyr1          7099.531
       455   04 Jun 2027 19:04:41.199   04 Jun 2027 19:06:25.783           104.584               Magadan2          3268.250
       456   04 Jun 2027 19:06:35.157   04 Jun 2027 19:07:27.087            51.930                Norilsk          1622.813
       457   04 Jun 2027 19:55:20.185   04 Jun 2027 19:58:52.549           212.364            RioGallegos          6636.375
       458   04 Jun 2027 20:04:39.197   04 Jun 2027 20:04:40.919             1.722            RioGallegos            53.813
       459   04 Jun 2027 20:38:24.064   04 Jun 2027 20:38:30.744             6.680                Anadyr2           208.750
       460   04 Jun 2027 20:38:45.489   04 Jun 2027 20:38:48.008             2.519                Norilsk            78.719
       461   04 Jun 2027 20:39:03.187   04 Jun 2027 20:40:41.657            98.470                Norilsk          3077.187
       462   04 Jun 2027 20:40:46.342   04 Jun 2027 20:40:57.488            11.146               Magadan1           348.313
       463   04 Jun 2027 20:41:11.773   04 Jun 2027 20:41:56.938            45.165               Magadan1          1411.406
       464   04 Jun 2027 20:42:52.728   04 Jun 2027 20:43:36.503            43.775                Irkutsk          1367.969
       465   04 Jun 2027 20:44:41.889   04 Jun 2027 20:45:11.555            29.666                Irkutsk           927.063
       466   04 Jun 2027 20:45:23.777   04 Jun 2027 20:48:59.261           215.484                Novosib          6733.875
       467   04 Jun 2027 20:59:14.193   04 Jun 2027 21:00:19.710            65.517                Sumatra          2047.406
       468   04 Jun 2027 22:15:14.008   04 Jun 2027 22:15:24.916            10.908               Magadan2           340.875
       469   04 Jun 2027 22:16:12.025   04 Jun 2027 22:16:17.251             5.226                Anadyr1           163.313
       470   04 Jun 2027 22:16:26.488   04 Jun 2027 22:17:04.591            38.103               Magadan2          1190.719
       471   04 Jun 2027 22:17:40.364   04 Jun 2027 22:17:54.043            13.679               Magadan1           427.469
       472   04 Jun 2027 22:17:59.944   04 Jun 2027 22:18:21.897            21.953                Norilsk           686.031
       473   04 Jun 2027 22:18:28.245   04 Jun 2027 22:19:08.246            40.001                Irkutsk          1250.031
       474   04 Jun 2027 22:20:12.254   04 Jun 2027 22:22:10.114           117.860                Novosib          3683.125
       475   04 Jun 2027 22:26:29.227   04 Jun 2027 22:29:53.177           203.950                  Delhi          6373.438
       476   04 Jun 2027 23:50:35.889   04 Jun 2027 23:52:25.320           109.431                Norilsk          3419.719
       477   04 Jun 2027 23:52:38.027   04 Jun 2027 23:53:00.240            22.213               Magadan2           694.156
       478   04 Jun 2027 23:54:03.824   04 Jun 2027 23:56:39.187           155.363              Murmansk1          4855.094
       479   04 Jun 2027 23:57:29.029   04 Jun 2027 23:57:46.098            17.069              Murmansk1           533.406
       480   04 Jun 2027 23:57:58.439   04 Jun 2027 23:58:51.727            53.288                 Moscow          1665.250
       481   04 Jun 2027 23:59:39.037   05 Jun 2027 00:00:19.634            40.597                 Moscow          1268.656
       482   05 Jun 2027 00:02:35.241   05 Jun 2027 00:02:56.712            21.471                 Moscow           670.969
