uniorb/output/strategy_4/Drop/Drop_KinoSat_111310.txt

KinoSat_111310
-------------------------
    Access    *     Start Time (UTCG)     *     Stop Time (UTCG)  *   Duration (s)        *       Station  *  Data (Mbytes)
         1   01 Jun 2027 04:18:46.545   01 Jun 2027 04:19:21.934            35.389              Murmansk1          1105.906
         2   01 Jun 2027 04:19:40.921   01 Jun 2027 04:20:15.365            34.444              Murmansk2          1076.375
         3   01 Jun 2027 04:20:15.365   01 Jun 2027 04:22:07.361           111.996              Murmansk1          3499.875
         4   01 Jun 2027 04:23:56.834   01 Jun 2027 04:24:38.411            41.577                 Moscow          1299.281
         5   01 Jun 2027 05:42:08.944   01 Jun 2027 05:45:30.936           201.992                Norilsk          6312.250
         6   01 Jun 2027 05:45:40.273   01 Jun 2027 05:46:02.863            22.590              Murmansk2           705.937
         7   01 Jun 2027 05:46:29.027   01 Jun 2027 05:46:39.872            10.845                Norilsk           338.906
         8   01 Jun 2027 05:47:03.203   01 Jun 2027 05:47:19.520            16.317                Norilsk           509.906
         9   01 Jun 2027 05:47:48.434   01 Jun 2027 05:48:24.567            36.133                Norilsk          1129.156
        10   01 Jun 2027 05:48:52.112   01 Jun 2027 05:49:13.451            21.339                Norilsk           666.844
        11   01 Jun 2027 05:49:18.758   01 Jun 2027 05:49:30.982            12.224                Norilsk           382.000
        12   01 Jun 2027 05:49:58.312   01 Jun 2027 05:50:22.707            24.395                Norilsk           762.344
        13   01 Jun 2027 05:51:06.835   01 Jun 2027 05:51:26.787            19.952                Norilsk           623.500
        14   01 Jun 2027 05:54:39.370   01 Jun 2027 05:55:31.632            52.262              Murmansk1          1633.188
        15   01 Jun 2027 07:17:54.797   01 Jun 2027 07:17:58.497             3.700                Norilsk           115.625
        16   01 Jun 2027 07:18:02.507   01 Jun 2027 07:20:09.308           126.801               Magadan2          3962.531
        17   01 Jun 2027 07:20:09.308   01 Jun 2027 07:20:28.016            18.708               Magadan1           584.625
        18   01 Jun 2027 07:20:45.691   01 Jun 2027 07:22:04.552            78.861                Anadyr2          2464.406
        19   01 Jun 2027 08:53:14.107   01 Jun 2027 08:54:34.924            80.817               Magadan2          2525.531
        20   01 Jun 2027 08:54:34.924   01 Jun 2027 08:57:24.745           169.821               Magadan1          5306.906
        21   01 Jun 2027 09:32:31.035   01 Jun 2027 09:33:42.828            71.793            RioGallegos          2243.531
        22   01 Jun 2027 09:35:03.667   01 Jun 2027 09:35:45.850            42.183            RioGallegos          1318.219
        23   01 Jun 2027 10:07:54.531   01 Jun 2027 10:08:34.127            39.596                Sumatra          1237.375
        24   01 Jun 2027 10:09:23.513   01 Jun 2027 10:09:59.288            35.775                Sumatra          1117.969
        25   01 Jun 2027 10:29:12.877   01 Jun 2027 10:33:47.512           274.635                Irkutsk          8582.344
        26   01 Jun 2027 13:42:40.732   01 Jun 2027 13:43:03.250            22.518                Novosib           703.687
        27   01 Jun 2027 14:54:13.441   01 Jun 2027 14:54:43.371            29.930               CapeTown           935.313
        28   01 Jun 2027 14:55:28.215   01 Jun 2027 14:56:12.908            44.693               CapeTown          1396.656
        29   01 Jun 2027 15:16:25.328   01 Jun 2027 15:16:56.003            30.675                 Moscow           958.594
        30   01 Jun 2027 15:17:34.877   01 Jun 2027 15:17:58.101            23.224                 Moscow           725.750
        31   01 Jun 2027 15:20:43.077   01 Jun 2027 15:20:50.991             7.914              Murmansk1           247.312
        32   01 Jun 2027 15:21:01.665   01 Jun 2027 15:21:53.691            52.026              Murmansk1          1625.812
        33   01 Jun 2027 15:26:25.406   01 Jun 2027 15:26:41.397            15.991              Murmansk1           499.719
        34   01 Jun 2027 15:31:04.396   01 Jun 2027 15:32:13.841            69.445                Anadyr1          2170.156
        35   01 Jun 2027 15:32:48.114   01 Jun 2027 15:33:22.042            33.928                Anadyr2          1060.250
        36   01 Jun 2027 15:33:22.886   01 Jun 2027 15:33:28.772             5.886                Anadyr1           183.938
        37   01 Jun 2027 15:33:42.038   01 Jun 2027 15:33:51.943             9.905                Anadyr1           309.531
        38   01 Jun 2027 15:37:28.664   01 Jun 2027 15:37:59.412            30.748                Anadyr1           960.875
        39   01 Jun 2027 16:32:24.999   01 Jun 2027 16:32:48.981            23.982               CapeTown           749.438
        40   01 Jun 2027 16:35:03.746   01 Jun 2027 16:35:44.239            40.493               CapeTown          1265.406
        41   01 Jun 2027 16:52:53.022   01 Jun 2027 16:53:59.628            66.606                 Moscow          2081.437
        42   01 Jun 2027 16:54:51.643   01 Jun 2027 16:55:04.433            12.790              Murmansk1           399.687
        43   01 Jun 2027 16:55:15.543   01 Jun 2027 16:55:59.968            44.425                 Moscow          1388.281
        44   01 Jun 2027 16:57:29.023   01 Jun 2027 16:58:22.674            53.651              Murmansk2          1676.594
        45   01 Jun 2027 17:02:40.390   01 Jun 2027 17:03:05.853            25.463              Murmansk2           795.719
        46   01 Jun 2027 17:06:09.207   01 Jun 2027 17:06:30.017            20.810                Anadyr2           650.313
        47   01 Jun 2027 17:06:30.017   01 Jun 2027 17:06:46.339            16.322                Anadyr1           510.063
        48   01 Jun 2027 17:07:38.509   01 Jun 2027 17:08:00.822            22.313                Anadyr2           697.281
        49   01 Jun 2027 17:08:18.562   01 Jun 2027 17:08:27.001             8.439                Anadyr2           263.719
        50   01 Jun 2027 17:09:40.871   01 Jun 2027 17:09:42.927             2.056                Anadyr1            64.250
        51   01 Jun 2027 17:11:05.692   01 Jun 2027 17:11:18.980            13.288                Anadyr1           415.250
        52   01 Jun 2027 17:12:12.750   01 Jun 2027 17:12:52.719            39.969               Magadan2          1249.031
        53   01 Jun 2027 17:17:01.853   01 Jun 2027 17:17:10.462             8.609                Anadyr1           269.031
        54   01 Jun 2027 17:17:25.260   01 Jun 2027 17:17:58.896            33.636                Anadyr1          1051.125
        55   01 Jun 2027 18:08:45.645   01 Jun 2027 18:09:15.876            30.231               CapeTown           944.719
        56   01 Jun 2027 18:36:06.988   01 Jun 2027 18:38:45.345           158.357              Murmansk2          4948.656
        57   01 Jun 2027 18:42:00.114   01 Jun 2027 18:42:20.168            20.054                Anadyr1           626.688
        58   01 Jun 2027 18:42:55.411   01 Jun 2027 18:43:15.780            20.369                Anadyr1           636.531
        59   01 Jun 2027 18:43:37.878   01 Jun 2027 18:43:56.652            18.774                Anadyr1           586.687
        60   01 Jun 2027 18:44:05.994   01 Jun 2027 18:44:07.947             1.953                Anadyr2            61.031
        61   01 Jun 2027 18:44:33.259   01 Jun 2027 18:47:12.767           159.508               Magadan1          4984.625
        62   01 Jun 2027 18:51:46.416   01 Jun 2027 18:52:26.196            39.780               Magadan2          1243.125
        63   01 Jun 2027 20:17:55.108   01 Jun 2027 20:22:06.377           251.269                Anadyr2          7852.156
        64   01 Jun 2027 20:22:47.243   01 Jun 2027 20:24:08.912            81.669               Magadan2          2552.156
        65   01 Jun 2027 20:24:08.912   01 Jun 2027 20:24:37.800            28.888               Magadan1           902.750
        66   01 Jun 2027 20:25:42.397   01 Jun 2027 20:25:51.659             9.262               Magadan1           289.437
        67   01 Jun 2027 20:26:13.556   01 Jun 2027 20:26:32.582            19.026               Magadan1           594.563
        68   01 Jun 2027 20:29:17.794   01 Jun 2027 20:29:22.293             4.499               Magadan1           140.594
        69   01 Jun 2027 20:29:52.656   01 Jun 2027 20:30:25.042            32.386               Magadan2          1012.063
        70   01 Jun 2027 20:30:44.442   01 Jun 2027 20:30:56.419            11.977               Magadan1           374.281
        71   01 Jun 2027 20:32:05.544   01 Jun 2027 20:32:37.047            31.503               Magadan2           984.469
        72   01 Jun 2027 21:12:26.713   01 Jun 2027 21:14:53.868           147.155            RioGallegos          4598.594
        73   01 Jun 2027 21:18:34.921   01 Jun 2027 21:18:43.715             8.794            RioGallegos           274.812
        74   01 Jun 2027 21:21:44.827   01 Jun 2027 21:21:52.154             7.327            RioGallegos           228.969
        75   01 Jun 2027 21:53:32.883   01 Jun 2027 21:54:18.946            46.063                Anadyr2          1439.469
        76   01 Jun 2027 21:55:45.591   01 Jun 2027 21:55:57.692            12.101                Norilsk           378.156
        77   01 Jun 2027 21:56:14.527   01 Jun 2027 21:58:15.420           120.893               Magadan1          3777.906
        78   01 Jun 2027 21:58:54.136   01 Jun 2027 21:59:24.882            30.746                Norilsk           960.812
        79   01 Jun 2027 21:59:58.920   01 Jun 2027 22:00:50.241            51.321                Irkutsk          1603.781
        80   01 Jun 2027 22:02:12.839   01 Jun 2027 22:02:46.079            33.240                Novosib          1038.750
        81   01 Jun 2027 22:03:12.833   01 Jun 2027 22:03:28.940            16.107                Novosib           503.344
        82   01 Jun 2027 22:05:43.866   01 Jun 2027 22:06:41.275            57.409                Novosib          1794.031
        83   01 Jun 2027 22:17:14.057   01 Jun 2027 22:17:58.129            44.072                Sumatra          1377.250
        84   01 Jun 2027 22:21:18.474   01 Jun 2027 22:22:23.620            65.146                Sumatra          2035.813
        85   01 Jun 2027 23:28:19.909   01 Jun 2027 23:29:58.922            99.013                Anadyr2          3094.156
        86   01 Jun 2027 23:30:46.255   01 Jun 2027 23:31:08.630            22.375                Anadyr2           699.219
        87   01 Jun 2027 23:31:42.196   01 Jun 2027 23:33:36.281           114.085                Norilsk          3565.156
        88   01 Jun 2027 23:35:34.150   01 Jun 2027 23:36:37.653            63.503                Irkutsk          1984.469
        89   01 Jun 2027 23:36:49.580   01 Jun 2027 23:38:18.134            88.554                Novosib          2767.313
        90   01 Jun 2027 23:43:16.544   01 Jun 2027 23:44:27.983            71.439                Novosib          2232.469
        91   01 Jun 2027 23:44:39.581   01 Jun 2027 23:44:58.536            18.955                  Delhi           592.344
        92   01 Jun 2027 23:45:00.670   01 Jun 2027 23:46:50.184           109.514                  Delhi          3422.313
        93   02 Jun 2027 01:01:54.886   02 Jun 2027 01:02:41.415            46.529                Anadyr2          1454.031
        94   02 Jun 2027 01:03:13.989   02 Jun 2027 01:03:54.568            40.579                Anadyr2          1268.094
        95   02 Jun 2027 01:04:23.452   02 Jun 2027 01:04:53.011            29.559                Anadyr1           923.719
        96   02 Jun 2027 01:04:53.011   02 Jun 2027 01:04:53.171             0.160                Anadyr2             5.000
        97   02 Jun 2027 01:07:29.788   02 Jun 2027 01:07:49.168            19.380                Anadyr1           605.625
        98   02 Jun 2027 01:07:49.449   02 Jun 2027 01:07:58.321             8.872                Norilsk           277.250
        99   02 Jun 2027 01:08:22.171   02 Jun 2027 01:09:42.444            80.273               Magadan2          2508.531
       100   02 Jun 2027 01:09:45.727   02 Jun 2027 01:09:46.004             0.277                Norilsk             8.656
       101   02 Jun 2027 01:10:04.839   02 Jun 2027 01:12:36.488           151.649              Murmansk1          4739.031
       102   02 Jun 2027 01:13:15.168   02 Jun 2027 01:14:38.934            83.766                Novosib          2617.687
       103   02 Jun 2027 01:20:54.421   02 Jun 2027 01:21:31.721            37.300                  Delhi          1165.625
       104   02 Jun 2027 01:29:55.925   02 Jun 2027 01:30:28.924            32.999                  Delhi          1031.219
       105   02 Jun 2027 02:35:18.012   02 Jun 2027 02:38:22.314           184.302                Anadyr1          5759.437
       106   02 Jun 2027 02:40:29.705   02 Jun 2027 02:41:50.004            80.299               Magadan2          2509.344
       107   02 Jun 2027 02:43:30.268   02 Jun 2027 02:43:59.379            29.111                Norilsk           909.719
       108   02 Jun 2027 02:45:49.369   02 Jun 2027 02:46:54.609            65.240              Murmansk2          2038.750
       109   02 Jun 2027 02:47:36.255   02 Jun 2027 02:47:48.639            12.384              Murmansk1           387.000
       110   02 Jun 2027 02:48:17.454   02 Jun 2027 02:48:39.843            22.389                Novosib           699.656
       111   02 Jun 2027 02:49:12.518   02 Jun 2027 02:49:39.535            27.017                 Moscow           844.281
       112   02 Jun 2027 02:50:42.374   02 Jun 2027 02:50:57.886            15.512                Novosib           484.750
       113   02 Jun 2027 02:51:46.153   02 Jun 2027 02:51:49.946             3.793                 Moscow           118.531
       114   02 Jun 2027 02:52:18.692   02 Jun 2027 02:53:51.078            92.386                 Moscow          2887.062
       115   02 Jun 2027 04:17:47.212   02 Jun 2027 04:18:16.953            29.741               Magadan2           929.406
       116   02 Jun 2027 04:18:16.953   02 Jun 2027 04:18:37.951            20.998               Magadan1           656.188
       117   02 Jun 2027 04:18:58.213   02 Jun 2027 04:19:24.581            26.368               Magadan1           824.000
       118   02 Jun 2027 04:29:25.467   02 Jun 2027 04:33:17.648           232.181              Murmansk2          7255.656
       119   02 Jun 2027 05:52:20.727   02 Jun 2027 05:55:49.176           208.449                Anadyr1          6514.031
       120   02 Jun 2027 05:56:27.955   02 Jun 2027 05:56:37.957            10.002               Magadan2           312.563
       121   02 Jun 2027 07:30:48.365   02 Jun 2027 07:31:45.806            57.441                Anadyr2          1795.031
       122   02 Jun 2027 07:32:03.739   02 Jun 2027 07:32:30.395            26.656               Magadan2           833.000
       123   02 Jun 2027 07:32:30.395   02 Jun 2027 07:32:56.095            25.700               Magadan1           803.125
       124   02 Jun 2027 09:05:17.502   02 Jun 2027 09:09:04.409           226.907               Magadan1          7090.844
       125   02 Jun 2027 10:41:21.087   02 Jun 2027 10:41:26.123             5.036                Novosib           157.375
       126   02 Jun 2027 10:41:44.534   02 Jun 2027 10:41:51.803             7.269                Norilsk           227.156
       127   02 Jun 2027 10:42:06.790   02 Jun 2027 10:42:27.235            20.445                Norilsk           638.906
       128   02 Jun 2027 10:42:31.922   02 Jun 2027 10:43:17.556            45.634                Irkutsk          1426.062
       129   02 Jun 2027 10:43:33.301   02 Jun 2027 10:43:40.534             7.233                Novosib           226.031
       130   02 Jun 2027 10:44:01.971   02 Jun 2027 10:44:11.290             9.319                Irkutsk           291.219
       131   02 Jun 2027 10:44:16.981   02 Jun 2027 10:44:17.284             0.303                Novosib             9.469
       132   02 Jun 2027 10:44:34.797   02 Jun 2027 10:45:01.646            26.849                Norilsk           839.031
       133   02 Jun 2027 10:45:25.169   02 Jun 2027 10:45:27.569             2.400                Norilsk            75.000
       134   02 Jun 2027 10:45:53.320   02 Jun 2027 10:45:58.410             5.090                Norilsk           159.063
       135   02 Jun 2027 11:23:03.736   02 Jun 2027 11:23:16.493            12.757            RioGallegos           398.656
       136   02 Jun 2027 11:24:07.855   02 Jun 2027 11:24:40.433            32.578            RioGallegos          1018.062
       137   02 Jun 2027 11:28:44.143   02 Jun 2027 11:29:03.218            19.075            RioGallegos           596.094
       138   02 Jun 2027 11:57:23.846   02 Jun 2027 11:57:39.086            15.240                Sumatra           476.250
       139   02 Jun 2027 11:58:00.284   02 Jun 2027 11:59:44.399           104.115                Sumatra          3253.594
       140   02 Jun 2027 12:10:57.477   02 Jun 2027 12:11:35.206            37.729                Novosib          1179.031
       141   02 Jun 2027 12:14:30.666   02 Jun 2027 12:14:55.968            25.302                Novosib           790.688
       142   02 Jun 2027 12:17:18.571   02 Jun 2027 12:17:32.210            13.639                Norilsk           426.219
       143   02 Jun 2027 12:19:22.494   02 Jun 2027 12:19:31.883             9.389                Norilsk           293.406
       144   02 Jun 2027 12:23:01.383   02 Jun 2027 12:23:04.210             2.827                Norilsk            88.344
       145   02 Jun 2027 12:23:46.166   02 Jun 2027 12:24:21.781            35.615                Norilsk          1112.969
       146   02 Jun 2027 13:43:10.790   02 Jun 2027 13:44:27.067            76.277                  Delhi          2383.656
       147   02 Jun 2027 13:46:33.164   02 Jun 2027 13:47:20.568            47.404                  Delhi          1481.375
       148   02 Jun 2027 13:49:21.639   02 Jun 2027 13:50:23.469            61.830                 Moscow          1932.187
       149   02 Jun 2027 13:51:19.871   02 Jun 2027 13:51:39.506            19.635                 Moscow           613.594
       150   02 Jun 2027 13:51:43.882   02 Jun 2027 13:53:27.865           103.983              Murmansk2          3249.469
       151   02 Jun 2027 13:53:44.558   02 Jun 2027 13:55:38.423           113.865                Novosib          3558.281
       152   02 Jun 2027 15:03:53.298   02 Jun 2027 15:06:18.070           144.772               CapeTown          4524.125
       153   02 Jun 2027 15:09:20.573   02 Jun 2027 15:10:39.543            78.970               CapeTown          2467.813
       154   02 Jun 2027 15:28:05.486   02 Jun 2027 15:28:51.163            45.677              Murmansk2          1427.406
       155   02 Jun 2027 15:29:07.468   02 Jun 2027 15:29:38.127            30.659              Murmansk2           958.094
       156   02 Jun 2027 15:34:33.994   02 Jun 2027 15:34:36.689             2.695              Murmansk2            84.219
       157   02 Jun 2027 15:34:56.884   02 Jun 2027 15:36:36.283            99.399              Murmansk1          3106.219
       158   02 Jun 2027 15:42:52.086   02 Jun 2027 15:44:12.774            80.688                Anadyr2          2521.500
       159   02 Jun 2027 15:45:39.633   02 Jun 2027 15:45:53.125            13.492                Anadyr2           421.625
       160   02 Jun 2027 15:46:01.421   02 Jun 2027 15:46:05.034             3.613                Anadyr1           112.906
       161   02 Jun 2027 15:46:05.034   02 Jun 2027 15:46:19.283            14.249                Anadyr2           445.281
       162   02 Jun 2027 16:42:27.111   02 Jun 2027 16:43:24.336            57.225               CapeTown          1788.281
       163   02 Jun 2027 17:06:45.822   02 Jun 2027 17:07:21.954            36.132              Murmansk1          1129.125
       164   02 Jun 2027 17:07:45.161   02 Jun 2027 17:08:13.894            28.733              Murmansk2           897.906
       165   02 Jun 2027 17:08:50.919   02 Jun 2027 17:09:34.856            43.937              Murmansk2          1373.031
       166   02 Jun 2027 17:10:20.218   02 Jun 2027 17:10:55.787            35.569              Murmansk2          1111.531
       167   02 Jun 2027 17:18:09.027   02 Jun 2027 17:19:33.275            84.248                Anadyr2          2632.750
       168   02 Jun 2027 17:19:33.275   02 Jun 2027 17:19:45.758            12.483                Anadyr1           390.094
       169   02 Jun 2027 17:21:38.129   02 Jun 2027 17:21:54.209            16.080                Anadyr1           502.500
       170   02 Jun 2027 17:22:32.979   02 Jun 2027 17:23:56.376            83.397               Magadan2          2606.156
       171   02 Jun 2027 17:23:56.376   02 Jun 2027 17:24:07.505            11.129               Magadan1           347.781
       172   02 Jun 2027 17:24:45.841   02 Jun 2027 17:24:58.419            12.578               Magadan1           393.063
       173   02 Jun 2027 18:54:01.691   02 Jun 2027 18:57:49.322           227.631                Anadyr1          7113.469
       174   02 Jun 2027 18:58:26.666   02 Jun 2027 19:00:59.411           152.745               Magadan2          4773.281
       175   02 Jun 2027 19:05:59.183   02 Jun 2027 19:06:34.892            35.709               Magadan1          1115.906
       176   02 Jun 2027 20:29:55.782   02 Jun 2027 20:33:33.403           217.621                Anadyr1          6800.656
       177   02 Jun 2027 20:33:42.025   02 Jun 2027 20:33:49.196             7.171                Norilsk           224.094
       178   02 Jun 2027 20:33:49.450   02 Jun 2027 20:34:57.039            67.589               Magadan1          2112.156
       179   02 Jun 2027 20:34:57.039   02 Jun 2027 20:35:43.272            46.233               Magadan2          1444.781
       180   02 Jun 2027 20:37:21.333   02 Jun 2027 20:37:26.437             5.104               Magadan2           159.500
       181   02 Jun 2027 20:38:17.777   02 Jun 2027 20:38:36.095            18.318               Magadan2           572.437
       182   02 Jun 2027 20:38:58.454   02 Jun 2027 20:39:08.724            10.270               Magadan1           320.937
       183   02 Jun 2027 20:39:29.782   02 Jun 2027 20:41:02.329            92.547                Irkutsk          2892.094
       184   02 Jun 2027 21:24:15.767   02 Jun 2027 21:25:25.524            69.757            RioGallegos          2179.906
       185   02 Jun 2027 21:25:40.535   02 Jun 2027 21:26:10.623            30.088            RioGallegos           940.250
       186   02 Jun 2027 21:26:57.980   02 Jun 2027 21:27:36.010            38.030            RioGallegos          1188.437
       187   02 Jun 2027 21:33:54.587   02 Jun 2027 21:34:30.936            36.349            RioGallegos          1135.906
       188   02 Jun 2027 22:07:46.276   02 Jun 2027 22:08:16.138            29.862                Norilsk           933.187
       189   02 Jun 2027 22:08:17.462   02 Jun 2027 22:10:18.064           120.602               Magadan2          3768.812
       190   02 Jun 2027 22:11:11.879   02 Jun 2027 22:11:31.638            19.759                Norilsk           617.469
       191   02 Jun 2027 22:11:53.371   02 Jun 2027 22:12:46.342            52.971                Irkutsk          1655.344
       192   02 Jun 2027 22:13:28.179   02 Jun 2027 22:15:19.469           111.290                Novosib          3477.812
       193   02 Jun 2027 22:25:35.641   02 Jun 2027 22:26:19.979            44.338                Sumatra          1385.563
       194   02 Jun 2027 22:33:13.611   02 Jun 2027 22:34:00.984            47.373                Sumatra          1480.406
       195   02 Jun 2027 23:40:07.268   02 Jun 2027 23:41:58.008           110.740                Anadyr2          3460.625
       196   02 Jun 2027 23:42:27.902   02 Jun 2027 23:42:51.253            23.351                Anadyr2           729.719
       197   02 Jun 2027 23:43:44.334   02 Jun 2027 23:44:05.450            21.116                Norilsk           659.875
       198   02 Jun 2027 23:44:22.959   02 Jun 2027 23:45:34.356            71.397               Magadan2          2231.156
       199   02 Jun 2027 23:45:34.356   02 Jun 2027 23:45:35.509             1.153               Magadan1            36.031
       200   02 Jun 2027 23:47:28.122   02 Jun 2027 23:47:53.941            25.819               Magadan2           806.844
       201   02 Jun 2027 23:48:19.880   02 Jun 2027 23:49:49.784            89.904                Novosib          2809.500
       202   02 Jun 2027 23:50:15.751   02 Jun 2027 23:50:35.477            19.726                Novosib           616.438
       203   02 Jun 2027 23:53:21.354   02 Jun 2027 23:54:32.244            70.890                Novosib          2215.313
       204   02 Jun 2027 23:56:31.754   02 Jun 2027 23:57:20.437            48.683                  Delhi          1521.344
       205   03 Jun 2027 00:03:55.982   03 Jun 2027 00:04:14.658            18.676                Sumatra           583.625
       206   03 Jun 2027 00:36:09.697   03 Jun 2027 00:36:46.764            37.067            RioGallegos          1158.344
       207   03 Jun 2027 00:41:46.623   03 Jun 2027 00:43:01.976            75.353            RioGallegos          2354.781
       208   03 Jun 2027 01:13:35.919   03 Jun 2027 01:13:41.162             5.243                Anadyr2           163.844
       209   03 Jun 2027 01:15:13.305   03 Jun 2027 01:16:08.022            54.717                Anadyr2          1709.906
       210   03 Jun 2027 01:16:44.209   03 Jun 2027 01:16:54.193             9.984                Anadyr1           312.000
       211   03 Jun 2027 01:19:09.101   03 Jun 2027 01:19:20.692            11.591                Anadyr1           362.219
       212   03 Jun 2027 01:19:43.274   03 Jun 2027 01:20:00.632            17.358                Norilsk           542.438
       213   03 Jun 2027 01:20:21.766   03 Jun 2027 01:22:26.749           124.983               Magadan2          3905.719
       214   03 Jun 2027 01:23:31.819   03 Jun 2027 01:24:35.084            63.265              Murmansk1          1977.031
       215   03 Jun 2027 01:24:56.592   03 Jun 2027 01:25:42.679            46.087                Novosib          1440.219
       216   03 Jun 2027 01:26:36.395   03 Jun 2027 01:27:06.633            30.238                 Moscow           944.937
       217   03 Jun 2027 01:31:18.089   03 Jun 2027 01:31:35.400            17.311                  Delhi           540.969
       218   03 Jun 2027 01:32:32.004   03 Jun 2027 01:33:12.257            40.253                  Delhi          1257.906
       219   03 Jun 2027 02:47:03.751   03 Jun 2027 02:50:16.448           192.697                Anadyr2          6021.781
       220   03 Jun 2027 02:51:03.681   03 Jun 2027 02:51:23.219            19.538                Anadyr1           610.563
       221   03 Jun 2027 02:51:57.435   03 Jun 2027 02:53:22.016            84.581               Magadan1          2643.156
       222   03 Jun 2027 02:56:26.565   03 Jun 2027 02:56:56.316            29.751                Norilsk           929.719
       223   03 Jun 2027 02:57:50.999   03 Jun 2027 02:58:18.682            27.683              Murmansk2           865.094
       224   03 Jun 2027 02:59:03.732   03 Jun 2027 02:59:13.947            10.215              Murmansk1           319.219
       225   03 Jun 2027 02:59:48.093   03 Jun 2027 03:00:14.780            26.687              Murmansk1           833.969
       226   03 Jun 2027 03:03:34.703   03 Jun 2027 03:04:10.017            35.314                Norilsk          1103.562
       227   03 Jun 2027 03:04:23.617   03 Jun 2027 03:05:26.980            63.363              Murmansk2          1980.094
       228   03 Jun 2027 03:05:26.980   03 Jun 2027 03:07:10.662           103.682              Murmansk1          3240.062
       229   03 Jun 2027 03:07:20.175   03 Jun 2027 03:07:26.786             6.611              Murmansk1           206.594
       230   03 Jun 2027 03:07:50.633   03 Jun 2027 03:09:07.650            77.017                 Moscow          2406.781
       231   03 Jun 2027 03:09:26.080   03 Jun 2027 03:10:04.922            38.842              Murmansk1          1213.812
       232   03 Jun 2027 03:10:44.032   03 Jun 2027 03:12:00.539            76.507                 Moscow          2390.844
       233   03 Jun 2027 03:25:21.030   03 Jun 2027 03:28:46.700           205.670               CapeTown          6427.188
       234   03 Jun 2027 04:21:44.345   03 Jun 2027 04:24:14.564           150.219                Anadyr1          4694.344
       235   03 Jun 2027 04:25:02.708   03 Jun 2027 04:25:19.500            16.792                Anadyr1           524.750
       236   03 Jun 2027 04:28:42.342   03 Jun 2027 04:29:30.921            48.579                Anadyr1          1518.094
       237   03 Jun 2027 04:30:19.746   03 Jun 2027 04:31:26.067            66.321               Magadan1          2072.531
       238   03 Jun 2027 04:41:09.246   03 Jun 2027 04:41:26.219            16.973              Murmansk2           530.406
       239   03 Jun 2027 06:02:48.873   03 Jun 2027 06:02:53.839             4.966                Anadyr2           155.187
       240   03 Jun 2027 06:03:04.412   03 Jun 2027 06:04:12.004            67.592                Anadyr2          2112.250
       241   03 Jun 2027 06:04:40.345   03 Jun 2027 06:05:09.150            28.805                Anadyr2           900.156
       242   03 Jun 2027 06:05:35.281   03 Jun 2027 06:07:04.986            89.705                Anadyr1          2803.281
       243   03 Jun 2027 06:07:04.986   03 Jun 2027 06:07:44.448            39.462                Anadyr2          1233.187
       244   03 Jun 2027 06:08:08.162   03 Jun 2027 06:08:27.657            19.495               Magadan2           609.219
       245   03 Jun 2027 07:38:05.205   03 Jun 2027 07:38:13.886             8.681               Magadan1           271.281
       246   03 Jun 2027 07:38:29.325   03 Jun 2027 07:39:05.953            36.628                Anadyr1          1144.625
       247   03 Jun 2027 07:39:39.067   03 Jun 2027 07:41:03.523            84.456                Anadyr2          2639.250
       248   03 Jun 2027 07:41:09.423   03 Jun 2027 07:41:14.419             4.996               Magadan2           156.125
       249   03 Jun 2027 07:41:37.737   03 Jun 2027 07:42:24.505            46.768                Anadyr1          1461.500
       250   03 Jun 2027 07:42:35.674   03 Jun 2027 07:42:55.255            19.581               Magadan2           611.906
       251   03 Jun 2027 07:42:56.328   03 Jun 2027 07:43:56.821            60.493                Anadyr2          1890.406
       252   03 Jun 2027 07:44:27.113   03 Jun 2027 07:44:32.527             5.414               Magadan2           169.188
       253   03 Jun 2027 07:44:45.658   03 Jun 2027 07:45:21.125            35.467                Anadyr1          1108.344
       254   03 Jun 2027 08:21:39.482   03 Jun 2027 08:21:52.263            12.781            RioGallegos           399.406
       255   03 Jun 2027 08:23:16.689   03 Jun 2027 08:23:40.188            23.499            RioGallegos           734.344
       256   03 Jun 2027 08:29:46.372   03 Jun 2027 08:30:27.595            41.223            RioGallegos          1288.219
       257   03 Jun 2027 09:14:42.546   03 Jun 2027 09:15:19.255            36.709               Magadan1          1147.156
       258   03 Jun 2027 09:17:46.222   03 Jun 2027 09:17:53.331             7.109               Magadan2           222.156
       259   03 Jun 2027 09:18:03.377   03 Jun 2027 09:18:56.460            53.083                Irkutsk          1658.844
       260   03 Jun 2027 09:19:20.613   03 Jun 2027 09:19:43.186            22.573                Irkutsk           705.406
       261   03 Jun 2027 09:20:00.290   03 Jun 2027 09:20:50.790            50.500                Irkutsk          1578.125
       262   03 Jun 2027 09:20:56.887   03 Jun 2027 09:21:11.110            14.223                Irkutsk           444.469
       263   03 Jun 2027 09:21:41.963   03 Jun 2027 09:21:54.640            12.677                Irkutsk           396.156
       264   03 Jun 2027 09:56:39.473   03 Jun 2027 09:56:50.830            11.357            RioGallegos           354.906
       265   03 Jun 2027 09:57:33.227   03 Jun 2027 09:58:04.653            31.426            RioGallegos           982.063
       266   03 Jun 2027 09:59:42.687   03 Jun 2027 09:59:50.138             7.451            RioGallegos           232.844
       267   03 Jun 2027 10:03:29.312   03 Jun 2027 10:03:47.148            17.836            RioGallegos           557.375
       268   03 Jun 2027 10:31:32.388   03 Jun 2027 10:32:22.882            50.494                Sumatra          1577.938
       269   03 Jun 2027 10:34:35.845   03 Jun 2027 10:34:50.560            14.715                Sumatra           459.844
       270   03 Jun 2027 10:45:00.608   03 Jun 2027 10:45:43.524            42.916                  Delhi          1341.125
       271   03 Jun 2027 10:53:33.892   03 Jun 2027 10:53:38.891             4.999                Novosib           156.219
       272   03 Jun 2027 10:53:44.088   03 Jun 2027 10:54:18.829            34.741                Novosib          1085.656
       273   03 Jun 2027 10:54:56.752   03 Jun 2027 10:55:27.622            30.870                Novosib           964.687
       274   03 Jun 2027 10:55:31.165   03 Jun 2027 10:55:37.197             6.032                Novosib           188.500
       275   03 Jun 2027 10:55:41.839   03 Jun 2027 10:55:55.847            14.008                Novosib           437.750
       276   03 Jun 2027 10:56:12.233   03 Jun 2027 10:57:24.907            72.674                Novosib          2271.063
       277   03 Jun 2027 10:57:31.415   03 Jun 2027 10:58:42.897            71.482                Novosib          2233.813
       278   03 Jun 2027 11:37:32.959   03 Jun 2027 11:37:49.534            16.575            RioGallegos           517.969
       279   03 Jun 2027 11:39:56.489   03 Jun 2027 11:40:33.097            36.608            RioGallegos          1144.000
       280   03 Jun 2027 12:10:38.647   03 Jun 2027 12:11:37.712            59.065                Sumatra          1845.781
       281   03 Jun 2027 12:23:15.123   03 Jun 2027 12:24:08.106            52.983                Novosib          1655.719
       282   03 Jun 2027 12:26:03.588   03 Jun 2027 12:26:31.587            27.999                Novosib           874.969
       283   03 Jun 2027 12:27:19.192   03 Jun 2027 12:27:34.307            15.115                Norilsk           472.344
       284   03 Jun 2027 12:28:44.800   03 Jun 2027 12:30:08.619            83.819                Irkutsk          2619.344
       285   03 Jun 2027 14:00:08.516   03 Jun 2027 14:01:23.533            75.017                 Moscow          2344.281
       286   03 Jun 2027 14:01:27.672   03 Jun 2027 14:03:52.461           144.789                 Moscow          4524.656
       287   03 Jun 2027 14:04:05.535   03 Jun 2027 14:06:02.709           117.174              Murmansk1          3661.688
       288   03 Jun 2027 14:06:05.115   03 Jun 2027 14:07:45.723           100.608                Novosib          3144.000
       289   03 Jun 2027 15:15:11.896   03 Jun 2027 15:17:35.209           143.313               CapeTown          4478.531
       290   03 Jun 2027 15:37:02.521   03 Jun 2027 15:37:15.341            12.820                 Moscow           400.625
       291   03 Jun 2027 15:37:40.144   03 Jun 2027 15:38:14.135            33.991                 Moscow          1062.219
       292   03 Jun 2027 15:40:20.015   03 Jun 2027 15:40:52.039            32.024              Murmansk1          1000.750
       293   03 Jun 2027 15:45:43.862   03 Jun 2027 15:45:50.675             6.813              Murmansk2           212.906
       294   03 Jun 2027 15:46:38.049   03 Jun 2027 15:46:58.673            20.624              Murmansk1           644.500
       295   03 Jun 2027 15:47:28.184   03 Jun 2027 15:48:33.678            65.494              Murmansk1          2046.688
       296   03 Jun 2027 15:54:43.362   03 Jun 2027 15:56:44.097           120.735                Anadyr2          3772.969
       297   03 Jun 2027 15:58:35.572   03 Jun 2027 15:58:56.997            21.425                Anadyr1           669.531
       298   03 Jun 2027 16:52:07.534   03 Jun 2027 16:52:42.617            35.083               CapeTown          1096.344
       299   03 Jun 2027 16:58:33.566   03 Jun 2027 16:58:56.941            23.375               CapeTown           730.469
       300   03 Jun 2027 17:19:19.337   03 Jun 2027 17:20:28.951            69.614              Murmansk2          2175.438
       301   03 Jun 2027 17:20:52.032   03 Jun 2027 17:22:16.353            84.321              Murmansk2          2635.031
       302   03 Jun 2027 17:27:13.421   03 Jun 2027 17:28:12.660            59.239              Murmansk2          1851.219
       303   03 Jun 2027 17:30:09.285   03 Jun 2027 17:30:32.458            23.173                Anadyr1           724.156
       304   03 Jun 2027 17:31:09.156   03 Jun 2027 17:31:19.366            10.210                Anadyr2           319.063
       305   03 Jun 2027 17:31:24.968   03 Jun 2027 17:31:26.679             1.711                Anadyr2            53.469
       306   03 Jun 2027 17:33:57.501   03 Jun 2027 17:35:52.721           115.220               Magadan1          3600.625
       307   03 Jun 2027 17:35:57.790   03 Jun 2027 17:35:58.087             0.297               Magadan1             9.281
       308   03 Jun 2027 17:36:09.891   03 Jun 2027 17:36:21.909            12.018               Magadan1           375.563
       309   03 Jun 2027 19:06:03.280   03 Jun 2027 19:09:50.747           227.467                Anadyr1          7108.344
       310   03 Jun 2027 19:10:17.365   03 Jun 2027 19:11:58.822           101.457               Magadan2          3170.531
       311   03 Jun 2027 19:11:58.822   03 Jun 2027 19:13:35.361            96.539               Magadan1          3016.844
       312   03 Jun 2027 20:41:56.155   03 Jun 2027 20:45:32.792           216.637                Anadyr1          6769.906
       313   03 Jun 2027 20:45:42.068   03 Jun 2027 20:46:08.337            26.269                Anadyr1           820.906
       314   03 Jun 2027 20:46:19.006   03 Jun 2027 20:46:31.713            12.707               Magadan1           397.094
       315   03 Jun 2027 20:46:56.899   03 Jun 2027 20:47:37.223            40.324                Anadyr1          1260.125
       316   03 Jun 2027 20:47:38.002   03 Jun 2027 20:48:04.600            26.598               Magadan1           831.187
       317   03 Jun 2027 20:48:30.509   03 Jun 2027 20:49:20.925            50.416                Norilsk          1575.500
       318   03 Jun 2027 20:50:08.266   03 Jun 2027 20:51:26.744            78.478                Irkutsk          2452.437
       319   03 Jun 2027 20:52:04.901   03 Jun 2027 20:52:22.141            17.240                Irkutsk           538.750
       320   03 Jun 2027 20:52:38.544   03 Jun 2027 20:52:40.079             1.535                Irkutsk            47.969
       321   03 Jun 2027 20:53:44.805   03 Jun 2027 20:55:32.146           107.341                Irkutsk          3354.406
       322   03 Jun 2027 22:17:24.995   03 Jun 2027 22:18:08.891            43.896                Anadyr2          1371.750
       323   03 Jun 2027 22:18:32.694   03 Jun 2027 22:19:49.250            76.556                Anadyr2          2392.375
       324   03 Jun 2027 22:20:07.929   03 Jun 2027 22:21:46.752            98.823                Norilsk          3088.219
       325   03 Jun 2027 22:22:24.089   03 Jun 2027 22:22:26.104             2.015               Magadan2            62.969
       326   03 Jun 2027 22:23:16.567   03 Jun 2027 22:23:52.980            36.413               Magadan1          1137.906
       327   03 Jun 2027 22:25:00.779   03 Jun 2027 22:25:38.929            38.150                Irkutsk          1192.187
       328   03 Jun 2027 22:25:41.573   03 Jun 2027 22:27:01.318            79.745                Novosib          2492.031
       329   03 Jun 2027 22:27:23.077   03 Jun 2027 22:27:38.663            15.586                Novosib           487.063
       330   03 Jun 2027 22:37:30.565   03 Jun 2027 22:38:02.546            31.981                Sumatra           999.406
       331   03 Jun 2027 22:40:27.836   03 Jun 2027 22:40:37.216             9.380                Sumatra           293.125
       332   03 Jun 2027 22:41:37.152   03 Jun 2027 22:41:45.328             8.176                Sumatra           255.500
       333   03 Jun 2027 22:44:15.570   03 Jun 2027 22:46:02.968           107.398                Sumatra          3356.188
       334   03 Jun 2027 23:51:53.365   03 Jun 2027 23:52:29.743            36.378                Anadyr1          1136.812
       335   03 Jun 2027 23:52:34.316   03 Jun 2027 23:52:59.960            25.644                Anadyr2           801.375
       336   03 Jun 2027 23:54:28.871   03 Jun 2027 23:54:49.026            20.155                Anadyr2           629.844
       337   03 Jun 2027 23:55:46.477   03 Jun 2027 23:56:05.872            19.395                Norilsk           606.094
       338   03 Jun 2027 23:56:24.568   03 Jun 2027 23:58:03.843            99.275               Magadan1          3102.344
       339   03 Jun 2027 23:59:39.566   04 Jun 2027 00:00:55.768            76.202                Novosib          2381.313
       340   04 Jun 2027 00:01:12.148   04 Jun 2027 00:01:17.717             5.569              Murmansk1           174.031
       341   04 Jun 2027 00:04:37.767   04 Jun 2027 00:04:55.275            17.508                Novosib           547.125
       342   04 Jun 2027 00:07:09.426   04 Jun 2027 00:09:15.550           126.124                  Delhi          3941.375
       343   04 Jun 2027 00:48:20.856   04 Jun 2027 00:48:54.372            33.516            RioGallegos          1047.375
       344   04 Jun 2027 00:51:17.203   04 Jun 2027 00:51:43.090            25.887            RioGallegos           808.969
       345   04 Jun 2027 00:52:41.368   04 Jun 2027 00:53:45.662            64.294            RioGallegos          2009.187
       346   04 Jun 2027 01:25:16.965   04 Jun 2027 01:25:41.501            24.536                Anadyr1           766.750
       347   04 Jun 2027 01:26:32.573   04 Jun 2027 01:26:50.986            18.413                Anadyr1           575.406
       348   04 Jun 2027 01:27:32.233   04 Jun 2027 01:27:51.700            19.467                Anadyr2           608.344
       349   04 Jun 2027 01:28:10.435   04 Jun 2027 01:28:16.365             5.930                Anadyr1           185.313
       350   04 Jun 2027 01:28:21.829   04 Jun 2027 01:28:32.893            11.064                Anadyr2           345.750
       351   04 Jun 2027 01:30:46.657   04 Jun 2027 01:30:55.480             8.823                Anadyr1           275.719
       352   04 Jun 2027 01:31:01.555   04 Jun 2027 01:31:09.688             8.133                Anadyr1           254.156
       353   04 Jun 2027 01:31:28.398   04 Jun 2027 01:33:07.732            99.334               Magadan2          3104.188
       354   04 Jun 2027 01:33:40.325   04 Jun 2027 01:33:58.529            18.204               Magadan2           568.875
       355   04 Jun 2027 01:34:01.480   04 Jun 2027 01:34:23.742            22.262              Murmansk2           695.688
       356   04 Jun 2027 01:35:24.470   04 Jun 2027 01:36:29.362            64.892              Murmansk1          2027.875
       357   04 Jun 2027 01:37:05.431   04 Jun 2027 01:37:57.816            52.385                Novosib          1637.031
       358   04 Jun 2027 01:41:09.027   04 Jun 2027 01:41:13.903             4.876                 Moscow           152.375
       359   04 Jun 2027 01:41:18.989   04 Jun 2027 01:41:38.899            19.910                Irkutsk           622.188
       360   04 Jun 2027 01:43:37.506   04 Jun 2027 01:44:01.798            24.292                  Delhi           759.125
       361   04 Jun 2027 01:46:51.998   04 Jun 2027 01:47:13.819            21.821                  Delhi           681.906
       362   04 Jun 2027 01:49:02.138   04 Jun 2027 01:49:42.779            40.641                  Delhi          1270.031
       363   04 Jun 2027 02:08:22.163   04 Jun 2027 02:09:48.301            86.138               CapeTown          2691.812
       364   04 Jun 2027 02:58:50.690   04 Jun 2027 02:59:44.695            54.005                Anadyr1          1687.656
       365   04 Jun 2027 03:02:08.172   04 Jun 2027 03:02:08.627             0.455                Anadyr1            14.219
       366   04 Jun 2027 03:03:53.080   04 Jun 2027 03:04:20.360            27.280               Magadan1           852.500
       367   04 Jun 2027 03:17:33.519   04 Jun 2027 03:17:46.723            13.204                Novosib           412.625
       368   04 Jun 2027 03:17:49.447   04 Jun 2027 03:18:38.163            48.716              Murmansk2          1522.375
       369   04 Jun 2027 03:18:40.717   04 Jun 2027 03:19:16.852            36.135                Norilsk          1129.219
       370   04 Jun 2027 03:20:29.997   04 Jun 2027 03:20:45.489            15.492                 Moscow           484.125
       371   04 Jun 2027 03:21:23.656   04 Jun 2027 03:23:57.637           153.981                 Moscow          4811.906
       372   04 Jun 2027 03:37:09.902   04 Jun 2027 03:40:47.575           217.673               CapeTown          6802.281
       373   04 Jun 2027 04:33:43.807   04 Jun 2027 04:37:34.225           230.418                Anadyr2          7200.562
       374   04 Jun 2027 04:38:20.296   04 Jun 2027 04:40:04.044           103.748               Magadan1          3242.125
       375   04 Jun 2027 04:40:36.902   04 Jun 2027 04:43:30.049           173.147               Magadan2          5410.844
       376   04 Jun 2027 06:14:26.959   04 Jun 2027 06:16:04.702            97.743                Anadyr1          3054.469
       377   04 Jun 2027 06:16:18.812   04 Jun 2027 06:16:29.285            10.473               Magadan1           327.281
       378   04 Jun 2027 06:16:30.007   04 Jun 2027 06:17:06.273            36.266               Magadan2          1133.312
       379   04 Jun 2027 06:17:10.956   04 Jun 2027 06:17:39.790            28.834                Anadyr2           901.062
       380   04 Jun 2027 06:17:52.610   04 Jun 2027 06:18:49.013            56.403                Anadyr2          1762.594
       381   04 Jun 2027 06:19:01.712   04 Jun 2027 06:19:17.851            16.139               Magadan2           504.344
       382   04 Jun 2027 06:19:38.246   04 Jun 2027 06:20:18.780            40.534               Magadan2          1266.687
       383   04 Jun 2027 07:49:04.598   04 Jun 2027 07:49:35.977            31.379               Magadan1           980.594
       384   04 Jun 2027 07:49:42.572   04 Jun 2027 07:50:27.808            45.236               Magadan2          1413.625
       385   04 Jun 2027 07:50:39.379   04 Jun 2027 07:50:43.149             3.770               Magadan2           117.813
       386   04 Jun 2027 07:50:46.653   04 Jun 2027 07:51:07.864            21.211                Anadyr2           662.844
       387   04 Jun 2027 07:51:17.332   04 Jun 2027 07:53:03.949           106.617                Anadyr1          3331.781
       388   04 Jun 2027 07:53:14.549   04 Jun 2027 07:54:25.252            70.703               Magadan2          2209.469
       389   04 Jun 2027 07:54:38.888   04 Jun 2027 07:55:28.252            49.364               Magadan1          1542.625
       390   04 Jun 2027 07:55:35.888   04 Jun 2027 07:55:43.709             7.821               Magadan2           244.406
       391   04 Jun 2027 07:56:10.189   04 Jun 2027 07:56:44.805            34.616                Anadyr2          1081.750
       392   04 Jun 2027 07:57:05.481   04 Jun 2027 07:57:47.731            42.250               Magadan2          1320.313
       393   04 Jun 2027 08:33:22.695   04 Jun 2027 08:33:59.524            36.829            RioGallegos          1150.906
       394   04 Jun 2027 09:12:17.548   04 Jun 2027 09:13:06.864            49.316                Sumatra          1541.125
       395   04 Jun 2027 09:26:44.899   04 Jun 2027 09:27:23.246            38.347               Magadan2          1198.344
       396   04 Jun 2027 09:28:38.357   04 Jun 2027 09:29:36.316            57.959               Magadan1          1811.219
       397   04 Jun 2027 09:29:57.476   04 Jun 2027 09:30:06.653             9.177                Irkutsk           286.781
       398   04 Jun 2027 09:30:30.503   04 Jun 2027 09:30:49.426            18.923                Irkutsk           591.344
       399   04 Jun 2027 09:30:53.840   04 Jun 2027 09:31:52.704            58.864                Irkutsk          1839.500
       400   04 Jun 2027 09:32:00.319   04 Jun 2027 09:33:11.188            70.869                Irkutsk          2214.656
       401   04 Jun 2027 09:33:26.671   04 Jun 2027 09:33:28.499             1.828                Irkutsk            57.125
       402   04 Jun 2027 09:33:45.502   04 Jun 2027 09:33:51.520             6.018                Irkutsk           188.063
       403   04 Jun 2027 09:33:57.070   04 Jun 2027 09:34:16.182            19.112                Novosib           597.250
       404   04 Jun 2027 10:08:49.014   04 Jun 2027 10:09:25.480            36.466            RioGallegos          1139.562
       405   04 Jun 2027 10:15:08.079   04 Jun 2027 10:15:24.900            16.821            RioGallegos           525.656
       406   04 Jun 2027 10:43:30.148   04 Jun 2027 10:44:07.354            37.206                Sumatra          1162.687
       407   04 Jun 2027 10:46:00.674   04 Jun 2027 10:46:24.079            23.405                Sumatra           731.406
       408   04 Jun 2027 10:48:00.392   04 Jun 2027 10:48:12.236            11.844                Sumatra           370.125
       409   04 Jun 2027 10:56:54.145   04 Jun 2027 10:58:06.124            71.979                  Delhi          2249.344
       410   04 Jun 2027 11:06:08.122   04 Jun 2027 11:06:48.960            40.838                Irkutsk          1276.187
       411   04 Jun 2027 11:07:08.827   04 Jun 2027 11:07:21.251            12.424                Novosib           388.250
       412   04 Jun 2027 11:07:31.236   04 Jun 2027 11:07:35.914             4.678                Irkutsk           146.187
       413   04 Jun 2027 11:07:37.110   04 Jun 2027 11:07:40.599             3.489                Novosib           109.031
       414   04 Jun 2027 11:07:56.758   04 Jun 2027 11:08:16.788            20.030                Irkutsk           625.937
       415   04 Jun 2027 11:08:47.284   04 Jun 2027 11:09:00.872            13.588                Novosib           424.625
       416   04 Jun 2027 11:09:07.151   04 Jun 2027 11:09:28.830            21.679                Norilsk           677.469
       417   04 Jun 2027 11:09:36.878   04 Jun 2027 11:10:50.389            73.511                Novosib          2297.219
       418   04 Jun 2027 11:49:54.992   04 Jun 2027 11:50:40.388            45.396            RioGallegos          1418.625
       419   04 Jun 2027 12:29:49.620   04 Jun 2027 12:30:02.102            12.482                  Delhi           390.062
       420   04 Jun 2027 12:30:49.445   04 Jun 2027 12:32:06.506            77.061                  Delhi          2408.156
       421   04 Jun 2027 12:35:36.718   04 Jun 2027 12:35:54.644            17.926                Novosib           560.187
       422   04 Jun 2027 12:38:07.565   04 Jun 2027 12:39:43.018            95.453                Novosib          2982.906
       423   04 Jun 2027 12:43:07.595   04 Jun 2027 12:43:22.700            15.105                Norilsk           472.031
       424   04 Jun 2027 12:43:58.290   04 Jun 2027 12:45:01.105            62.815                Norilsk          1962.969
       425   04 Jun 2027 14:12:06.540   04 Jun 2027 14:13:22.815            76.275                 Moscow          2383.594
       426   04 Jun 2027 14:14:41.165   04 Jun 2027 14:15:57.453            76.288                 Moscow          2384.000
       427   04 Jun 2027 14:16:33.679   04 Jun 2027 14:18:18.150           104.471              Murmansk1          3264.719
       428   04 Jun 2027 14:19:19.894   04 Jun 2027 14:19:50.356            30.462              Murmansk2           951.938
       429   04 Jun 2027 14:20:31.088   04 Jun 2027 14:21:26.091            55.003                Norilsk          1718.844
       430   04 Jun 2027 14:23:08.977   04 Jun 2027 14:23:20.339            11.362                Norilsk           355.063
       431   04 Jun 2027 14:25:11.619   04 Jun 2027 14:25:16.907             5.288                Norilsk           165.250
       432   04 Jun 2027 15:26:43.100   04 Jun 2027 15:29:46.478           183.378               CapeTown          5730.562
       433   04 Jun 2027 15:49:27.539   04 Jun 2027 15:50:07.682            40.143                 Moscow          1254.469
       434   04 Jun 2027 15:52:36.551   04 Jun 2027 15:52:43.136             6.585              Murmansk2           205.781
       435   04 Jun 2027 15:52:52.554   04 Jun 2027 15:53:11.381            18.827              Murmansk1           588.344
       436   04 Jun 2027 15:54:40.706   04 Jun 2027 15:56:42.051           121.345              Murmansk2          3792.031
       437   04 Jun 2027 16:06:37.081   04 Jun 2027 16:06:38.197             1.116                Anadyr1            34.875
       438   04 Jun 2027 16:07:01.587   04 Jun 2027 16:08:25.324            83.737                Anadyr2          2616.781
       439   04 Jun 2027 16:09:20.461   04 Jun 2027 16:09:54.751            34.290                Anadyr2          1071.563
       440   04 Jun 2027 17:01:36.044   04 Jun 2027 17:02:15.625            39.581               CapeTown          1236.906
       441   04 Jun 2027 17:04:37.214   04 Jun 2027 17:05:40.565            63.351               CapeTown          1979.719
       442   04 Jun 2027 17:31:56.075   04 Jun 2027 17:34:36.308           160.233              Murmansk1          5007.281
       443   04 Jun 2027 17:36:33.167   04 Jun 2027 17:36:54.510            21.343              Murmansk1           666.969
       444   04 Jun 2027 17:42:09.897   04 Jun 2027 17:42:33.486            23.589                Anadyr2           737.156
       445   04 Jun 2027 17:42:52.853   04 Jun 2027 17:43:14.001            21.148                Anadyr1           660.875
       446   04 Jun 2027 17:43:58.415   04 Jun 2027 17:44:05.489             7.074                Anadyr1           221.062
       447   04 Jun 2027 17:44:56.721   04 Jun 2027 17:45:23.634            26.913                Anadyr2           841.031
       448   04 Jun 2027 17:45:35.237   04 Jun 2027 17:46:48.807            73.570               Magadan2          2299.063
       449   04 Jun 2027 17:46:58.542   04 Jun 2027 17:47:55.284            56.742               Magadan2          1773.188
       450   04 Jun 2027 19:18:04.849   04 Jun 2027 19:19:58.455           113.606                Anadyr2          3550.187
       451   04 Jun 2027 19:20:10.227   04 Jun 2027 19:21:52.071           101.844                Anadyr1          3182.625
       452   04 Jun 2027 19:22:12.471   04 Jun 2027 19:25:04.735           172.264               Magadan2          5383.250
       453   04 Jun 2027 19:29:16.209   04 Jun 2027 19:29:26.584            10.375               Magadan2           324.219
       454   04 Jun 2027 19:31:18.023   04 Jun 2027 19:31:25.331             7.308               Magadan2           228.375
       455   04 Jun 2027 20:16:22.687   04 Jun 2027 20:17:13.309            50.622            RioGallegos          1581.938
       456   04 Jun 2027 20:53:56.168   04 Jun 2027 20:55:25.401            89.233                Anadyr2          2788.531
       457   04 Jun 2027 20:55:25.401   04 Jun 2027 20:56:12.125            46.724                Anadyr1          1460.125
       458   04 Jun 2027 20:56:17.471   04 Jun 2027 20:57:34.288            76.817               Magadan1          2400.531
       459   04 Jun 2027 20:57:34.288   04 Jun 2027 20:58:10.077            35.789               Magadan2          1118.406
       460   04 Jun 2027 20:58:22.038   04 Jun 2027 20:58:27.961             5.923                Norilsk           185.094
       461   04 Jun 2027 20:59:08.002   04 Jun 2027 20:59:26.996            18.994               Magadan2           593.562
       462   04 Jun 2027 20:59:52.871   04 Jun 2027 21:00:07.091            14.220               Magadan2           444.375
       463   04 Jun 2027 21:00:32.417   04 Jun 2027 21:01:10.436            38.019                Norilsk          1188.094
       464   04 Jun 2027 21:01:29.361   04 Jun 2027 21:04:21.003           171.642                Irkutsk          5363.812
       465   04 Jun 2027 21:17:20.071   04 Jun 2027 21:18:47.515            87.444                Sumatra          2732.625
       466   04 Jun 2027 21:21:12.148   04 Jun 2027 21:21:34.544            22.396                Sumatra           699.875
       467   04 Jun 2027 22:29:34.832   04 Jun 2027 22:29:59.828            24.996                Anadyr2           781.125
       468   04 Jun 2027 22:31:12.986   04 Jun 2027 22:31:47.266            34.280                Anadyr1          1071.250
       469   04 Jun 2027 22:31:48.745   04 Jun 2027 22:33:15.131            86.386                Norilsk          2699.562
       470   04 Jun 2027 22:33:33.804   04 Jun 2027 22:33:48.751            14.947                Norilsk           467.094
       471   04 Jun 2027 22:35:47.015   04 Jun 2027 22:37:01.117            74.102                Irkutsk          2315.688
       472   04 Jun 2027 22:37:27.876   04 Jun 2027 22:39:23.771           115.895                Novosib          3621.719
       473   04 Jun 2027 22:53:40.234   04 Jun 2027 22:54:13.036            32.802                Sumatra          1025.063
       474   04 Jun 2027 22:58:40.442   04 Jun 2027 22:58:45.115             4.673                Sumatra           146.031
       475   04 Jun 2027 23:36:03.183   04 Jun 2027 23:36:14.167            10.984            RioGallegos           343.250
       476   05 Jun 2027 00:03:38.276   05 Jun 2027 00:05:53.450           135.174                Anadyr2          4224.188
       477   05 Jun 2027 00:05:57.461   05 Jun 2027 00:06:30.818            33.357                Anadyr1          1042.406
       478   05 Jun 2027 00:07:48.586   05 Jun 2027 00:08:06.803            18.217                Norilsk           569.281
       479   05 Jun 2027 00:08:25.566   05 Jun 2027 00:09:33.873            68.307               Magadan1          2134.594
       480   05 Jun 2027 00:09:36.479   05 Jun 2027 00:10:27.276            50.797               Magadan2          1587.406
       481   05 Jun 2027 00:11:10.290   05 Jun 2027 00:12:05.330            55.040              Murmansk2          1720.000
       482   05 Jun 2027 00:12:05.454   05 Jun 2027 00:13:10.645            65.191              Murmansk1          2037.219
