uniorb/output/strategy_4/Drop/Drop_KinoSat_110405.txt

KinoSat_110405
-------------------------
    Access    *     Start Time (UTCG)     *     Stop Time (UTCG)  *   Duration (s)        *       Station  *  Data (Mbytes)
         1   01 Jun 2027 03:52:50.263   01 Jun 2027 03:53:35.042            44.779               Magadan2          5597.375
         2   01 Jun 2027 03:53:35.042   01 Jun 2027 03:54:12.440            37.398               Magadan1          4674.750
         3   01 Jun 2027 03:54:36.146   01 Jun 2027 03:55:05.690            29.544               Magadan1          3693.000
         4   01 Jun 2027 03:55:11.665   01 Jun 2027 03:55:41.456            29.791                Anadyr2          3723.875
         5   01 Jun 2027 03:55:41.780   01 Jun 2027 03:57:17.941            96.161                Irkutsk         12020.125
         6   01 Jun 2027 03:57:52.722   01 Jun 2027 03:58:07.571            14.849               Magadan1          1856.125
         7   01 Jun 2027 03:58:34.989   01 Jun 2027 03:58:58.603            23.614               Magadan1          2951.750
         8   01 Jun 2027 03:59:12.608   01 Jun 2027 03:59:14.867             2.259                Norilsk           282.375
         9   01 Jun 2027 03:59:48.571   01 Jun 2027 03:59:56.175             7.604                Norilsk           950.500
        10   01 Jun 2027 04:00:07.273   01 Jun 2027 04:00:38.103            30.830                Norilsk          3853.750
        11   01 Jun 2027 04:33:56.379   01 Jun 2027 04:34:06.624            10.245            RioGallegos          1280.625
        12   01 Jun 2027 04:39:09.675   01 Jun 2027 04:39:31.510            21.835            RioGallegos          2729.375
        13   01 Jun 2027 04:42:11.190   01 Jun 2027 04:42:47.490            36.300            RioGallegos          4537.500
        14   01 Jun 2027 05:10:11.126   01 Jun 2027 05:13:29.068           197.942                Sumatra         24742.750
        15   01 Jun 2027 05:31:02.602   01 Jun 2027 05:33:12.766           130.164                Irkutsk         16270.500
        16   01 Jun 2027 05:33:52.519   01 Jun 2027 05:34:27.300            34.781              Murmansk1          4347.625
        17   01 Jun 2027 05:34:46.938   01 Jun 2027 05:36:28.235           101.297                Novosib         12662.125
        18   01 Jun 2027 06:44:58.105   01 Jun 2027 06:45:48.354            50.249                Sumatra          6281.125
        19   01 Jun 2027 06:55:37.092   01 Jun 2027 06:57:32.395           115.303                  Delhi         14412.875
        20   01 Jun 2027 07:07:59.987   01 Jun 2027 07:08:27.017            27.030              Murmansk1          3378.750
        21   01 Jun 2027 07:08:33.550   01 Jun 2027 07:09:29.268            55.718              Murmansk2          6964.750
        22   01 Jun 2027 07:09:41.309   01 Jun 2027 07:09:47.460             6.151                Irkutsk           768.875
        23   01 Jun 2027 07:10:06.574   01 Jun 2027 07:10:15.749             9.175                Irkutsk          1146.875
        24   01 Jun 2027 07:10:22.778   01 Jun 2027 07:10:48.629            25.851                Norilsk          3231.375
        25   01 Jun 2027 07:10:50.011   01 Jun 2027 07:11:36.794            46.783              Murmansk2          5847.875
        26   01 Jun 2027 08:32:39.147   01 Jun 2027 08:32:51.026            11.879                  Delhi          1484.875
        27   01 Jun 2027 08:44:35.548   01 Jun 2027 08:44:55.553            20.005              Murmansk2          2500.625
        28   01 Jun 2027 08:45:02.706   01 Jun 2027 08:46:09.581            66.875                Novosib          8359.375
        29   01 Jun 2027 08:46:41.751   01 Jun 2027 08:46:57.374            15.623                Norilsk          1952.875
        30   01 Jun 2027 08:47:05.811   01 Jun 2027 08:51:59.762           293.951                Norilsk         36743.875
        31   01 Jun 2027 08:52:07.600   01 Jun 2027 08:53:41.691            94.091              Murmansk2         11761.375
        32   01 Jun 2027 10:13:20.168   01 Jun 2027 10:15:08.609           108.441                 Moscow         13555.125
        33   01 Jun 2027 10:20:57.809   01 Jun 2027 10:23:38.311           160.502                 Moscow         20062.750
        34   01 Jun 2027 10:35:58.211   01 Jun 2027 10:36:55.292            57.081                Anadyr1          7135.125
        35   01 Jun 2027 12:07:32.112   01 Jun 2027 12:09:00.111            87.999                Anadyr2         10999.875
        36   01 Jun 2027 12:10:12.927   01 Jun 2027 12:12:49.120           156.193                Anadyr1         19524.125
        37   01 Jun 2027 13:46:06.224   01 Jun 2027 13:51:45.719           339.495               Magadan1         42436.875
        38   01 Jun 2027 13:52:28.375   01 Jun 2027 13:53:31.575            63.200               Magadan2          7900.000
        39   01 Jun 2027 16:14:26.300   01 Jun 2027 16:18:05.406           219.106            RioGallegos         27388.250
        40   01 Jun 2027 16:19:30.851   01 Jun 2027 16:20:55.696            84.845            RioGallegos         10605.625
        41   01 Jun 2027 17:03:54.174   01 Jun 2027 17:05:44.716           110.542                Irkutsk         13817.750
        42   01 Jun 2027 17:17:29.657   01 Jun 2027 17:20:41.458           191.801                Sumatra         23975.125
        43   01 Jun 2027 17:21:12.584   01 Jun 2027 17:22:28.111            75.527                Sumatra          9440.875
        44   01 Jun 2027 18:38:25.795   01 Jun 2027 18:39:52.753            86.958                Novosib         10869.750
        45   01 Jun 2027 18:41:29.145   01 Jun 2027 18:41:33.544             4.399                Novosib           549.875
        46   01 Jun 2027 18:45:56.743   01 Jun 2027 18:47:08.854            72.111                  Delhi          3040.749
        47   02 Jun 2027 04:11:12.140   02 Jun 2027 04:12:37.242            85.102                Norilsk         10637.750
        48   02 Jun 2027 05:21:39.619   02 Jun 2027 05:23:00.668            81.049                Sumatra         10131.125
        49   02 Jun 2027 05:44:59.216   02 Jun 2027 05:45:44.455            45.239                Irkutsk          5654.875
        50   02 Jun 2027 05:45:45.530   02 Jun 2027 05:46:56.375            70.845                Novosib          8855.625
        51   02 Jun 2027 05:47:09.627   02 Jun 2027 05:52:05.879           296.252                Norilsk         37031.500
        52   02 Jun 2027 05:52:18.354   02 Jun 2027 05:54:43.236           144.882              Murmansk2         18110.250
        53   02 Jun 2027 06:29:57.245   02 Jun 2027 06:34:01.622           244.377            RioGallegos         30547.125
        54   02 Jun 2027 07:00:57.440   02 Jun 2027 07:03:40.250           162.810                Sumatra         20351.250
        55   02 Jun 2027 07:22:51.074   02 Jun 2027 07:24:33.885           102.811                Novosib         12851.375
        56   02 Jun 2027 07:24:36.302   02 Jun 2027 07:28:05.375           209.073                Norilsk         26134.125
        57   02 Jun 2027 07:28:27.495   02 Jun 2027 07:29:57.967            90.472              Murmansk1         11309.000
        58   02 Jun 2027 08:48:52.595   02 Jun 2027 08:52:16.117           203.522                  Delhi         25440.250
        59   02 Jun 2027 08:52:25.331   02 Jun 2027 08:55:00.275           154.944                Novosib         19368.000
        60   02 Jun 2027 08:59:00.678   02 Jun 2027 08:59:21.820            21.142                Novosib          2642.750
        61   02 Jun 2027 08:59:30.812   02 Jun 2027 09:03:59.767           268.955                Norilsk         33619.375
        62   02 Jun 2027 09:04:02.201   02 Jun 2027 09:05:42.594           100.393              Murmansk1         12549.125
        63   02 Jun 2027 10:28:30.135   02 Jun 2027 10:30:02.474            92.339                 Moscow         11542.375
        64   02 Jun 2027 10:32:03.894   02 Jun 2027 10:35:16.421           192.527              Murmansk2         24065.875
        65   02 Jun 2027 10:35:25.261   02 Jun 2027 10:38:03.538           158.277                 Moscow         19784.625
        66   02 Jun 2027 10:38:40.955   02 Jun 2027 10:41:39.757           178.802              Murmansk2         22350.250
        67   02 Jun 2027 10:44:48.979   02 Jun 2027 10:50:10.809           321.830                Anadyr2         40228.750
        68   02 Jun 2027 13:57:59.249   02 Jun 2027 14:02:13.161           253.912               Magadan2         31739.000
        69   02 Jun 2027 14:02:13.161   02 Jun 2027 14:02:19.939             6.778               Magadan1           847.250
        70   02 Jun 2027 14:05:31.560   02 Jun 2027 14:06:58.194            86.634               Magadan2         10829.250
        71   02 Jun 2027 16:26:04.897   02 Jun 2027 16:32:32.848           387.951            RioGallegos         48493.875
        72   02 Jun 2027 17:14:31.386   02 Jun 2027 17:16:00.023            88.637                Irkutsk         11079.625
        73   02 Jun 2027 17:17:37.477   02 Jun 2027 17:17:41.202             3.725                Irkutsk           465.625
        74   02 Jun 2027 17:19:02.714   02 Jun 2027 17:19:13.360            10.646                Irkutsk          1330.750
        75   02 Jun 2027 17:27:27.324   02 Jun 2027 17:31:22.670           235.346                Sumatra         29418.250
        76   02 Jun 2027 18:49:09.378   02 Jun 2027 18:50:53.218           103.840                Novosib         12980.000
        77   02 Jun 2027 18:57:23.545   02 Jun 2027 18:57:27.074             3.529                  Delhi           441.125
        78   02 Jun 2027 18:58:00.681   02 Jun 2027 19:00:58.791           178.110                  Delhi         22263.750
        79   02 Jun 2027 20:29:35.455   02 Jun 2027 20:31:07.028            91.573                 Moscow          7858.625
        80   03 Jun 2027 04:23:19.153   03 Jun 2027 04:25:12.779           113.626              Murmansk1         14203.250
        81   03 Jun 2027 05:33:16.997   03 Jun 2027 05:35:07.862           110.865                Sumatra         13858.125
        82   03 Jun 2027 05:46:34.975   03 Jun 2027 05:47:20.077            45.102                  Delhi          5637.750
        83   03 Jun 2027 05:59:11.433   03 Jun 2027 06:04:07.375           295.942                Norilsk         36992.750
        84   03 Jun 2027 06:04:20.328   03 Jun 2027 06:06:37.105           136.777              Murmansk1         17097.125
        85   03 Jun 2027 06:41:53.005   03 Jun 2027 06:45:49.388           236.383            RioGallegos         29547.875
        86   03 Jun 2027 07:16:40.057   03 Jun 2027 07:19:43.380           183.323                Sumatra         22915.375
        87   03 Jun 2027 07:24:33.327   03 Jun 2027 07:25:19.607            46.280                Novosib          5785.000
        88   03 Jun 2027 07:25:36.314   03 Jun 2027 07:30:50.002           313.688                Irkutsk         39211.000
        89   03 Jun 2027 07:35:04.522   03 Jun 2027 07:36:32.367            87.845                Novosib         10980.625
        90   03 Jun 2027 07:36:43.357   03 Jun 2027 07:40:07.184           203.827                Norilsk         25478.375
        91   03 Jun 2027 07:40:17.041   03 Jun 2027 07:41:56.638            99.597              Murmansk2         12449.625
        92   03 Jun 2027 09:00:41.091   03 Jun 2027 09:03:39.162           178.071                  Delhi         22258.875
        93   03 Jun 2027 09:03:40.706   03 Jun 2027 09:06:11.488           150.782                Novosib         18847.750
        94   03 Jun 2027 09:11:31.817   03 Jun 2027 09:15:59.145           267.328                Norilsk         33416.000
        95   03 Jun 2027 09:16:47.822   03 Jun 2027 09:17:43.692            55.870              Murmansk2          6983.750
        96   03 Jun 2027 10:21:09.293   03 Jun 2027 10:23:00.764           111.471               CapeTown         13933.875
        97   03 Jun 2027 10:40:28.622   03 Jun 2027 10:41:13.831            45.209                 Moscow          5651.125
        98   03 Jun 2027 10:44:05.552   03 Jun 2027 10:47:32.068           206.516              Murmansk1         25814.500
        99   03 Jun 2027 10:47:32.629   03 Jun 2027 10:50:01.235           148.606                 Moscow         18575.750
       100   03 Jun 2027 10:50:01.443   03 Jun 2027 10:53:41.385           219.942              Murmansk2         27492.750
       101   03 Jun 2027 10:56:28.597   03 Jun 2027 11:03:08.925           400.328                Anadyr1         50041.000
       102   03 Jun 2027 11:58:25.876   03 Jun 2027 12:00:23.109           117.233               CapeTown         14654.125
       103   03 Jun 2027 12:41:15.261   03 Jun 2027 12:42:06.133            50.872                Anadyr1          6359.000
       104   03 Jun 2027 14:09:54.020   03 Jun 2027 14:11:54.612           120.592               Magadan2         15074.000
       105   03 Jun 2027 14:12:38.701   03 Jun 2027 14:14:15.000            96.299               Magadan1         12037.375
       106   03 Jun 2027 14:14:56.668   03 Jun 2027 14:15:19.370            22.702               Magadan1          2837.750
       107   03 Jun 2027 14:18:58.926   03 Jun 2027 14:21:09.261           130.335               Magadan2         16291.875
       108   03 Jun 2027 16:37:49.160   03 Jun 2027 16:40:01.954           132.794            RioGallegos         16599.250
       109   03 Jun 2027 16:40:46.720   03 Jun 2027 16:43:52.089           185.369            RioGallegos         23171.125
       110   03 Jun 2027 17:25:19.979   03 Jun 2027 17:27:00.380           100.401                Irkutsk         12550.125
       111   03 Jun 2027 17:27:47.205   03 Jun 2027 17:29:38.581           111.376                Novosib         13922.000
       112   03 Jun 2027 17:39:08.456   03 Jun 2027 17:40:57.129           108.673                Sumatra         13584.125
       113   03 Jun 2027 17:42:27.892   03 Jun 2027 17:43:25.396            57.504                Sumatra          7188.000
       114   03 Jun 2027 19:08:59.659   03 Jun 2027 19:12:53.228           233.569                  Delhi         29196.125
       115   03 Jun 2027 20:39:22.756   03 Jun 2027 20:39:52.756            30.000              Murmansk2          3750.000
       116   03 Jun 2027 20:40:34.584   03 Jun 2027 20:43:49.699           195.115                 Moscow         16018.374
       117   04 Jun 2027 04:35:16.143   04 Jun 2027 04:40:15.654           299.511                Norilsk         37438.875
       118   04 Jun 2027 05:45:01.569   04 Jun 2027 05:46:44.381           102.812                Sumatra         12851.500
       119   04 Jun 2027 05:56:58.826   04 Jun 2027 05:57:51.039            52.213                  Delhi          6526.625
       120   04 Jun 2027 06:11:13.298   04 Jun 2027 06:11:35.692            22.394                Norilsk          2799.250
       121   04 Jun 2027 06:11:36.913   04 Jun 2027 06:16:09.002           272.089                Norilsk         34011.125
       122   04 Jun 2027 06:16:20.587   04 Jun 2027 06:18:31.702           131.115              Murmansk1         16389.375
       123   04 Jun 2027 06:53:47.031   04 Jun 2027 06:57:33.066           226.035            RioGallegos         28254.375
       124   04 Jun 2027 07:28:25.363   04 Jun 2027 07:30:54.446           149.083                Sumatra         18635.375
       125   04 Jun 2027 07:36:31.017   04 Jun 2027 07:41:45.877           314.860                  Delhi         39357.500
       126   04 Jun 2027 07:41:48.045   04 Jun 2027 07:42:55.974            67.929                Novosib          8491.125
       127   04 Jun 2027 07:47:04.079   04 Jun 2027 07:48:29.842            85.763                Novosib         10720.375
       128   04 Jun 2027 07:48:32.135   04 Jun 2027 07:52:08.899           216.764                Norilsk         27095.500
       129   04 Jun 2027 07:52:12.695   04 Jun 2027 07:53:55.735           103.040              Murmansk1         12880.000
       130   04 Jun 2027 09:12:24.605   04 Jun 2027 09:14:43.611           139.006                  Delhi         17375.750
       131   04 Jun 2027 09:24:01.754   04 Jun 2027 09:27:57.703           235.949                Norilsk         29493.625
       132   04 Jun 2027 09:28:38.711   04 Jun 2027 09:29:44.955            66.244              Murmansk2          8280.500
       133   04 Jun 2027 10:52:26.103   04 Jun 2027 10:52:44.584            18.481                 Moscow          2310.125
       134   04 Jun 2027 10:56:07.170   04 Jun 2027 10:58:56.419           169.249              Murmansk1         21156.125
       135   04 Jun 2027 10:59:32.473   04 Jun 2027 11:01:57.774           145.301                 Moscow         18162.625
       136   04 Jun 2027 11:02:02.544   04 Jun 2027 11:05:42.943           220.399              Murmansk1         27549.875
       137   04 Jun 2027 11:08:14.937   04 Jun 2027 11:15:57.816           462.879                Anadyr1         57859.875
       138   04 Jun 2027 12:10:43.192   04 Jun 2027 12:15:36.839           293.647               CapeTown         36705.875
       139   04 Jun 2027 12:32:00.524   04 Jun 2027 12:41:32.258           571.734              Murmansk1         71466.750
       140   04 Jun 2027 12:43:28.715   04 Jun 2027 12:45:43.980           135.265                Anadyr2         16908.125
       141   04 Jun 2027 12:48:04.660   04 Jun 2027 12:50:25.213           140.553               Magadan1         17569.125
       142   04 Jun 2027 14:21:50.162   04 Jun 2027 14:26:16.996           266.834               Magadan1         33354.250
       143   04 Jun 2027 16:49:37.357   04 Jun 2027 16:52:07.504           150.147            RioGallegos         18768.375
       144   04 Jun 2027 16:53:45.582   04 Jun 2027 16:55:25.370            99.788            RioGallegos         12473.500
       145   04 Jun 2027 17:37:13.831   04 Jun 2027 17:39:24.200           130.369                Irkutsk         16296.125
       146   04 Jun 2027 17:41:37.803   04 Jun 2027 17:44:46.480           188.677                Novosib         23584.625
       147   04 Jun 2027 17:53:49.071   04 Jun 2027 17:55:22.965            93.894                Sumatra         11736.750
       148   04 Jun 2027 19:20:42.391   04 Jun 2027 19:22:53.777           131.386                  Delhi         16423.250
       149   04 Jun 2027 19:24:51.183   04 Jun 2027 19:25:59.550            68.367                  Delhi          8545.875
       150   04 Jun 2027 20:48:07.369   04 Jun 2027 20:49:03.428            56.059              Murmansk1          7007.375
       151   04 Jun 2027 20:52:01.673   04 Jun 2027 20:55:08.501           186.828                 Moscow         19957.500
       152   05 Jun 2027 04:47:49.496   05 Jun 2027 04:48:42.838            53.342                Norilsk          6667.750
       153   05 Jun 2027 04:50:13.031   05 Jun 2027 04:55:39.507           326.476              Murmansk2         40809.500
       154   05 Jun 2027 05:29:32.651   05 Jun 2027 05:34:42.701           310.050            RioGallegos         38756.250
       155   05 Jun 2027 06:04:17.832   05 Jun 2027 06:09:32.331           314.499                Sumatra         39312.375
       156   05 Jun 2027 06:10:43.534   05 Jun 2027 06:16:47.098           363.564                Irkutsk         45445.500
       157   05 Jun 2027 06:22:48.542   05 Jun 2027 06:23:01.559            13.017                Irkutsk          1627.125
       158   05 Jun 2027 06:23:15.202   05 Jun 2027 06:23:24.268             9.066                Norilsk          1133.250
       159   05 Jun 2027 06:23:29.276   05 Jun 2027 06:24:44.945            75.669                Novosib          9458.625
       160   05 Jun 2027 06:25:16.399   05 Jun 2027 06:25:50.414            34.015              Murmansk1          4251.875
       161   05 Jun 2027 06:26:05.193   05 Jun 2027 06:28:10.725           125.532                Norilsk         15691.500
       162   05 Jun 2027 06:28:23.936   05 Jun 2027 06:30:26.989           123.053              Murmansk2         15381.625
       163   05 Jun 2027 07:05:38.927   05 Jun 2027 07:09:10.771           211.844            RioGallegos         26480.500
       164   05 Jun 2027 07:40:03.618   05 Jun 2027 07:41:40.766            97.148                Sumatra         12143.500
       165   05 Jun 2027 07:48:18.325   05 Jun 2027 07:53:44.081           325.756                  Delhi         40719.500
       166   05 Jun 2027 07:53:55.500   05 Jun 2027 07:55:06.124            70.624                Novosib          8828.000
       167   05 Jun 2027 07:58:59.665   05 Jun 2027 08:02:01.662           181.997                 Moscow         22749.625
       168   05 Jun 2027 08:02:06.496   05 Jun 2027 08:04:10.480           123.984                Norilsk         15498.000
       169   05 Jun 2027 08:04:12.280   05 Jun 2027 08:05:55.222           102.942              Murmansk2         12867.750
       170   05 Jun 2027 09:24:01.755   05 Jun 2027 09:24:48.647            46.892                  Delhi          5861.500
       171   05 Jun 2027 09:35:32.719   05 Jun 2027 09:39:55.176           262.457                Norilsk         32807.125
       172   05 Jun 2027 09:40:28.772   05 Jun 2027 09:41:46.357            77.585              Murmansk2          9698.125
       173   05 Jun 2027 11:04:22.384   05 Jun 2027 11:04:30.404             8.020                 Moscow          1002.500
       174   05 Jun 2027 11:08:08.709   05 Jun 2027 11:08:30.300            21.591              Murmansk2          2698.875
       175   05 Jun 2027 11:08:42.477   05 Jun 2027 11:13:52.936           310.459                 Moscow         38807.375
       176   05 Jun 2027 11:14:03.811   05 Jun 2027 11:17:44.397           220.586              Murmansk1         27573.250
       177   05 Jun 2027 11:21:13.314   05 Jun 2027 11:28:40.279           446.965                Anadyr1         55870.625
       178   05 Jun 2027 12:19:51.351   05 Jun 2027 12:27:33.177           461.826               CapeTown         57728.250
       179   05 Jun 2027 12:44:33.378   05 Jun 2027 12:53:30.357           536.979              Murmansk2         67122.375
       180   05 Jun 2027 12:55:28.635   05 Jun 2027 13:05:03.380           574.745                Anadyr2         71843.125
       181   05 Jun 2027 13:05:21.434   05 Jun 2027 13:05:29.726             8.292               Magadan2          1036.500
       182   05 Jun 2027 14:33:47.408   05 Jun 2027 14:36:02.550           135.142               Magadan2         16892.750
       183   05 Jun 2027 14:36:26.211   05 Jun 2027 14:39:04.681           158.470               Magadan2         19808.750
       184   05 Jun 2027 16:15:39.428   05 Jun 2027 16:20:44.140           304.712                Irkutsk         38089.000
       185   05 Jun 2027 17:03:08.035   05 Jun 2027 17:04:09.653            61.618            RioGallegos          7702.250
       186   05 Jun 2027 17:50:25.651   05 Jun 2027 17:56:53.362           387.711                Novosib         48463.875
       187   05 Jun 2027 19:32:30.261   05 Jun 2027 19:34:37.800           127.539                  Delhi         15942.375
       188   05 Jun 2027 20:59:21.812   05 Jun 2027 21:00:46.031            84.219              Murmansk1         10527.375
       189   05 Jun 2027 21:03:39.549   05 Jun 2027 21:05:05.915            86.366                 Moscow         10795.750
       190   05 Jun 2027 21:32:38.368   05 Jun 2027 21:32:54.148            15.780               CapeTown          1972.500
       191   05 Jun 2027 21:34:15.478   05 Jun 2027 21:36:04.888           109.410               CapeTown         13676.250
       192   06 Jun 2027 03:22:15.975   06 Jun 2027 03:22:26.472            10.497                Norilsk          1312.125
       193   06 Jun 2027 03:22:59.988   06 Jun 2027 03:31:20.996           501.008              Murmansk2         62626.000
       194   06 Jun 2027 04:39:36.875   06 Jun 2027 04:40:26.035            49.160                Sumatra          6145.000
       195   06 Jun 2027 04:59:18.219   06 Jun 2027 04:59:21.711             3.492                Norilsk           436.500
       196   06 Jun 2027 04:59:48.862   06 Jun 2027 05:00:47.621            58.759                Norilsk          7344.875
       197   06 Jun 2027 05:02:05.287   06 Jun 2027 05:04:27.260           141.973              Murmansk1         17746.625
       198   06 Jun 2027 05:04:27.260   06 Jun 2027 05:07:29.706           182.446              Murmansk2         22805.750
       199   06 Jun 2027 05:42:15.930   06 Jun 2027 05:46:40.643           264.713            RioGallegos         33089.125
       200   06 Jun 2027 06:16:40.201   06 Jun 2027 06:21:32.539           292.338                Sumatra         36542.250
       201   06 Jun 2027 06:25:10.245   06 Jun 2027 06:28:51.648           221.403                Irkutsk         27675.375
       202   06 Jun 2027 06:35:39.607   06 Jun 2027 06:40:12.532           272.925                Norilsk         34115.625
       203   06 Jun 2027 06:40:25.508   06 Jun 2027 06:42:22.934           117.426              Murmansk2         14678.250
       204   06 Jun 2027 07:17:28.131   06 Jun 2027 07:20:38.601           190.470            RioGallegos         23808.750
       205   06 Jun 2027 08:00:00.350   06 Jun 2027 08:05:38.786           338.436                  Delhi         42304.500
       206   06 Jun 2027 08:05:50.872   06 Jun 2027 08:06:54.602            63.730                Novosib          7966.250
       207   06 Jun 2027 08:10:50.634   06 Jun 2027 08:14:07.216           196.582                 Moscow         24572.750
       208   06 Jun 2027 08:14:18.420   06 Jun 2027 08:15:55.368            96.948              Murmansk2         12118.500
       209   06 Jun 2027 08:15:55.368   06 Jun 2027 08:17:55.060           119.692              Murmansk1         14961.500
       210   06 Jun 2027 09:47:32.385   06 Jun 2027 09:51:51.129           258.744                Norilsk         32343.000
       211   06 Jun 2027 09:52:04.258   06 Jun 2027 09:53:47.859           103.601              Murmansk2         12950.125
       212   06 Jun 2027 11:20:10.140   06 Jun 2027 11:21:52.690           102.550              Murmansk2         12818.750
       213   06 Jun 2027 11:22:08.566   06 Jun 2027 11:25:46.397           217.831                 Moscow         27228.875
       214   06 Jun 2027 11:26:05.215   06 Jun 2027 11:29:45.707           220.492              Murmansk1         27561.500
       215   06 Jun 2027 11:31:58.222   06 Jun 2027 11:41:17.699           559.477                Anadyr1         69934.625
       216   06 Jun 2027 12:29:57.312   06 Jun 2027 12:39:24.568           567.256               CapeTown         70907.000
       217   06 Jun 2027 12:57:09.401   06 Jun 2027 13:05:27.337           497.936              Murmansk1         62242.000
       218   06 Jun 2027 13:07:28.929   06 Jun 2027 13:18:54.561           685.632                Anadyr2         85704.000
       219   06 Jun 2027 14:46:24.895   06 Jun 2027 14:47:01.863            36.968               Magadan1          4621.000
       220   06 Jun 2027 14:49:45.042   06 Jun 2027 14:50:59.975            74.933               Magadan2          9366.625
       221   06 Jun 2027 14:52:33.221   06 Jun 2027 14:55:03.162           149.941               Magadan2         18742.625
       222   06 Jun 2027 16:26:55.808   06 Jun 2027 16:33:00.722           364.914                Irkutsk         45614.250
       223   06 Jun 2027 16:42:56.928   06 Jun 2027 16:44:24.974            88.046                Sumatra         11005.750
       224   06 Jun 2027 16:45:52.544   06 Jun 2027 16:48:17.766           145.222                Sumatra         18152.750
       225   06 Jun 2027 18:02:10.279   06 Jun 2027 18:03:38.292            88.013                Novosib         11001.625
       226   06 Jun 2027 18:05:38.515   06 Jun 2027 18:06:00.014            21.499                Novosib          2687.375
       227   06 Jun 2027 21:11:20.925   06 Jun 2027 21:12:36.956            76.031              Murmansk1          9503.875
       228   06 Jun 2027 21:15:23.578   06 Jun 2027 21:19:10.277           226.699                 Moscow         28337.375
       229   06 Jun 2027 21:42:31.858   06 Jun 2027 21:44:21.824           109.966               CapeTown         13745.750
       230   07 Jun 2027 03:34:01.941   07 Jun 2027 03:34:20.594            18.653               Magadan2          2331.625
       231   07 Jun 2027 03:35:23.188   07 Jun 2027 03:35:42.028            18.840                Novosib          2355.000
       232   07 Jun 2027 03:35:44.623   07 Jun 2027 03:45:04.413           559.790              Murmansk1         69973.750
       233   07 Jun 2027 04:10:29.753   07 Jun 2027 04:14:38.849           249.096            RioGallegos         31137.000
       234   07 Jun 2027 04:48:11.724   07 Jun 2027 04:50:02.915           111.191                Sumatra         13898.875
       235   07 Jun 2027 05:11:19.544   07 Jun 2027 05:12:55.917            96.373                Norilsk         12046.625
       236   07 Jun 2027 05:13:58.292   07 Jun 2027 05:19:20.614           322.322              Murmansk2         40290.250
       237   07 Jun 2027 05:54:16.536   07 Jun 2027 05:58:37.242           260.706            RioGallegos         32588.250
       238   07 Jun 2027 06:28:54.926   07 Jun 2027 06:33:27.153           272.227                Sumatra         34028.375
       239   07 Jun 2027 06:36:20.744   07 Jun 2027 06:36:53.377            32.633                Irkutsk          4079.125
       240   07 Jun 2027 06:37:21.192   07 Jun 2027 06:40:58.615           217.423                Irkutsk         27177.875
       241   07 Jun 2027 06:47:11.443   07 Jun 2027 06:48:18.679            67.236                 Moscow          8404.500
       242   07 Jun 2027 06:48:21.866   07 Jun 2027 06:52:14.392           232.526                Norilsk         29065.750
       243   07 Jun 2027 06:52:20.527   07 Jun 2027 06:54:19.509           118.982              Murmansk2         14872.750
       244   07 Jun 2027 07:29:13.786   07 Jun 2027 07:31:44.810           151.024            RioGallegos         18878.000
       245   07 Jun 2027 08:13:18.518   07 Jun 2027 08:17:29.639           251.121                  Delhi         31390.125
       246   07 Jun 2027 08:17:39.140   07 Jun 2027 08:17:58.327            19.187              Murmansk1          2398.375
       247   07 Jun 2027 08:22:53.878   07 Jun 2027 08:26:12.223           198.345                 Moscow         24793.125
       248   07 Jun 2027 08:26:20.980   07 Jun 2027 08:28:10.139           109.159              Murmansk1         13644.875
       249   07 Jun 2027 08:28:10.139   07 Jun 2027 08:29:55.214           105.075              Murmansk2         13134.375
       250   07 Jun 2027 09:52:13.891   07 Jun 2027 09:52:44.529            30.638                 Moscow          3829.750
       251   07 Jun 2027 09:54:25.201   07 Jun 2027 09:54:47.556            22.355                 Moscow          2794.375
       252   07 Jun 2027 09:57:17.222   07 Jun 2027 09:57:56.123            38.901              Murmansk2          4862.625
       253   07 Jun 2027 09:58:02.348   07 Jun 2027 09:59:45.514           103.166              Murmansk2         12895.750
       254   07 Jun 2027 09:59:47.912   07 Jun 2027 10:02:19.744           151.832                 Moscow         18979.000
       255   07 Jun 2027 10:02:23.678   07 Jun 2027 10:03:44.890            81.212                Norilsk         10151.500
       256   07 Jun 2027 10:03:44.972   07 Jun 2027 10:05:49.445           124.473              Murmansk1         15559.125
       257   07 Jun 2027 11:32:11.407   07 Jun 2027 11:33:49.817            98.410              Murmansk2         12301.250
       258   07 Jun 2027 11:34:24.702   07 Jun 2027 11:37:37.709           193.007                 Moscow         24125.875
       259   07 Jun 2027 11:38:06.728   07 Jun 2027 11:41:46.817           220.089              Murmansk2         27511.125
       260   07 Jun 2027 11:47:09.902   07 Jun 2027 11:53:50.867           400.965                Anadyr2         50120.625
       261   07 Jun 2027 12:47:09.782   07 Jun 2027 12:51:10.856           241.074               CapeTown         30134.250
       262   07 Jun 2027 13:09:49.024   07 Jun 2027 13:17:22.778           453.754              Murmansk2         56719.250
       263   07 Jun 2027 13:22:27.646   07 Jun 2027 13:31:20.470           532.824                Anadyr2         66603.000
       264   07 Jun 2027 15:52:00.311   07 Jun 2027 15:56:41.247           280.936            RioGallegos         35117.000
       265   07 Jun 2027 16:38:27.985   07 Jun 2027 16:45:03.528           395.543                Irkutsk         49442.875
       266   07 Jun 2027 16:53:36.979   07 Jun 2027 16:56:03.275           146.296                Sumatra         18287.000
       267   07 Jun 2027 18:16:05.108   07 Jun 2027 18:17:54.697           109.589                Novosib         13698.625
       268   07 Jun 2027 18:24:22.402   07 Jun 2027 18:25:56.314            93.912                  Delhi         11739.000
       269   07 Jun 2027 18:28:05.763   07 Jun 2027 18:28:35.560            29.797                  Delhi          3724.625
       270   07 Jun 2027 21:24:10.513   07 Jun 2027 21:25:40.961            90.448              Murmansk2         11306.000
       271   07 Jun 2027 21:27:11.665   07 Jun 2027 21:27:31.566            19.901                 Moscow          2487.625
       272   07 Jun 2027 21:29:30.110   07 Jun 2027 21:30:32.463            62.353                 Moscow          7794.125
       273   07 Jun 2027 21:31:12.060   07 Jun 2027 21:33:43.555           151.495                 Moscow         18936.875
       274   07 Jun 2027 21:53:30.657   07 Jun 2027 21:55:18.353           107.696               CapeTown          7712.251
       275   08 Jun 2027 03:47:27.301   08 Jun 2027 03:56:51.696           564.395              Murmansk2         70549.375
       276   08 Jun 2027 04:59:08.762   08 Jun 2027 05:01:55.139           166.377                Sumatra         20797.125
       277   08 Jun 2027 05:23:43.142   08 Jun 2027 05:24:42.413            59.271                Novosib          7408.875
       278   08 Jun 2027 05:25:52.042   08 Jun 2027 05:31:12.256           320.214              Murmansk2         40026.750
       279   08 Jun 2027 06:06:16.127   08 Jun 2027 06:10:32.252           256.125            RioGallegos         32015.625
       280   08 Jun 2027 06:41:03.351   08 Jun 2027 06:45:15.896           252.545                Sumatra         31568.125
       281   08 Jun 2027 06:48:39.582   08 Jun 2027 06:49:14.324            34.742                Irkutsk          4342.750
       282   08 Jun 2027 06:50:20.158   08 Jun 2027 06:53:24.755           184.597                Irkutsk         23074.625
       283   08 Jun 2027 06:57:45.507   08 Jun 2027 06:57:51.902             6.395                Irkutsk           799.375
       284   08 Jun 2027 06:59:22.955   08 Jun 2027 07:01:36.766           133.811                 Moscow         16726.375
       285   08 Jun 2027 07:01:37.976   08 Jun 2027 07:06:16.666           278.690              Murmansk2         34836.250
       286   08 Jun 2027 08:25:18.192   08 Jun 2027 08:29:15.997           237.805                  Delhi         29725.625
       287   08 Jun 2027 08:29:48.260   08 Jun 2027 08:30:13.603            25.343                Novosib          3167.875
       288   08 Jun 2027 08:34:50.071   08 Jun 2027 08:36:04.811            74.740                Novosib          9342.500
       289   08 Jun 2027 08:36:23.220   08 Jun 2027 08:40:13.918           230.698                Norilsk         28837.250
       290   08 Jun 2027 08:40:18.251   08 Jun 2027 08:41:55.647            97.396              Murmansk1         12174.500
       291   08 Jun 2027 10:04:45.314   08 Jun 2027 10:06:07.107            81.793                 Moscow         10224.125
       292   08 Jun 2027 10:09:45.965   08 Jun 2027 10:14:19.994           274.029                 Moscow         34253.625
       293   08 Jun 2027 10:14:20.727   08 Jun 2027 10:15:35.168            74.441                Norilsk          9305.125
       294   08 Jun 2027 10:15:43.220   08 Jun 2027 10:17:51.086           127.866              Murmansk1         15983.250
       295   08 Jun 2027 11:27:11.449   08 Jun 2027 11:27:14.548             3.099               CapeTown           387.375
       296   08 Jun 2027 11:44:12.473   08 Jun 2027 11:45:47.510            95.037              Murmansk2         11879.625
       297   08 Jun 2027 11:46:38.675   08 Jun 2027 11:49:26.209           167.534                 Moscow         20941.750
       298   08 Jun 2027 11:49:27.866   08 Jun 2027 11:53:47.673           259.807              Murmansk2         32475.875
       299   08 Jun 2027 11:58:17.105   08 Jun 2027 12:06:20.322           483.217                Anadyr2         60402.125
       300   08 Jun 2027 12:59:08.316   08 Jun 2027 13:02:51.740           223.424               CapeTown         27928.000
       301   08 Jun 2027 13:22:32.914   08 Jun 2027 13:29:16.025           403.111              Murmansk2         50388.875
       302   08 Jun 2027 13:31:30.355   08 Jun 2027 13:32:08.995            38.640                Anadyr1          4830.000
       303   08 Jun 2027 13:34:29.990   08 Jun 2027 13:38:25.584           235.594               Magadan2         29449.250
       304   08 Jun 2027 16:03:11.058   08 Jun 2027 16:06:29.882           198.824            RioGallegos         24853.000
       305   08 Jun 2027 16:50:08.289   08 Jun 2027 16:54:04.384           236.095                Irkutsk         29511.875
       306   08 Jun 2027 16:56:04.158   08 Jun 2027 16:56:28.646            24.488                Irkutsk          3061.000
       307   08 Jun 2027 17:04:45.220   08 Jun 2027 17:07:48.631           183.411                Sumatra         22926.375
       308   08 Jun 2027 17:09:32.950   08 Jun 2027 17:10:33.047            60.097                Sumatra          7512.125
       309   08 Jun 2027 18:28:01.095   08 Jun 2027 18:29:14.360            73.265                Novosib          9158.125
       310   08 Jun 2027 18:29:41.749   08 Jun 2027 18:29:50.851             9.102                Novosib          1137.750
       311   08 Jun 2027 18:34:26.127   08 Jun 2027 18:35:06.388            40.261                Novosib          5032.625
       312   08 Jun 2027 18:35:18.130   08 Jun 2027 18:37:10.668           112.538                  Delhi         14067.250
       313   08 Jun 2027 21:35:20.894   08 Jun 2027 21:36:17.218            56.324              Murmansk1          7040.500
       314   08 Jun 2027 21:37:19.665   08 Jun 2027 21:39:17.555           117.890              Murmansk2         14736.250
       315   08 Jun 2027 21:40:05.318   08 Jun 2027 21:41:37.319            92.001                 Moscow         11500.125
       316   08 Jun 2027 21:46:00.799   08 Jun 2027 21:46:23.480            22.681                 Moscow          2835.125
       317   08 Jun 2027 22:04:43.779   08 Jun 2027 22:04:48.437             4.658               CapeTown           582.250
       318   08 Jun 2027 22:06:36.581   08 Jun 2027 22:07:34.881            58.300               CapeTown          5247.124
       319   09 Jun 2027 03:59:14.629   09 Jun 2027 04:06:03.345           408.716              Murmansk1         51089.500
       320   09 Jun 2027 05:10:25.308   09 Jun 2027 05:11:48.529            83.221                Sumatra         10402.625
       321   09 Jun 2027 05:35:22.645   09 Jun 2027 05:40:19.192           296.547                Norilsk         37068.375
       322   09 Jun 2027 05:40:33.626   09 Jun 2027 05:43:04.650           151.024              Murmansk2         18878.000
       323   09 Jun 2027 06:18:14.608   09 Jun 2027 06:22:25.371           250.763            RioGallegos         31345.375
       324   09 Jun 2027 06:53:06.036   09 Jun 2027 06:56:58.131           232.095                Sumatra         29011.875
       325   09 Jun 2027 07:00:17.716   09 Jun 2027 07:01:00.054            42.338                Irkutsk          5292.250
       326   09 Jun 2027 07:02:20.028   09 Jun 2027 07:05:47.400           207.372                Irkutsk         25921.500
       327   09 Jun 2027 07:10:31.488   09 Jun 2027 07:12:49.176           137.688                Novosib         17211.000
       328   09 Jun 2027 07:13:03.470   09 Jun 2027 07:16:18.175           194.705                Norilsk         24338.125
       329   09 Jun 2027 07:16:44.912   09 Jun 2027 07:18:14.372            89.460              Murmansk1         11182.500
       330   09 Jun 2027 08:37:14.478   09 Jun 2027 08:40:56.829           222.351                  Delhi         27793.875
       331   09 Jun 2027 08:41:13.359   09 Jun 2027 08:42:18.495            65.136                Novosib          8142.000
       332   09 Jun 2027 08:47:15.886   09 Jun 2027 08:47:52.615            36.729                Novosib          4591.125
       333   09 Jun 2027 08:48:19.851   09 Jun 2027 08:52:14.406           234.555                Norilsk         29319.375
       334   09 Jun 2027 08:52:22.490   09 Jun 2027 08:53:56.340            93.850              Murmansk2         11731.250
       335   09 Jun 2027 10:16:45.421   09 Jun 2027 10:18:13.327            87.906                 Moscow         10988.250
       336   09 Jun 2027 10:20:06.414   09 Jun 2027 10:20:55.503            49.089              Murmansk2          6136.125
       337   09 Jun 2027 10:21:12.468   09 Jun 2027 10:26:19.496           307.028                 Moscow         38378.500
       338   09 Jun 2027 10:27:10.417   09 Jun 2027 10:29:52.755           162.338              Murmansk2         20292.250
       339   09 Jun 2027 10:35:03.552   09 Jun 2027 10:37:11.090           127.538                Anadyr1         15942.250
       340   09 Jun 2027 11:34:50.911   09 Jun 2027 11:39:32.183           281.272               CapeTown         35159.000
       341   09 Jun 2027 11:54:37.411   09 Jun 2027 12:01:10.819           393.408                 Moscow         49176.000
       342   09 Jun 2027 12:01:18.033   09 Jun 2027 12:04:34.576           196.543              Murmansk1         24567.875
       343   09 Jun 2027 12:08:51.300   09 Jun 2027 12:09:14.572            23.272                Anadyr2          2909.000
       344   09 Jun 2027 13:46:20.759   09 Jun 2027 13:52:43.383           382.624               Magadan2         47828.000
       345   09 Jun 2027 16:14:40.622   09 Jun 2027 16:18:19.988           219.366            RioGallegos         27420.750
       346   09 Jun 2027 16:21:10.695   09 Jun 2027 16:22:13.214            62.519            RioGallegos          7814.875
       347   09 Jun 2027 17:05:01.490   09 Jun 2027 17:05:59.360            57.870                Irkutsk          7233.750
       348   09 Jun 2027 17:19:04.516   09 Jun 2027 17:23:30.922           266.406                Sumatra         33300.750
       349   09 Jun 2027 18:37:30.330   09 Jun 2027 18:38:40.811            70.481                Novosib          8810.125
       350   09 Jun 2027 18:40:07.664   09 Jun 2027 18:40:29.015            21.351                Novosib          2668.875
       351   09 Jun 2027 18:46:10.889   09 Jun 2027 18:49:22.017           191.128                  Delhi         23891.000
       352   09 Jun 2027 18:51:44.352   09 Jun 2027 18:53:46.869           122.517                  Delhi         15314.625
       353   09 Jun 2027 21:50:55.897   09 Jun 2027 21:52:33.690            97.793                 Moscow         11952.250
       354   10 Jun 2027 04:11:23.164   10 Jun 2027 04:12:18.054            54.890                Novosib          6861.250
       355   10 Jun 2027 04:12:27.187   10 Jun 2027 04:12:52.061            24.874                Norilsk          3109.250
       356   10 Jun 2027 05:21:53.925   10 Jun 2027 05:23:15.678            81.753                Sumatra         10219.125
       357   10 Jun 2027 05:47:14.907   10 Jun 2027 05:48:50.730            95.823                Novosib         11977.875
       358   10 Jun 2027 05:48:50.743   10 Jun 2027 05:52:20.536           209.793                Norilsk         26224.125
       359   10 Jun 2027 05:52:35.676   10 Jun 2027 05:54:57.793           142.117              Murmansk1         17764.625
       360   10 Jun 2027 06:30:11.819   10 Jun 2027 06:34:16.130           244.311            RioGallegos         30538.875
       361   10 Jun 2027 07:05:03.141   10 Jun 2027 07:08:32.699           209.558                Sumatra         26194.750
       362   10 Jun 2027 07:12:05.782   10 Jun 2027 07:13:19.326            73.544                Novosib          9193.000
       363   10 Jun 2027 07:13:59.908   10 Jun 2027 07:17:54.299           234.391                  Delhi         29298.875
       364   10 Jun 2027 07:17:58.815   10 Jun 2027 07:18:24.087            25.272                Irkutsk          3159.000
       365   10 Jun 2027 07:23:07.057   10 Jun 2027 07:24:48.512           101.455                Novosib         12681.875
       366   10 Jun 2027 07:24:51.952   10 Jun 2027 07:28:20.039           208.087                Norilsk         26010.875
       367   10 Jun 2027 07:28:29.573   10 Jun 2027 07:30:12.586           103.013              Murmansk1         12876.625
       368   10 Jun 2027 08:49:07.099   10 Jun 2027 08:52:30.371           203.272                  Delhi         25409.000
       369   10 Jun 2027 08:52:39.824   10 Jun 2027 08:55:14.983           155.159                Novosib         19394.875
       370   10 Jun 2027 08:59:15.535   10 Jun 2027 08:59:36.223            20.688                Novosib          2586.000
       371   10 Jun 2027 08:59:45.440   10 Jun 2027 09:04:14.406           268.966                Norilsk         33620.750
       372   10 Jun 2027 09:04:17.110   10 Jun 2027 09:05:57.246           100.136              Murmansk1         12517.000
       373   10 Jun 2027 10:28:44.762   10 Jun 2027 10:30:16.494            91.732                 Moscow         11466.500
       374   10 Jun 2027 10:32:18.555   10 Jun 2027 10:35:48.819           210.264              Murmansk2         26283.000
       375   10 Jun 2027 10:35:50.180   10 Jun 2027 10:38:18.155           147.975                 Moscow         18496.875
       376   10 Jun 2027 10:39:10.705   10 Jun 2027 10:41:54.417           163.712              Murmansk1         20464.000
       377   10 Jun 2027 10:45:03.295   10 Jun 2027 10:50:26.259           322.964                Anadyr1         40370.500
       378   10 Jun 2027 11:46:48.145   10 Jun 2027 11:48:39.884           111.739               CapeTown         13967.375
       379   10 Jun 2027 13:58:13.812   10 Jun 2027 14:00:47.765           153.953               Magadan2         19244.125
       380   10 Jun 2027 14:02:28.252   10 Jun 2027 14:03:45.006            76.754               Magadan1          9594.250
       381   10 Jun 2027 14:07:13.026   10 Jun 2027 14:07:44.066            31.040               Magadan2          3880.000
       382   10 Jun 2027 16:26:19.308   10 Jun 2027 16:32:46.845           387.537            RioGallegos         48442.125
       383   10 Jun 2027 17:13:42.779   10 Jun 2027 17:14:46.420            63.641                Irkutsk          7955.125
       384   10 Jun 2027 17:16:14.920   10 Jun 2027 17:17:52.537            97.617                Irkutsk         12202.125
       385   10 Jun 2027 17:19:21.748   10 Jun 2027 17:19:27.736             5.988                Irkutsk           748.500
       386   10 Jun 2027 17:27:41.681   10 Jun 2027 17:29:29.319           107.638                Sumatra         13454.750
       387   10 Jun 2027 17:31:37.376   10 Jun 2027 17:34:23.851           166.475                Sumatra         20809.375
       388   10 Jun 2027 18:51:08.171   10 Jun 2027 18:51:40.128            31.957                Novosib          3994.625
       389   10 Jun 2027 18:57:37.830   10 Jun 2027 19:01:13.397           215.567                  Delhi         26945.875
       390   10 Jun 2027 20:29:48.887   10 Jun 2027 20:31:24.554            95.667                 Moscow         11958.375
       391   10 Jun 2027 21:59:22.433   10 Jun 2027 22:00:10.516            48.083              Murmansk2          6010.375
       392   10 Jun 2027 22:08:47.722   10 Jun 2027 22:08:57.880            10.158              Murmansk1           983.875
       393   11 Jun 2027 04:23:30.164   11 Jun 2027 04:25:02.138            91.974                Norilsk         11496.750
       394   11 Jun 2027 05:33:31.401   11 Jun 2027 05:35:22.354           110.953                Sumatra         13869.125
       395   11 Jun 2027 05:37:27.283   11 Jun 2027 05:37:38.080            10.797                Sumatra          1349.625
       396   11 Jun 2027 05:39:16.420   11 Jun 2027 05:39:59.084            42.664                Sumatra          5333.000
       397   11 Jun 2027 05:47:34.288   11 Jun 2027 05:49:05.777            91.489                  Delhi         11436.125
       398   11 Jun 2027 05:59:26.170   11 Jun 2027 06:04:22.034           295.864                Norilsk         36983.000
       399   11 Jun 2027 06:04:37.643   11 Jun 2027 06:06:51.671           134.028              Murmansk2         16753.500
       400   11 Jun 2027 06:42:07.559   11 Jun 2027 06:46:03.852           236.293            RioGallegos         29536.625
       401   11 Jun 2027 07:16:54.539   11 Jun 2027 07:19:57.505           182.966                Sumatra         22870.750
       402   11 Jun 2027 07:24:15.724   11 Jun 2027 07:25:09.863            54.139                Novosib          6767.375
       403   11 Jun 2027 07:25:41.326   11 Jun 2027 07:31:08.065           326.739                Irkutsk         40842.375
       404   11 Jun 2027 07:35:20.397   11 Jun 2027 07:36:46.982            86.585                Novosib         10823.125
       405   11 Jun 2027 07:37:00.231   11 Jun 2027 07:40:21.846           201.615                Norilsk         25201.875
       406   11 Jun 2027 07:40:24.721   11 Jun 2027 07:42:11.263           106.542              Murmansk1         13317.750
       407   11 Jun 2027 09:00:55.540   11 Jun 2027 09:03:53.248           177.708                  Delhi         22213.500
       408   11 Jun 2027 09:03:56.064   11 Jun 2027 09:06:26.794           150.730                Novosib         18841.250
       409   11 Jun 2027 09:11:46.440   11 Jun 2027 09:16:13.774           267.334                Norilsk         33416.750
       410   11 Jun 2027 09:17:04.929   11 Jun 2027 09:17:58.351            53.422              Murmansk2          6677.750
       411   11 Jun 2027 10:21:24.566   11 Jun 2027 10:23:17.031           112.465               CapeTown         14058.125
       412   11 Jun 2027 10:40:43.236   11 Jun 2027 10:41:28.503            45.267                 Moscow          5658.375
       413   11 Jun 2027 10:44:20.213   11 Jun 2027 10:47:47.247           207.034              Murmansk1         25879.250
       414   11 Jun 2027 10:47:47.252   11 Jun 2027 10:50:15.839           148.587                 Moscow         18573.375
       415   11 Jun 2027 10:50:16.176   11 Jun 2027 10:53:56.045           219.869              Murmansk2         27483.625
       416   11 Jun 2027 10:56:43.030   11 Jun 2027 11:03:24.227           401.197                Anadyr2         50149.625
       417   11 Jun 2027 12:37:40.557   11 Jun 2027 12:39:11.802            91.245                Anadyr2         11405.625
       418   11 Jun 2027 14:10:08.602   11 Jun 2027 14:14:30.025           261.423               Magadan2         32677.875
       419   11 Jun 2027 16:38:03.628   11 Jun 2027 16:44:06.331           362.703            RioGallegos         45337.875
       420   11 Jun 2027 17:25:34.528   11 Jun 2027 17:27:15.348           100.820                Irkutsk         12602.500
       421   11 Jun 2027 17:28:00.912   11 Jun 2027 17:30:43.666           162.754                Novosib         20344.250
       422   11 Jun 2027 17:41:11.557   11 Jun 2027 17:43:40.184           148.627                Sumatra         18578.375
       423   11 Jun 2027 19:01:19.237   11 Jun 2027 19:03:11.032           111.795                Novosib         13974.375
       424   11 Jun 2027 19:09:14.045   11 Jun 2027 19:10:27.046            73.001                  Delhi          9125.125
       425   11 Jun 2027 19:11:18.829   11 Jun 2027 19:13:07.883           109.054                  Delhi         13631.750
       426   11 Jun 2027 20:39:37.118   11 Jun 2027 20:40:07.766            30.648              Murmansk1          3831.000
       427   11 Jun 2027 22:11:50.416   11 Jun 2027 22:12:08.902            18.486              Murmansk1          2310.750
       428   11 Jun 2027 22:17:13.914   11 Jun 2027 22:17:41.102            27.188                 Moscow          3398.500
       429   11 Jun 2027 22:39:14.132   11 Jun 2027 22:41:22.330           128.198               CapeTown          1869.875
       430   12 Jun 2027 04:35:30.863   12 Jun 2027 04:40:23.215           292.352                Norilsk         36544.000
       431   12 Jun 2027 05:45:16.055   12 Jun 2027 05:46:58.736           102.681                Sumatra         12835.125
       432   12 Jun 2027 05:47:57.823   12 Jun 2027 05:49:43.722           105.899                Sumatra         13237.375
       433   12 Jun 2027 06:11:28.036   12 Jun 2027 06:16:23.663           295.627                Norilsk         36953.375
       434   12 Jun 2027 06:16:35.151   12 Jun 2027 06:18:46.278           131.127              Murmansk2         16390.875
       435   12 Jun 2027 06:54:01.561   12 Jun 2027 06:57:47.468           225.907            RioGallegos         28238.375
       436   12 Jun 2027 07:28:39.762   12 Jun 2027 07:31:08.352           148.590                Sumatra         18573.750
       437   12 Jun 2027 07:36:29.018   12 Jun 2027 07:37:48.342            79.324                Novosib          9915.500
       438   12 Jun 2027 07:38:39.208   12 Jun 2027 07:43:34.116           294.908                Irkutsk         36863.500
       439   12 Jun 2027 07:46:54.848   12 Jun 2027 07:47:21.350            26.502                 Moscow          3312.750
       440   12 Jun 2027 07:47:26.881   12 Jun 2027 07:52:23.559           296.678                Norilsk         37084.750
       441   12 Jun 2027 07:52:35.622   12 Jun 2027 07:54:10.365            94.743              Murmansk1         11842.875
       442   12 Jun 2027 09:12:38.985   12 Jun 2027 09:14:57.360           138.375                  Delhi         17296.875
       443   12 Jun 2027 09:24:17.225   12 Jun 2027 09:28:12.318           235.093                Norilsk         29386.625
       444   12 Jun 2027 09:28:40.051   12 Jun 2027 09:29:59.610            79.559              Murmansk1          9944.875
       445   12 Jun 2027 10:33:58.895   12 Jun 2027 10:36:50.050           171.155               CapeTown         21394.375
       446   12 Jun 2027 10:52:40.703   12 Jun 2027 10:52:58.852            18.149                 Moscow          2268.625
       447   12 Jun 2027 10:56:21.829   12 Jun 2027 10:59:11.416           169.587              Murmansk2         21198.375
       448   12 Jun 2027 10:59:47.132   12 Jun 2027 11:02:12.361           145.229                 Moscow         18153.625
       449   12 Jun 2027 11:02:17.280   12 Jun 2027 11:05:57.601           220.321              Murmansk1         27540.125
       450   12 Jun 2027 11:08:29.438   12 Jun 2027 11:16:13.023           463.585                Anadyr1         57948.125
       451   12 Jun 2027 12:10:58.018   12 Jun 2027 12:15:51.462           293.444               CapeTown         36680.500
       452   12 Jun 2027 12:31:46.795   12 Jun 2027 12:35:23.619           216.824                 Moscow         27103.000
       453   12 Jun 2027 12:35:27.648   12 Jun 2027 12:38:14.970           167.322              Murmansk2         20915.250
       454   12 Jun 2027 12:44:03.688   12 Jun 2027 12:44:44.960            41.272                Anadyr1          5159.000
       455   12 Jun 2027 12:48:18.596   12 Jun 2027 12:50:40.168           141.572               Magadan2         17696.500
       456   12 Jun 2027 14:22:04.760   12 Jun 2027 14:24:58.286           173.526               Magadan2         21690.750
       457   12 Jun 2027 16:49:51.868   12 Jun 2027 16:55:39.727           347.859            RioGallegos         43482.375
       458   12 Jun 2027 17:37:28.404   12 Jun 2027 17:39:39.107           130.703                Irkutsk         16337.875
       459   12 Jun 2027 17:41:52.775   12 Jun 2027 17:45:01.642           188.867                Novosib         23608.375
       460   12 Jun 2027 19:20:56.849   12 Jun 2027 19:25:05.886           249.037                  Delhi         31129.625
       461   12 Jun 2027 20:48:23.770   12 Jun 2027 20:49:18.584            54.814              Murmansk1          6851.750
       462   12 Jun 2027 20:52:15.983   12 Jun 2027 20:55:23.487           187.504                 Moscow         22546.625
       463   13 Jun 2027 04:47:31.805   13 Jun 2027 04:47:53.996            22.191                Norilsk          2773.875
       464   13 Jun 2027 04:48:04.105   13 Jun 2027 04:48:57.731            53.626                Norilsk          6703.250
       465   13 Jun 2027 04:50:27.621   13 Jun 2027 04:52:35.670           128.049              Murmansk1         16006.125
       466   13 Jun 2027 04:52:35.670   13 Jun 2027 04:55:54.019           198.349              Murmansk2         24793.625
       467   13 Jun 2027 05:29:47.285   13 Jun 2027 05:34:57.321           310.036            RioGallegos         38754.500
       468   13 Jun 2027 06:04:32.355   13 Jun 2027 06:09:47.007           314.652                Sumatra         39331.500
       469   13 Jun 2027 06:10:58.356   13 Jun 2027 06:17:01.632           363.276                Irkutsk         45409.500
       470   13 Jun 2027 06:23:03.040   13 Jun 2027 06:23:16.149            13.109                Irkutsk          1638.625
       471   13 Jun 2027 06:23:29.940   13 Jun 2027 06:23:40.790            10.850                Norilsk          1356.250
       472   13 Jun 2027 06:23:43.664   13 Jun 2027 06:24:59.612            75.948                Novosib          9493.500
       473   13 Jun 2027 06:25:28.242   13 Jun 2027 06:28:25.386           177.144                Norilsk         22143.000
       474   13 Jun 2027 06:28:41.221   13 Jun 2027 06:30:41.573           120.352              Murmansk1         15044.000
       475   13 Jun 2027 07:05:53.422   13 Jun 2027 07:09:25.079           211.657            RioGallegos         26457.125
       476   13 Jun 2027 07:40:17.924   13 Jun 2027 07:41:54.210            96.286                Sumatra         12035.750
       477   13 Jun 2027 07:48:32.821   13 Jun 2027 07:53:58.673           325.852                  Delhi         40731.500
       478   13 Jun 2027 07:54:10.912   13 Jun 2027 07:54:56.208            45.296                Novosib          5662.000
       479   13 Jun 2027 07:59:14.396   13 Jun 2027 08:02:16.375           181.979                 Moscow         22747.375
       480   13 Jun 2027 08:02:22.617   13 Jun 2027 08:04:25.138           122.521                Norilsk         15315.125
       481   13 Jun 2027 08:04:29.382   13 Jun 2027 08:06:09.857           100.475              Murmansk2         12559.375
       482   13 Jun 2027 09:24:16.046   13 Jun 2027 09:25:00.268            44.222                  Delhi          5527.750
