uniorb/output/strategy_4/Drop/Drop_KinoSat_110105.txt

KinoSat_110105
-------------------------
    Access    *     Start Time (UTCG)     *     Stop Time (UTCG)  *   Duration (s)        *       Station  *  Data (Mbytes)
         1   01 Jun 2027 04:09:21.441   01 Jun 2027 04:10:11.828            50.387                Norilsk          6298.375
         2   01 Jun 2027 04:10:21.616   01 Jun 2027 04:12:41.173           139.557                Irkutsk         17444.625
         3   01 Jun 2027 04:12:52.572   01 Jun 2027 04:12:56.020             3.448                Norilsk           431.000
         4   01 Jun 2027 04:13:03.882   01 Jun 2027 04:13:37.812            33.930                Norilsk          4241.250
         5   01 Jun 2027 04:13:50.926   01 Jun 2027 04:13:58.769             7.843                Norilsk           980.375
         6   01 Jun 2027 04:14:58.743   01 Jun 2027 04:15:06.628             7.885                Norilsk           985.625
         7   01 Jun 2027 04:15:13.134   01 Jun 2027 04:15:17.348             4.214                Norilsk           526.750
         8   01 Jun 2027 04:50:43.042   01 Jun 2027 04:51:16.956            33.914            RioGallegos          4239.250
         9   01 Jun 2027 04:56:51.675   01 Jun 2027 04:57:07.469            15.794            RioGallegos          1974.250
        10   01 Jun 2027 05:25:03.687   01 Jun 2027 05:26:28.408            84.721                Sumatra         10590.125
        11   01 Jun 2027 05:31:13.286   01 Jun 2027 05:32:44.541            91.255                  Delhi         11406.875
        12   01 Jun 2027 05:36:28.850   01 Jun 2027 05:38:52.851           144.001                  Delhi         18000.125
        13   01 Jun 2027 05:48:21.745   01 Jun 2027 05:49:22.554            60.809                Novosib          7601.125
        14   01 Jun 2027 07:10:55.587   01 Jun 2027 07:12:15.835            80.248                  Delhi         10031.000
        15   01 Jun 2027 07:21:03.425   01 Jun 2027 07:22:24.522            81.097              Murmansk2         10137.125
        16   01 Jun 2027 07:22:41.154   01 Jun 2027 07:23:54.480            73.326                Norilsk          9165.750
        17   01 Jun 2027 07:24:45.387   01 Jun 2027 07:27:07.232           141.845              Murmansk1         17730.625
        18   01 Jun 2027 07:27:15.770   01 Jun 2027 07:27:39.541            23.771                 Moscow          2971.375
        19   01 Jun 2027 08:31:22.770   01 Jun 2027 08:32:31.942            69.172               CapeTown          8646.500
        20   01 Jun 2027 10:05:46.750   01 Jun 2027 10:06:32.591            45.841               CapeTown          5730.125
        21   01 Jun 2027 10:14:39.203   01 Jun 2027 10:14:52.611            13.408               CapeTown          1676.000
        22   01 Jun 2027 10:47:32.031   01 Jun 2027 10:48:03.893            31.862                Anadyr1          3982.750
        23   01 Jun 2027 10:51:44.221   01 Jun 2027 10:51:44.817             0.596                Anadyr2            74.500
        24   01 Jun 2027 12:21:35.639   01 Jun 2027 12:22:19.856            44.217                Anadyr1          5527.125
        25   01 Jun 2027 12:24:03.906   01 Jun 2027 12:25:20.973            77.067               Magadan2          9633.375
        26   01 Jun 2027 12:26:02.570   01 Jun 2027 12:29:07.835           185.265               Magadan2         23158.125
        27   01 Jun 2027 12:32:03.124   01 Jun 2027 12:34:38.172           155.048               Magadan1         19381.000
        28   01 Jun 2027 14:55:37.764   01 Jun 2027 14:56:50.072            72.308            RioGallegos          9038.500
        29   01 Jun 2027 15:39:27.084   01 Jun 2027 15:41:27.144           120.060                Irkutsk         15007.500
        30   01 Jun 2027 15:47:25.701   01 Jun 2027 15:48:58.342            92.641                Irkutsk         11580.125
        31   01 Jun 2027 15:53:08.668   01 Jun 2027 15:58:34.792           326.124                Sumatra         40765.500
        32   01 Jun 2027 17:15:15.223   01 Jun 2027 17:17:54.347           159.124                Novosib         19890.500
        33   01 Jun 2027 17:22:53.199   01 Jun 2027 17:25:03.280           130.081                  Delhi          1187.250
        34   02 Jun 2027 05:38:23.110   02 Jun 2027 05:40:16.059           112.949                Sumatra         14118.625
        35   02 Jun 2027 05:43:15.537   02 Jun 2027 05:44:40.110            84.573                  Delhi         10571.625
        36   02 Jun 2027 05:47:38.572   02 Jun 2027 05:48:14.370            35.798                  Delhi          4474.750
        37   02 Jun 2027 06:01:02.274   02 Jun 2027 06:02:39.826            97.552                Novosib         12194.000
        38   02 Jun 2027 06:02:48.450   02 Jun 2027 06:05:47.975           179.525              Murmansk1         22440.625
        39   02 Jun 2027 07:27:41.806   02 Jun 2027 07:29:54.940           133.134                 Moscow         16641.750
        40   02 Jun 2027 07:30:21.921   02 Jun 2027 07:30:38.813            16.892                 Moscow          2111.500
        41   02 Jun 2027 07:35:57.408   02 Jun 2027 07:36:58.273            60.865                 Moscow          7608.125
        42   02 Jun 2027 07:38:02.609   02 Jun 2027 07:42:09.562           246.953                Norilsk         30869.125
        43   02 Jun 2027 07:42:21.849   02 Jun 2027 07:44:01.616            99.767              Murmansk2         12470.875
        44   02 Jun 2027 08:42:42.841   02 Jun 2027 08:51:54.276           551.435               CapeTown         68929.375
        45   02 Jun 2027 09:04:38.942   02 Jun 2027 09:08:34.486           235.544                 Moscow         29443.000
        46   02 Jun 2027 09:10:21.028   02 Jun 2027 09:13:12.404           171.376              Murmansk1         21422.000
        47   02 Jun 2027 09:13:12.404   02 Jun 2027 09:14:23.822            71.418              Murmansk2          8927.250
        48   02 Jun 2027 09:15:17.998   02 Jun 2027 09:16:38.354            80.356              Murmansk2         10044.500
        49   02 Jun 2027 09:22:17.473   02 Jun 2027 09:25:31.129           193.656                Anadyr2         24207.000
        50   02 Jun 2027 10:57:43.391   02 Jun 2027 10:59:48.614           125.223                Anadyr2         15652.875
        51   02 Jun 2027 12:36:01.493   02 Jun 2027 12:36:25.250            23.757               Magadan1          2969.625
        52   02 Jun 2027 12:38:22.804   02 Jun 2027 12:41:01.241           158.437               Magadan2         19804.625
        53   02 Jun 2027 14:11:49.125   02 Jun 2027 14:12:55.897            66.772               Magadan2          8346.500
        54   02 Jun 2027 14:15:27.532   02 Jun 2027 14:16:33.265            65.733               Magadan1          8216.625
        55   02 Jun 2027 15:03:41.062   02 Jun 2027 15:05:30.256           109.194            RioGallegos         13649.250
        56   02 Jun 2027 15:51:23.164   02 Jun 2027 15:52:51.526            88.362                Irkutsk         11045.250
        57   02 Jun 2027 15:54:03.015   02 Jun 2027 15:56:29.671           146.656                Irkutsk         18332.000
        58   02 Jun 2027 16:05:04.040   02 Jun 2027 16:08:12.578           188.538                Sumatra         23567.250
        59   02 Jun 2027 17:27:13.349   02 Jun 2027 17:28:06.700            53.351                Novosib          6668.875
        60   02 Jun 2027 17:28:50.406   02 Jun 2027 17:30:08.477            78.071                Novosib          9758.875
        61   02 Jun 2027 17:34:00.756   02 Jun 2027 17:34:21.484            20.728                Novosib          2591.000
        62   02 Jun 2027 17:34:42.399   02 Jun 2027 17:40:21.841           339.442                  Delhi         42430.250
        63   02 Jun 2027 20:40:43.274   02 Jun 2027 20:43:40.466           177.192                 Moscow         15342.875
        64   03 Jun 2027 04:11:03.829   03 Jun 2027 04:13:51.417           167.588                Sumatra         20948.500
        65   03 Jun 2027 04:36:46.011   03 Jun 2027 04:37:05.419            19.408                 Moscow          2426.000
        66   03 Jun 2027 04:37:36.997   03 Jun 2027 04:37:57.016            20.019              Murmansk1          2502.375
        67   03 Jun 2027 04:37:57.016   03 Jun 2027 04:39:37.615           100.599              Murmansk2         12574.875
        68   03 Jun 2027 05:55:23.278   03 Jun 2027 05:57:43.508           140.230                  Delhi         17528.750
        69   03 Jun 2027 05:58:22.363   03 Jun 2027 06:00:05.411           103.048                  Delhi         12881.000
        70   03 Jun 2027 06:13:08.197   03 Jun 2027 06:14:34.275            86.078                Novosib         10759.750
        71   03 Jun 2027 06:14:35.527   03 Jun 2027 06:15:49.527            74.000              Murmansk1          9250.000
        72   03 Jun 2027 06:16:07.270   03 Jun 2027 06:17:38.081            90.811              Murmansk2         11351.375
        73   03 Jun 2027 07:39:40.043   03 Jun 2027 07:41:35.140           115.097                 Moscow         14387.125
        74   03 Jun 2027 07:42:19.552   03 Jun 2027 07:42:58.448            38.896                 Moscow          4862.000
        75   03 Jun 2027 07:49:28.455   03 Jun 2027 07:54:05.111           276.656                Norilsk         34582.000
        76   03 Jun 2027 07:54:13.935   03 Jun 2027 07:56:03.204           109.269              Murmansk1         13658.625
        77   03 Jun 2027 08:54:14.822   03 Jun 2027 09:01:24.293           429.471               CapeTown         53683.875
        78   03 Jun 2027 09:17:19.879   03 Jun 2027 09:18:10.551            50.672                 Moscow          6334.000
        79   03 Jun 2027 09:18:53.244   03 Jun 2027 09:19:40.128            46.884                 Moscow          5860.500
        80   03 Jun 2027 09:20:12.272   03 Jun 2027 09:20:35.364            23.092              Murmansk2          2886.500
        81   03 Jun 2027 09:20:38.855   03 Jun 2027 09:20:47.650             8.795                 Moscow          1099.375
        82   03 Jun 2027 09:20:51.619   03 Jun 2027 09:21:17.808            26.189              Murmansk2          3273.625
        83   03 Jun 2027 09:22:22.598   03 Jun 2027 09:25:13.530           170.932              Murmansk2         21366.500
        84   03 Jun 2027 09:25:28.725   03 Jun 2027 09:26:00.572            31.847              Murmansk2          3980.875
        85   03 Jun 2027 09:27:19.225   03 Jun 2027 09:27:29.245            10.020              Murmansk1          1252.500
        86   03 Jun 2027 09:27:40.319   03 Jun 2027 09:28:02.116            21.797              Murmansk1          2724.625
        87   03 Jun 2027 09:34:11.127   03 Jun 2027 09:39:28.669           317.542                Anadyr2         39692.750
        88   03 Jun 2027 09:41:28.355   03 Jun 2027 09:43:41.830           133.475                Anadyr1         16684.375
        89   03 Jun 2027 11:03:17.172   03 Jun 2027 11:03:43.848            26.676              Murmansk2          3334.500
        90   03 Jun 2027 11:03:54.695   03 Jun 2027 11:04:15.283            20.588              Murmansk2          2573.500
        91   03 Jun 2027 11:05:02.155   03 Jun 2027 11:05:16.335            14.180              Murmansk2          1772.500
        92   03 Jun 2027 11:09:43.842   03 Jun 2027 11:09:59.684            15.842                Anadyr1          1980.250
        93   03 Jun 2027 11:13:08.337   03 Jun 2027 11:16:40.915           212.578               Magadan1         26572.250
        94   03 Jun 2027 12:47:59.943   03 Jun 2027 12:50:39.705           159.762               Magadan2         19970.250
        95   03 Jun 2027 12:51:53.040   03 Jun 2027 12:54:24.411           151.371               Magadan2         18921.375
        96   03 Jun 2027 14:23:51.073   03 Jun 2027 14:24:47.026            55.953               Magadan1          6994.125
        97   03 Jun 2027 15:15:35.089   03 Jun 2027 15:17:45.036           129.947            RioGallegos         16243.375
        98   03 Jun 2027 15:23:25.758   03 Jun 2027 15:25:06.100           100.342            RioGallegos         12542.750
        99   03 Jun 2027 16:03:20.612   03 Jun 2027 16:04:27.523            66.911                Irkutsk          8363.875
       100   03 Jun 2027 16:06:17.093   03 Jun 2027 16:08:21.840           124.747                Irkutsk         15593.375
       101   03 Jun 2027 16:17:05.016   03 Jun 2027 16:19:22.116           137.100                Sumatra         17137.500
       102   03 Jun 2027 17:42:25.673   03 Jun 2027 17:44:07.061           101.388                Novosib         12673.500
       103   03 Jun 2027 17:46:35.684   03 Jun 2027 17:49:36.049           180.365                  Delhi         22545.625
       104   03 Jun 2027 17:55:30.657   03 Jun 2027 17:56:07.440            36.783                  Delhi          4597.875
       105   03 Jun 2027 19:23:39.479   03 Jun 2027 19:24:32.855            53.376                  Delhi          6672.000
       106   03 Jun 2027 20:52:42.972   03 Jun 2027 20:53:16.001            33.029                 Moscow          4128.625
       107   03 Jun 2027 20:53:54.243   03 Jun 2027 20:55:56.171           121.928                 Moscow         15241.000
       108   04 Jun 2027 02:50:35.770   04 Jun 2027 02:50:57.296            21.526                Sumatra          2690.750
       109   04 Jun 2027 03:13:30.441   04 Jun 2027 03:17:25.343           234.902              Murmansk2         29362.750
       110   04 Jun 2027 04:23:07.611   04 Jun 2027 04:24:57.772           110.161                Sumatra         13770.125
       111   04 Jun 2027 04:30:48.502   04 Jun 2027 04:32:49.285           120.783                Sumatra         15097.875
       112   04 Jun 2027 04:48:08.878   04 Jun 2027 04:48:19.985            11.107              Murmansk1          1388.375
       113   04 Jun 2027 04:49:27.890   04 Jun 2027 04:49:38.120            10.230              Murmansk1          1278.750
       114   04 Jun 2027 04:49:38.120   04 Jun 2027 04:49:59.025            20.905              Murmansk2          2613.125
       115   04 Jun 2027 04:50:02.034   04 Jun 2027 04:54:21.991           259.957                Norilsk         32494.625
       116   04 Jun 2027 06:07:36.906   04 Jun 2027 06:12:01.783           264.877                  Delhi         33109.625
       117   04 Jun 2027 06:16:58.439   04 Jun 2027 06:19:20.048           141.609                Novosib         17701.125
       118   04 Jun 2027 06:19:26.690   04 Jun 2027 06:20:11.843            45.153                 Moscow          5644.125
       119   04 Jun 2027 06:25:20.927   04 Jun 2027 06:27:52.810           151.883              Murmansk2         18985.375
       120   04 Jun 2027 06:27:52.810   04 Jun 2027 06:30:24.418           151.608              Murmansk1         18951.000
       121   04 Jun 2027 07:51:41.125   04 Jun 2027 07:55:14.254           213.129                 Moscow         26641.125
       122   04 Jun 2027 07:56:01.749   04 Jun 2027 07:57:30.267            88.518                 Moscow         11064.750
       123   04 Jun 2027 08:00:20.863   04 Jun 2027 08:04:34.835           253.972                 Moscow         31746.500
       124   04 Jun 2027 08:04:43.496   04 Jun 2027 08:08:04.870           201.374              Murmansk2         25171.750
       125   04 Jun 2027 09:05:54.479   04 Jun 2027 09:12:16.504           382.025               CapeTown         47753.125
       126   04 Jun 2027 09:32:30.979   04 Jun 2027 09:32:41.523            10.544              Murmansk2          1318.000
       127   04 Jun 2027 09:34:24.235   04 Jun 2027 09:35:40.535            76.300              Murmansk2          9537.500
       128   04 Jun 2027 09:35:40.535   04 Jun 2027 09:38:05.124           144.589              Murmansk1         18073.625
       129   04 Jun 2027 09:46:06.506   04 Jun 2027 09:55:38.277           571.771                Anadyr1         71471.375
       130   04 Jun 2027 11:21:44.569   04 Jun 2027 11:21:56.452            11.883                Anadyr2          1485.375
       131   04 Jun 2027 11:24:52.982   04 Jun 2027 11:28:24.201           211.219               Magadan2         26402.375
       132   04 Jun 2027 12:59:59.103   04 Jun 2027 13:02:50.754           171.651               Magadan1         21456.375
       133   04 Jun 2027 14:35:53.232   04 Jun 2027 14:36:40.347            47.115               Magadan1          5889.375
       134   04 Jun 2027 14:56:02.997   04 Jun 2027 14:57:27.027            84.030                Sumatra         10503.750
       135   04 Jun 2027 15:27:30.869   04 Jun 2027 15:29:05.540            94.671            RioGallegos         11833.875
       136   04 Jun 2027 15:36:34.415   04 Jun 2027 15:38:18.510           104.095            RioGallegos         13011.875
       137   04 Jun 2027 16:17:59.581   04 Jun 2027 16:20:16.058           136.477                Irkutsk         17059.625
       138   04 Jun 2027 16:29:11.659   04 Jun 2027 16:30:37.214            85.555                Sumatra         10694.375
       139   04 Jun 2027 16:31:02.556   04 Jun 2027 16:31:25.112            22.556                  Delhi          2819.500
       140   04 Jun 2027 17:51:12.252   04 Jun 2027 17:54:26.721           194.469                Novosib         24308.625
       141   04 Jun 2027 17:58:32.590   04 Jun 2027 18:00:45.414           132.824                  Delhi         16603.000
       142   04 Jun 2027 21:04:43.401   04 Jun 2027 21:06:25.723           102.322                 Moscow         12790.250
       143   04 Jun 2027 21:08:01.253   04 Jun 2027 21:08:04.097             2.844                 Moscow           355.500
       144   04 Jun 2027 21:16:21.734   04 Jun 2027 21:17:37.672            75.938                 Moscow          9492.250
       145   04 Jun 2027 21:30:33.918   04 Jun 2027 21:30:36.130             2.212               CapeTown           276.500
       146   04 Jun 2027 21:31:49.943   04 Jun 2027 21:33:17.846            87.903               CapeTown         10987.875
       147   05 Jun 2027 03:01:34.430   05 Jun 2027 03:04:05.391           150.961                Sumatra         18870.125
       148   05 Jun 2027 03:10:07.995   05 Jun 2027 03:10:11.716             3.721                Sumatra           465.125
       149   05 Jun 2027 03:25:40.101   05 Jun 2027 03:26:50.827            70.726                Novosib          8840.750
       150   05 Jun 2027 04:35:17.220   05 Jun 2027 04:36:19.734            62.514                Sumatra          7814.250
       151   05 Jun 2027 04:38:05.305   05 Jun 2027 04:39:54.570           109.265                Sumatra         13658.125
       152   05 Jun 2027 04:59:57.047   05 Jun 2027 05:00:01.274             4.227              Murmansk2           528.375
       153   05 Jun 2027 05:01:12.055   05 Jun 2027 05:01:39.030            26.975              Murmansk1          3371.875
       154   05 Jun 2027 05:01:39.030   05 Jun 2027 05:02:01.104            22.074              Murmansk2          2759.250
       155   05 Jun 2027 05:02:37.445   05 Jun 2027 05:03:54.282            76.837                 Moscow          9604.625
       156   05 Jun 2027 05:05:06.159   05 Jun 2027 05:06:20.372            74.213              Murmansk2          9276.625
       157   05 Jun 2027 05:06:20.372   05 Jun 2027 05:07:00.507            40.135              Murmansk1          5016.875
       158   05 Jun 2027 05:07:47.866   05 Jun 2027 05:08:22.576            34.710              Murmansk1          4338.750
       159   05 Jun 2027 06:19:57.135   05 Jun 2027 06:22:04.171           127.036                  Delhi         15879.500
       160   05 Jun 2027 06:28:46.032   05 Jun 2027 06:29:36.395            50.363                 Moscow          6295.375
       161   05 Jun 2027 06:29:43.164   05 Jun 2027 06:32:11.350           148.186                Novosib         18523.250
       162   05 Jun 2027 06:37:06.754   05 Jun 2027 06:41:59.701           292.947                Norilsk         36618.375
       163   05 Jun 2027 06:42:16.364   05 Jun 2027 06:44:10.720           114.356              Murmansk2         14294.500
       164   05 Jun 2027 08:03:45.137   05 Jun 2027 08:05:44.873           119.736                 Moscow         14967.000
       165   05 Jun 2027 08:06:34.156   05 Jun 2027 08:08:30.541           116.385                 Moscow         14548.125
       166   05 Jun 2027 08:11:42.287   05 Jun 2027 08:13:25.019           102.732                 Moscow         12841.500
       167   05 Jun 2027 08:13:46.153   05 Jun 2027 08:17:47.343           241.190                Norilsk         30148.750
       168   05 Jun 2027 08:20:05.006   05 Jun 2027 08:20:06.584             1.578              Murmansk2           197.250
       169   05 Jun 2027 08:24:57.175   05 Jun 2027 08:25:51.568            54.393                Anadyr2          6799.125
       170   05 Jun 2027 09:22:28.315   05 Jun 2027 09:23:34.863            66.548               CapeTown          8318.500
       171   05 Jun 2027 09:53:34.663   05 Jun 2027 09:53:59.570            24.907              Murmansk2          3113.375
       172   05 Jun 2027 09:58:03.197   05 Jun 2027 09:59:29.355            86.158                Anadyr1         10769.750
       173   05 Jun 2027 10:01:43.414   05 Jun 2027 10:08:41.125           417.711                Anadyr1         52213.875
       174   05 Jun 2027 11:33:45.524   05 Jun 2027 11:35:08.185            82.661                Anadyr2         10332.625
       175   05 Jun 2027 11:36:41.716   05 Jun 2027 11:42:41.167           359.451               Magadan1         44931.375
       176   05 Jun 2027 13:11:58.873   05 Jun 2027 13:15:04.383           185.510               Magadan2         23188.750
       177   05 Jun 2027 13:15:51.707   05 Jun 2027 13:16:50.162            58.455               Magadan2          7306.875
       178   05 Jun 2027 15:06:59.027   05 Jun 2027 15:11:00.646           241.619                Sumatra         30202.375
       179   05 Jun 2027 15:15:09.730   05 Jun 2027 15:15:55.221            45.491                Sumatra          5686.375
       180   05 Jun 2027 16:30:34.257   05 Jun 2027 16:32:11.951            97.694                Irkutsk         12211.750
       181   05 Jun 2027 16:42:10.727   05 Jun 2027 16:44:46.680           155.953                  Delhi         19494.125
       182   05 Jun 2027 18:03:12.823   05 Jun 2027 18:05:00.808           107.985                Novosib         13498.125
       183   05 Jun 2027 18:10:32.867   05 Jun 2027 18:12:04.457            91.590                  Delhi         11448.750
       184   05 Jun 2027 18:13:45.122   05 Jun 2027 18:15:31.761           106.639                  Delhi         13329.875
       185   05 Jun 2027 18:20:09.937   05 Jun 2027 18:20:48.300            38.363                  Delhi          4795.375
       186   05 Jun 2027 19:44:39.574   05 Jun 2027 19:46:39.371           119.797                 Moscow         14974.625
       187   05 Jun 2027 21:26:20.275   05 Jun 2027 21:26:32.874            12.599                 Moscow          1574.875
       188   05 Jun 2027 21:28:44.581   05 Jun 2027 21:29:37.483            52.902                 Moscow          6612.750
       189   05 Jun 2027 21:42:02.278   05 Jun 2027 21:43:04.434            62.156               CapeTown          7769.500
       190   05 Jun 2027 21:48:31.360   05 Jun 2027 21:49:02.224            30.864               CapeTown          3858.000
       191   06 Jun 2027 03:12:30.227   06 Jun 2027 03:20:39.790           489.563                Sumatra         17957.375
       192   06 Jun 2027 03:37:44.871   06 Jun 2027 03:38:06.962            22.091              Murmansk2          2761.375
       193   06 Jun 2027 04:47:33.289   06 Jun 2027 04:47:52.207            18.918                Sumatra          2364.750
       194   06 Jun 2027 04:49:35.204   06 Jun 2027 04:51:52.142           136.938                Sumatra         17117.250
       195   06 Jun 2027 05:02:43.595   06 Jun 2027 05:03:30.328            46.733                  Delhi          5841.625
       196   06 Jun 2027 05:13:04.520   06 Jun 2027 05:13:29.075            24.555              Murmansk1          3069.375
       197   06 Jun 2027 05:13:31.489   06 Jun 2027 05:16:04.120           152.631                 Moscow         19078.875
       198   06 Jun 2027 05:16:56.922   06 Jun 2027 05:17:42.507            45.585              Murmansk2          5698.125
       199   06 Jun 2027 05:17:50.147   06 Jun 2027 05:18:48.018            57.871              Murmansk2          7233.875
       200   06 Jun 2027 06:40:48.076   06 Jun 2027 06:43:59.004           190.928                Novosib         23866.000
       201   06 Jun 2027 06:49:16.298   06 Jun 2027 06:51:23.776           127.478              Murmansk2         15934.750
       202   06 Jun 2027 06:51:32.337   06 Jun 2027 06:51:47.307            14.970              Murmansk2          1871.250
       203   06 Jun 2027 06:51:54.687   06 Jun 2027 06:56:11.533           256.846              Murmansk2         32105.750
       204   06 Jun 2027 08:15:52.197   06 Jun 2027 08:16:09.258            17.061                 Moscow          2132.625
       205   06 Jun 2027 08:17:50.523   06 Jun 2027 08:20:28.472           157.949                 Moscow         19743.625
       206   06 Jun 2027 08:23:45.793   06 Jun 2027 08:25:34.603           108.810                 Moscow         13601.250
       207   06 Jun 2027 08:25:52.768   06 Jun 2027 08:27:13.828            81.060                Norilsk         10132.500
       208   06 Jun 2027 08:27:15.636   06 Jun 2027 08:30:43.166           207.530              Murmansk2         25941.250
       209   06 Jun 2027 08:35:39.578   06 Jun 2027 08:39:51.357           251.779                Anadyr2         31472.375
       210   06 Jun 2027 10:10:00.900   06 Jun 2027 10:11:14.062            73.162                Anadyr1          9145.250
       211   06 Jun 2027 10:14:23.860   06 Jun 2027 10:15:30.275            66.415                Anadyr1          8301.875
       212   06 Jun 2027 10:16:59.544   06 Jun 2027 10:19:34.160           154.616                Anadyr1         19327.000
       213   06 Jun 2027 11:48:33.284   06 Jun 2027 11:48:45.978            12.694               Magadan2          1586.750
       214   06 Jun 2027 13:23:59.159   06 Jun 2027 13:26:38.570           159.411               Magadan2         19926.375
       215   06 Jun 2027 13:27:12.475   06 Jun 2027 13:28:41.216            88.741               Magadan1         11092.625
       216   06 Jun 2027 15:05:43.622   06 Jun 2027 15:05:55.778            12.156                Irkutsk          1519.500
       217   06 Jun 2027 15:06:44.440   06 Jun 2027 15:08:08.568            84.128                Irkutsk         10516.000
       218   06 Jun 2027 15:20:24.419   06 Jun 2027 15:25:42.469           318.050                Sumatra         39756.250
       219   06 Jun 2027 16:43:03.143   06 Jun 2027 16:43:28.438            25.295                Novosib          3161.875
       220   06 Jun 2027 16:43:55.120   06 Jun 2027 16:45:05.096            69.976                Novosib          8747.000
       221   06 Jun 2027 16:48:15.023   06 Jun 2027 16:49:14.766            59.743                  Delhi          7467.875
       222   06 Jun 2027 16:52:32.450   06 Jun 2027 16:57:24.858           292.408                  Delhi         36551.000
       223   06 Jun 2027 18:30:23.324   06 Jun 2027 18:32:16.163           112.839                  Delhi         14104.875
       224   06 Jun 2027 19:56:06.021   06 Jun 2027 19:58:02.377           116.356                 Moscow         14544.500
       225   06 Jun 2027 19:59:55.565   06 Jun 2027 20:01:15.349            79.784                 Moscow          9973.000
       226   06 Jun 2027 21:55:22.170   06 Jun 2027 21:57:25.713           123.543               CapeTown         15442.875
       227   07 Jun 2027 03:24:01.636   07 Jun 2027 03:25:38.733            97.097                Sumatra          5901.750
       228   07 Jun 2027 05:01:56.830   07 Jun 2027 05:03:55.302           118.472                Sumatra         14809.000
       229   07 Jun 2027 05:25:23.782   07 Jun 2027 05:28:12.647           168.865                 Moscow         21108.125
       230   07 Jun 2027 05:28:48.415   07 Jun 2027 05:30:30.186           101.771              Murmansk2         12721.375
       231   07 Jun 2027 05:30:31.034   07 Jun 2027 05:30:35.748             4.714                Norilsk           589.250
       232   07 Jun 2027 06:53:32.845   07 Jun 2027 06:55:06.207            93.362                Novosib         11670.250
       233   07 Jun 2027 06:55:51.844   07 Jun 2027 06:56:18.942            27.098                Novosib          3387.250
       234   07 Jun 2027 07:01:31.463   07 Jun 2027 07:01:41.219             9.756                Norilsk          1219.500
       235   07 Jun 2027 07:01:45.487   07 Jun 2027 07:05:57.523           252.036              Murmansk2         31504.500
       236   07 Jun 2027 07:05:57.523   07 Jun 2027 07:07:04.644            67.121              Murmansk1          8390.125
       237   07 Jun 2027 08:30:59.994   07 Jun 2027 08:32:29.236            89.242                 Moscow         11155.250
       238   07 Jun 2027 08:32:43.821   07 Jun 2027 08:33:41.830            58.009              Murmansk2          7251.125
       239   07 Jun 2027 08:34:31.708   07 Jun 2027 08:36:33.446           121.738              Murmansk1         15217.250
       240   07 Jun 2027 08:36:41.843   07 Jun 2027 08:40:21.820           219.977                 Moscow         27497.125
       241   07 Jun 2027 08:40:29.207   07 Jun 2027 08:41:15.749            46.542              Murmansk2          5817.750
       242   07 Jun 2027 08:47:10.808   07 Jun 2027 08:52:59.757           348.949                Anadyr1         43618.625
       243   07 Jun 2027 10:21:59.413   07 Jun 2027 10:22:45.162            45.749                Anadyr2          5718.625
       244   07 Jun 2027 10:31:37.707   07 Jun 2027 10:32:38.833            61.126                Anadyr1          7640.750
       245   07 Jun 2027 11:57:47.909   07 Jun 2027 11:59:55.857           127.948                Anadyr1         15993.500
       246   07 Jun 2027 12:00:26.957   07 Jun 2027 12:03:14.511           167.554               Magadan1         20944.250
       247   07 Jun 2027 12:09:36.553   07 Jun 2027 12:09:57.589            21.036               Magadan2          2629.500
       248   07 Jun 2027 13:35:59.889   07 Jun 2027 13:36:15.214            15.325               Magadan1          1915.625
       249   07 Jun 2027 13:37:50.364   07 Jun 2027 13:39:17.920            87.556               Magadan2         10944.500
       250   07 Jun 2027 13:39:17.920   07 Jun 2027 13:41:22.953           125.033               Magadan1         15629.125
       251   07 Jun 2027 13:47:43.795   07 Jun 2027 13:48:54.922            71.127               Magadan1          8890.875
       252   07 Jun 2027 15:17:11.500   07 Jun 2027 15:21:27.052           255.552                Irkutsk         31944.000
       253   07 Jun 2027 15:31:51.102   07 Jun 2027 15:36:29.540           278.438                Sumatra         34804.750
       254   07 Jun 2027 16:56:40.272   07 Jun 2027 16:56:50.909            10.637                Novosib          1329.625
       255   07 Jun 2027 16:59:45.074   07 Jun 2027 17:07:05.322           440.248                  Delhi         55031.000
       256   07 Jun 2027 20:13:13.708   07 Jun 2027 20:14:36.464            82.756                 Moscow         10344.500
       257   07 Jun 2027 20:15:53.639   07 Jun 2027 20:17:08.134            74.495                 Moscow          9311.875
       258   07 Jun 2027 21:51:05.697   07 Jun 2027 21:53:18.419           132.722                 Moscow         16428.000
       259   08 Jun 2027 05:12:30.876   08 Jun 2027 05:14:11.163           100.287                Sumatra         12535.875
       260   08 Jun 2027 05:24:07.807   08 Jun 2027 05:25:03.708            55.901                  Delhi          6987.625
       261   08 Jun 2027 05:30:25.883   08 Jun 2027 05:31:42.613            76.730                  Delhi          9591.250
       262   08 Jun 2027 05:37:03.079   08 Jun 2027 05:37:54.678            51.599              Murmansk2          6449.875
       263   08 Jun 2027 05:37:57.733   08 Jun 2027 05:38:07.347             9.614                Novosib          1201.750
       264   08 Jun 2027 05:38:20.282   08 Jun 2027 05:38:55.233            34.951                Norilsk          4368.875
       265   08 Jun 2027 05:39:21.774   08 Jun 2027 05:40:20.179            58.405                 Moscow          7300.625
       266   08 Jun 2027 05:40:40.657   08 Jun 2027 05:42:24.198           103.541              Murmansk1         12942.625
       267   08 Jun 2027 07:06:27.874   08 Jun 2027 07:07:11.750            43.876                Novosib          5484.500
       268   08 Jun 2027 07:07:38.953   08 Jun 2027 07:07:59.518            20.565                 Moscow          2570.625
       269   08 Jun 2027 07:14:03.073   08 Jun 2027 07:20:13.773           370.700              Murmansk2         46337.500
       270   08 Jun 2027 08:20:39.514   08 Jun 2027 08:26:05.252           325.738               CapeTown         40717.250
       271   08 Jun 2027 08:40:16.049   08 Jun 2027 08:40:21.382             5.333                 Moscow           666.625
       272   08 Jun 2027 08:43:02.781   08 Jun 2027 08:43:27.281            24.500                 Moscow          3062.500
       273   08 Jun 2027 08:43:43.591   08 Jun 2027 08:45:29.527           105.936              Murmansk1         13242.000
       274   08 Jun 2027 08:47:02.574   08 Jun 2027 08:49:40.771           158.197              Murmansk1         19774.625
       275   08 Jun 2027 08:51:30.719   08 Jun 2027 08:53:28.083           117.364              Murmansk2         14670.500
       276   08 Jun 2027 08:58:53.082   08 Jun 2027 09:05:54.588           421.506                Anadyr1         52688.250
       277   08 Jun 2027 10:39:36.991   08 Jun 2027 10:40:55.395            78.404               Magadan1          9800.500
       278   08 Jun 2027 12:12:22.246   08 Jun 2027 12:13:54.252            92.006               Magadan1         11500.750
       279   08 Jun 2027 12:17:00.643   08 Jun 2027 12:17:31.241            30.598               Magadan1          3824.750
       280   08 Jun 2027 12:19:11.358   08 Jun 2027 12:20:43.452            92.094               Magadan1         11511.750
       281   08 Jun 2027 12:20:43.452   08 Jun 2027 12:21:53.922            70.470               Magadan2          8808.750
       282   08 Jun 2027 13:48:00.998   08 Jun 2027 13:48:11.859            10.861               Magadan2          1357.625
       283   08 Jun 2027 14:41:14.360   08 Jun 2027 14:43:50.547           156.187            RioGallegos         19523.375
       284   08 Jun 2027 15:32:40.547   08 Jun 2027 15:33:08.483            27.936                Irkutsk          3492.000
       285   08 Jun 2027 15:34:03.984   08 Jun 2027 15:37:17.436           193.452                Irkutsk         24181.500
       286   08 Jun 2027 15:44:09.831   08 Jun 2027 15:47:40.988           211.157                Sumatra         26394.625
       287   08 Jun 2027 17:11:23.445   08 Jun 2027 17:17:51.972           388.527                  Delhi         48565.875
       288   08 Jun 2027 20:17:01.414   08 Jun 2027 20:18:14.395            72.981                 Moscow          9122.625
       289   08 Jun 2027 20:19:37.058   08 Jun 2027 20:22:04.492           147.434                 Moscow         18429.250
       290   08 Jun 2027 21:59:57.453   08 Jun 2027 22:00:51.605            54.152                 Moscow          6769.000
       291   08 Jun 2027 22:17:27.244   08 Jun 2027 22:19:27.275           120.031               CapeTown          5462.750
       292   09 Jun 2027 05:25:19.925   09 Jun 2027 05:26:19.245            59.320                Sumatra          7415.000
       293   09 Jun 2027 05:31:28.263   09 Jun 2027 05:33:58.207           149.944                  Delhi         18743.000
       294   09 Jun 2027 05:49:28.273   09 Jun 2027 05:50:09.540            41.267              Murmansk2          5158.375
       295   09 Jun 2027 05:50:13.565   09 Jun 2027 05:51:21.640            68.075                Norilsk          8509.375
       296   09 Jun 2027 05:51:26.309   09 Jun 2027 05:52:26.915            60.606                 Moscow          7575.750
       297   09 Jun 2027 05:52:33.649   09 Jun 2027 05:53:55.829            82.180              Murmansk2         10272.500
       298   09 Jun 2027 07:15:27.473   09 Jun 2027 07:16:50.353            82.880                  Delhi         10360.000
       299   09 Jun 2027 07:17:20.115   09 Jun 2027 07:18:22.707            62.592                 Moscow          7824.000
       300   09 Jun 2027 07:26:19.891   09 Jun 2027 07:32:15.135           355.244              Murmansk1         44405.500
       301   09 Jun 2027 08:31:36.720   09 Jun 2027 08:39:24.656           467.936               CapeTown         58492.000
       302   09 Jun 2027 08:52:33.271   09 Jun 2027 09:02:24.301           591.030                 Moscow         73878.750
       303   09 Jun 2027 09:02:33.271   09 Jun 2027 09:05:54.587           201.316              Murmansk2         25164.500
       304   09 Jun 2027 09:06:17.413   09 Jun 2027 09:06:41.149            23.736              Murmansk2          2967.000
       305   09 Jun 2027 09:08:09.987   09 Jun 2027 09:08:13.311             3.324              Murmansk1           415.500
       306   09 Jun 2027 09:10:40.949   09 Jun 2027 09:16:32.675           351.726                Anadyr2         43965.750
       307   09 Jun 2027 09:17:45.319   09 Jun 2027 09:18:41.346            56.027                Anadyr1          7003.375
       308   09 Jun 2027 10:34:55.846   09 Jun 2027 10:36:30.000            94.154              Murmansk1         11769.250
       309   09 Jun 2027 12:24:18.816   09 Jun 2027 12:25:35.307            76.491               Magadan2          9561.375
       310   09 Jun 2027 12:29:23.110   09 Jun 2027 12:29:49.636            26.526                Anadyr2          3315.750
       311   09 Jun 2027 12:30:03.519   09 Jun 2027 12:34:08.008           244.489               Magadan1         30561.125
       312   09 Jun 2027 14:10:04.219   09 Jun 2027 14:10:47.040            42.821               Magadan1          5352.625
       313   09 Jun 2027 14:55:53.615   09 Jun 2027 14:57:18.348            84.733            RioGallegos         10591.625
       314   09 Jun 2027 15:39:41.959   09 Jun 2027 15:41:41.195           119.236                Irkutsk         14904.500
       315   09 Jun 2027 15:47:41.500   09 Jun 2027 15:49:13.244            91.744                Irkutsk         11468.000
       316   09 Jun 2027 15:53:23.494   09 Jun 2027 15:56:21.737           178.243                Sumatra         22280.375
       317   09 Jun 2027 17:15:30.148   09 Jun 2027 17:18:09.667           159.519                Novosib         19939.875
       318   09 Jun 2027 17:21:49.470   09 Jun 2027 17:24:51.223           181.753                Novosib         22719.125
       319   09 Jun 2027 17:25:18.747   09 Jun 2027 17:29:07.279           228.532                  Delhi         28566.500
       320   09 Jun 2027 20:28:59.349   09 Jun 2027 20:29:55.220            55.871                 Moscow          6983.875
       321   09 Jun 2027 20:31:51.845   09 Jun 2027 20:33:58.094           126.249                 Moscow         13362.625
       322   10 Jun 2027 05:43:00.859   10 Jun 2027 05:43:38.568            37.709                Sumatra          4713.625
       323   10 Jun 2027 05:45:33.799   10 Jun 2027 05:46:40.693            66.894                  Delhi          8361.750
       324   10 Jun 2027 05:47:55.075   10 Jun 2027 05:48:28.997            33.922                  Delhi          4240.250
       325   10 Jun 2027 06:01:18.778   10 Jun 2027 06:02:54.721            95.943                Novosib         11992.875
       326   10 Jun 2027 06:03:02.929   10 Jun 2027 06:03:42.352            39.423              Murmansk2          4927.875
       327   10 Jun 2027 06:04:07.525   10 Jun 2027 06:04:32.970            25.445                 Moscow          3180.625
       328   10 Jun 2027 06:04:53.059   10 Jun 2027 06:06:02.496            69.437              Murmansk1          8679.625
       329   10 Jun 2027 07:27:56.724   10 Jun 2027 07:30:53.592           176.868                 Moscow         22108.500
       330   10 Jun 2027 07:38:17.633   10 Jun 2027 07:42:24.506           246.873                Norilsk         30859.125
       331   10 Jun 2027 07:42:36.556   10 Jun 2027 07:44:16.633           100.077              Murmansk1         12509.625
       332   10 Jun 2027 08:42:57.119   10 Jun 2027 08:52:08.716           551.597               CapeTown         68949.625
       333   10 Jun 2027 09:04:54.403   10 Jun 2027 09:11:19.315           384.912                 Moscow         48114.000
       334   10 Jun 2027 09:11:47.946   10 Jun 2027 09:13:23.608            95.662                 Moscow         11957.750
       335   10 Jun 2027 09:13:26.944   10 Jun 2027 09:14:40.947            74.003              Murmansk2          9250.375
       336   10 Jun 2027 09:15:32.652   10 Jun 2027 09:15:34.594             1.942              Murmansk2           242.750
       337   10 Jun 2027 09:15:48.349   10 Jun 2027 09:16:02.843            14.494              Murmansk2          1811.750
       338   10 Jun 2027 09:16:16.966   10 Jun 2027 09:16:53.129            36.163              Murmansk2          4520.375
       339   10 Jun 2027 09:22:32.277   10 Jun 2027 09:31:22.196           529.919                Anadyr2         66239.875
       340   10 Jun 2027 11:00:47.970   10 Jun 2027 11:02:47.929           119.959                Anadyr1         14994.875
       341   10 Jun 2027 12:33:52.055   10 Jun 2027 12:33:52.142             0.087                Anadyr2            10.875
       342   10 Jun 2027 12:36:16.425   10 Jun 2027 12:36:51.173            34.748               Magadan1          4343.500
       343   10 Jun 2027 12:38:38.179   10 Jun 2027 12:41:15.957           157.778               Magadan2         19722.250
       344   10 Jun 2027 14:12:04.149   10 Jun 2027 14:13:10.396            66.247               Magadan1          8280.875
       345   10 Jun 2027 14:15:43.014   10 Jun 2027 14:17:15.234            92.220               Magadan2         11527.500
       346   10 Jun 2027 15:03:55.892   10 Jun 2027 15:05:45.766           109.874            RioGallegos         13734.250
       347   10 Jun 2027 15:51:38.073   10 Jun 2027 15:53:05.818            87.745                Irkutsk         10968.125
       348   10 Jun 2027 15:56:44.332   10 Jun 2027 15:57:55.454            71.122                Irkutsk          8890.250
       349   10 Jun 2027 16:00:46.228   10 Jun 2027 16:01:10.460            24.232                Irkutsk          3029.000
       350   10 Jun 2027 16:05:18.987   10 Jun 2027 16:08:41.320           202.333                Sumatra         25291.625
       351   10 Jun 2027 17:29:06.697   10 Jun 2027 17:30:23.721            77.024                Novosib          9628.000
       352   10 Jun 2027 17:34:15.996   10 Jun 2027 17:34:35.539            19.543                Novosib          2442.875
       353   10 Jun 2027 17:34:57.201   10 Jun 2027 17:40:36.209           339.008                  Delhi         42376.000
       354   10 Jun 2027 20:37:41.941   10 Jun 2027 20:37:43.707             1.766              Murmansk1           220.750
       355   10 Jun 2027 20:40:58.238   10 Jun 2027 20:43:56.114           177.876                 Moscow         22234.500
       356   10 Jun 2027 22:42:35.356   10 Jun 2027 22:42:40.058             4.702               CapeTown           587.750
       357   11 Jun 2027 04:11:18.833   11 Jun 2027 04:14:05.207           166.374                Sumatra         20796.750
       358   11 Jun 2027 04:37:04.033   11 Jun 2027 04:37:19.658            15.625                Norilsk          1953.125
       359   11 Jun 2027 04:37:52.740   11 Jun 2027 04:41:41.193           228.453              Murmansk1         28556.625
       360   11 Jun 2027 05:55:38.484   11 Jun 2027 05:57:58.511           140.027                  Delhi         17503.375
       361   11 Jun 2027 05:58:37.241   11 Jun 2027 06:00:20.130           102.889                  Delhi         12861.125
       362   11 Jun 2027 06:13:37.575   11 Jun 2027 06:14:49.137            71.562                Novosib          8945.250
       363   11 Jun 2027 06:14:50.005   11 Jun 2027 06:16:04.841            74.836              Murmansk2          9354.500
       364   11 Jun 2027 06:16:21.844   11 Jun 2027 06:17:52.611            90.767              Murmansk2         11345.875
       365   11 Jun 2027 07:39:55.021   11 Jun 2027 07:41:12.906            77.885                 Moscow          9735.625
       366   11 Jun 2027 07:42:58.822   11 Jun 2027 07:43:13.464            14.642                 Moscow          1830.250
       367   11 Jun 2027 07:49:43.286   11 Jun 2027 07:54:20.018           276.732                Norilsk         34591.500
       368   11 Jun 2027 07:54:28.656   11 Jun 2027 07:56:18.223           109.567              Murmansk1         13695.875
       369   11 Jun 2027 08:54:29.296   11 Jun 2027 09:01:37.507           428.211               CapeTown         53526.375
       370   11 Jun 2027 09:17:19.857   11 Jun 2027 09:18:29.374            69.517                 Moscow          8689.625
       371   11 Jun 2027 09:19:25.194   11 Jun 2027 09:20:24.224            59.030                 Moscow          7378.750
       372   11 Jun 2027 09:20:27.617   11 Jun 2027 09:20:51.400            23.783              Murmansk2          2972.875
       373   11 Jun 2027 09:20:53.430   11 Jun 2027 09:21:02.727             9.297                 Moscow          1162.125
       374   11 Jun 2027 09:21:07.152   11 Jun 2027 09:21:32.377            25.225              Murmansk2          3153.125
       375   11 Jun 2027 09:22:37.331   11 Jun 2027 09:24:28.040           110.709              Murmansk2         13838.625
       376   11 Jun 2027 09:24:28.249   11 Jun 2027 09:25:03.658            35.409                 Moscow          4426.125
       377   11 Jun 2027 09:27:33.880   11 Jun 2027 09:27:55.556            21.676              Murmansk1          2709.500
       378   11 Jun 2027 09:28:16.762   11 Jun 2027 09:29:34.242            77.480              Murmansk1          9685.000
       379   11 Jun 2027 09:34:25.975   11 Jun 2027 09:39:43.209           317.234                Anadyr1         39654.250
       380   11 Jun 2027 09:41:45.141   11 Jun 2027 09:43:58.246           133.105                Anadyr2         16638.125
       381   11 Jun 2027 11:04:31.612   11 Jun 2027 11:05:17.008            45.396              Murmansk1          5674.500
       382   11 Jun 2027 11:09:58.829   11 Jun 2027 11:10:27.229            28.400                Anadyr1          3550.000
       383   11 Jun 2027 11:12:49.373   11 Jun 2027 11:13:38.313            48.940                Anadyr2          6117.500
       384   11 Jun 2027 11:14:32.975   11 Jun 2027 11:17:59.565           206.590               Magadan1         25823.750
       385   11 Jun 2027 12:48:14.890   11 Jun 2027 12:48:59.675            44.785               Magadan2          5598.125
       386   11 Jun 2027 12:49:42.880   11 Jun 2027 12:54:39.687           296.807               Magadan1         37100.875
       387   11 Jun 2027 15:15:49.957   11 Jun 2027 15:17:59.012           129.055            RioGallegos         16131.875
       388   11 Jun 2027 15:23:41.632   11 Jun 2027 15:25:20.999            99.367            RioGallegos         12420.875
       389   11 Jun 2027 16:03:35.550   11 Jun 2027 16:04:41.937            66.387                Irkutsk          8298.375
       390   11 Jun 2027 16:06:32.333   11 Jun 2027 16:08:36.543           124.210                Irkutsk         15526.250
       391   11 Jun 2027 16:17:20.079   11 Jun 2027 16:19:36.069           135.990                Sumatra         16998.750
       392   11 Jun 2027 17:42:41.245   11 Jun 2027 17:44:21.816           100.571                Novosib         12571.375
       393   11 Jun 2027 17:46:50.564   11 Jun 2027 17:49:51.242           180.678                  Delhi         22584.750
       394   11 Jun 2027 19:23:55.127   11 Jun 2027 19:24:47.031            51.904                  Delhi          6488.000
       395   11 Jun 2027 20:50:07.132   11 Jun 2027 20:50:32.054            24.922              Murmansk1          3115.250
       396   11 Jun 2027 20:52:57.954   11 Jun 2027 20:53:30.574            32.620                 Moscow          4077.500
       397   11 Jun 2027 20:54:11.382   11 Jun 2027 20:54:27.100            15.718              Murmansk2          1964.750
       398   11 Jun 2027 20:56:11.292   11 Jun 2027 20:57:50.028            98.736                 Moscow         12342.000
       399   11 Jun 2027 21:20:02.693   11 Jun 2027 21:22:14.002           131.309               CapeTown         16413.625
       400   12 Jun 2027 02:50:40.485   12 Jun 2027 02:51:20.259            39.774                Sumatra          1458.124
       401   12 Jun 2027 03:13:44.966   12 Jun 2027 03:16:35.950           170.984              Murmansk1         21373.000
       402   12 Jun 2027 04:23:22.735   12 Jun 2027 04:25:11.847           109.112                Sumatra         13639.000
       403   12 Jun 2027 04:31:03.540   12 Jun 2027 04:33:04.512           120.972                Sumatra         15121.500
       404   12 Jun 2027 04:48:23.522   12 Jun 2027 04:48:35.516            11.994              Murmansk1          1499.250
       405   12 Jun 2027 04:49:42.365   12 Jun 2027 04:50:16.356            33.991              Murmansk2          4248.875
       406   12 Jun 2027 04:50:18.494   12 Jun 2027 04:54:41.519           263.025                Norilsk         32878.125
       407   12 Jun 2027 04:54:46.894   12 Jun 2027 04:55:18.730            31.836              Murmansk1          3979.500
       408   12 Jun 2027 04:55:42.774   12 Jun 2027 04:56:03.487            20.713              Murmansk1          2589.125
       409   12 Jun 2027 06:07:52.243   12 Jun 2027 06:10:16.920           144.677                  Delhi         18084.625
       410   12 Jun 2027 06:10:30.136   12 Jun 2027 06:12:16.593           106.457                  Delhi         13307.125
       411   12 Jun 2027 06:17:18.446   12 Jun 2027 06:18:03.772            45.326                 Moscow          5665.750
       412   12 Jun 2027 06:18:20.784   12 Jun 2027 06:20:27.984           127.200                 Moscow         15900.000
       413   12 Jun 2027 06:25:36.540   12 Jun 2027 06:31:12.194           335.654              Murmansk1         41956.750
       414   12 Jun 2027 07:51:56.162   12 Jun 2027 07:56:30.165           274.003                 Moscow         34250.375
       415   12 Jun 2027 07:56:52.641   12 Jun 2027 07:57:18.345            25.704              Murmansk1          3213.000
       416   12 Jun 2027 08:00:38.626   12 Jun 2027 08:04:49.829           251.203                 Moscow         31400.375
       417   12 Jun 2027 08:04:59.124   12 Jun 2027 08:08:19.892           200.768              Murmansk1         25096.000
       418   12 Jun 2027 09:07:30.554   12 Jun 2027 09:12:30.450           299.896               CapeTown         37487.000
       419   12 Jun 2027 09:32:46.369   12 Jun 2027 09:32:57.086            10.717              Murmansk1          1339.625
       420   12 Jun 2027 09:34:38.968   12 Jun 2027 09:35:50.994            72.026              Murmansk1          9003.250
       421   12 Jun 2027 09:35:50.994   12 Jun 2027 09:37:40.142           109.148              Murmansk2         13643.500
       422   12 Jun 2027 09:46:21.389   12 Jun 2027 09:48:44.711           143.322                Anadyr1         17915.250
       423   12 Jun 2027 09:49:12.856   12 Jun 2027 09:55:56.525           403.669                Anadyr2         50458.625
       424   12 Jun 2027 11:21:59.565   12 Jun 2027 11:22:11.117            11.552                Anadyr2          1444.000
       425   12 Jun 2027 11:25:07.668   12 Jun 2027 11:28:39.929           212.261               Magadan2         26532.625
       426   12 Jun 2027 13:00:14.069   12 Jun 2027 13:00:48.776            34.707               Magadan1          4338.375
       427   12 Jun 2027 13:03:06.256   12 Jun 2027 13:07:03.843           237.587               Magadan2         29698.375
       428   12 Jun 2027 14:56:15.970   12 Jun 2027 14:57:51.296            95.326                Sumatra         11915.750
       429   12 Jun 2027 15:27:45.773   12 Jun 2027 15:29:19.797            94.024            RioGallegos         11753.000
       430   12 Jun 2027 15:37:18.002   12 Jun 2027 15:38:32.885            74.883            RioGallegos          9360.375
       431   12 Jun 2027 16:29:26.846   12 Jun 2027 16:30:51.384            84.538                Sumatra         10567.250
       432   12 Jun 2027 16:31:16.488   12 Jun 2027 16:31:42.335            25.847                  Delhi          3230.875
       433   12 Jun 2027 16:32:22.514   12 Jun 2027 16:34:12.589           110.075                Sumatra         13759.375
       434   12 Jun 2027 17:51:27.238   12 Jun 2027 17:52:45.615            78.377                Novosib          9797.125
       435   12 Jun 2027 17:54:41.830   12 Jun 2027 17:56:18.720            96.890                Novosib         12111.250
       436   12 Jun 2027 17:58:47.549   12 Jun 2027 18:00:59.414           131.865                  Delhi         16483.125
       437   12 Jun 2027 21:03:52.728   12 Jun 2027 21:03:59.230             6.502              Murmansk1           812.750
       438   12 Jun 2027 21:04:58.399   12 Jun 2027 21:06:40.844           102.445                 Moscow         12805.625
       439   12 Jun 2027 21:08:16.311   12 Jun 2027 21:08:17.794             1.483                 Moscow           185.375
       440   12 Jun 2027 21:13:38.117   12 Jun 2027 21:14:28.796            50.679              Murmansk2          6334.875
       441   12 Jun 2027 21:30:42.704   12 Jun 2027 21:30:50.308             7.604               CapeTown           950.500
       442   12 Jun 2027 21:32:04.940   12 Jun 2027 21:33:34.015            89.075               CapeTown         11134.375
       443   12 Jun 2027 21:37:52.277   12 Jun 2027 21:38:25.582            33.305               CapeTown          4163.125
       444   13 Jun 2027 03:01:46.322   13 Jun 2027 03:04:31.876           165.554                Sumatra         20694.250
       445   13 Jun 2027 03:10:16.757   13 Jun 2027 03:10:25.951             9.194                Sumatra          1149.250
       446   13 Jun 2027 03:25:37.579   13 Jun 2027 03:25:59.165            21.586                Norilsk          2698.250
       447   13 Jun 2027 04:35:32.474   13 Jun 2027 04:36:33.985            61.511                Sumatra          7688.875
       448   13 Jun 2027 04:38:24.753   13 Jun 2027 04:40:09.307           104.554                Sumatra         13069.250
       449   13 Jun 2027 05:00:11.657   13 Jun 2027 05:00:25.605            13.948                Irkutsk          1743.500
       450   13 Jun 2027 05:01:24.439   13 Jun 2027 05:02:06.505            42.066              Murmansk1          5258.250
       451   13 Jun 2027 05:02:06.990   13 Jun 2027 05:03:19.159            72.169                Novosib          9021.125
       452   13 Jun 2027 05:03:27.863   13 Jun 2027 05:04:09.457            41.594                 Moscow          5199.250
       453   13 Jun 2027 05:05:20.678   13 Jun 2027 05:07:14.997           114.319              Murmansk2         14289.875
       454   13 Jun 2027 06:20:12.619   13 Jun 2027 06:22:18.879           126.260                  Delhi         15782.500
       455   13 Jun 2027 06:27:29.097   13 Jun 2027 06:29:22.809           113.712                  Delhi         14214.000
       456   13 Jun 2027 06:29:37.740   13 Jun 2027 06:33:03.319           205.579                Novosib         25697.375
       457   13 Jun 2027 06:37:24.047   13 Jun 2027 06:42:00.642           276.595                Norilsk         34574.375
       458   13 Jun 2027 06:43:28.456   13 Jun 2027 06:43:41.310            12.854              Murmansk2          1606.750
       459   13 Jun 2027 06:44:04.578   13 Jun 2027 06:44:25.716            21.138              Murmansk2          2642.250
       460   13 Jun 2027 08:04:00.238   13 Jun 2027 08:06:03.267           123.029                 Moscow         15378.625
       461   13 Jun 2027 08:07:05.976   13 Jun 2027 08:08:40.528            94.552                 Moscow         11819.000
       462   13 Jun 2027 08:11:59.626   13 Jun 2027 08:13:40.170           100.544                 Moscow         12568.000
       463   13 Jun 2027 08:14:00.809   13 Jun 2027 08:18:02.091           241.282                Norilsk         30160.250
       464   13 Jun 2027 08:25:07.002   13 Jun 2027 08:26:12.609            65.607                Anadyr2          8200.875
       465   13 Jun 2027 09:22:44.194   13 Jun 2027 09:23:49.096            64.902               CapeTown          8112.750
       466   13 Jun 2027 09:51:36.742   13 Jun 2027 09:52:45.433            68.691              Murmansk2          8586.375
       467   13 Jun 2027 09:53:11.480   13 Jun 2027 09:53:50.742            39.262              Murmansk2          4907.750
       468   13 Jun 2027 09:58:18.108   13 Jun 2027 10:07:50.724           572.616                Anadyr1         71577.000
       469   13 Jun 2027 11:36:56.478   13 Jun 2027 11:38:30.412            93.934               Magadan2         11741.750
       470   13 Jun 2027 13:12:13.854   13 Jun 2027 13:17:04.947           291.093               Magadan1         36386.625
       471   13 Jun 2027 15:07:09.275   13 Jun 2027 15:11:32.714           263.439                Sumatra         32929.875
       472   13 Jun 2027 15:15:12.850   13 Jun 2027 15:16:09.567            56.717                Sumatra          7089.625
       473   13 Jun 2027 16:30:49.349   13 Jun 2027 16:31:35.387            46.038                Irkutsk          5754.750
       474   13 Jun 2027 16:41:39.710   13 Jun 2027 16:42:19.170            39.460                Sumatra          4932.500
       475   13 Jun 2027 16:42:22.321   13 Jun 2027 16:45:03.004           160.683                  Delhi         20085.375
       476   13 Jun 2027 18:03:27.825   13 Jun 2027 18:03:50.434            22.609                Novosib          2826.125
       477   13 Jun 2027 18:05:15.914   13 Jun 2027 18:06:32.486            76.572                Novosib          9571.500
       478   13 Jun 2027 18:10:47.892   13 Jun 2027 18:12:18.682            90.790                  Delhi         11348.750
       479   13 Jun 2027 18:18:24.694   13 Jun 2027 18:20:25.018           120.324                  Delhi         15040.500
       480   13 Jun 2027 19:45:31.091   13 Jun 2027 19:46:53.884            82.793                 Moscow         10349.125
       481   13 Jun 2027 21:20:18.359   13 Jun 2027 21:21:46.583            88.224                 Moscow         11028.000
       482   13 Jun 2027 21:43:19.427   13 Jun 2027 21:44:03.928            44.501               CapeTown          5562.625
