uniorb/output/strategy_4/Drop/Drop_KinoSat_111406.txt

KinoSat_111406
-------------------------
    Access    *     Start Time (UTCG)     *     Stop Time (UTCG)  *   Duration (s)        *       Station  *  Data (Mbytes)
         1   01 Jun 2027 03:15:07.808   01 Jun 2027 03:15:36.266            28.458              Murmansk1           889.313
         2   01 Jun 2027 03:15:36.266   01 Jun 2027 03:15:46.102             9.836              Murmansk2           307.375
         3   01 Jun 2027 03:15:46.826   01 Jun 2027 03:15:56.264             9.438                Novosib           294.938
         4   01 Jun 2027 03:15:56.727   01 Jun 2027 03:16:23.561            26.834              Murmansk2           838.562
         5   01 Jun 2027 03:16:30.126   01 Jun 2027 03:18:00.797            90.671                Novosib          2833.469
         6   01 Jun 2027 03:18:09.326   01 Jun 2027 03:19:36.527            87.201              Murmansk1          2725.031
         7   01 Jun 2027 03:19:50.757   01 Jun 2027 03:20:22.396            31.639              Murmansk2           988.719
         8   01 Jun 2027 03:20:32.304   01 Jun 2027 03:20:51.323            19.019                 Moscow           594.344
         9   01 Jun 2027 03:21:21.013   01 Jun 2027 03:23:03.785           102.772                 Moscow          3211.625
        10   01 Jun 2027 03:36:16.379   01 Jun 2027 03:39:26.034           189.655               CapeTown          5926.719
        11   01 Jun 2027 03:42:20.058   01 Jun 2027 03:42:47.775            27.717               CapeTown           866.156
        12   01 Jun 2027 04:32:22.876   01 Jun 2027 04:33:33.445            70.569                Anadyr1          2205.281
        13   01 Jun 2027 04:39:52.917   01 Jun 2027 04:41:05.519            72.602                Anadyr2          2268.813
        14   01 Jun 2027 04:51:15.365   01 Jun 2027 04:51:55.037            39.672                Norilsk          1239.750
        15   01 Jun 2027 04:52:08.529   01 Jun 2027 04:52:39.951            31.422                Norilsk           981.938
        16   01 Jun 2027 04:52:49.608   01 Jun 2027 04:55:32.250           162.642              Murmansk2          5082.562
        17   01 Jun 2027 05:12:52.932   01 Jun 2027 05:13:34.234            41.302               CapeTown          1290.687
        18   01 Jun 2027 06:15:27.437   01 Jun 2027 06:17:48.633           141.196               Magadan2          4412.375
        19   01 Jun 2027 06:18:47.277   01 Jun 2027 06:18:54.318             7.041               Magadan2           220.031
        20   01 Jun 2027 06:18:58.770   01 Jun 2027 06:19:25.482            26.712               Magadan2           834.750
        21   01 Jun 2027 06:20:07.179   01 Jun 2027 06:21:06.628            59.449                Anadyr2          1857.781
        22   01 Jun 2027 07:52:32.162   01 Jun 2027 07:52:55.273            23.111                Anadyr1           722.219
        23   01 Jun 2027 07:53:05.277   01 Jun 2027 07:53:06.989             1.712                Anadyr2            53.500
        24   01 Jun 2027 07:53:24.212   01 Jun 2027 07:54:52.210            87.998               Magadan1          2749.938
        25   01 Jun 2027 07:54:52.210   01 Jun 2027 07:56:42.725           110.515               Magadan2          3453.594
        26   01 Jun 2027 09:26:39.292   01 Jun 2027 09:28:20.231           100.939                Irkutsk          3154.344
        27   01 Jun 2027 09:28:24.781   01 Jun 2027 09:30:55.302           150.521               Magadan2          4703.781
        28   01 Jun 2027 09:32:14.129   01 Jun 2027 09:32:25.022            10.893                Irkutsk           340.406
        29   01 Jun 2027 10:07:08.443   01 Jun 2027 10:10:30.890           202.447            RioGallegos          6326.469
        30   01 Jun 2027 10:42:17.862   01 Jun 2027 10:42:59.914            42.052                Sumatra          1314.125
        31   01 Jun 2027 11:04:12.775   01 Jun 2027 11:08:21.722           248.947                Irkutsk          7779.594
        32   01 Jun 2027 12:19:50.241   01 Jun 2027 12:20:13.551            23.310                Sumatra           728.437
        33   01 Jun 2027 12:22:19.613   01 Jun 2027 12:24:34.946           135.333                Sumatra          4229.156
        34   01 Jun 2027 12:35:38.425   01 Jun 2027 12:37:29.615           111.190                Irkutsk          3474.687
        35   01 Jun 2027 12:37:33.242   01 Jun 2027 12:39:06.239            92.997                Norilsk          2906.156
        36   01 Jun 2027 14:05:31.388   01 Jun 2027 14:07:05.327            93.939                  Delhi          2935.594
        37   01 Jun 2027 14:09:30.528   01 Jun 2027 14:09:50.029            19.501                  Delhi           609.406
        38   01 Jun 2027 14:10:49.971   01 Jun 2027 14:11:54.134            64.163                 Moscow          2005.094
        39   01 Jun 2027 14:12:31.586   01 Jun 2027 14:12:45.381            13.795                 Moscow           431.094
        40   01 Jun 2027 14:14:00.501   01 Jun 2027 14:16:17.991           137.490                Novosib          4296.562
        41   01 Jun 2027 14:16:42.628   01 Jun 2027 14:17:26.046            43.418                Norilsk          1356.812
        42   01 Jun 2027 14:18:13.496   01 Jun 2027 14:18:19.476             5.980                Novosib           186.875
        43   01 Jun 2027 14:18:55.567   01 Jun 2027 14:19:19.645            24.078                Norilsk           752.438
        44   01 Jun 2027 14:19:54.481   01 Jun 2027 14:21:36.733           102.252                Norilsk          3195.375
        45   01 Jun 2027 15:26:37.439   01 Jun 2027 15:28:56.401           138.962               CapeTown          4342.563
        46   01 Jun 2027 15:47:14.189   01 Jun 2027 15:47:29.027            14.838                 Moscow           463.687
        47   01 Jun 2027 15:48:12.915   01 Jun 2027 15:48:42.429            29.514                 Moscow           922.313
        48   01 Jun 2027 15:50:38.740   01 Jun 2027 15:53:15.797           157.057              Murmansk2          4908.031
        49   01 Jun 2027 16:06:36.470   01 Jun 2027 16:06:39.945             3.475                Anadyr2           108.594
        50   01 Jun 2027 16:06:52.700   01 Jun 2027 16:07:49.681            56.981                Anadyr1          1780.656
        51   01 Jun 2027 16:08:23.659   01 Jun 2027 16:08:53.734            30.075                Anadyr1           939.844
        52   01 Jun 2027 17:00:04.923   01 Jun 2027 17:02:39.412           154.489               CapeTown          4827.781
        53   01 Jun 2027 17:28:42.829   01 Jun 2027 17:32:00.991           198.162                 Moscow          6192.563
        54   01 Jun 2027 17:32:54.919   01 Jun 2027 17:34:20.721            85.802              Murmansk2          2681.313
        55   01 Jun 2027 17:40:44.471   01 Jun 2027 17:40:47.448             2.977                Anadyr1            93.031
        56   01 Jun 2027 17:45:16.163   01 Jun 2027 17:45:57.198            41.035               Magadan1          1282.344
        57   01 Jun 2027 17:46:12.615   01 Jun 2027 17:46:40.058            27.443               Magadan1           857.594
        58   01 Jun 2027 17:46:59.238   01 Jun 2027 17:49:05.599           126.361               Magadan2          3948.781
        59   01 Jun 2027 18:37:37.424   01 Jun 2027 18:38:25.345            47.921               CapeTown          1497.531
        60   01 Jun 2027 19:16:37.020   01 Jun 2027 19:18:25.380           108.360                Anadyr2          3386.250
        61   01 Jun 2027 19:18:40.147   01 Jun 2027 19:20:33.931           113.784                Anadyr2          3555.750
        62   01 Jun 2027 19:20:52.961   01 Jun 2027 19:23:59.567           186.606               Magadan2          5831.437
        63   01 Jun 2027 20:52:31.415   01 Jun 2027 20:54:39.531           128.116                Anadyr1          4003.625
        64   01 Jun 2027 20:54:48.787   01 Jun 2027 20:58:06.854           198.067               Magadan1          6189.594
        65   01 Jun 2027 20:58:06.854   01 Jun 2027 20:59:08.210            61.356               Magadan2          1917.375
        66   01 Jun 2027 21:02:42.712   01 Jun 2027 21:03:39.175            56.463                Irkutsk          1764.469
        67   01 Jun 2027 21:46:52.787   01 Jun 2027 21:50:16.729           203.942            RioGallegos          6373.188
        68   01 Jun 2027 22:28:05.896   01 Jun 2027 22:28:57.304            51.408                Anadyr1          1606.500
        69   01 Jun 2027 22:29:18.170   01 Jun 2027 22:29:49.238            31.068                Anadyr1           970.875
        70   01 Jun 2027 22:30:21.465   01 Jun 2027 22:32:10.910           109.445                Norilsk          3420.156
        71   01 Jun 2027 22:32:18.068   01 Jun 2027 22:33:05.348            47.280               Magadan1          1477.500
        72   01 Jun 2027 22:34:29.639   01 Jun 2027 22:35:26.363            56.724                Irkutsk          1772.625
        73   01 Jun 2027 22:36:09.081   01 Jun 2027 22:36:37.179            28.098                Novosib           878.063
        74   01 Jun 2027 22:38:00.770   01 Jun 2027 22:38:15.352            14.582                Novosib           455.687
        75   01 Jun 2027 22:38:56.281   01 Jun 2027 22:39:43.039            46.758                Novosib          1461.188
        76   01 Jun 2027 22:48:12.641   01 Jun 2027 22:50:56.538           163.897                Sumatra          5121.781
        77   02 Jun 2027 00:02:45.429   02 Jun 2027 00:03:41.370            55.941                Anadyr2          1748.156
        78   02 Jun 2027 00:04:09.171   02 Jun 2027 00:05:01.888            52.717                Anadyr2          1647.406
        79   02 Jun 2027 00:06:19.476   02 Jun 2027 00:06:34.962            15.486                Norilsk           483.937
        80   02 Jun 2027 00:06:58.679   02 Jun 2027 00:08:28.470            89.791               Magadan1          2805.969
        81   02 Jun 2027 00:10:12.378   02 Jun 2027 00:11:01.538            49.160                Irkutsk          1536.250
        82   02 Jun 2027 00:11:23.965   02 Jun 2027 00:11:58.184            34.219                Novosib          1069.344
        83   02 Jun 2027 00:12:42.680   02 Jun 2027 00:13:26.731            44.051                Novosib          1376.594
        84   02 Jun 2027 00:17:58.326   02 Jun 2027 00:19:25.926            87.600                  Delhi          2737.500
        85   02 Jun 2027 00:19:58.390   02 Jun 2027 00:21:19.259            80.869                  Delhi          2527.156
        86   02 Jun 2027 01:36:14.977   02 Jun 2027 01:36:35.451            20.474                Anadyr1           639.813
        87   02 Jun 2027 01:37:31.358   02 Jun 2027 01:38:07.876            36.518                Anadyr2          1141.187
        88   02 Jun 2027 01:38:24.479   02 Jun 2027 01:38:50.753            26.274                Anadyr1           821.063
        89   02 Jun 2027 01:38:56.370   02 Jun 2027 01:39:12.712            16.342                Anadyr1           510.688
        90   02 Jun 2027 01:42:18.663   02 Jun 2027 01:42:29.618            10.955                Norilsk           342.344
        91   02 Jun 2027 01:42:31.423   02 Jun 2027 01:44:13.665           102.242               Magadan2          3195.062
        92   02 Jun 2027 01:44:38.209   02 Jun 2027 01:45:30.542            52.333              Murmansk2          1635.406
        93   02 Jun 2027 01:45:30.542   02 Jun 2027 01:46:41.185            70.643              Murmansk1          2207.594
        94   02 Jun 2027 01:47:29.836   02 Jun 2027 01:48:17.019            47.183                Novosib          1474.469
        95   02 Jun 2027 01:49:15.745   02 Jun 2027 01:50:52.677            96.932                 Moscow          3029.125
        96   02 Jun 2027 03:09:41.793   02 Jun 2027 03:10:19.278            37.485                Anadyr2          1171.406
        97   02 Jun 2027 03:12:46.370   02 Jun 2027 03:12:55.507             9.137                Anadyr2           285.531
        98   02 Jun 2027 03:13:16.318   02 Jun 2027 03:13:25.635             9.317                Anadyr2           291.156
        99   02 Jun 2027 03:13:59.619   02 Jun 2027 03:14:39.108            39.489                Anadyr2          1234.031
       100   02 Jun 2027 03:15:41.195   02 Jun 2027 03:15:48.804             7.609               Magadan1           237.781
       101   02 Jun 2027 03:15:55.142   02 Jun 2027 03:16:11.104            15.962               Magadan1           498.813
       102   02 Jun 2027 03:27:22.111   02 Jun 2027 03:28:56.284            94.173                Norilsk          2942.906
       103   02 Jun 2027 03:29:22.178   02 Jun 2027 03:29:41.152            18.974                Norilsk           592.938
       104   02 Jun 2027 03:29:53.226   02 Jun 2027 03:30:11.363            18.137                Norilsk           566.781
       105   02 Jun 2027 03:30:30.137   02 Jun 2027 03:31:13.005            42.868              Murmansk2          1339.625
       106   02 Jun 2027 03:31:13.005   02 Jun 2027 03:31:52.452            39.447              Murmansk1          1232.719
       107   02 Jun 2027 03:32:07.890   02 Jun 2027 03:32:38.160            30.270              Murmansk2           945.937
       108   02 Jun 2027 03:32:43.849   02 Jun 2027 03:33:19.702            35.853                 Moscow          1120.406
       109   02 Jun 2027 03:47:59.047   02 Jun 2027 03:49:49.688           110.641               CapeTown          3457.531
       110   02 Jun 2027 03:55:29.232   02 Jun 2027 03:56:08.743            39.511               CapeTown          1234.719
       111   02 Jun 2027 04:51:12.421   02 Jun 2027 04:51:23.757            11.336                Anadyr2           354.250
       112   02 Jun 2027 04:51:23.757   02 Jun 2027 04:52:47.502            83.745                Anadyr1          2617.031
       113   02 Jun 2027 04:53:01.297   02 Jun 2027 04:53:17.033            15.736               Magadan1           491.750
       114   02 Jun 2027 04:55:55.620   02 Jun 2027 04:56:11.983            16.363                Anadyr2           511.344
       115   02 Jun 2027 04:57:10.788   02 Jun 2027 04:57:13.706             2.918                Anadyr1            91.187
       116   02 Jun 2027 06:28:35.032   02 Jun 2027 06:33:07.090           272.058                Anadyr2          8501.812
       117   02 Jun 2027 08:03:36.399   02 Jun 2027 08:07:21.009           224.610                Anadyr2          7019.062
       118   02 Jun 2027 09:39:02.540   02 Jun 2027 09:39:58.915            56.375                Novosib          1761.719
       119   02 Jun 2027 09:40:24.204   02 Jun 2027 09:40:43.961            19.757               Magadan1           617.406
       120   02 Jun 2027 09:41:04.130   02 Jun 2027 09:41:47.833            43.703               Magadan2          1365.719
       121   02 Jun 2027 09:42:00.932   02 Jun 2027 09:42:16.209            15.277                Irkutsk           477.406
       122   02 Jun 2027 09:42:20.245   02 Jun 2027 09:42:24.733             4.488                Norilsk           140.250
       123   02 Jun 2027 09:42:30.949   02 Jun 2027 09:43:06.370            35.421                Irkutsk          1106.906
       124   02 Jun 2027 09:43:12.606   02 Jun 2027 09:43:19.043             6.437                Irkutsk           201.156
       125   02 Jun 2027 09:43:55.123   02 Jun 2027 09:44:38.004            42.881                Novosib          1340.031
       126   02 Jun 2027 10:19:13.825   02 Jun 2027 10:19:23.171             9.346            RioGallegos           292.062
       127   02 Jun 2027 10:20:38.685   02 Jun 2027 10:21:23.866            45.181            RioGallegos          1411.906
       128   02 Jun 2027 10:54:08.919   02 Jun 2027 10:54:47.721            38.802                Sumatra          1212.562
       129   02 Jun 2027 11:00:54.806   02 Jun 2027 11:02:12.320            77.514                Sumatra          2422.313
       130   02 Jun 2027 11:15:26.979   02 Jun 2027 11:16:04.874            37.895                Novosib          1184.219
       131   02 Jun 2027 11:16:22.450   02 Jun 2027 11:16:42.653            20.203                Irkutsk           631.344
       132   02 Jun 2027 11:16:47.279   02 Jun 2027 11:17:06.586            19.307                Novosib           603.344
       133   02 Jun 2027 11:17:16.736   02 Jun 2027 11:17:38.372            21.636                Novosib           676.125
       134   02 Jun 2027 11:17:40.280   02 Jun 2027 11:17:47.452             7.172                Irkutsk           224.125
       135   02 Jun 2027 11:17:52.574   02 Jun 2027 11:18:13.054            20.480                Novosib           640.000
       136   02 Jun 2027 11:18:19.690   02 Jun 2027 11:18:49.014            29.324                Irkutsk           916.375
       137   02 Jun 2027 11:19:18.513   02 Jun 2027 11:20:18.848            60.335                Irkutsk          1885.469
       138   02 Jun 2027 11:58:39.504   02 Jun 2027 11:59:18.236            38.732            RioGallegos          1210.375
       139   02 Jun 2027 12:32:58.438   02 Jun 2027 12:34:11.622            73.184                Sumatra          2287.000
       140   02 Jun 2027 12:41:28.033   02 Jun 2027 12:42:22.437            54.404                  Delhi          1700.125
       141   02 Jun 2027 12:45:47.439   02 Jun 2027 12:46:42.829            55.390                Novosib          1730.938
       142   02 Jun 2027 12:48:12.021   02 Jun 2027 12:48:32.021            20.000                Novosib           625.000
       143   02 Jun 2027 12:49:51.441   02 Jun 2027 12:51:03.902            72.461                Norilsk          2264.406
       144   02 Jun 2027 14:19:39.357   02 Jun 2027 14:22:08.726           149.369                  Delhi          4667.781
       145   02 Jun 2027 14:23:54.470   02 Jun 2027 14:24:59.636            65.166                 Moscow          2036.438
       146   02 Jun 2027 14:26:05.871   02 Jun 2027 14:27:52.514           106.643              Murmansk2          3332.594
       147   02 Jun 2027 14:28:09.165   02 Jun 2027 14:28:26.528            17.363              Murmansk1           542.594
       148   02 Jun 2027 14:29:20.050   02 Jun 2027 14:30:23.853            63.803                Norilsk          1993.844
       149   02 Jun 2027 14:31:14.973   02 Jun 2027 14:31:56.707            41.734                Norilsk          1304.187
       150   02 Jun 2027 15:37:53.144   02 Jun 2027 15:38:57.092            63.948               CapeTown          1998.375
       151   02 Jun 2027 15:39:46.112   02 Jun 2027 15:40:36.768            50.656               CapeTown          1583.000
       152   02 Jun 2027 15:59:34.290   02 Jun 2027 16:00:49.172            74.882                 Moscow          2340.062
       153   02 Jun 2027 16:02:52.974   02 Jun 2027 16:03:22.835            29.861              Murmansk2           933.156
       154   02 Jun 2027 16:03:22.835   02 Jun 2027 16:05:11.097           108.262              Murmansk1          3383.187
       155   02 Jun 2027 16:17:19.875   02 Jun 2027 16:18:48.612            88.737                Anadyr2          2773.031
       156   02 Jun 2027 16:20:00.079   02 Jun 2027 16:20:29.331            29.252                Anadyr2           914.125
       157   02 Jun 2027 17:12:06.469   02 Jun 2027 17:14:28.718           142.249               CapeTown          4445.281
       158   02 Jun 2027 17:41:48.840   02 Jun 2027 17:43:28.420            99.580              Murmansk2          3111.875
       159   02 Jun 2027 17:44:51.488   02 Jun 2027 17:45:30.381            38.893              Murmansk1          1215.406
       160   02 Jun 2027 17:50:21.382   02 Jun 2027 17:50:49.016            27.634              Murmansk2           863.563
       161   02 Jun 2027 17:52:44.722   02 Jun 2027 17:53:06.327            21.605                Anadyr1           675.156
       162   02 Jun 2027 17:54:27.649   02 Jun 2027 17:54:30.822             3.173                Anadyr1            99.156
       163   02 Jun 2027 17:55:18.253   02 Jun 2027 17:55:37.753            19.500                Anadyr1           609.375
       164   02 Jun 2027 17:56:37.263   02 Jun 2027 17:57:27.650            50.387               Magadan2          1574.594
       165   02 Jun 2027 17:57:27.650   02 Jun 2027 17:58:39.040            71.390               Magadan1          2230.937
       166   02 Jun 2027 18:01:45.686   02 Jun 2027 18:02:33.646            47.960               Magadan2          1498.750
       167   02 Jun 2027 19:28:38.664   02 Jun 2027 19:32:31.309           232.645                Anadyr2          7270.156
       168   02 Jun 2027 19:32:33.754   02 Jun 2027 19:34:24.321           110.567               Magadan1          3455.219
       169   02 Jun 2027 19:34:24.321   02 Jun 2027 19:35:57.535            93.214               Magadan2          2912.937
       170   02 Jun 2027 21:04:31.892   02 Jun 2027 21:06:41.000           129.108                Anadyr1          4034.625
       171   02 Jun 2027 21:06:50.678   02 Jun 2027 21:10:37.855           227.177               Magadan2          7099.281
       172   02 Jun 2027 21:10:39.964   02 Jun 2027 21:11:09.577            29.613                Norilsk           925.406
       173   02 Jun 2027 21:12:52.091   02 Jun 2027 21:13:53.638            61.547                Irkutsk          1923.344
       174   02 Jun 2027 21:13:57.141   02 Jun 2027 21:14:23.159            26.018                Irkutsk           813.063
       175   02 Jun 2027 21:58:44.278   02 Jun 2027 21:59:41.988            57.710            RioGallegos          1803.437
       176   02 Jun 2027 22:04:05.476   02 Jun 2027 22:04:20.500            15.024            RioGallegos           469.500
       177   02 Jun 2027 22:07:04.571   02 Jun 2027 22:07:31.475            26.904            RioGallegos           840.750
       178   02 Jun 2027 22:08:13.525   02 Jun 2027 22:08:29.998            16.473            RioGallegos           514.781
       179   02 Jun 2027 22:40:01.714   02 Jun 2027 22:42:26.034           144.320                Anadyr1          4510.000
       180   02 Jun 2027 22:42:33.730   02 Jun 2027 22:42:47.879            14.149                Norilsk           442.156
       181   02 Jun 2027 22:42:55.759   02 Jun 2027 22:43:22.120            26.361               Magadan2           823.781
       182   02 Jun 2027 22:43:50.073   02 Jun 2027 22:44:12.924            22.851                Norilsk           714.094
       183   02 Jun 2027 22:44:44.277   02 Jun 2027 22:45:54.353            70.076               Magadan1          2189.875
       184   02 Jun 2027 22:47:39.939   02 Jun 2027 22:47:56.415            16.476                Novosib           514.875
       185   02 Jun 2027 22:49:00.651   02 Jun 2027 22:49:04.034             3.383                Irkutsk           105.719
       186   02 Jun 2027 22:49:30.985   02 Jun 2027 22:49:38.123             7.138                Novosib           223.063
       187   02 Jun 2027 22:50:09.544   02 Jun 2027 22:50:36.374            26.830                Novosib           838.437
       188   02 Jun 2027 22:51:26.200   02 Jun 2027 22:53:38.965           132.765                Novosib          4148.906
       189   02 Jun 2027 23:08:52.230   02 Jun 2027 23:09:40.304            48.074                Sumatra          1502.312
       190   03 Jun 2027 00:14:31.755   03 Jun 2027 00:15:49.553            77.798                Anadyr2          2431.188
       191   03 Jun 2027 00:17:08.221   03 Jun 2027 00:17:20.705            12.484                Anadyr1           390.125
       192   03 Jun 2027 00:18:21.677   03 Jun 2027 00:18:35.263            13.586                Norilsk           424.562
       193   03 Jun 2027 00:19:00.464   03 Jun 2027 00:21:16.768           136.304               Magadan2          4259.500
       194   03 Jun 2027 00:22:15.344   03 Jun 2027 00:23:18.376            63.032                Novosib          1969.750
       195   03 Jun 2027 00:23:26.445   03 Jun 2027 00:24:26.164            59.719                Novosib          1866.219
       196   03 Jun 2027 00:26:45.264   03 Jun 2027 00:27:07.230            21.966                Novosib           686.437
       197   03 Jun 2027 00:29:46.527   03 Jun 2027 00:30:37.177            50.650                  Delhi          1582.812
       198   03 Jun 2027 00:31:58.068   03 Jun 2027 00:32:13.697            15.629                  Delhi           488.406
       199   03 Jun 2027 00:33:56.435   03 Jun 2027 00:35:30.210            93.775                  Delhi          2930.469
       200   03 Jun 2027 01:14:27.698   03 Jun 2027 01:14:41.921            14.223            RioGallegos           444.469
       201   03 Jun 2027 01:18:15.889   03 Jun 2027 01:19:03.335            47.446            RioGallegos          1482.687
       202   03 Jun 2027 01:49:23.928   03 Jun 2027 01:50:07.533            43.605                Anadyr2          1362.656
       203   03 Jun 2027 01:50:26.064   03 Jun 2027 01:50:47.618            21.554                Anadyr1           673.563
       204   03 Jun 2027 01:52:28.122   03 Jun 2027 01:52:48.566            20.444                Anadyr2           638.875
       205   03 Jun 2027 01:54:07.972   03 Jun 2027 01:54:24.807            16.835               Magadan1           526.094
       206   03 Jun 2027 01:54:32.025   03 Jun 2027 01:54:52.384            20.359                Norilsk           636.219
       207   03 Jun 2027 01:54:54.815   03 Jun 2027 01:55:17.560            22.745               Magadan2           710.781
       208   03 Jun 2027 01:55:42.332   03 Jun 2027 01:56:11.372            29.040               Magadan1           907.500
       209   03 Jun 2027 01:56:36.952   03 Jun 2027 01:58:42.607           125.655              Murmansk1          3926.719
       210   03 Jun 2027 01:58:57.312   03 Jun 2027 01:59:16.743            19.431                Novosib           607.219
       211   03 Jun 2027 01:59:57.163   03 Jun 2027 02:00:36.856            39.693                Irkutsk          1240.406
       212   03 Jun 2027 02:06:09.642   03 Jun 2027 02:06:37.841            28.199                  Delhi           881.219
       213   03 Jun 2027 02:09:45.670   03 Jun 2027 02:09:48.570             2.900                  Delhi            90.625
       214   03 Jun 2027 02:11:05.343   03 Jun 2027 02:11:36.742            31.399                  Delhi           981.219
       215   03 Jun 2027 02:29:20.929   03 Jun 2027 02:29:24.874             3.945               CapeTown           123.281
       216   03 Jun 2027 02:30:11.858   03 Jun 2027 02:30:42.634            30.776               CapeTown           961.750
       217   03 Jun 2027 03:22:26.820   03 Jun 2027 03:23:45.662            78.842                Anadyr1          2463.812
       218   03 Jun 2027 03:41:14.407   03 Jun 2027 03:44:09.250           174.843              Murmansk1          5463.844
       219   03 Jun 2027 03:44:53.431   03 Jun 2027 03:47:38.292           164.861                 Moscow          5151.906
       220   03 Jun 2027 04:08:22.560   03 Jun 2027 04:12:10.920           228.360               CapeTown          7136.250
       221   03 Jun 2027 04:59:39.669   03 Jun 2027 04:59:48.858             9.189                Anadyr1           287.156
       222   03 Jun 2027 05:02:59.107   03 Jun 2027 05:06:49.971           230.864               Magadan1          7214.500
       223   03 Jun 2027 05:06:49.971   03 Jun 2027 05:08:46.733           116.762               Magadan2          3648.812
       224   03 Jun 2027 05:09:08.787   03 Jun 2027 05:09:15.341             6.554                Anadyr1           204.813
       225   03 Jun 2027 05:18:52.523   03 Jun 2027 05:19:20.502            27.979                 Moscow           874.344
       226   03 Jun 2027 05:37:45.714   03 Jun 2027 05:37:46.898             1.184               CapeTown            37.000
       227   03 Jun 2027 05:38:33.833   03 Jun 2027 05:39:49.522            75.689               CapeTown          2365.281
       228   03 Jun 2027 06:37:02.435   03 Jun 2027 06:37:17.973            15.538               Magadan2           485.562
       229   03 Jun 2027 06:37:40.469   03 Jun 2027 06:38:33.444            52.975                Anadyr1          1655.469
       230   03 Jun 2027 06:38:33.444   03 Jun 2027 06:38:39.140             5.696                Anadyr2           178.000
       231   03 Jun 2027 06:38:49.109   03 Jun 2027 06:39:02.692            13.583               Magadan2           424.469
       232   03 Jun 2027 06:39:06.126   03 Jun 2027 06:39:13.098             6.972               Magadan1           217.875
       233   03 Jun 2027 06:39:13.548   03 Jun 2027 06:40:13.976            60.428                Anadyr2          1888.375
       234   03 Jun 2027 06:40:23.097   03 Jun 2027 06:41:25.534            62.437                Anadyr2          1951.156
       235   03 Jun 2027 06:41:31.796   03 Jun 2027 06:42:31.681            59.885                Anadyr2          1871.406
       236   03 Jun 2027 06:43:31.895   03 Jun 2027 06:43:36.338             4.443                Anadyr1           138.844
       237   03 Jun 2027 08:12:14.420   03 Jun 2027 08:12:56.271            41.851               Magadan2          1307.844
       238   03 Jun 2027 08:13:06.682   03 Jun 2027 08:13:19.358            12.676               Magadan2           396.125
       239   03 Jun 2027 08:13:25.325   03 Jun 2027 08:14:16.792            51.467                Anadyr2          1608.344
       240   03 Jun 2027 08:14:44.797   03 Jun 2027 08:15:19.560            34.763               Magadan2          1086.344
       241   03 Jun 2027 08:15:36.969   03 Jun 2027 08:16:57.093            80.124                Anadyr2          2503.875
       242   03 Jun 2027 08:17:03.428   03 Jun 2027 08:17:48.957            45.529               Magadan2          1422.781
       243   03 Jun 2027 08:17:50.795   03 Jun 2027 08:18:35.705            44.910                Anadyr1          1403.438
       244   03 Jun 2027 08:19:00.332   03 Jun 2027 08:19:20.335            20.003                Anadyr1           625.094
       245   03 Jun 2027 08:19:20.335   03 Jun 2027 08:20:17.621            57.286                Anadyr2          1790.188
       246   03 Jun 2027 08:56:01.003   03 Jun 2027 08:56:17.441            16.438            RioGallegos           513.687
       247   03 Jun 2027 09:06:05.851   03 Jun 2027 09:06:11.890             6.039            RioGallegos           188.719
       248   03 Jun 2027 09:35:20.680   03 Jun 2027 09:35:49.932            29.252                Sumatra           914.125
       249   03 Jun 2027 09:51:18.429   03 Jun 2027 09:51:47.901            29.472                Irkutsk           921.000
       250   03 Jun 2027 09:53:04.938   03 Jun 2027 09:53:57.952            53.014               Magadan1          1656.688
       251   03 Jun 2027 09:54:08.254   03 Jun 2027 09:54:09.558             1.304                Norilsk            40.750
       252   03 Jun 2027 09:54:09.887   03 Jun 2027 09:54:32.179            22.292                Norilsk           696.625
       253   03 Jun 2027 09:54:34.907   03 Jun 2027 09:54:49.346            14.439                Norilsk           451.219
       254   03 Jun 2027 09:54:51.119   03 Jun 2027 09:55:17.245            26.126               Magadan1           816.437
       255   03 Jun 2027 09:55:32.854   03 Jun 2027 09:55:35.055             2.201                Irkutsk            68.781
       256   03 Jun 2027 09:55:42.186   03 Jun 2027 09:55:54.459            12.273                Irkutsk           383.531
       257   03 Jun 2027 09:56:09.230   03 Jun 2027 09:56:46.464            37.234              Murmansk2          1163.563
       258   03 Jun 2027 10:31:22.786   03 Jun 2027 10:31:47.709            24.923            RioGallegos           778.844
       259   03 Jun 2027 10:32:43.890   03 Jun 2027 10:33:03.550            19.660            RioGallegos           614.375
       260   03 Jun 2027 11:06:05.785   03 Jun 2027 11:06:51.859            46.074                Sumatra          1439.813
       261   03 Jun 2027 11:08:48.928   03 Jun 2027 11:09:03.983            15.055                Sumatra           470.469
       262   03 Jun 2027 11:18:55.388   03 Jun 2027 11:19:22.059            26.671                  Delhi           833.469
       263   03 Jun 2027 11:27:34.118   03 Jun 2027 11:28:30.873            56.755                Irkutsk          1773.594
       264   03 Jun 2027 11:29:25.323   03 Jun 2027 11:30:04.958            39.635                Irkutsk          1238.594
       265   03 Jun 2027 11:30:07.675   03 Jun 2027 11:30:12.988             5.313                Irkutsk           166.031
       266   03 Jun 2027 11:30:15.415   03 Jun 2027 11:30:16.596             1.181                Novosib            36.906
       267   03 Jun 2027 11:30:22.458   03 Jun 2027 11:30:24.417             1.959                Norilsk            61.219
       268   03 Jun 2027 11:30:46.068   03 Jun 2027 11:31:57.772            71.704                Novosib          2240.750
       269   03 Jun 2027 11:32:03.226   03 Jun 2027 11:32:14.487            11.261                Irkutsk           351.906
       270   03 Jun 2027 11:32:20.063   03 Jun 2027 11:32:29.527             9.464                Norilsk           295.750
       271   03 Jun 2027 11:32:56.009   03 Jun 2027 11:32:58.456             2.447                Norilsk            76.469
       272   03 Jun 2027 12:11:18.986   03 Jun 2027 12:11:27.825             8.839            RioGallegos           276.219
       273   03 Jun 2027 12:12:03.236   03 Jun 2027 12:13:07.352            64.116            RioGallegos          2003.625
       274   03 Jun 2027 12:15:16.213   03 Jun 2027 12:15:46.067            29.854            RioGallegos           932.937
       275   03 Jun 2027 12:51:12.258   03 Jun 2027 12:52:40.118            87.860                  Delhi          2745.625
       276   03 Jun 2027 12:58:08.387   03 Jun 2027 12:58:11.593             3.206                Novosib           100.188
       277   03 Jun 2027 13:00:08.357   03 Jun 2027 13:01:16.705            68.348                Novosib          2135.875
       278   03 Jun 2027 13:02:11.659   03 Jun 2027 13:03:16.784            65.125                Norilsk          2035.156
       279   03 Jun 2027 13:06:23.805   03 Jun 2027 13:06:54.974            31.169                Norilsk           974.031
       280   03 Jun 2027 14:34:42.344   03 Jun 2027 14:37:17.561           155.217                 Moscow          4850.531
       281   03 Jun 2027 14:38:08.008   03 Jun 2027 14:39:22.153            74.145              Murmansk1          2317.031
       282   03 Jun 2027 14:42:00.902   03 Jun 2027 14:43:38.670            97.768                Norilsk          3055.250
       283   03 Jun 2027 14:45:36.166   03 Jun 2027 14:47:00.146            83.980                Norilsk          2624.375
       284   03 Jun 2027 15:49:22.728   03 Jun 2027 15:49:59.544            36.816               CapeTown          1150.500
       285   03 Jun 2027 15:53:06.495   03 Jun 2027 15:53:13.284             6.789               CapeTown           212.156
       286   03 Jun 2027 15:53:33.140   03 Jun 2027 15:53:50.319            17.179               CapeTown           536.844
       287   03 Jun 2027 16:11:58.594   03 Jun 2027 16:12:59.102            60.508                 Moscow          1890.875
       288   03 Jun 2027 16:15:09.203   03 Jun 2027 16:15:23.518            14.315              Murmansk2           447.344
       289   03 Jun 2027 16:15:23.518   03 Jun 2027 16:15:46.219            22.701              Murmansk1           709.406
       290   03 Jun 2027 16:17:04.096   03 Jun 2027 16:17:18.484            14.388              Murmansk1           449.625
       291   03 Jun 2027 16:17:41.410   03 Jun 2027 16:19:09.782            88.372              Murmansk2          2761.625
       292   03 Jun 2027 16:29:13.325   03 Jun 2027 16:30:50.553            97.228                Anadyr2          3038.375
       293   03 Jun 2027 16:31:06.332   03 Jun 2027 16:31:51.949            45.617                Anadyr2          1425.531
       294   03 Jun 2027 16:38:33.018   03 Jun 2027 16:38:36.249             3.231                Anadyr1           100.969
       295   03 Jun 2027 17:24:10.767   03 Jun 2027 17:26:04.184           113.417               CapeTown          3544.281
       296   03 Jun 2027 17:54:25.039   03 Jun 2027 17:55:24.565            59.526              Murmansk2          1860.187
       297   03 Jun 2027 17:55:29.301   03 Jun 2027 17:57:24.912           115.611              Murmansk1          3612.844
       298   03 Jun 2027 17:59:10.136   03 Jun 2027 17:59:24.188            14.052              Murmansk1           439.125
       299   03 Jun 2027 18:04:45.338   03 Jun 2027 18:04:49.872             4.534                Anadyr2           141.688
       300   03 Jun 2027 18:05:46.778   03 Jun 2027 18:06:31.988            45.210                Anadyr1          1412.812
       301   03 Jun 2027 18:07:32.954   03 Jun 2027 18:08:06.099            33.145                Anadyr2          1035.781
       302   03 Jun 2027 18:08:13.589   03 Jun 2027 18:08:58.581            44.992               Magadan1          1406.000
       303   03 Jun 2027 18:08:58.581   03 Jun 2027 18:08:59.222             0.641               Magadan2            20.031
       304   03 Jun 2027 18:09:28.694   03 Jun 2027 18:09:35.944             7.250               Magadan1           226.563
       305   03 Jun 2027 18:10:07.536   03 Jun 2027 18:11:02.915            55.379               Magadan1          1730.594
       306   03 Jun 2027 18:13:17.999   03 Jun 2027 18:14:09.815            51.816               Magadan2          1619.250
       307   03 Jun 2027 19:40:40.289   03 Jun 2027 19:42:25.509           105.220                Anadyr1          3288.125
       308   03 Jun 2027 19:42:40.041   03 Jun 2027 19:44:25.635           105.594                Anadyr2          3299.813
       309   03 Jun 2027 19:44:56.674   03 Jun 2027 19:47:27.537           150.863               Magadan1          4714.469
       310   03 Jun 2027 19:49:55.816   03 Jun 2027 19:50:28.849            33.033               Magadan2          1032.281
       311   03 Jun 2027 21:16:32.027   03 Jun 2027 21:21:16.470           284.443                Anadyr2          8888.844
       312   03 Jun 2027 21:21:37.730   03 Jun 2027 21:23:57.461           139.731                Norilsk          4366.594
       313   03 Jun 2027 21:24:09.850   03 Jun 2027 21:26:12.970           123.120                Irkutsk          3847.500
       314   03 Jun 2027 21:29:41.826   03 Jun 2027 21:30:03.181            21.355                Irkutsk           667.344
       315   03 Jun 2027 21:40:12.285   03 Jun 2027 21:41:29.159            76.874                Sumatra          2402.312
       316   03 Jun 2027 21:42:27.247   03 Jun 2027 21:44:09.895           102.648                Sumatra          3207.750
       317   03 Jun 2027 22:51:56.564   03 Jun 2027 22:52:32.448            35.884                Anadyr2          1121.375
       318   03 Jun 2027 22:54:23.958   03 Jun 2027 22:56:14.967           111.009                Norilsk          3469.031
       319   03 Jun 2027 22:56:27.475   03 Jun 2027 22:56:59.832            32.357               Magadan2          1011.156
       320   03 Jun 2027 22:57:55.368   03 Jun 2027 22:58:10.131            14.763                Norilsk           461.344
       321   03 Jun 2027 22:58:22.928   03 Jun 2027 22:59:32.216            69.288                Irkutsk          2165.250
       322   03 Jun 2027 23:02:20.590   03 Jun 2027 23:03:06.724            46.134                Novosib          1441.688
       323   03 Jun 2027 23:12:06.325   03 Jun 2027 23:12:26.247            19.922                Sumatra           622.562
       324   03 Jun 2027 23:16:45.878   03 Jun 2027 23:18:02.492            76.614                Sumatra          2394.187
       325   03 Jun 2027 23:52:30.170   03 Jun 2027 23:52:39.955             9.785            RioGallegos           305.781
       326   03 Jun 2027 23:52:56.670   03 Jun 2027 23:53:07.315            10.645            RioGallegos           332.656
       327   04 Jun 2027 00:26:16.876   04 Jun 2027 00:26:57.709            40.833                Anadyr1          1276.031
       328   04 Jun 2027 00:26:57.709   04 Jun 2027 00:27:59.936            62.227                Anadyr2          1944.594
       329   04 Jun 2027 00:28:03.109   04 Jun 2027 00:28:08.405             5.296                Anadyr2           165.500
       330   04 Jun 2027 00:28:49.674   04 Jun 2027 00:29:02.261            12.587                Anadyr1           393.344
       331   04 Jun 2027 00:30:23.846   04 Jun 2027 00:30:57.206            33.360                Norilsk          1042.500
       332   04 Jun 2027 00:31:01.673   04 Jun 2027 00:33:02.146           120.473               Magadan1          3764.781
       333   04 Jun 2027 00:33:49.781   04 Jun 2027 00:36:48.855           179.074              Murmansk2          5596.062
       334   04 Jun 2027 00:42:30.067   04 Jun 2027 00:42:42.178            12.111                  Delhi           378.469
       335   04 Jun 2027 00:43:52.894   04 Jun 2027 00:44:35.254            42.360                  Delhi          1323.750
       336   04 Jun 2027 00:49:26.654   04 Jun 2027 00:50:03.060            36.406                  Delhi          1137.687
       337   04 Jun 2027 01:23:07.766   04 Jun 2027 01:23:19.986            12.220            RioGallegos           381.875
       338   04 Jun 2027 01:24:30.100   04 Jun 2027 01:25:41.213            71.113            RioGallegos          2222.281
       339   04 Jun 2027 01:59:37.211   04 Jun 2027 01:59:55.469            18.258                Anadyr2           570.562
       340   04 Jun 2027 02:00:03.120   04 Jun 2027 02:00:09.198             6.078                Anadyr2           189.938
       341   04 Jun 2027 02:00:25.780   04 Jun 2027 02:00:42.984            17.204                Anadyr2           537.625
       342   04 Jun 2027 02:01:13.667   04 Jun 2027 02:01:40.027            26.360                Anadyr2           823.750
       343   04 Jun 2027 02:02:06.671   04 Jun 2027 02:02:36.453            29.782                Anadyr1           930.687
       344   04 Jun 2027 02:05:32.386   04 Jun 2027 02:05:40.960             8.574                Anadyr2           267.938
       345   04 Jun 2027 02:05:48.900   04 Jun 2027 02:06:51.764            62.864               Magadan2          1964.500
       346   04 Jun 2027 02:07:39.492   04 Jun 2027 02:07:54.331            14.839                Norilsk           463.719
       347   04 Jun 2027 02:08:06.394   04 Jun 2027 02:08:57.170            50.776               Magadan2          1586.750
       348   04 Jun 2027 02:09:17.457   04 Jun 2027 02:10:42.563            85.106              Murmansk2          2659.562
       349   04 Jun 2027 02:11:20.836   04 Jun 2027 02:11:32.355            11.519                Novosib           359.969
       350   04 Jun 2027 02:12:10.890   04 Jun 2027 02:12:14.504             3.614                Novosib           112.937
       351   04 Jun 2027 02:12:38.818   04 Jun 2027 02:13:05.131            26.313                 Moscow           822.281
       352   04 Jun 2027 02:18:34.535   04 Jun 2027 02:19:41.231            66.696                  Delhi          2084.250
       353   04 Jun 2027 02:39:49.283   04 Jun 2027 02:40:33.834            44.551               CapeTown          1392.219
       354   04 Jun 2027 02:45:22.185   04 Jun 2027 02:45:39.049            16.864               CapeTown           527.000
       355   04 Jun 2027 03:44:00.438   04 Jun 2027 03:44:10.587            10.149                Anadyr2           317.156
       356   04 Jun 2027 03:52:57.558   04 Jun 2027 03:53:25.390            27.832                Novosib           869.750
       357   04 Jun 2027 03:54:15.491   04 Jun 2027 03:54:31.947            16.456                Novosib           514.250
       358   04 Jun 2027 03:55:18.305   04 Jun 2027 03:58:24.733           186.428                 Moscow          5825.875
       359   04 Jun 2027 03:58:53.671   04 Jun 2027 03:59:13.670            19.999                 Moscow           624.969
       360   04 Jun 2027 03:59:35.044   04 Jun 2027 03:59:55.665            20.621                 Moscow           644.406
       361   04 Jun 2027 04:11:40.195   04 Jun 2027 04:15:25.612           225.417               CapeTown          7044.281
       362   04 Jun 2027 04:17:46.190   04 Jun 2027 04:18:25.192            39.002               CapeTown          1218.813
       363   04 Jun 2027 04:19:43.828   04 Jun 2027 04:20:32.850            49.022               CapeTown          1531.938
       364   04 Jun 2027 04:21:40.882   04 Jun 2027 04:22:02.018            21.136               CapeTown           660.500
       365   04 Jun 2027 05:08:20.488   04 Jun 2027 05:09:33.527            73.039                Anadyr2          2282.469
       366   04 Jun 2027 05:09:33.527   04 Jun 2027 05:10:38.934            65.407                Anadyr1          2043.969
       367   04 Jun 2027 05:10:56.808   04 Jun 2027 05:12:33.894            97.086               Magadan1          3033.938
       368   04 Jun 2027 05:15:02.032   04 Jun 2027 05:20:49.776           347.744               Magadan1         10867.000
       369   04 Jun 2027 05:21:05.857   04 Jun 2027 05:21:16.941            11.084                Anadyr2           346.375
       370   04 Jun 2027 06:49:20.934   04 Jun 2027 06:49:52.515            31.581               Magadan1           986.906
       371   04 Jun 2027 06:50:03.386   04 Jun 2027 06:50:38.339            34.953               Magadan2          1092.281
       372   04 Jun 2027 06:50:51.972   04 Jun 2027 06:51:04.181            12.209               Magadan1           381.531
       373   04 Jun 2027 06:51:12.052   04 Jun 2027 06:51:45.338            33.286                Anadyr1          1040.187
       374   04 Jun 2027 06:51:48.884   04 Jun 2027 06:52:48.130            59.246               Magadan2          1851.438
       375   04 Jun 2027 06:52:55.665   04 Jun 2027 06:52:58.200             2.535               Magadan1            79.219
       376   04 Jun 2027 06:53:08.219   04 Jun 2027 06:53:35.788            27.569               Magadan1           861.531
       377   04 Jun 2027 06:53:40.015   04 Jun 2027 06:54:49.991            69.976               Magadan2          2186.750
       378   04 Jun 2027 08:23:28.743   04 Jun 2027 08:24:01.299            32.556               Magadan1          1017.375
       379   04 Jun 2027 08:24:06.401   04 Jun 2027 08:25:20.366            73.965               Magadan2          2311.406
       380   04 Jun 2027 08:26:13.861   04 Jun 2027 08:26:33.292            19.431               Magadan2           607.219
       381   04 Jun 2027 08:26:43.402   04 Jun 2027 08:27:22.232            38.830               Magadan2          1213.438
       382   04 Jun 2027 08:27:37.109   04 Jun 2027 08:28:50.380            73.271                Anadyr1          2289.719
       383   04 Jun 2027 08:29:01.625   04 Jun 2027 08:29:06.628             5.003               Magadan1           156.344
       384   04 Jun 2027 08:29:30.109   04 Jun 2027 08:30:17.219            47.110                Anadyr2          1472.188
       385   04 Jun 2027 08:30:25.710   04 Jun 2027 08:30:36.133            10.423               Magadan2           325.719
       386   04 Jun 2027 08:30:50.804   04 Jun 2027 08:31:07.137            16.333                Anadyr1           510.406
       387   04 Jun 2027 08:31:10.882   04 Jun 2027 08:31:49.069            38.187               Magadan2          1193.344
       388   04 Jun 2027 08:32:19.075   04 Jun 2027 08:32:32.924            13.849              Murmansk1           432.781
       389   04 Jun 2027 08:32:42.094   04 Jun 2027 08:32:56.118            14.024              Murmansk1           438.250
       390   04 Jun 2027 09:07:46.928   04 Jun 2027 09:08:42.978            56.050            RioGallegos          1751.562
       391   04 Jun 2027 09:10:26.781   04 Jun 2027 09:11:08.325            41.544            RioGallegos          1298.250
       392   04 Jun 2027 09:45:27.270   04 Jun 2027 09:47:00.554            93.284                Sumatra          2915.125
       393   04 Jun 2027 10:01:57.845   04 Jun 2027 10:02:05.771             7.926                Novosib           247.687
       394   04 Jun 2027 10:02:28.778   04 Jun 2027 10:02:46.629            17.851                Irkutsk           557.844
       395   04 Jun 2027 10:03:10.411   04 Jun 2027 10:04:02.010            51.599               Magadan2          1612.469
       396   04 Jun 2027 10:04:16.239   04 Jun 2027 10:04:47.138            30.899                Irkutsk           965.594
       397   04 Jun 2027 10:05:09.579   04 Jun 2027 10:05:21.632            12.053                Irkutsk           376.656
       398   04 Jun 2027 10:06:30.681   04 Jun 2027 10:06:34.607             3.926                Irkutsk           122.687
       399   04 Jun 2027 10:06:41.267   04 Jun 2027 10:06:44.055             2.788                Norilsk            87.125
       400   04 Jun 2027 10:07:05.107   04 Jun 2027 10:07:43.485            38.378                Norilsk          1199.313
       401   04 Jun 2027 10:07:50.677   04 Jun 2027 10:07:52.275             1.598                Irkutsk            49.937
       402   04 Jun 2027 10:08:02.968   04 Jun 2027 10:08:15.398            12.430                Novosib           388.438
       403   04 Jun 2027 10:08:25.759   04 Jun 2027 10:08:36.189            10.430                Irkutsk           325.937
       404   04 Jun 2027 10:43:35.521   04 Jun 2027 10:44:41.683            66.162            RioGallegos          2067.562
       405   04 Jun 2027 11:18:08.285   04 Jun 2027 11:19:45.439            97.154                Sumatra          3036.062
       406   04 Jun 2027 11:39:35.281   04 Jun 2027 11:39:47.065            11.784                Irkutsk           368.250
       407   04 Jun 2027 11:40:38.235   04 Jun 2027 11:40:39.101             0.866                Irkutsk            27.063
       408   04 Jun 2027 11:41:04.923   04 Jun 2027 11:41:53.354            48.431                Irkutsk          1513.469
       409   04 Jun 2027 11:41:58.906   04 Jun 2027 11:42:19.631            20.725                Novosib           647.656
       410   04 Jun 2027 11:42:29.546   04 Jun 2027 11:43:42.676            73.130                Norilsk          2285.312
       411   04 Jun 2027 11:43:56.474   04 Jun 2027 11:44:16.046            19.572                Novosib           611.625
       412   04 Jun 2027 11:44:29.149   04 Jun 2027 11:44:44.494            15.345                Norilsk           479.531
       413   04 Jun 2027 12:24:43.183   04 Jun 2027 12:26:26.891           103.708            RioGallegos          3240.875
       414   04 Jun 2027 13:04:31.146   04 Jun 2027 13:05:20.108            48.962                  Delhi          1530.062
       415   04 Jun 2027 13:05:49.268   04 Jun 2027 13:07:12.384            83.116                  Delhi          2597.375
       416   04 Jun 2027 13:10:33.635   04 Jun 2027 13:11:26.908            53.273                Novosib          1664.781
       417   04 Jun 2027 13:14:28.217   04 Jun 2027 13:15:24.339            56.122                Novosib          1753.812
       418   04 Jun 2027 14:46:42.770   04 Jun 2027 14:47:52.744            69.974                 Moscow          2186.687
       419   04 Jun 2027 14:48:12.311   04 Jun 2027 14:49:39.459            87.148                 Moscow          2723.375
       420   04 Jun 2027 14:50:11.713   04 Jun 2027 14:51:29.625            77.912              Murmansk1          2434.750
       421   04 Jun 2027 14:54:45.814   04 Jun 2027 14:57:47.835           182.021                Norilsk          5688.156
       422   04 Jun 2027 16:01:00.838   04 Jun 2027 16:02:11.292            70.454               CapeTown          2201.687
       423   04 Jun 2027 16:04:16.182   04 Jun 2027 16:05:11.313            55.131               CapeTown          1722.844
       424   04 Jun 2027 16:24:27.632   04 Jun 2027 16:25:12.405            44.773                 Moscow          1399.156
       425   04 Jun 2027 16:27:27.520   04 Jun 2027 16:28:53.515            85.995              Murmansk1          2687.344
       426   04 Jun 2027 16:33:13.860   04 Jun 2027 16:33:35.159            21.299              Murmansk1           665.594
       427   04 Jun 2027 16:35:23.384   04 Jun 2027 16:35:57.358            33.974              Murmansk1          1061.687
       428   04 Jun 2027 16:41:08.630   04 Jun 2027 16:43:05.322           116.692                Anadyr2          3646.625
       429   04 Jun 2027 16:44:29.974   04 Jun 2027 16:44:44.514            14.540                Anadyr1           454.375
       430   04 Jun 2027 16:46:33.599   04 Jun 2027 16:46:38.146             4.547                Anadyr1           142.094
       431   04 Jun 2027 16:50:14.507   04 Jun 2027 16:50:38.794            24.287                Anadyr2           758.969
       432   04 Jun 2027 17:36:17.912   04 Jun 2027 17:37:10.993            53.081               CapeTown          1658.781
       433   04 Jun 2027 17:45:10.579   04 Jun 2027 17:45:29.659            19.080               CapeTown           596.250
       434   04 Jun 2027 17:46:00.141   04 Jun 2027 17:46:50.517            50.376               CapeTown          1574.250
       435   04 Jun 2027 18:07:04.798   04 Jun 2027 18:11:09.017           244.219              Murmansk2          7631.844
       436   04 Jun 2027 18:19:57.271   04 Jun 2027 18:20:52.837            55.566               Magadan1          1736.438
       437   04 Jun 2027 18:21:29.033   04 Jun 2027 18:21:53.337            24.304               Magadan1           759.500
       438   04 Jun 2027 18:22:24.477   04 Jun 2027 18:22:47.165            22.688               Magadan2           709.000
       439   04 Jun 2027 18:24:34.491   04 Jun 2027 18:24:45.880            11.389               Magadan2           355.906
       440   04 Jun 2027 18:27:32.060   04 Jun 2027 18:27:49.145            17.085               Magadan1           533.906
       441   04 Jun 2027 19:52:41.869   04 Jun 2027 19:56:28.516           226.647                Anadyr1          7082.719
       442   04 Jun 2027 19:57:01.091   04 Jun 2027 19:58:56.242           115.151               Magadan1          3598.469
       443   04 Jun 2027 19:59:53.817   04 Jun 2027 20:00:15.303            21.486               Magadan2           671.437
       444   04 Jun 2027 20:00:15.303   04 Jun 2027 20:00:49.717            34.414               Magadan1          1075.437
       445   04 Jun 2027 20:06:57.239   04 Jun 2027 20:07:05.767             8.528               Magadan1           266.500
       446   04 Jun 2027 20:49:12.420   04 Jun 2027 20:51:29.806           137.386            RioGallegos          4293.312
       447   04 Jun 2027 20:53:52.713   04 Jun 2027 20:54:03.050            10.337            RioGallegos           323.031
       448   04 Jun 2027 21:28:31.760   04 Jun 2027 21:30:03.727            91.967                Anadyr2          2873.969
       449   04 Jun 2027 21:30:11.291   04 Jun 2027 21:30:43.400            32.109                Anadyr2          1003.406
       450   04 Jun 2027 21:30:44.494   04 Jun 2027 21:32:17.908            93.414                Norilsk          2919.187
       451   04 Jun 2027 21:32:25.319   04 Jun 2027 21:33:11.798            46.479               Magadan2          1452.469
       452   04 Jun 2027 21:33:57.637   04 Jun 2027 21:35:17.026            79.389               Magadan1          2480.906
       453   04 Jun 2027 21:37:46.397   04 Jun 2027 21:38:37.163            50.766                Irkutsk          1586.437
       454   04 Jun 2027 21:50:52.691   04 Jun 2027 21:52:56.544           123.853                Sumatra          3870.406
       455   04 Jun 2027 21:55:46.103   04 Jun 2027 21:56:46.820            60.717                Sumatra          1897.406
       456   04 Jun 2027 23:03:50.363   04 Jun 2027 23:04:18.141            27.778                Anadyr2           868.062
       457   04 Jun 2027 23:04:21.584   04 Jun 2027 23:04:48.822            27.238                Anadyr1           851.188
       458   04 Jun 2027 23:06:25.615   04 Jun 2027 23:08:17.001           111.386                Norilsk          3480.813
       459   04 Jun 2027 23:08:50.363   04 Jun 2027 23:08:53.768             3.405               Magadan2           106.406
       460   04 Jun 2027 23:09:29.568   04 Jun 2027 23:09:36.849             7.281               Magadan1           227.531
       461   04 Jun 2027 23:10:21.526   04 Jun 2027 23:11:30.324            68.798                Irkutsk          2149.937
       462   04 Jun 2027 23:11:31.268   04 Jun 2027 23:12:09.120            37.852                Novosib          1182.875
       463   04 Jun 2027 23:13:40.280   04 Jun 2027 23:14:44.602            64.322                Novosib          2010.063
       464   04 Jun 2027 23:21:34.712   04 Jun 2027 23:22:55.714            81.002                  Delhi          2531.313
       465   04 Jun 2027 23:23:55.552   04 Jun 2027 23:25:43.445           107.893                  Delhi          3371.656
       466   05 Jun 2027 00:38:00.899   05 Jun 2027 00:38:58.872            57.973                Anadyr2          1811.656
       467   05 Jun 2027 00:40:02.773   05 Jun 2027 00:40:44.338            41.565                Anadyr1          1298.906
       468   05 Jun 2027 00:42:25.974   05 Jun 2027 00:42:37.390            11.416                Norilsk           356.750
       469   05 Jun 2027 00:43:02.114   05 Jun 2027 00:43:50.853            48.739               Magadan1          1523.094
       470   05 Jun 2027 00:44:05.271   05 Jun 2027 00:44:38.054            32.783               Magadan2          1024.469
       471   05 Jun 2027 00:45:27.092   05 Jun 2027 00:48:45.866           198.774              Murmansk1          6211.687
       472   05 Jun 2027 00:53:35.244   05 Jun 2027 00:54:17.477            42.233                  Delhi          1319.781
       473   05 Jun 2027 01:00:25.511   05 Jun 2027 01:01:21.090            55.579                  Delhi          1736.844
       474   05 Jun 2027 01:35:23.548   05 Jun 2027 01:36:48.588            85.040            RioGallegos          2657.500
       475   05 Jun 2027 02:11:18.765   05 Jun 2027 02:11:45.606            26.841                Anadyr2           838.781
       476   05 Jun 2027 02:12:50.107   05 Jun 2027 02:12:59.063             8.956                Anadyr2           279.875
       477   05 Jun 2027 02:13:40.390   05 Jun 2027 02:14:05.167            24.777                Anadyr2           774.281
       478   05 Jun 2027 02:14:33.766   05 Jun 2027 02:14:40.974             7.208                Anadyr2           225.250
       479   05 Jun 2027 02:16:01.546   05 Jun 2027 02:16:53.784            52.238                Anadyr1          1632.437
       480   05 Jun 2027 02:17:25.507   05 Jun 2027 02:18:00.542            35.035               Magadan2          1094.844
       481   05 Jun 2027 02:18:07.218   05 Jun 2027 02:18:17.206             9.988               Magadan2           312.125
       482   05 Jun 2027 02:19:47.724   05 Jun 2027 02:19:59.513            11.789               Magadan1           368.406
