uniorb/output/strategy_4/Drop/Drop_KinoSat_111005.txt

KinoSat_111005
-------------------------
    Access    *     Start Time (UTCG)     *     Stop Time (UTCG)  *   Duration (s)        *       Station  *  Data (Mbytes)
         1   01 Jun 2027 03:28:29.002   01 Jun 2027 03:30:15.487           106.485                Anadyr1          3327.656
         2   01 Jun 2027 03:31:13.624   01 Jun 2027 03:31:37.272            23.648               Magadan2           739.000
         3   01 Jun 2027 05:03:29.125   01 Jun 2027 05:04:18.701            49.576                Anadyr2          1549.250
         4   01 Jun 2027 05:04:23.419   01 Jun 2027 05:04:43.307            19.888                Anadyr1           621.500
         5   01 Jun 2027 05:04:52.072   01 Jun 2027 05:06:09.064            76.992                Anadyr2          2406.000
         6   01 Jun 2027 05:06:09.064   01 Jun 2027 05:08:06.033           116.969                Anadyr1          3655.281
         7   01 Jun 2027 05:08:14.035   01 Jun 2027 05:08:55.270            41.235               Magadan1          1288.594
         8   01 Jun 2027 06:37:58.030   01 Jun 2027 06:38:28.452            30.422               Magadan2           950.687
         9   01 Jun 2027 06:38:29.649   01 Jun 2027 06:39:18.686            49.037                Anadyr1          1532.406
        10   01 Jun 2027 06:39:33.506   01 Jun 2027 06:42:47.786           194.280               Magadan1          6071.250
        11   01 Jun 2027 06:42:50.744   01 Jun 2027 06:43:22.453            31.709               Magadan2           990.906
        12   01 Jun 2027 06:43:28.787   01 Jun 2027 06:43:46.511            17.724               Magadan2           553.875
        13   01 Jun 2027 06:43:46.511   01 Jun 2027 06:44:05.726            19.215               Magadan1           600.469
        14   01 Jun 2027 06:44:23.696   01 Jun 2027 06:44:43.313            19.617                Irkutsk           613.031
        15   01 Jun 2027 06:44:45.557   01 Jun 2027 06:45:55.331            69.774              Murmansk1          2180.438
        16   01 Jun 2027 06:45:57.175   01 Jun 2027 06:46:03.450             6.275                Norilsk           196.094
        17   01 Jun 2027 06:46:54.789   01 Jun 2027 06:47:26.271            31.482              Murmansk2           983.813
        18   01 Jun 2027 07:20:45.409   01 Jun 2027 07:21:56.469            71.060            RioGallegos          2220.625
        19   01 Jun 2027 07:58:53.488   01 Jun 2027 08:00:20.356            86.868                Sumatra          2714.625
        20   01 Jun 2027 08:16:51.127   01 Jun 2027 08:19:51.125           179.998               Magadan1          5624.938
        21   01 Jun 2027 08:19:54.138   01 Jun 2027 08:20:58.491            64.353                Irkutsk          2011.031
        22   01 Jun 2027 08:21:02.679   01 Jun 2027 08:22:31.262            88.583                Norilsk          2768.219
        23   01 Jun 2027 08:22:35.530   01 Jun 2027 08:22:49.429            13.899              Murmansk2           434.344
        24   01 Jun 2027 08:22:49.429   01 Jun 2027 08:23:35.318            45.889              Murmansk1          1434.031
        25   01 Jun 2027 08:24:56.867   01 Jun 2027 08:25:15.417            18.550              Murmansk1           579.687
        26   01 Jun 2027 08:26:30.292   01 Jun 2027 08:26:48.172            17.880              Murmansk2           558.750
        27   01 Jun 2027 08:28:47.384   01 Jun 2027 08:28:59.366            11.982              Murmansk1           374.438
        28   01 Jun 2027 08:56:24.272   01 Jun 2027 08:57:57.736            93.464            RioGallegos          2920.750
        29   01 Jun 2027 08:59:49.504   01 Jun 2027 09:00:34.923            45.419            RioGallegos          1419.344
        30   01 Jun 2027 09:31:00.491   01 Jun 2027 09:31:57.951            57.460                Sumatra          1795.625
        31   01 Jun 2027 09:35:18.025   01 Jun 2027 09:35:25.853             7.828                Sumatra           244.625
        32   01 Jun 2027 09:39:46.689   01 Jun 2027 09:40:16.784            30.095                Sumatra           940.469
        33   01 Jun 2027 09:40:55.950   01 Jun 2027 09:42:04.132            68.182                  Delhi          2130.688
        34   01 Jun 2027 09:50:56.502   01 Jun 2027 09:51:21.082            24.580                  Delhi           768.125
        35   01 Jun 2027 09:53:21.378   01 Jun 2027 09:54:34.637            73.259                Novosib          2289.344
        36   01 Jun 2027 09:54:45.637   01 Jun 2027 09:56:04.574            78.937                Irkutsk          2466.781
        37   01 Jun 2027 09:56:34.681   01 Jun 2027 09:57:15.720            41.039              Murmansk2          1282.469
        38   01 Jun 2027 09:57:17.767   01 Jun 2027 09:57:32.702            14.935              Murmansk1           466.719
        39   01 Jun 2027 09:57:34.429   01 Jun 2027 09:58:13.936            39.507                 Moscow          1234.594
        40   01 Jun 2027 10:37:02.835   01 Jun 2027 10:39:05.020           122.185            RioGallegos          3818.281
        41   01 Jun 2027 11:15:23.407   01 Jun 2027 11:15:35.128            11.721                  Delhi           366.281
        42   01 Jun 2027 11:15:53.509   01 Jun 2027 11:16:17.539            24.030                  Delhi           750.938
        43   01 Jun 2027 11:19:14.288   01 Jun 2027 11:20:08.808            54.520                  Delhi          1703.750
        44   01 Jun 2027 11:24:09.847   01 Jun 2027 11:25:10.057            60.210                  Delhi          1881.563
        45   01 Jun 2027 11:31:11.089   01 Jun 2027 11:31:55.397            44.308                Novosib          1384.625
        46   01 Jun 2027 11:31:59.634   01 Jun 2027 11:34:19.191           139.557                 Moscow          4361.156
        47   01 Jun 2027 11:35:01.624   01 Jun 2027 11:35:50.145            48.521                 Moscow          1516.281
        48   01 Jun 2027 12:59:36.064   01 Jun 2027 13:01:54.805           138.741                 Moscow          4335.656
        49   01 Jun 2027 13:02:32.770   01 Jun 2027 13:03:44.248            71.478                 Moscow          2233.688
        50   01 Jun 2027 13:03:47.293   01 Jun 2027 13:08:07.843           260.550              Murmansk2          8142.187
        51   01 Jun 2027 14:14:02.631   01 Jun 2027 14:17:20.593           197.962               CapeTown          6186.313
        52   01 Jun 2027 14:18:49.845   01 Jun 2027 14:20:36.746           106.901               CapeTown          3340.656
        53   01 Jun 2027 14:40:14.618   01 Jun 2027 14:42:22.099           127.481              Murmansk2          3983.781
        54   01 Jun 2027 14:54:05.063   01 Jun 2027 14:57:47.106           222.043                Anadyr1          6938.844
        55   01 Jun 2027 16:19:44.556   01 Jun 2027 16:22:24.747           160.191              Murmansk2          5005.969
        56   01 Jun 2027 16:22:24.747   01 Jun 2027 16:22:56.171            31.424              Murmansk1           982.000
        57   01 Jun 2027 16:24:16.849   01 Jun 2027 16:24:29.617            12.768              Murmansk2           399.000
        58   01 Jun 2027 16:29:39.975   01 Jun 2027 16:30:29.991            50.016                Anadyr2          1563.000
        59   01 Jun 2027 16:30:44.025   01 Jun 2027 16:31:36.215            52.190                Anadyr1          1630.937
        60   01 Jun 2027 16:32:18.762   01 Jun 2027 16:33:18.159            59.397                Anadyr2          1856.156
        61   01 Jun 2027 16:33:20.738   01 Jun 2027 16:34:40.280            79.542               Magadan2          2485.688
        62   01 Jun 2027 16:35:42.887   01 Jun 2027 16:36:47.483            64.596               Magadan1          2018.625
        63   01 Jun 2027 16:38:11.017   01 Jun 2027 16:38:53.087            42.070               Magadan1          1314.687
        64   01 Jun 2027 16:39:17.184   01 Jun 2027 16:39:20.887             3.703               Magadan1           115.719
        65   01 Jun 2027 18:05:34.905   01 Jun 2027 18:08:39.325           184.420                Anadyr2          5763.125
        66   01 Jun 2027 18:09:20.427   01 Jun 2027 18:10:31.428            71.001               Magadan1          2218.781
        67   01 Jun 2027 18:10:33.681   01 Jun 2027 18:11:06.574            32.893               Magadan2          1027.906
        68   01 Jun 2027 18:11:25.839   01 Jun 2027 18:11:34.917             9.078               Magadan2           283.687
        69   01 Jun 2027 18:13:40.160   01 Jun 2027 18:14:20.592            40.432               Magadan1          1263.500
        70   01 Jun 2027 18:14:41.574   01 Jun 2027 18:15:04.437            22.863               Magadan1           714.469
        71   01 Jun 2027 18:15:54.356   01 Jun 2027 18:16:03.423             9.067               Magadan2           283.344
        72   01 Jun 2027 19:02:38.265   01 Jun 2027 19:04:39.060           120.795            RioGallegos          3774.844
        73   01 Jun 2027 19:41:25.062   01 Jun 2027 19:41:39.209            14.147                Anadyr2           442.094
        74   01 Jun 2027 19:41:52.387   01 Jun 2027 19:42:37.454            45.067                Anadyr1          1408.344
        75   01 Jun 2027 19:43:11.311   01 Jun 2027 19:43:23.687            12.376                Anadyr2           386.750
        76   01 Jun 2027 19:43:38.211   01 Jun 2027 19:47:27.680           229.469                Norilsk          7170.906
        77   01 Jun 2027 19:48:46.954   01 Jun 2027 19:51:56.159           189.205                Irkutsk          5912.656
        78   01 Jun 2027 19:52:33.008   01 Jun 2027 19:52:57.963            24.955                Irkutsk           779.844
        79   01 Jun 2027 19:53:21.772   01 Jun 2027 19:53:46.763            24.991                Irkutsk           780.969
        80   01 Jun 2027 19:54:13.513   01 Jun 2027 19:54:31.134            17.621                Irkutsk           550.656
        81   01 Jun 2027 20:04:11.822   01 Jun 2027 20:06:05.131           113.309                Sumatra          3540.906
        82   01 Jun 2027 20:06:53.099   01 Jun 2027 20:09:17.303           144.204                Sumatra          4506.375
        83   01 Jun 2027 21:21:10.380   01 Jun 2027 21:22:13.862            63.482               Magadan2          1983.812
        84   01 Jun 2027 21:23:15.919   01 Jun 2027 21:24:52.997            97.078                Irkutsk          3033.688
        85   01 Jun 2027 21:25:51.599   01 Jun 2027 21:27:30.904            99.305                Novosib          3103.281
        86   01 Jun 2027 21:35:34.370   01 Jun 2027 21:36:05.080            30.710                  Delhi           959.687
        87   01 Jun 2027 22:50:59.603   01 Jun 2027 22:51:08.347             8.744                Anadyr1           273.250
        88   01 Jun 2027 22:51:08.347   01 Jun 2027 22:51:33.734            25.387                Anadyr2           793.344
        89   01 Jun 2027 22:51:44.834   01 Jun 2027 22:53:40.922           116.088                Anadyr2          3627.750
        90   01 Jun 2027 22:55:19.129   01 Jun 2027 22:55:41.655            22.526                Norilsk           703.937
        91   01 Jun 2027 22:55:53.736   01 Jun 2027 22:57:14.958            81.222               Magadan2          2538.187
        92   01 Jun 2027 22:57:55.158   01 Jun 2027 22:59:05.049            69.891               Magadan1          2184.094
        93   01 Jun 2027 22:59:08.193   01 Jun 2027 23:00:45.087            96.894                Novosib          3027.937
        94   01 Jun 2027 23:01:42.593   01 Jun 2027 23:02:03.944            21.351              Murmansk2           667.219
        95   01 Jun 2027 23:06:30.122   01 Jun 2027 23:07:08.130            38.008                  Delhi          1187.750
        96   01 Jun 2027 23:11:06.395   01 Jun 2027 23:12:25.716            79.321                  Delhi          2478.781
        97   02 Jun 2027 00:24:18.644   02 Jun 2027 00:24:35.414            16.770                Anadyr1           524.062
        98   02 Jun 2027 00:24:50.710   02 Jun 2027 00:25:01.947            11.237                Anadyr2           351.156
        99   02 Jun 2027 00:25:09.097   02 Jun 2027 00:25:52.270            43.173                Anadyr2          1349.156
       100   02 Jun 2027 00:26:30.663   02 Jun 2027 00:26:51.666            21.003                Anadyr1           656.344
       101   02 Jun 2027 00:27:06.714   02 Jun 2027 00:27:11.447             4.733                Anadyr1           147.906
       102   02 Jun 2027 00:27:25.279   02 Jun 2027 00:27:35.666            10.387                Anadyr2           324.594
       103   02 Jun 2027 00:30:02.334   02 Jun 2027 00:30:06.478             4.144                Anadyr1           129.500
       104   02 Jun 2027 00:30:21.150   02 Jun 2027 00:30:35.594            14.444                Anadyr2           451.375
       105   02 Jun 2027 00:30:36.978   02 Jun 2027 00:32:08.890            91.912               Magadan2          2872.250
       106   02 Jun 2027 00:32:15.994   02 Jun 2027 00:32:29.539            13.545               Magadan2           423.281
       107   02 Jun 2027 00:33:31.125   02 Jun 2027 00:36:38.673           187.548              Murmansk1          5860.875
       108   02 Jun 2027 00:37:25.960   02 Jun 2027 00:38:28.677            62.717                 Moscow          1959.906
       109   02 Jun 2027 00:39:02.624   02 Jun 2027 00:39:23.305            20.681                 Moscow           646.281
       110   02 Jun 2027 00:39:41.809   02 Jun 2027 00:41:10.126            88.317                 Moscow          2759.906
       111   02 Jun 2027 01:04:01.776   02 Jun 2027 01:06:02.855           121.079               CapeTown          3783.719
       112   02 Jun 2027 02:02:08.167   02 Jun 2027 02:03:50.159           101.992               Magadan1          3187.250
       113   02 Jun 2027 02:04:41.477   02 Jun 2027 02:04:45.683             4.206               Magadan2           131.437
       114   02 Jun 2027 02:06:19.074   02 Jun 2027 02:06:39.824            20.750               Magadan1           648.437
       115   02 Jun 2027 02:08:41.484   02 Jun 2027 02:08:46.613             5.129                Norilsk           160.281
       116   02 Jun 2027 02:09:25.117   02 Jun 2027 02:09:39.851            14.734              Murmansk1           460.437
       117   02 Jun 2027 02:09:58.170   02 Jun 2027 02:12:14.766           136.596              Murmansk1          4268.625
       118   02 Jun 2027 02:16:23.419   02 Jun 2027 02:16:42.277            18.858                Novosib           589.313
       119   02 Jun 2027 02:21:03.412   02 Jun 2027 02:21:23.179            19.767                 Moscow           617.719
       120   02 Jun 2027 02:23:37.891   02 Jun 2027 02:24:13.316            35.425                 Moscow          1107.031
       121   02 Jun 2027 02:39:45.068   02 Jun 2027 02:40:42.471            57.403               CapeTown          1793.844
       122   02 Jun 2027 02:47:07.055   02 Jun 2027 02:48:37.884            90.829               CapeTown          2838.406
       123   02 Jun 2027 03:39:39.730   02 Jun 2027 03:45:13.638           333.908               Magadan1         10434.625
       124   02 Jun 2027 03:45:13.638   02 Jun 2027 03:45:43.298            29.660               Magadan2           926.875
       125   02 Jun 2027 05:18:29.369   02 Jun 2027 05:19:39.423            70.054               Magadan1          2189.187
       126   02 Jun 2027 05:19:39.423   02 Jun 2027 05:19:46.339             6.916               Magadan2           216.125
       127   02 Jun 2027 05:20:02.980   02 Jun 2027 05:21:59.178           116.198                Anadyr2          3631.187
       128   02 Jun 2027 06:52:29.250   02 Jun 2027 06:53:44.194            74.944               Magadan1          2342.000
       129   02 Jun 2027 06:54:04.954   02 Jun 2027 06:57:30.329           205.375               Magadan2          6417.969
       130   02 Jun 2027 08:30:03.573   02 Jun 2027 08:31:04.473            60.900               Magadan1          1903.125
       131   02 Jun 2027 08:31:10.633   02 Jun 2027 08:32:13.986            63.353                Novosib          1979.781
       132   02 Jun 2027 08:32:23.103   02 Jun 2027 08:34:25.301           122.198                Novosib          3818.688
       133   02 Jun 2027 09:08:39.370   02 Jun 2027 09:09:19.399            40.029            RioGallegos          1250.906
       134   02 Jun 2027 09:11:16.855   02 Jun 2027 09:11:34.989            18.134            RioGallegos           566.688
       135   02 Jun 2027 09:43:06.361   02 Jun 2027 09:43:42.118            35.757                Sumatra          1117.406
       136   02 Jun 2027 09:45:17.244   02 Jun 2027 09:46:04.783            47.539                Sumatra          1485.594
       137   02 Jun 2027 09:47:01.560   02 Jun 2027 09:47:40.194            38.634                Sumatra          1207.313
       138   02 Jun 2027 10:05:21.405   02 Jun 2027 10:05:38.896            17.491                Irkutsk           546.594
       139   02 Jun 2027 10:05:43.862   02 Jun 2027 10:06:35.215            51.353                Irkutsk          1604.781
       140   02 Jun 2027 10:06:44.271   02 Jun 2027 10:06:56.665            12.394                Novosib           387.312
       141   02 Jun 2027 10:07:00.288   02 Jun 2027 10:07:14.397            14.109                Irkutsk           440.906
       142   02 Jun 2027 10:07:16.739   02 Jun 2027 10:07:26.406             9.667                Novosib           302.094
       143   02 Jun 2027 10:07:30.246   02 Jun 2027 10:07:44.845            14.599                Irkutsk           456.219
       144   02 Jun 2027 10:07:57.285   02 Jun 2027 10:08:12.274            14.989                Norilsk           468.406
       145   02 Jun 2027 10:08:14.385   02 Jun 2027 10:08:56.385            42.000                Irkutsk          1312.500
       146   02 Jun 2027 10:09:05.976   02 Jun 2027 10:09:21.621            15.645                Norilsk           488.906
       147   02 Jun 2027 10:51:24.061   02 Jun 2027 10:52:27.734            63.673            RioGallegos          1989.781
       148   02 Jun 2027 11:27:39.334   02 Jun 2027 11:29:08.153            88.819                  Delhi          2775.594
       149   02 Jun 2027 11:41:13.561   02 Jun 2027 11:41:26.794            13.233                Novosib           413.531
       150   02 Jun 2027 11:41:46.452   02 Jun 2027 11:42:46.020            59.568                Novosib          1861.500
       151   02 Jun 2027 11:42:55.755   02 Jun 2027 11:43:15.158            19.403                Novosib           606.344
       152   02 Jun 2027 11:43:33.771   02 Jun 2027 11:43:50.386            16.615                Novosib           519.219
       153   02 Jun 2027 11:44:29.304   02 Jun 2027 11:44:40.860            11.556              Murmansk1           361.125
       154   02 Jun 2027 11:44:57.548   02 Jun 2027 11:45:03.678             6.130                Novosib           191.563
       155   02 Jun 2027 13:11:38.207   02 Jun 2027 13:12:31.205            52.998                 Moscow          1656.187
       156   02 Jun 2027 13:12:50.484   02 Jun 2027 13:13:12.967            22.483                 Moscow           702.594
       157   02 Jun 2027 13:13:31.399   02 Jun 2027 13:13:45.176            13.777                 Moscow           430.531
       158   02 Jun 2027 13:14:39.975   02 Jun 2027 13:15:54.646            74.671                 Moscow          2333.469
       159   02 Jun 2027 13:15:55.049   02 Jun 2027 13:17:16.154            81.105              Murmansk2          2534.531
       160   02 Jun 2027 13:18:19.766   02 Jun 2027 13:19:32.515            72.749              Murmansk2          2273.406
       161   02 Jun 2027 13:20:12.204   02 Jun 2027 13:21:37.931            85.727                Norilsk          2678.969
       162   02 Jun 2027 13:24:43.862   02 Jun 2027 13:24:44.946             1.084                Norilsk            33.875
       163   02 Jun 2027 14:25:44.511   02 Jun 2027 14:27:58.356           133.845               CapeTown          4182.656
       164   02 Jun 2027 14:29:10.102   02 Jun 2027 14:30:09.025            58.923               CapeTown          1841.344
       165   02 Jun 2027 14:49:54.617   02 Jun 2027 14:50:16.037            21.420                 Moscow           669.375
       166   02 Jun 2027 14:50:59.944   02 Jun 2027 14:51:26.823            26.879                 Moscow           839.969
       167   02 Jun 2027 14:52:34.133   02 Jun 2027 14:53:24.170            50.037              Murmansk2          1563.656
       168   02 Jun 2027 14:54:29.636   02 Jun 2027 14:54:46.336            16.700              Murmansk2           521.875
       169   02 Jun 2027 14:58:35.818   02 Jun 2027 15:00:04.672            88.854              Murmansk1          2776.687
       170   02 Jun 2027 15:06:01.009   02 Jun 2027 15:07:30.939            89.930                Anadyr1          2810.313
       171   02 Jun 2027 15:07:44.720   02 Jun 2027 15:08:24.954            40.234                Anadyr1          1257.313
       172   02 Jun 2027 15:12:02.341   02 Jun 2027 15:12:41.901            39.560                Anadyr2          1236.250
       173   02 Jun 2027 16:09:52.570   02 Jun 2027 16:10:01.189             8.619               CapeTown           269.344
       174   02 Jun 2027 16:11:36.473   02 Jun 2027 16:11:39.875             3.402               CapeTown           106.313
       175   02 Jun 2027 16:11:56.771   02 Jun 2027 16:12:02.795             6.024               CapeTown           188.250
       176   02 Jun 2027 16:32:26.836   02 Jun 2027 16:35:00.825           153.989              Murmansk1          4812.156
       177   02 Jun 2027 16:38:18.714   02 Jun 2027 16:39:02.995            44.281              Murmansk1          1383.781
       178   02 Jun 2027 16:41:40.838   02 Jun 2027 16:42:21.146            40.308                Anadyr2          1259.625
       179   02 Jun 2027 16:42:41.065   02 Jun 2027 16:43:29.284            48.219                Anadyr1          1506.844
       180   02 Jun 2027 16:44:20.030   02 Jun 2027 16:44:45.235            25.205                Anadyr1           787.656
       181   02 Jun 2027 16:44:48.049   02 Jun 2027 16:47:28.065           160.016               Magadan1          5000.500
       182   02 Jun 2027 18:17:36.237   02 Jun 2027 18:21:11.017           214.780                Anadyr1          6711.875
       183   02 Jun 2027 18:21:15.713   02 Jun 2027 18:22:33.543            77.830               Magadan1          2432.188
       184   02 Jun 2027 18:22:53.760   02 Jun 2027 18:23:16.681            22.921               Magadan2           716.281
       185   02 Jun 2027 18:27:55.803   02 Jun 2027 18:28:12.673            16.870               Magadan1           527.188
       186   02 Jun 2027 18:30:44.523   02 Jun 2027 18:30:52.459             7.936               Magadan2           248.000
       187   02 Jun 2027 18:31:23.664   02 Jun 2027 18:31:30.705             7.041               Magadan2           220.031
       188   02 Jun 2027 19:13:35.484   02 Jun 2027 19:16:19.980           164.496            RioGallegos          5140.500
       189   02 Jun 2027 19:18:33.940   02 Jun 2027 19:19:47.537            73.597            RioGallegos          2299.906
       190   02 Jun 2027 19:54:54.595   02 Jun 2027 19:55:21.452            26.857                Anadyr1           839.281
       191   02 Jun 2027 19:55:34.752   02 Jun 2027 19:57:54.439           139.687                Norilsk          4365.219
       192   02 Jun 2027 19:58:05.031   02 Jun 2027 19:59:27.095            82.064                Norilsk          2564.500
       193   02 Jun 2027 20:00:24.994   02 Jun 2027 20:01:07.997            43.003                Irkutsk          1343.844
       194   02 Jun 2027 20:01:59.522   02 Jun 2027 20:03:46.268           106.746                Irkutsk          3335.812
       195   02 Jun 2027 20:05:52.963   02 Jun 2027 20:06:50.434            57.471                Irkutsk          1795.969
       196   02 Jun 2027 20:15:12.420   02 Jun 2027 20:17:41.297           148.877                Sumatra          4652.406
       197   02 Jun 2027 20:22:59.242   02 Jun 2027 20:23:06.187             6.945                Sumatra           217.031
       198   02 Jun 2027 21:32:39.136   02 Jun 2027 21:32:46.243             7.107                Norilsk           222.094
       199   02 Jun 2027 21:33:10.762   02 Jun 2027 21:33:22.076            11.314                Norilsk           353.563
       200   02 Jun 2027 21:35:14.987   02 Jun 2027 21:36:46.783            91.796                Irkutsk          2868.625
       201   02 Jun 2027 21:36:59.275   02 Jun 2027 21:37:26.422            27.147                Novosib           848.344
       202   02 Jun 2027 21:38:16.747   02 Jun 2027 21:39:27.632            70.885                Novosib          2215.156
       203   02 Jun 2027 21:45:32.812   02 Jun 2027 21:47:35.585           122.773                  Delhi          3836.656
       204   02 Jun 2027 21:49:38.489   02 Jun 2027 21:50:51.178            72.689                  Delhi          2271.531
       205   02 Jun 2027 23:07:39.031   02 Jun 2027 23:08:01.130            22.099                Norilsk           690.594
       206   02 Jun 2027 23:08:20.714   02 Jun 2027 23:08:37.328            16.614               Magadan1           519.187
       207   02 Jun 2027 23:08:55.831   02 Jun 2027 23:09:09.048            13.217                Norilsk           413.031
       208   02 Jun 2027 23:09:23.168   02 Jun 2027 23:09:31.830             8.662               Magadan1           270.687
       209   02 Jun 2027 23:10:14.366   02 Jun 2027 23:12:15.841           121.475              Murmansk2          3796.094
       210   02 Jun 2027 23:13:05.439   02 Jun 2027 23:13:49.658            44.219              Murmansk2          1381.844
       211   02 Jun 2027 23:13:57.850   02 Jun 2027 23:14:17.790            19.940              Murmansk1           623.125
       212   02 Jun 2027 23:15:42.361   02 Jun 2027 23:15:52.370            10.009              Murmansk1           312.781
       213   02 Jun 2027 23:19:46.166   02 Jun 2027 23:20:59.032            72.866                  Delhi          2277.062
       214   02 Jun 2027 23:27:10.866   02 Jun 2027 23:28:03.714            52.848                  Delhi          1651.500
       215   03 Jun 2027 00:36:00.491   03 Jun 2027 00:36:22.561            22.070                Anadyr1           689.687
       216   03 Jun 2027 00:36:59.418   03 Jun 2027 00:37:40.428            41.010                Anadyr2          1281.562
       217   03 Jun 2027 00:38:32.001   03 Jun 2027 00:39:05.728            33.727                Anadyr1          1053.969
       218   03 Jun 2027 00:39:26.010   03 Jun 2027 00:39:33.365             7.355                Anadyr2           229.844
       219   03 Jun 2027 00:40:51.378   03 Jun 2027 00:41:02.816            11.438                Anadyr1           357.437
       220   03 Jun 2027 00:41:48.654   03 Jun 2027 00:42:03.194            14.540                Anadyr2           454.375
       221   03 Jun 2027 00:42:33.302   03 Jun 2027 00:44:03.184            89.882               Magadan2          2808.812
       222   03 Jun 2027 00:44:07.503   03 Jun 2027 00:45:43.521            96.018               Magadan1          3000.563
       223   03 Jun 2027 00:46:09.549   03 Jun 2027 00:48:10.719           121.170              Murmansk2          3786.563
       224   03 Jun 2027 00:49:16.154   03 Jun 2027 00:50:05.139            48.985                 Moscow          1530.781
       225   03 Jun 2027 01:01:29.298   03 Jun 2027 01:02:07.173            37.875                  Delhi          1183.594
       226   03 Jun 2027 01:15:10.390   03 Jun 2027 01:15:16.645             6.255               CapeTown           195.469
       227   03 Jun 2027 01:15:59.714   03 Jun 2027 01:16:38.442            38.728               CapeTown          1210.250
       228   03 Jun 2027 01:18:29.258   03 Jun 2027 01:19:19.321            50.063               CapeTown          1564.469
       229   03 Jun 2027 02:09:53.464   03 Jun 2027 02:10:53.756            60.292                Anadyr2          1884.125
       230   03 Jun 2027 02:12:01.470   03 Jun 2027 02:12:02.821             1.351                Anadyr1            42.219
       231   03 Jun 2027 02:12:26.332   03 Jun 2027 02:12:41.890            15.558                Anadyr2           486.188
       232   03 Jun 2027 02:13:38.059   03 Jun 2027 02:14:55.700            77.641               Magadan2          2426.281
       233   03 Jun 2027 02:14:55.700   03 Jun 2027 02:15:21.739            26.039               Magadan1           813.719
       234   03 Jun 2027 02:20:49.882   03 Jun 2027 02:20:56.288             6.406                Norilsk           200.187
       235   03 Jun 2027 02:21:26.885   03 Jun 2027 02:23:16.130           109.245              Murmansk1          3413.906
       236   03 Jun 2027 02:24:01.043   03 Jun 2027 02:24:33.287            32.244                Novosib          1007.625
       237   03 Jun 2027 02:29:16.018   03 Jun 2027 02:29:25.682             9.664                 Moscow           302.000
       238   03 Jun 2027 02:29:49.023   03 Jun 2027 02:30:07.044            18.021                Novosib           563.156
       239   03 Jun 2027 02:34:40.305   03 Jun 2027 02:35:06.738            26.433                 Moscow           826.031
       240   03 Jun 2027 02:48:33.268   03 Jun 2027 02:48:54.059            20.791               CapeTown           649.719
       241   03 Jun 2027 02:51:45.942   03 Jun 2027 02:52:04.199            18.257               CapeTown           570.531
       242   03 Jun 2027 02:53:59.945   03 Jun 2027 02:54:16.255            16.310               CapeTown           509.688
       243   03 Jun 2027 02:58:45.130   03 Jun 2027 03:00:21.532            96.402               CapeTown          3012.562
       244   03 Jun 2027 03:51:47.066   03 Jun 2027 03:58:12.762           385.696                Anadyr1         12053.000
       245   03 Jun 2027 05:29:55.151   03 Jun 2027 05:30:23.497            28.346                Irkutsk           885.813
       246   03 Jun 2027 05:31:06.975   03 Jun 2027 05:31:49.151            42.176               Magadan2          1318.000
       247   03 Jun 2027 05:32:12.632   03 Jun 2027 05:33:45.996            93.364               Magadan1          2917.625
       248   03 Jun 2027 07:03:12.362   03 Jun 2027 07:03:20.500             8.138               Magadan2           254.312
       249   03 Jun 2027 07:03:32.278   03 Jun 2027 07:03:35.401             3.123               Magadan1            97.594
       250   03 Jun 2027 07:04:03.998   03 Jun 2027 07:04:08.189             4.191               Magadan2           130.969
       251   03 Jun 2027 07:04:34.375   03 Jun 2027 07:05:43.594            69.219               Magadan2          2163.094
       252   03 Jun 2027 07:06:07.733   03 Jun 2027 07:06:10.413             2.680               Magadan2            83.750
       253   03 Jun 2027 07:06:27.683   03 Jun 2027 07:07:04.253            36.570                Anadyr1          1142.813
       254   03 Jun 2027 07:07:30.433   03 Jun 2027 07:07:51.733            21.300                Anadyr1           665.625
       255   03 Jun 2027 07:08:02.117   03 Jun 2027 07:08:03.691             1.574                Anadyr2            49.188
       256   03 Jun 2027 07:08:10.295   03 Jun 2027 07:08:41.651            31.356               Magadan1           979.875
       257   03 Jun 2027 07:09:01.031   03 Jun 2027 07:09:05.794             4.763              Murmansk1           148.844
       258   03 Jun 2027 07:09:16.232   03 Jun 2027 07:09:38.411            22.179                Novosib           693.094
       259   03 Jun 2027 07:48:11.837   03 Jun 2027 07:48:21.101             9.264            RioGallegos           289.500
       260   03 Jun 2027 07:49:55.479   03 Jun 2027 07:50:08.834            13.355            RioGallegos           417.344
       261   03 Jun 2027 08:20:50.007   03 Jun 2027 08:21:58.061            68.054                Sumatra          2126.687
       262   03 Jun 2027 08:40:14.088   03 Jun 2027 08:40:53.186            39.098                Novosib          1221.813
       263   03 Jun 2027 08:41:25.817   03 Jun 2027 08:41:36.305            10.488                Irkutsk           327.750
       264   03 Jun 2027 08:41:37.909   03 Jun 2027 08:42:18.466            40.557                Novosib          1267.406
       265   03 Jun 2027 08:43:14.519   03 Jun 2027 08:43:20.600             6.081                Irkutsk           190.031
       266   03 Jun 2027 08:43:48.119   03 Jun 2027 08:44:30.352            42.233                Irkutsk          1319.781
       267   03 Jun 2027 08:44:39.997   03 Jun 2027 08:45:33.733            53.736                Novosib          1679.250
       268   03 Jun 2027 09:20:58.723   03 Jun 2027 09:21:28.957            30.234            RioGallegos           944.812
       269   03 Jun 2027 09:55:18.236   03 Jun 2027 09:57:04.440           106.204                Sumatra          3318.875
       270   03 Jun 2027 10:06:08.160   03 Jun 2027 10:06:38.562            30.402                  Delhi           950.063
       271   03 Jun 2027 10:18:52.725   03 Jun 2027 10:18:56.092             3.367                Novosib           105.219
       272   03 Jun 2027 10:18:56.529   03 Jun 2027 10:19:06.887            10.358                Novosib           323.687
       273   03 Jun 2027 10:19:23.245   03 Jun 2027 10:19:34.263            11.018                Norilsk           344.312
       274   03 Jun 2027 10:19:47.104   03 Jun 2027 10:20:17.465            30.361                Novosib           948.781
       275   03 Jun 2027 10:20:22.619   03 Jun 2027 10:20:46.100            23.481                Irkutsk           733.781
       276   03 Jun 2027 11:40:02.225   03 Jun 2027 11:43:55.840           233.615                  Delhi          7300.469
       277   03 Jun 2027 11:53:07.303   03 Jun 2027 11:53:14.918             7.615                Novosib           237.969
       278   03 Jun 2027 11:55:01.054   03 Jun 2027 11:55:26.670            25.616                Norilsk           800.500
       279   03 Jun 2027 11:55:48.177   03 Jun 2027 11:56:57.179            69.002                Novosib          2156.312
       280   03 Jun 2027 13:23:43.323   03 Jun 2027 13:24:13.690            30.367                 Moscow           948.969
       281   03 Jun 2027 13:24:54.716   03 Jun 2027 13:25:08.793            14.077                 Moscow           439.906
       282   03 Jun 2027 13:27:14.827   03 Jun 2027 13:27:48.066            33.239              Murmansk1          1038.719
       283   03 Jun 2027 13:28:46.803   03 Jun 2027 13:28:52.687             5.884                 Moscow           183.875
       284   03 Jun 2027 13:28:57.351   03 Jun 2027 13:29:13.347            15.996              Murmansk1           499.875
       285   03 Jun 2027 13:29:56.254   03 Jun 2027 13:30:03.069             6.815              Murmansk1           212.969
       286   03 Jun 2027 13:30:39.128   03 Jun 2027 13:31:26.560            47.432              Murmansk1          1482.250
       287   03 Jun 2027 13:33:07.153   03 Jun 2027 13:36:46.263           219.110                Norilsk          6847.188
       288   03 Jun 2027 13:37:02.520   03 Jun 2027 13:37:17.719            15.199                Norilsk           474.969
       289   03 Jun 2027 13:45:27.736   03 Jun 2027 13:45:44.474            16.738                Anadyr1           523.062
       290   03 Jun 2027 13:46:24.002   03 Jun 2027 13:46:44.120            20.118                Anadyr1           628.687
       291   03 Jun 2027 14:40:09.196   03 Jun 2027 14:41:09.443            60.247               CapeTown          1882.719
       292   03 Jun 2027 14:48:18.612   03 Jun 2027 14:49:02.644            44.032               CapeTown          1376.000
       293   03 Jun 2027 15:03:02.259   03 Jun 2027 15:03:31.331            29.072                 Moscow           908.500
       294   03 Jun 2027 15:04:55.864   03 Jun 2027 15:05:20.968            25.104              Murmansk1           784.500
       295   03 Jun 2027 15:06:31.408   03 Jun 2027 15:06:45.383            13.975              Murmansk2           436.719
       296   03 Jun 2027 15:07:02.635   03 Jun 2027 15:07:44.618            41.983              Murmansk2          1311.969
       297   03 Jun 2027 15:10:20.702   03 Jun 2027 15:10:35.907            15.205              Murmansk2           475.156
       298   03 Jun 2027 15:12:22.072   03 Jun 2027 15:12:47.589            25.517              Murmansk1           797.406
       299   03 Jun 2027 15:14:24.682   03 Jun 2027 15:14:49.330            24.648              Murmansk2           770.250
       300   03 Jun 2027 15:17:58.145   03 Jun 2027 15:20:16.621           138.476                Anadyr1          4327.375
       301   03 Jun 2027 15:23:35.489   03 Jun 2027 15:23:47.402            11.913                Anadyr1           372.281
       302   03 Jun 2027 15:23:52.938   03 Jun 2027 15:24:03.363            10.425                Anadyr2           325.781
       303   03 Jun 2027 15:24:12.083   03 Jun 2027 15:25:09.795            57.712                Anadyr2          1803.500
       304   03 Jun 2027 16:24:39.601   03 Jun 2027 16:24:47.252             7.651               CapeTown           239.094
       305   03 Jun 2027 16:45:14.015   03 Jun 2027 16:47:48.054           154.039              Murmansk1          4813.719
       306   03 Jun 2027 16:50:20.850   03 Jun 2027 16:51:13.505            52.655              Murmansk2          1645.469
       307   03 Jun 2027 16:53:41.899   03 Jun 2027 16:54:14.815            32.916                Anadyr1          1028.625
       308   03 Jun 2027 16:54:37.323   03 Jun 2027 16:54:58.977            21.654                Anadyr2           676.688
       309   03 Jun 2027 16:55:23.408   03 Jun 2027 16:55:35.440            12.032                Anadyr2           376.000
       310   03 Jun 2027 16:56:21.206   03 Jun 2027 16:56:53.728            32.522                Anadyr1          1016.313
       311   03 Jun 2027 16:56:57.544   03 Jun 2027 16:58:39.171           101.627               Magadan1          3175.844
       312   03 Jun 2027 17:02:16.361   03 Jun 2027 17:02:31.559            15.198               Magadan1           474.938
       313   03 Jun 2027 18:29:37.461   03 Jun 2027 18:33:35.408           237.947                Anadyr1          7435.844
       314   03 Jun 2027 18:33:37.271   03 Jun 2027 18:35:57.608           140.337               Magadan2          4385.531
       315   03 Jun 2027 18:39:12.536   03 Jun 2027 18:39:46.646            34.110               Magadan1          1065.937
       316   03 Jun 2027 19:25:00.410   03 Jun 2027 19:28:05.832           185.422            RioGallegos          5794.438
       317   03 Jun 2027 19:29:56.256   03 Jun 2027 19:30:20.858            24.602            RioGallegos           768.813
       318   03 Jun 2027 19:30:52.901   03 Jun 2027 19:31:43.448            50.547            RioGallegos          1579.594
       319   03 Jun 2027 20:07:52.520   03 Jun 2027 20:08:48.281            55.761               Magadan2          1742.531
       320   03 Jun 2027 20:08:48.281   03 Jun 2027 20:09:43.275            54.994               Magadan1          1718.562
       321   03 Jun 2027 20:10:06.616   03 Jun 2027 20:11:27.144            80.528                Norilsk          2516.500
       322   03 Jun 2027 20:12:08.976   03 Jun 2027 20:13:59.194           110.218                Irkutsk          3444.313
       323   03 Jun 2027 20:14:58.692   03 Jun 2027 20:15:38.863            40.171                Irkutsk          1255.344
       324   03 Jun 2027 20:21:27.992   03 Jun 2027 20:21:33.640             5.648                Irkutsk           176.500
       325   03 Jun 2027 20:26:31.012   03 Jun 2027 20:28:05.358            94.346                Sumatra          2948.312
       326   03 Jun 2027 20:30:36.072   03 Jun 2027 20:32:02.186            86.114                Sumatra          2691.062
       327   03 Jun 2027 21:43:59.008   03 Jun 2027 21:44:37.068            38.060               Magadan2          1189.375
       328   03 Jun 2027 21:47:15.055   03 Jun 2027 21:48:37.523            82.468                Irkutsk          2577.125
       329   03 Jun 2027 21:48:41.130   03 Jun 2027 21:50:48.043           126.913                Novosib          3966.031
       330   03 Jun 2027 21:56:36.342   03 Jun 2027 21:58:41.752           125.410                  Delhi          3919.063
       331   03 Jun 2027 22:01:49.593   03 Jun 2027 22:02:43.988            54.395                  Delhi          1699.844
       332   03 Jun 2027 23:18:57.082   03 Jun 2027 23:19:09.176            12.094                Anadyr1           377.937
       333   03 Jun 2027 23:19:22.827   03 Jun 2027 23:19:26.010             3.183                Norilsk            99.469
       334   03 Jun 2027 23:19:27.980   03 Jun 2027 23:19:49.770            21.790                Norilsk           680.938
       335   03 Jun 2027 23:19:51.267   03 Jun 2027 23:21:02.817            71.550               Magadan2          2235.938
       336   03 Jun 2027 23:22:03.996   03 Jun 2027 23:24:16.226           132.230              Murmansk1          4132.188
       337   03 Jun 2027 23:24:23.498   03 Jun 2027 23:25:46.146            82.648              Murmansk2          2582.750
       338   03 Jun 2027 23:27:43.263   03 Jun 2027 23:28:32.992            49.729              Murmansk1          1554.031
       339   03 Jun 2027 23:37:09.284   03 Jun 2027 23:39:01.185           111.901                  Delhi          3496.906
       340   04 Jun 2027 00:49:44.368   04 Jun 2027 00:50:05.377            21.009                Anadyr2           656.531
       341   04 Jun 2027 00:50:05.377   04 Jun 2027 00:50:15.726            10.349                Anadyr1           323.406
       342   04 Jun 2027 00:50:24.897   04 Jun 2027 00:50:29.280             4.383                Anadyr1           136.969
       343   04 Jun 2027 00:53:27.087   04 Jun 2027 00:53:41.542            14.455                Anadyr1           451.719
       344   04 Jun 2027 00:53:45.387   04 Jun 2027 00:55:35.206           109.819               Magadan2          3431.844
       345   04 Jun 2027 00:57:31.921   04 Jun 2027 00:58:48.870            76.949              Murmansk1          2404.656
       346   04 Jun 2027 00:58:49.171   04 Jun 2027 00:59:28.908            39.737              Murmansk2          1241.781
       347   04 Jun 2027 01:01:00.684   04 Jun 2027 01:01:35.179            34.495                Novosib          1077.969
       348   04 Jun 2027 01:01:35.681   04 Jun 2027 01:01:55.217            19.536                 Moscow           610.500
       349   04 Jun 2027 01:02:35.399   04 Jun 2027 01:02:43.410             8.011                 Moscow           250.344
       350   04 Jun 2027 01:05:02.613   04 Jun 2027 01:05:10.839             8.226                 Moscow           257.062
       351   04 Jun 2027 01:06:43.616   04 Jun 2027 01:07:06.903            23.287                 Moscow           727.719
       352   04 Jun 2027 01:11:55.282   04 Jun 2027 01:12:03.065             7.783                 Moscow           243.219
       353   04 Jun 2027 01:12:17.873   04 Jun 2027 01:12:24.927             7.054                 Moscow           220.438
       354   04 Jun 2027 01:13:39.390   04 Jun 2027 01:13:43.494             4.104                  Delhi           128.250
       355   04 Jun 2027 01:26:30.054   04 Jun 2027 01:27:21.206            51.152               CapeTown          1598.500
       356   04 Jun 2027 01:30:29.060   04 Jun 2027 01:31:32.534            63.474               CapeTown          1983.563
       357   04 Jun 2027 02:21:45.211   04 Jun 2027 02:23:11.400            86.189                Anadyr2          2693.406
       358   04 Jun 2027 02:24:15.862   04 Jun 2027 02:24:38.452            22.590                Anadyr2           705.937
       359   04 Jun 2027 02:25:09.090   04 Jun 2027 02:25:59.027            49.937               Magadan2          1560.531
       360   04 Jun 2027 02:26:10.461   04 Jun 2027 02:26:23.493            13.032               Magadan2           407.250
       361   04 Jun 2027 02:27:25.771   04 Jun 2027 02:27:48.627            22.856               Magadan1           714.250
       362   04 Jun 2027 02:30:56.992   04 Jun 2027 02:31:00.243             3.251                Norilsk           101.594
       363   04 Jun 2027 02:33:04.572   04 Jun 2027 02:33:30.625            26.053               Magadan1           814.156
       364   04 Jun 2027 02:33:46.716   04 Jun 2027 02:35:06.728            80.012              Murmansk2          2500.375
       365   04 Jun 2027 02:35:06.728   04 Jun 2027 02:35:53.424            46.696              Murmansk1          1459.250
       366   04 Jun 2027 02:39:18.609   04 Jun 2027 02:39:37.272            18.663                 Moscow           583.219
       367   04 Jun 2027 02:43:58.020   04 Jun 2027 02:44:01.137             3.117                 Moscow            97.406
       368   04 Jun 2027 02:45:43.414   04 Jun 2027 02:46:28.796            45.382                 Moscow          1418.188
       369   04 Jun 2027 03:00:39.499   04 Jun 2027 03:00:56.550            17.051               CapeTown           532.844
       370   04 Jun 2027 03:03:44.006   04 Jun 2027 03:04:47.315            63.309               CapeTown          1978.406
       371   04 Jun 2027 03:59:03.248   04 Jun 2027 03:59:10.306             7.058                Anadyr2           220.563
       372   04 Jun 2027 03:59:16.433   04 Jun 2027 04:00:38.520            82.087                Anadyr1          2565.219
       373   04 Jun 2027 04:03:56.445   04 Jun 2027 04:09:27.339           330.894               Magadan2         10340.437
       374   04 Jun 2027 04:09:27.339   04 Jun 2027 04:09:46.109            18.770               Magadan1           586.563
       375   04 Jun 2027 05:42:23.993   04 Jun 2027 05:43:42.067            78.074                Irkutsk          2439.812
       376   04 Jun 2027 05:44:10.866   04 Jun 2027 05:45:37.020            86.154               Magadan1          2692.312
       377   04 Jun 2027 05:45:38.044   04 Jun 2027 05:45:54.870            16.826                Anadyr2           525.812
       378   04 Jun 2027 07:16:42.163   04 Jun 2027 07:17:41.339            59.176               Magadan1          1849.250
       379   04 Jun 2027 07:17:54.710   04 Jun 2027 07:18:10.342            15.632               Magadan1           488.500
       380   04 Jun 2027 07:18:36.103   04 Jun 2027 07:18:37.928             1.825               Magadan1            57.031
       381   04 Jun 2027 07:18:37.928   04 Jun 2027 07:19:49.404            71.476               Magadan2          2233.625
       382   04 Jun 2027 07:20:06.917   04 Jun 2027 07:20:40.343            33.426               Magadan2          1044.562
       383   04 Jun 2027 07:20:56.293   04 Jun 2027 07:21:09.632            13.339               Magadan1           416.844
       384   04 Jun 2027 07:21:11.046   04 Jun 2027 07:21:20.849             9.803               Magadan2           306.344
       385   04 Jun 2027 07:21:22.082   04 Jun 2027 07:21:38.507            16.425                Novosib           513.281
       386   04 Jun 2027 07:30:28.895   04 Jun 2027 07:30:42.103            13.208              Murmansk2           412.750
       387   04 Jun 2027 07:59:59.056   04 Jun 2027 08:00:14.847            15.791            RioGallegos           493.469
       388   04 Jun 2027 08:01:49.540   04 Jun 2027 08:02:14.654            25.114            RioGallegos           784.812
       389   04 Jun 2027 08:32:14.853   04 Jun 2027 08:32:46.648            31.795                Sumatra           993.594
       390   04 Jun 2027 08:33:15.364   04 Jun 2027 08:34:14.402            59.038                Sumatra          1844.938
       391   04 Jun 2027 08:52:27.562   04 Jun 2027 08:52:43.722            16.160                Novosib           505.000
       392   04 Jun 2027 08:54:14.472   04 Jun 2027 08:54:18.538             4.066                Irkutsk           127.062
       393   04 Jun 2027 08:54:53.092   04 Jun 2027 08:54:57.439             4.347                Novosib           135.844
       394   04 Jun 2027 08:55:26.657   04 Jun 2027 08:55:42.856            16.199                Irkutsk           506.219
       395   04 Jun 2027 08:56:20.169   04 Jun 2027 08:56:20.888             0.719                Irkutsk            22.469
       396   04 Jun 2027 08:56:25.777   04 Jun 2027 08:56:33.388             7.611                Novosib           237.844
       397   04 Jun 2027 08:56:35.985   04 Jun 2027 08:57:24.640            48.655              Murmansk1          1520.469
       398   04 Jun 2027 09:33:22.793   04 Jun 2027 09:34:07.476            44.683            RioGallegos          1396.344
       399   04 Jun 2027 10:07:36.943   04 Jun 2027 10:08:57.680            80.737                Sumatra          2523.031
       400   04 Jun 2027 10:22:47.968   04 Jun 2027 10:22:54.075             6.107                  Delhi           190.844
       401   04 Jun 2027 10:23:38.712   04 Jun 2027 10:23:42.689             3.977                  Delhi           124.281
       402   04 Jun 2027 10:30:28.657   04 Jun 2027 10:31:00.262            31.605                Novosib           987.656
       403   04 Jun 2027 10:31:08.401   04 Jun 2027 10:31:43.846            35.445                Novosib          1107.656
       404   04 Jun 2027 10:31:55.332   04 Jun 2027 10:32:31.161            35.829                Novosib          1119.656
       405   04 Jun 2027 10:32:44.818   04 Jun 2027 10:32:55.191            10.373                Norilsk           324.156
       406   04 Jun 2027 10:33:02.218   04 Jun 2027 10:33:06.787             4.569                Novosib           142.781
       407   04 Jun 2027 11:52:33.532   04 Jun 2027 11:53:36.965            63.433                  Delhi          1982.281
       408   04 Jun 2027 11:53:46.130   04 Jun 2027 11:55:36.983           110.853                  Delhi          3464.156
       409   04 Jun 2027 12:06:34.004   04 Jun 2027 12:06:57.953            23.949                Novosib           748.406
       410   04 Jun 2027 12:11:31.219   04 Jun 2027 12:12:30.884            59.665                Norilsk          1864.531
       411   04 Jun 2027 13:36:27.400   04 Jun 2027 13:36:40.534            13.134                 Moscow           410.437
       412   04 Jun 2027 13:36:58.467   04 Jun 2027 13:37:34.065            35.598                 Moscow          1112.438
       413   04 Jun 2027 13:40:15.121   04 Jun 2027 13:40:25.827            10.706                 Moscow           334.563
       414   04 Jun 2027 13:40:57.106   04 Jun 2027 13:41:10.908            13.802              Murmansk2           431.312
       415   04 Jun 2027 13:41:54.379   04 Jun 2027 13:42:23.807            29.428              Murmansk2           919.625
       416   04 Jun 2027 13:42:56.663   04 Jun 2027 13:43:09.445            12.782              Murmansk2           399.437
       417   04 Jun 2027 13:43:21.358   04 Jun 2027 13:43:48.608            27.250              Murmansk2           851.562
       418   04 Jun 2027 13:45:08.716   04 Jun 2027 13:45:13.017             4.301              Murmansk2           134.406
       419   04 Jun 2027 13:45:44.607   04 Jun 2027 13:46:21.993            37.386              Murmansk1          1168.313
       420   04 Jun 2027 13:46:49.128   04 Jun 2027 13:48:23.815            94.687                Norilsk          2958.969
       421   04 Jun 2027 13:48:48.676   04 Jun 2027 13:49:14.776            26.100                Norilsk           815.625
       422   04 Jun 2027 13:55:22.816   04 Jun 2027 13:56:41.219            78.403                Anadyr1          2450.094
       423   04 Jun 2027 13:57:32.808   04 Jun 2027 13:58:32.185            59.377                Anadyr2          1855.531
       424   04 Jun 2027 13:59:57.138   04 Jun 2027 14:00:09.307            12.169                Anadyr1           380.281
       425   04 Jun 2027 14:58:52.320   04 Jun 2027 14:59:31.619            39.299               CapeTown          1228.094
       426   04 Jun 2027 15:15:07.142   04 Jun 2027 15:15:38.923            31.781                 Moscow           993.156
       427   04 Jun 2027 15:17:19.921   04 Jun 2027 15:17:49.713            29.792              Murmansk2           931.000
       428   04 Jun 2027 15:20:31.933   04 Jun 2027 15:20:37.857             5.924              Murmansk2           185.125
       429   04 Jun 2027 15:21:02.313   04 Jun 2027 15:22:18.650            76.337              Murmansk1          2385.531
       430   04 Jun 2027 15:29:56.209   04 Jun 2027 15:31:04.574            68.365                Anadyr1          2136.406
       431   04 Jun 2027 15:31:04.574   04 Jun 2027 15:31:07.651             3.077                Anadyr2            96.156
       432   04 Jun 2027 15:31:19.420   04 Jun 2027 15:31:33.549            14.129                Anadyr1           441.531
       433   04 Jun 2027 15:31:33.549   04 Jun 2027 15:32:26.957            53.408                Anadyr2          1669.000
       434   04 Jun 2027 15:35:33.136   04 Jun 2027 15:35:41.702             8.566                Anadyr1           267.687
       435   04 Jun 2027 15:36:11.715   04 Jun 2027 15:36:44.532            32.817                Anadyr1          1025.531
       436   04 Jun 2027 15:40:15.671   04 Jun 2027 15:40:27.039            11.368                Anadyr2           355.250
       437   04 Jun 2027 15:41:03.715   04 Jun 2027 15:41:12.927             9.212                Anadyr2           287.875
       438   04 Jun 2027 16:58:07.929   04 Jun 2027 17:01:57.699           229.770              Murmansk1          7180.312
       439   04 Jun 2027 17:05:43.123   04 Jun 2027 17:06:10.004            26.881                Anadyr2           840.031
       440   04 Jun 2027 17:06:40.008   04 Jun 2027 17:07:22.874            42.866                Anadyr2          1339.562
       441   04 Jun 2027 17:08:26.697   04 Jun 2027 17:09:02.572            35.875               Magadan2          1121.094
       442   04 Jun 2027 17:09:02.572   04 Jun 2027 17:09:28.728            26.156               Magadan1           817.375
       443   04 Jun 2027 17:09:46.703   04 Jun 2027 17:10:52.527            65.824               Magadan1          2057.000
       444   04 Jun 2027 18:41:38.541   04 Jun 2027 18:43:29.817           111.276                Anadyr1          3477.375
       445   04 Jun 2027 18:43:55.400   04 Jun 2027 18:47:10.796           195.396               Magadan2          6106.125
       446   04 Jun 2027 18:47:53.999   04 Jun 2027 18:48:17.076            23.077               Magadan1           721.156
       447   04 Jun 2027 18:49:33.767   04 Jun 2027 18:49:41.644             7.877               Magadan1           246.156
       448   04 Jun 2027 18:50:59.940   04 Jun 2027 18:51:12.850            12.910               Magadan1           403.438
       449   04 Jun 2027 18:52:39.919   04 Jun 2027 18:53:34.484            54.565               Magadan1          1705.156
       450   04 Jun 2027 19:36:36.592   04 Jun 2027 19:39:32.463           175.871            RioGallegos          5495.969
       451   04 Jun 2027 19:40:08.010   04 Jun 2027 19:41:11.037            63.027            RioGallegos          1969.594
       452   04 Jun 2027 19:42:22.531   04 Jun 2027 19:43:09.308            46.777            RioGallegos          1461.781
       453   04 Jun 2027 20:19:31.597   04 Jun 2027 20:21:41.042           129.445                Norilsk          4045.156
       454   04 Jun 2027 20:23:57.000   04 Jun 2027 20:25:57.164           120.164                Irkutsk          3755.125
       455   04 Jun 2027 20:38:01.108   04 Jun 2027 20:40:25.370           144.262                Sumatra          4508.188
       456   04 Jun 2027 20:44:04.137   04 Jun 2027 20:44:36.814            32.677                Sumatra          1021.156
       457   04 Jun 2027 21:56:03.058   04 Jun 2027 21:56:36.386            33.328                Norilsk          1041.500
       458   04 Jun 2027 21:56:49.273   04 Jun 2027 21:57:23.926            34.653               Magadan2          1082.906
       459   04 Jun 2027 21:57:59.335   04 Jun 2027 21:58:08.184             8.849                Norilsk           276.531
       460   04 Jun 2027 21:58:17.698   04 Jun 2027 21:58:27.936            10.238               Magadan2           319.938
       461   04 Jun 2027 21:58:31.900   04 Jun 2027 21:58:59.364            27.464               Magadan1           858.250
       462   04 Jun 2027 21:59:07.017   04 Jun 2027 21:59:20.251            13.234                Norilsk           413.563
       463   04 Jun 2027 21:59:36.764   04 Jun 2027 22:00:53.133            76.369                Novosib          2386.531
       464   04 Jun 2027 22:02:43.355   04 Jun 2027 22:03:28.739            45.384                Novosib          1418.250
       465   04 Jun 2027 22:07:59.000   04 Jun 2027 22:10:58.986           179.986                  Delhi          5624.563
       466   04 Jun 2027 23:28:22.839   04 Jun 2027 23:28:32.178             9.339                Anadyr2           291.844
       467   04 Jun 2027 23:28:52.458   04 Jun 2027 23:29:12.216            19.758                Anadyr2           617.438
       468   04 Jun 2027 23:31:10.378   04 Jun 2027 23:31:31.428            21.050                Anadyr2           657.812
       469   04 Jun 2027 23:31:47.567   04 Jun 2027 23:32:21.892            34.325               Magadan1          1072.656
       470   04 Jun 2027 23:32:40.638   04 Jun 2027 23:33:48.215            67.577               Magadan2          2111.781
       471   04 Jun 2027 23:33:57.145   04 Jun 2027 23:36:16.969           139.824              Murmansk2          4369.500
       472   04 Jun 2027 23:37:00.328   04 Jun 2027 23:37:44.328            44.000              Murmansk1          1375.000
       473   04 Jun 2027 23:39:43.932   04 Jun 2027 23:39:54.731            10.799              Murmansk1           337.469
       474   04 Jun 2027 23:40:46.563   04 Jun 2027 23:42:13.422            86.859                 Moscow          2714.344
       475   05 Jun 2027 00:59:26.179   05 Jun 2027 01:00:56.264            90.085                Anadyr2          2815.156
       476   05 Jun 2027 01:01:38.035   05 Jun 2027 01:02:05.385            27.350                Anadyr2           854.688
       477   05 Jun 2027 01:02:11.210   05 Jun 2027 01:02:13.456             2.246                Anadyr1            70.187
       478   05 Jun 2027 01:02:34.620   05 Jun 2027 01:02:38.912             4.292                Anadyr2           134.125
       479   05 Jun 2027 01:05:00.804   05 Jun 2027 01:06:09.516            68.712               Magadan1          2147.250
       480   05 Jun 2027 01:06:09.516   05 Jun 2027 01:06:44.652            35.136               Magadan2          1098.000
       481   05 Jun 2027 01:07:03.336   05 Jun 2027 01:08:10.489            67.153               Magadan2          2098.531
       482   05 Jun 2027 01:09:32.863   05 Jun 2027 01:10:48.506            75.643              Murmansk2          2363.844
