uniorb/output/strategy_4/Drop/Drop_KinoSat_110705.txt

KinoSat_110705
-------------------------
    Access    *     Start Time (UTCG)     *     Stop Time (UTCG)  *   Duration (s)        *       Station  *  Data (Mbytes)
         1   01 Jun 2027 03:38:29.226   01 Jun 2027 03:38:49.485            20.259               Magadan2           633.094
         2   01 Jun 2027 03:38:52.668   01 Jun 2027 03:39:33.572            40.904                Anadyr2          1278.250
         3   01 Jun 2027 03:39:51.131   01 Jun 2027 03:43:45.719           234.588                Anadyr2          7330.875
         4   01 Jun 2027 03:43:45.719   01 Jun 2027 03:44:54.359            68.640                Anadyr1          2145.000
         5   01 Jun 2027 05:14:31.723   01 Jun 2027 05:15:27.486            55.763                Irkutsk          1742.594
         6   01 Jun 2027 05:15:31.004   01 Jun 2027 05:15:45.480            14.476               Magadan2           452.375
         7   01 Jun 2027 05:15:56.305   01 Jun 2027 05:16:18.481            22.176                Irkutsk           693.000
         8   01 Jun 2027 05:16:19.398   01 Jun 2027 05:19:19.434           180.036               Magadan1          5626.125
         9   01 Jun 2027 05:19:19.434   01 Jun 2027 05:21:00.502           101.068               Magadan2          3158.375
        10   01 Jun 2027 05:21:18.347   01 Jun 2027 05:21:50.521            32.174               Magadan2          1005.438
        11   01 Jun 2027 05:24:22.942   01 Jun 2027 05:24:34.025            11.083                Norilsk           346.344
        12   01 Jun 2027 05:56:57.853   01 Jun 2027 05:57:43.054            45.201            RioGallegos          1412.531
        13   01 Jun 2027 05:58:52.804   01 Jun 2027 06:00:48.963           116.159            RioGallegos          3629.969
        14   01 Jun 2027 06:34:31.524   01 Jun 2027 06:35:11.884            40.360                Sumatra          1261.250
        15   01 Jun 2027 06:50:18.089   01 Jun 2027 06:50:48.021            29.932                Irkutsk           935.375
        16   01 Jun 2027 06:51:23.605   01 Jun 2027 06:52:31.023            67.418                Irkutsk          2106.813
        17   01 Jun 2027 06:53:52.999   01 Jun 2027 06:54:27.682            34.683                Novosib          1083.844
        18   01 Jun 2027 06:54:37.938   01 Jun 2027 06:54:49.992            12.054                Norilsk           376.688
        19   01 Jun 2027 06:55:04.328   01 Jun 2027 06:57:49.203           164.875                Irkutsk          5152.344
        20   01 Jun 2027 06:57:57.071   01 Jun 2027 06:58:05.536             8.465                Novosib           264.531
        21   01 Jun 2027 06:58:09.929   01 Jun 2027 06:59:55.964           106.035              Murmansk2          3313.594
        22   01 Jun 2027 07:32:50.081   01 Jun 2027 07:33:47.119            57.038            RioGallegos          1782.437
        23   01 Jun 2027 08:07:21.470   01 Jun 2027 08:09:31.668           130.198                Sumatra          4068.688
        24   01 Jun 2027 08:16:58.552   01 Jun 2027 08:19:50.781           172.229                  Delhi          5382.156
        25   01 Jun 2027 08:29:34.957   01 Jun 2027 08:30:04.991            30.034              Murmansk1           938.563
        26   01 Jun 2027 08:30:16.670   01 Jun 2027 08:33:19.161           182.491                Irkutsk          5702.844
        27   01 Jun 2027 08:33:49.921   01 Jun 2027 08:35:18.147            88.226                Novosib          2757.063
        28   01 Jun 2027 08:35:32.491   01 Jun 2027 08:35:55.949            23.458                 Moscow           733.062
        29   01 Jun 2027 09:51:49.255   01 Jun 2027 09:55:20.504           211.249                  Delhi          6601.531
        30   01 Jun 2027 09:55:55.764   01 Jun 2027 09:56:14.398            18.634                  Delhi           582.312
        31   01 Jun 2027 10:06:47.120   01 Jun 2027 10:07:53.224            66.104              Murmansk2          2065.750
        32   01 Jun 2027 10:08:04.838   01 Jun 2027 10:09:23.267            78.429                Norilsk          2450.906
        33   01 Jun 2027 10:09:24.974   01 Jun 2027 10:10:26.367            61.393              Murmansk2          1918.531
        34   01 Jun 2027 10:10:26.367   01 Jun 2027 10:11:56.407            90.040              Murmansk1          2813.750
        35   01 Jun 2027 11:42:40.443   01 Jun 2027 11:44:00.755            80.312              Murmansk1          2509.750
        36   01 Jun 2027 11:44:00.755   01 Jun 2027 11:45:06.310            65.555              Murmansk2          2048.594
        37   01 Jun 2027 11:45:27.298   01 Jun 2027 11:45:42.899            15.601              Murmansk2           487.531
        38   01 Jun 2027 11:47:12.296   01 Jun 2027 11:48:49.538            97.242                 Moscow          3038.813
        39   01 Jun 2027 12:50:12.123   01 Jun 2027 12:51:24.572            72.449               CapeTown          2264.031
        40   01 Jun 2027 12:51:46.105   01 Jun 2027 12:53:23.030            96.925               CapeTown          3028.906
        41   01 Jun 2027 12:55:08.505   01 Jun 2027 12:56:36.257            87.752               CapeTown          2742.250
        42   01 Jun 2027 13:16:42.918   01 Jun 2027 13:16:57.374            14.456              Murmansk1           451.750
        43   01 Jun 2027 13:17:08.066   01 Jun 2027 13:18:08.500            60.434              Murmansk2          1888.563
        44   01 Jun 2027 13:30:22.183   01 Jun 2027 13:32:40.525           138.342                Anadyr1          4323.188
        45   01 Jun 2027 13:33:29.037   01 Jun 2027 13:36:06.017           156.980                Anadyr2          4905.625
        46   01 Jun 2027 13:36:40.845   01 Jun 2027 13:40:14.544           213.699                Anadyr2          6678.094
        47   01 Jun 2027 15:05:59.320   01 Jun 2027 15:07:25.763            86.443                Anadyr1          2701.344
        48   01 Jun 2027 15:08:24.880   01 Jun 2027 15:09:28.274            63.394                Anadyr2          1981.062
        49   01 Jun 2027 15:09:41.233   01 Jun 2027 15:17:51.068           489.835               Magadan1         15307.344
        50   01 Jun 2027 16:44:14.073   01 Jun 2027 16:47:06.356           172.283               Magadan1          5383.844
        51   01 Jun 2027 16:47:54.747   01 Jun 2027 16:48:28.177            33.430               Magadan1          1044.687
        52   01 Jun 2027 16:51:40.323   01 Jun 2027 16:51:46.040             5.717               Magadan1           178.656
        53   01 Jun 2027 16:51:58.953   01 Jun 2027 16:52:34.000            35.047               Magadan1          1095.219
        54   01 Jun 2027 16:56:45.444   01 Jun 2027 16:56:50.118             4.674               Magadan2           146.062
        55   01 Jun 2027 17:38:21.508   01 Jun 2027 17:43:23.617           302.109            RioGallegos          9440.906
        56   01 Jun 2027 18:19:55.865   01 Jun 2027 18:23:13.441           197.576                Norilsk          6174.250
        57   01 Jun 2027 18:24:08.938   01 Jun 2027 18:27:34.178           205.240                Norilsk          6413.750
        58   01 Jun 2027 18:28:23.819   01 Jun 2027 18:31:38.160           194.341                Irkutsk          6073.156
        59   01 Jun 2027 18:39:58.747   01 Jun 2027 18:42:19.624           140.877                Sumatra          4402.406
        60   01 Jun 2027 18:46:07.192   01 Jun 2027 18:48:17.246           130.054                Sumatra          4064.187
        61   01 Jun 2027 20:03:04.959   01 Jun 2027 20:04:05.963            61.004                Novosib          1906.375
        62   01 Jun 2027 20:05:27.088   01 Jun 2027 20:05:57.642            30.554                Novosib           954.813
        63   01 Jun 2027 20:06:26.726   01 Jun 2027 20:07:48.932            82.206                Novosib          2568.938
        64   01 Jun 2027 20:10:36.874   01 Jun 2027 20:12:14.462            97.588                  Delhi          3049.625
        65   01 Jun 2027 21:34:41.856   01 Jun 2027 21:39:41.574           299.718              Murmansk2          9366.188
        66   01 Jun 2027 23:05:40.998   01 Jun 2027 23:05:53.768            12.770                Anadyr1           399.063
        67   01 Jun 2027 23:06:03.162   01 Jun 2027 23:06:06.639             3.477                Anadyr1           108.656
        68   01 Jun 2027 23:06:30.330   01 Jun 2027 23:08:20.214           109.884               Magadan2          3433.875
        69   01 Jun 2027 23:09:50.341   01 Jun 2027 23:13:15.840           205.499              Murmansk2          6421.844
        70   01 Jun 2027 23:13:15.840   01 Jun 2027 23:14:19.010            63.170              Murmansk1          1974.063
        71   01 Jun 2027 23:14:49.857   01 Jun 2027 23:17:33.178           163.321                 Moscow          5103.781
        72   01 Jun 2027 23:17:57.906   01 Jun 2027 23:18:45.320            47.414                 Moscow          1481.687
        73   01 Jun 2027 23:39:53.581   01 Jun 2027 23:42:14.156           140.575               CapeTown          4392.969
        74   01 Jun 2027 23:45:44.073   01 Jun 2027 23:47:49.535           125.462               CapeTown          3920.688
        75   02 Jun 2027 00:45:44.908   02 Jun 2027 00:46:03.581            18.673              Murmansk1           583.531
        76   02 Jun 2027 00:48:14.614   02 Jun 2027 00:48:56.673            42.059              Murmansk1          1314.344
        77   02 Jun 2027 00:48:58.105   02 Jun 2027 00:49:43.241            45.136                 Moscow          1410.500
        78   02 Jun 2027 00:52:41.488   02 Jun 2027 00:52:52.086            10.598                 Moscow           331.187
        79   02 Jun 2027 00:56:17.642   02 Jun 2027 00:56:20.473             2.831                 Moscow            88.469
        80   02 Jun 2027 00:57:47.290   02 Jun 2027 00:58:12.608            25.318                 Moscow           791.187
        81   02 Jun 2027 01:12:54.263   02 Jun 2027 01:13:26.379            32.116               CapeTown          1003.625
        82   02 Jun 2027 01:15:43.210   02 Jun 2027 01:16:04.633            21.423               CapeTown           669.469
        83   02 Jun 2027 01:16:23.935   02 Jun 2027 01:16:50.530            26.595               CapeTown           831.094
        84   02 Jun 2027 01:17:33.181   02 Jun 2027 01:18:27.664            54.483               CapeTown          1702.594
        85   02 Jun 2027 02:09:36.487   02 Jun 2027 02:10:16.176            39.689                Anadyr2          1240.281
        86   02 Jun 2027 02:10:35.473   02 Jun 2027 02:10:49.597            14.124                Anadyr1           441.375
        87   02 Jun 2027 02:11:03.470   02 Jun 2027 02:11:18.557            15.087               Magadan1           471.469
        88   02 Jun 2027 02:11:34.326   02 Jun 2027 02:12:29.687            55.361               Magadan2          1730.031
        89   02 Jun 2027 02:12:37.034   02 Jun 2027 02:12:55.766            18.732               Magadan1           585.375
        90   02 Jun 2027 02:16:15.362   02 Jun 2027 02:16:42.107            26.745               Magadan2           835.781
        91   02 Jun 2027 02:18:39.155   02 Jun 2027 02:19:29.491            50.336                Norilsk          1573.000
        92   02 Jun 2027 02:21:41.844   02 Jun 2027 02:22:54.138            72.294              Murmansk2          2259.187
        93   02 Jun 2027 02:24:16.216   02 Jun 2027 02:24:58.785            42.569              Murmansk2          1330.281
        94   02 Jun 2027 02:26:47.035   02 Jun 2027 02:27:03.850            16.815                 Moscow           525.469
        95   02 Jun 2027 02:29:50.814   02 Jun 2027 02:30:04.288            13.474                 Moscow           421.063
        96   02 Jun 2027 02:30:09.030   02 Jun 2027 02:31:05.507            56.477                 Moscow          1764.906
        97   02 Jun 2027 02:52:28.041   02 Jun 2027 02:52:55.966            27.925               CapeTown           872.656
        98   02 Jun 2027 02:55:45.300   02 Jun 2027 02:56:15.581            30.281               CapeTown           946.281
        99   02 Jun 2027 03:51:52.441   02 Jun 2027 03:53:05.088            72.647               Magadan2          2270.219
       100   02 Jun 2027 03:53:14.186   02 Jun 2027 03:53:50.552            36.366               Magadan2          1136.437
       101   02 Jun 2027 03:53:56.443   02 Jun 2027 03:54:38.837            42.394               Magadan1          1324.813
       102   02 Jun 2027 03:54:48.696   02 Jun 2027 03:55:31.776            43.080               Magadan1          1346.250
       103   02 Jun 2027 03:56:49.259   02 Jun 2027 03:57:26.286            37.027               Magadan2          1157.094
       104   02 Jun 2027 03:57:57.507   02 Jun 2027 03:58:08.497            10.990               Magadan2           343.438
       105   02 Jun 2027 04:35:59.916   02 Jun 2027 04:36:20.643            20.727            RioGallegos           647.719
       106   02 Jun 2027 04:36:35.577   02 Jun 2027 04:37:22.302            46.725            RioGallegos          1460.156
       107   02 Jun 2027 04:41:19.976   02 Jun 2027 04:43:01.323           101.347            RioGallegos          3167.094
       108   02 Jun 2027 04:44:26.137   02 Jun 2027 04:44:39.322            13.185            RioGallegos           412.031
       109   02 Jun 2027 05:27:57.824   02 Jun 2027 05:28:24.671            26.847                Irkutsk           838.969
       110   02 Jun 2027 05:28:52.372   02 Jun 2027 05:31:14.094           141.722                Irkutsk          4428.812
       111   02 Jun 2027 05:31:17.324   02 Jun 2027 05:32:15.567            58.243               Magadan2          1820.094
       112   02 Jun 2027 05:32:20.235   02 Jun 2027 05:32:42.685            22.450                Anadyr2           701.562
       113   02 Jun 2027 05:32:59.553   02 Jun 2027 05:33:29.711            30.158                Irkutsk           942.438
       114   02 Jun 2027 07:04:30.717   02 Jun 2027 07:05:30.477            59.760                Irkutsk          1867.500
       115   02 Jun 2027 07:06:29.218   02 Jun 2027 07:06:47.538            18.320                Irkutsk           572.500
       116   02 Jun 2027 07:06:49.487   02 Jun 2027 07:07:13.267            23.780                Novosib           743.125
       117   02 Jun 2027 07:07:46.540   02 Jun 2027 07:08:11.858            25.318                Novosib           791.187
       118   02 Jun 2027 07:08:34.988   02 Jun 2027 07:09:50.944            75.956                Irkutsk          2373.625
       119   02 Jun 2027 07:09:54.549   02 Jun 2027 07:11:12.714            78.165                Novosib          2442.656
       120   02 Jun 2027 08:29:16.029   02 Jun 2027 08:30:32.655            76.626                Sumatra          2394.563
       121   02 Jun 2027 08:43:07.043   02 Jun 2027 08:44:00.591            53.548                Irkutsk          1673.375
       122   02 Jun 2027 08:44:19.575   02 Jun 2027 08:45:10.172            50.597                Irkutsk          1581.156
       123   02 Jun 2027 08:45:39.632   02 Jun 2027 08:45:46.869             7.237                Novosib           226.156
       124   02 Jun 2027 08:46:01.313   02 Jun 2027 08:46:06.148             4.835                Novosib           151.094
       125   02 Jun 2027 08:46:58.585   02 Jun 2027 08:47:20.738            22.153              Murmansk2           692.281
       126   02 Jun 2027 08:51:38.821   02 Jun 2027 08:52:32.896            54.075              Murmansk1          1689.844
       127   02 Jun 2027 10:04:08.367   02 Jun 2027 10:06:20.852           132.485                  Delhi          4140.156
       128   02 Jun 2027 10:08:02.906   02 Jun 2027 10:09:02.429            59.523                  Delhi          1860.094
       129   02 Jun 2027 10:18:54.325   02 Jun 2027 10:19:16.521            22.196                Novosib           693.625
       130   02 Jun 2027 10:20:06.776   02 Jun 2027 10:20:26.839            20.063                Norilsk           626.969
       131   02 Jun 2027 10:20:34.716   02 Jun 2027 10:21:06.403            31.687                Novosib           990.219
       132   02 Jun 2027 11:56:04.270   02 Jun 2027 11:56:11.496             7.226              Murmansk2           225.813
       133   02 Jun 2027 11:56:17.783   02 Jun 2027 11:56:48.084            30.301              Murmansk2           946.906
       134   02 Jun 2027 12:02:15.732   02 Jun 2027 12:02:19.122             3.390              Murmansk2           105.937
       135   02 Jun 2027 12:03:29.120   02 Jun 2027 12:03:36.919             7.799              Murmansk1           243.719
       136   02 Jun 2027 12:03:41.730   02 Jun 2027 12:03:54.166            12.436              Murmansk1           388.625
       137   02 Jun 2027 13:26:19.568   02 Jun 2027 13:26:54.125            34.557                 Moscow          1079.906
       138   02 Jun 2027 13:27:14.683   02 Jun 2027 13:28:13.623            58.940                 Moscow          1841.875
       139   02 Jun 2027 13:29:03.435   02 Jun 2027 13:29:39.657            36.222              Murmansk1          1131.938
       140   02 Jun 2027 13:29:39.657   02 Jun 2027 13:31:02.306            82.649              Murmansk2          2582.781
       141   02 Jun 2027 13:32:40.784   02 Jun 2027 13:33:42.070            61.286              Murmansk2          1915.187
       142   02 Jun 2027 13:34:57.020   02 Jun 2027 13:35:39.574            42.554              Murmansk2          1329.812
       143   02 Jun 2027 13:36:05.319   02 Jun 2027 13:37:37.383            92.064              Murmansk1          2877.000
       144   02 Jun 2027 13:40:00.443   02 Jun 2027 13:40:17.531            17.088              Murmansk2           534.000
       145   02 Jun 2027 13:42:18.631   02 Jun 2027 13:44:21.593           122.962                Anadyr1          3842.563
       146   02 Jun 2027 13:45:30.292   02 Jun 2027 13:47:09.507            99.215                Anadyr2          3100.469
       147   02 Jun 2027 13:50:47.507   02 Jun 2027 13:51:12.780            25.273                Anadyr2           789.781
       148   02 Jun 2027 14:47:08.590   02 Jun 2027 14:47:16.803             8.213               CapeTown           256.656
       149   02 Jun 2027 15:09:08.681   02 Jun 2027 15:10:21.083            72.402              Murmansk1          2262.563
       150   02 Jun 2027 15:11:52.697   02 Jun 2027 15:11:58.738             6.041              Murmansk2           188.781
       151   02 Jun 2027 15:12:18.839   02 Jun 2027 15:12:28.278             9.439              Murmansk1           294.969
       152   02 Jun 2027 15:12:28.278   02 Jun 2027 15:12:52.252            23.974              Murmansk2           749.188
       153   02 Jun 2027 15:18:00.195   02 Jun 2027 15:19:24.835            84.640                Anadyr1          2645.000
       154   02 Jun 2027 15:19:56.065   02 Jun 2027 15:20:23.233            27.168                Anadyr2           849.000
       155   02 Jun 2027 15:20:58.287   02 Jun 2027 15:24:50.865           232.578               Magadan2          7268.063
       156   02 Jun 2027 15:26:21.421   02 Jun 2027 15:27:07.603            46.182               Magadan1          1443.187
       157   02 Jun 2027 15:29:03.170   02 Jun 2027 15:30:30.672            87.502               Magadan1          2734.437
       158   02 Jun 2027 16:53:55.510   02 Jun 2027 16:54:26.661            31.151                Anadyr1           973.469
       159   02 Jun 2027 16:56:13.706   02 Jun 2027 16:57:33.887            80.181               Magadan1          2505.656
       160   02 Jun 2027 16:59:16.346   02 Jun 2027 16:59:50.352            34.006               Magadan1          1062.688
       161   02 Jun 2027 16:59:50.352   02 Jun 2027 16:59:53.492             3.140               Magadan2            98.125
       162   02 Jun 2027 17:00:10.987   02 Jun 2027 17:00:29.206            18.219               Magadan2           569.344
       163   02 Jun 2027 17:03:48.984   02 Jun 2027 17:04:16.863            27.879               Magadan2           871.219
       164   02 Jun 2027 17:04:54.942   02 Jun 2027 17:06:09.360            74.418               Magadan2          2325.562
       165   02 Jun 2027 17:49:35.956   02 Jun 2027 17:52:43.698           187.742            RioGallegos          5866.937
       166   02 Jun 2027 17:55:59.107   02 Jun 2027 17:56:39.186            40.079            RioGallegos          1252.469
       167   02 Jun 2027 18:31:52.992   02 Jun 2027 18:33:18.757            85.765                Norilsk          2680.156
       168   02 Jun 2027 18:33:53.512   02 Jun 2027 18:35:23.720            90.208                Norilsk          2819.000
       169   02 Jun 2027 18:36:35.797   02 Jun 2027 18:37:38.853            63.056                Irkutsk          1970.500
       170   02 Jun 2027 18:39:15.269   02 Jun 2027 18:40:16.152            60.883                Irkutsk          1902.594
       171   02 Jun 2027 18:41:19.711   02 Jun 2027 18:42:53.804            94.093                Irkutsk          2940.406
       172   02 Jun 2027 18:51:09.384   02 Jun 2027 18:55:36.718           267.334                Sumatra          8354.187
       173   02 Jun 2027 18:56:37.562   02 Jun 2027 18:57:46.255            68.693                Sumatra          2146.656
       174   02 Jun 2027 20:13:17.603   02 Jun 2027 20:15:09.425           111.822                Novosib          3494.437
       175   02 Jun 2027 20:21:21.138   02 Jun 2027 20:23:52.516           151.378                  Delhi          4730.562
       176   02 Jun 2027 20:27:37.970   02 Jun 2027 20:28:51.253            73.283                  Delhi          2290.094
       177   02 Jun 2027 21:46:28.489   02 Jun 2027 21:52:35.496           367.007              Murmansk1         11468.969
       178   02 Jun 2027 23:20:41.184   02 Jun 2027 23:20:49.437             8.253               Magadan2           257.906
       179   02 Jun 2027 23:21:50.644   02 Jun 2027 23:23:43.160           112.516              Murmansk1          3516.125
       180   02 Jun 2027 23:23:43.160   02 Jun 2027 23:25:17.614            94.454              Murmansk2          2951.688
       181   02 Jun 2027 23:25:31.360   02 Jun 2027 23:27:21.024           109.664                 Moscow          3427.000
       182   02 Jun 2027 23:30:27.155   02 Jun 2027 23:30:46.960            19.805                 Moscow           618.906
       183   02 Jun 2027 23:34:28.395   02 Jun 2027 23:35:00.542            32.147                 Moscow          1004.594
       184   02 Jun 2027 23:51:08.158   02 Jun 2027 23:52:44.883            96.725               CapeTown          3022.656
       185   02 Jun 2027 23:55:41.362   02 Jun 2027 23:57:12.427            91.065               CapeTown          2845.781
       186   03 Jun 2027 00:57:46.590   03 Jun 2027 00:57:51.200             4.610              Murmansk2           144.063
       187   03 Jun 2027 00:57:51.200   03 Jun 2027 00:59:12.966            81.766              Murmansk1          2555.187
       188   03 Jun 2027 01:00:56.804   03 Jun 2027 01:01:33.125            36.321                Novosib          1135.031
       189   03 Jun 2027 01:02:40.055   03 Jun 2027 01:04:17.986            97.931                 Moscow          3060.344
       190   03 Jun 2027 01:24:54.398   03 Jun 2027 01:25:53.049            58.651               CapeTown          1832.844
       191   03 Jun 2027 01:36:31.739   03 Jun 2027 01:37:36.049            64.310               CapeTown          2009.687
       192   03 Jun 2027 02:21:41.577   03 Jun 2027 02:22:16.641            35.064                Anadyr2          1095.750
       193   03 Jun 2027 02:22:25.466   03 Jun 2027 02:22:40.488            15.022               Magadan1           469.438
       194   03 Jun 2027 02:22:40.488   03 Jun 2027 02:22:49.344             8.856               Magadan2           276.750
       195   03 Jun 2027 02:23:02.902   03 Jun 2027 02:23:44.635            41.733               Magadan2          1304.156
       196   03 Jun 2027 02:24:32.355   03 Jun 2027 02:24:59.290            26.935               Magadan1           841.719
       197   03 Jun 2027 02:28:13.280   03 Jun 2027 02:28:16.303             3.023               Magadan2            94.469
       198   03 Jun 2027 02:30:45.491   03 Jun 2027 02:31:10.977            25.486               Magadan1           796.438
       199   03 Jun 2027 02:33:42.693   03 Jun 2027 02:34:54.802            72.109              Murmansk2          2253.406
       200   03 Jun 2027 02:35:44.531   03 Jun 2027 02:36:08.273            23.742              Murmansk2           741.937
       201   03 Jun 2027 02:36:08.273   03 Jun 2027 02:36:09.379             1.106              Murmansk1            34.563
       202   03 Jun 2027 02:37:10.724   03 Jun 2027 02:38:16.808            66.084                 Moscow          2065.125
       203   03 Jun 2027 02:44:11.250   03 Jun 2027 02:44:26.519            15.269                 Moscow           477.156
       204   03 Jun 2027 02:44:48.108   03 Jun 2027 02:45:54.571            66.463                 Moscow          2076.969
       205   03 Jun 2027 04:03:54.064   03 Jun 2027 04:04:39.899            45.835                Anadyr1          1432.344
       206   03 Jun 2027 04:04:59.835   03 Jun 2027 04:06:51.582           111.747               Magadan2          3492.094
       207   03 Jun 2027 04:06:51.582   03 Jun 2027 04:06:57.678             6.096               Magadan1           190.500
       208   03 Jun 2027 04:07:20.053   03 Jun 2027 04:07:43.254            23.201               Magadan2           725.031
       209   03 Jun 2027 04:07:48.141   03 Jun 2027 04:07:57.694             9.553                Anadyr2           298.531
       210   03 Jun 2027 04:08:21.971   03 Jun 2027 04:08:30.598             8.627                Anadyr1           269.594
       211   03 Jun 2027 04:09:26.290   03 Jun 2027 04:10:02.069            35.779               Magadan2          1118.094
       212   03 Jun 2027 04:47:24.818   03 Jun 2027 04:50:14.157           169.339            RioGallegos          5291.844
       213   03 Jun 2027 04:51:32.093   03 Jun 2027 04:51:51.332            19.239            RioGallegos           601.219
       214   03 Jun 2027 04:52:00.623   03 Jun 2027 04:52:53.413            52.790            RioGallegos          1649.687
       215   03 Jun 2027 05:40:30.002   03 Jun 2027 05:41:04.177            34.175                Irkutsk          1067.969
       216   03 Jun 2027 05:41:08.400   03 Jun 2027 05:44:26.267           197.867                Irkutsk          6183.344
       217   03 Jun 2027 05:44:43.323   03 Jun 2027 05:44:52.882             9.559               Magadan1           298.719
       218   03 Jun 2027 05:45:02.357   03 Jun 2027 05:45:37.198            34.841                Irkutsk          1088.781
       219   03 Jun 2027 07:17:39.611   03 Jun 2027 07:17:46.521             6.910                Irkutsk           215.938
       220   03 Jun 2027 07:18:34.895   03 Jun 2027 07:18:52.602            17.707                Irkutsk           553.344
       221   03 Jun 2027 07:18:54.989   03 Jun 2027 07:19:05.612            10.623              Murmansk2           331.969
       222   03 Jun 2027 07:20:35.969   03 Jun 2027 07:20:42.508             6.539                Irkutsk           204.344
       223   03 Jun 2027 07:21:01.474   03 Jun 2027 07:21:51.863            50.389                Irkutsk          1574.656
       224   03 Jun 2027 08:31:45.066   03 Jun 2027 08:32:55.751            70.685                Sumatra          2208.906
       225   03 Jun 2027 08:35:40.809   03 Jun 2027 08:36:46.190            65.381                Sumatra          2043.156
       226   03 Jun 2027 08:54:04.273   03 Jun 2027 08:54:53.120            48.847              Murmansk2          1526.469
       227   03 Jun 2027 08:56:56.716   03 Jun 2027 08:56:58.238             1.522                Irkutsk            47.563
       228   03 Jun 2027 08:57:59.697   03 Jun 2027 08:58:08.179             8.482                Novosib           265.062
       229   03 Jun 2027 10:16:35.036   03 Jun 2027 10:19:42.391           187.355                  Delhi          5854.844
       230   03 Jun 2027 10:34:00.345   03 Jun 2027 10:34:12.587            12.242                Novosib           382.563
       231   03 Jun 2027 12:05:22.192   03 Jun 2027 12:05:52.735            30.543              Murmansk2           954.469
       232   03 Jun 2027 12:05:54.832   03 Jun 2027 12:05:58.262             3.430              Murmansk1           107.187
       233   03 Jun 2027 12:06:17.679   03 Jun 2027 12:06:46.852            29.173              Murmansk2           911.656
       234   03 Jun 2027 12:08:05.493   03 Jun 2027 12:08:24.100            18.607              Murmansk2           581.469
       235   03 Jun 2027 12:09:58.008   03 Jun 2027 12:12:00.505           122.497                Norilsk          3828.031
       236   03 Jun 2027 12:20:01.609   03 Jun 2027 12:23:10.062           188.453                Anadyr1          5889.156
       237   03 Jun 2027 13:45:36.842   03 Jun 2027 13:46:06.730            29.888              Murmansk1           934.000
       238   03 Jun 2027 13:49:39.155   03 Jun 2027 13:49:48.364             9.209              Murmansk2           287.781
       239   03 Jun 2027 13:50:16.297   03 Jun 2027 13:51:07.808            51.511              Murmansk2          1609.719
       240   03 Jun 2027 13:54:16.140   03 Jun 2027 13:56:08.773           112.633                Anadyr1          3519.781
       241   03 Jun 2027 13:57:31.437   03 Jun 2027 13:58:26.638            55.201                Anadyr2          1725.031
       242   03 Jun 2027 13:59:46.190   03 Jun 2027 13:59:50.174             3.984                Anadyr1           124.500
       243   03 Jun 2027 14:00:28.912   03 Jun 2027 14:01:02.355            33.443                Anadyr2          1045.094
       244   03 Jun 2027 14:02:48.236   03 Jun 2027 14:03:49.287            61.051                Anadyr2          1907.844
       245   03 Jun 2027 15:21:58.880   03 Jun 2027 15:23:38.973           100.093              Murmansk2          3127.906
       246   03 Jun 2027 15:27:26.929   03 Jun 2027 15:27:34.075             7.146              Murmansk1           223.313
       247   03 Jun 2027 15:30:01.253   03 Jun 2027 15:31:24.453            83.200                Anadyr1          2600.000
       248   03 Jun 2027 15:32:19.809   03 Jun 2027 15:32:56.548            36.739                Anadyr1          1148.094
       249   03 Jun 2027 15:32:57.889   03 Jun 2027 15:35:51.949           174.060               Magadan1          5439.375
       250   03 Jun 2027 15:35:55.610   03 Jun 2027 15:36:59.197            63.587               Magadan2          1987.094
       251   03 Jun 2027 15:40:22.430   03 Jun 2027 15:41:02.431            40.001               Magadan1          1250.031
       252   03 Jun 2027 15:42:18.088   03 Jun 2027 15:43:04.659            46.571               Magadan2          1455.344
       253   03 Jun 2027 17:05:56.584   03 Jun 2027 17:06:33.446            36.862                Anadyr2          1151.937
       254   03 Jun 2027 17:08:13.867   03 Jun 2027 17:08:58.396            44.529               Magadan2          1391.531
       255   03 Jun 2027 17:10:26.259   03 Jun 2027 17:11:26.121            59.862               Magadan1          1870.687
       256   03 Jun 2027 17:11:40.712   03 Jun 2027 17:11:52.902            12.190               Magadan2           380.938
       257   03 Jun 2027 17:11:52.902   03 Jun 2027 17:11:55.998             3.096               Magadan1            96.750
       258   03 Jun 2027 17:14:41.055   03 Jun 2027 17:15:24.868            43.813               Magadan2          1369.156
       259   03 Jun 2027 17:19:54.942   03 Jun 2027 17:20:59.481            64.539               Magadan1          2016.844
       260   03 Jun 2027 18:01:07.069   03 Jun 2027 18:04:32.741           205.672            RioGallegos          6427.250
       261   03 Jun 2027 18:05:39.684   03 Jun 2027 18:06:37.146            57.462            RioGallegos          1795.688
       262   03 Jun 2027 18:43:51.300   03 Jun 2027 18:48:04.437           253.137                Norilsk          7910.531
       263   03 Jun 2027 18:48:46.191   03 Jun 2027 18:49:17.915            31.724                Irkutsk           991.375
       264   03 Jun 2027 18:49:51.127   03 Jun 2027 18:51:16.587            85.460                Irkutsk          2670.625
       265   03 Jun 2027 18:54:51.694   03 Jun 2027 18:55:57.019            65.325                Irkutsk          2041.406
       266   03 Jun 2027 19:02:34.058   03 Jun 2027 19:03:33.716            59.658                Sumatra          1864.313
       267   03 Jun 2027 19:05:52.001   03 Jun 2027 19:07:04.953            72.952                Sumatra          2279.750
       268   03 Jun 2027 19:08:06.065   03 Jun 2027 19:09:36.205            90.140                Sumatra          2816.875
       269   03 Jun 2027 20:23:59.083   03 Jun 2027 20:25:08.829            69.746                Novosib          2179.563
       270   03 Jun 2027 20:32:35.552   03 Jun 2027 20:35:36.719           181.167                  Delhi          5661.469
       271   03 Jun 2027 20:37:29.668   03 Jun 2027 20:39:35.695           126.027                  Delhi          3938.344
       272   03 Jun 2027 21:58:19.827   03 Jun 2027 22:02:20.951           241.124              Murmansk1          7535.125
       273   03 Jun 2027 22:03:27.307   03 Jun 2027 22:04:34.458            67.151              Murmansk2          2098.469
       274   03 Jun 2027 23:30:19.689   03 Jun 2027 23:30:31.110            11.421               Magadan2           356.906
       275   03 Jun 2027 23:30:34.825   03 Jun 2027 23:31:24.772            49.947               Magadan1          1560.844
       276   03 Jun 2027 23:32:55.641   03 Jun 2027 23:33:03.558             7.917               Magadan2           247.406
       277   03 Jun 2027 23:33:51.322   03 Jun 2027 23:37:18.333           207.011              Murmansk2          6469.094
       278   03 Jun 2027 23:37:24.852   03 Jun 2027 23:39:27.702           122.850                 Moscow          3839.063
       279   03 Jun 2027 23:45:29.361   03 Jun 2027 23:45:46.969            17.608                 Moscow           550.250
       280   04 Jun 2027 00:02:32.136   04 Jun 2027 00:05:36.641           184.505               CapeTown          5765.781
       281   04 Jun 2027 00:08:19.301   04 Jun 2027 00:09:29.689            70.388               CapeTown          2199.625
       282   04 Jun 2027 01:09:48.260   04 Jun 2027 01:11:04.431            76.171              Murmansk1          2380.344
       283   04 Jun 2027 01:13:20.441   04 Jun 2027 01:14:24.572            64.131                 Moscow          2004.094
       284   04 Jun 2027 01:22:39.132   04 Jun 2027 01:23:44.854            65.722                 Moscow          2053.813
       285   04 Jun 2027 01:41:16.110   04 Jun 2027 01:41:24.496             8.386               CapeTown           262.062
       286   04 Jun 2027 01:46:00.835   04 Jun 2027 01:46:15.752            14.917               CapeTown           466.156
       287   04 Jun 2027 01:46:31.152   04 Jun 2027 01:46:48.641            17.489               CapeTown           546.531
       288   04 Jun 2027 02:33:48.756   04 Jun 2027 02:33:51.105             2.349                Anadyr1            73.406
       289   04 Jun 2027 02:33:58.136   04 Jun 2027 02:34:43.055            44.919                Anadyr2          1403.719
       290   04 Jun 2027 02:34:57.641   04 Jun 2027 02:35:34.119            36.478                Anadyr2          1139.938
       291   04 Jun 2027 02:35:46.328   04 Jun 2027 02:37:47.640           121.312               Magadan2          3791.000
       292   04 Jun 2027 02:42:35.146   04 Jun 2027 02:43:04.675            29.529                Norilsk           922.781
       293   04 Jun 2027 02:45:43.306   04 Jun 2027 02:46:19.647            36.341              Murmansk1          1135.656
       294   04 Jun 2027 02:46:19.647   04 Jun 2027 02:47:04.488            44.841              Murmansk2          1401.281
       295   04 Jun 2027 02:48:34.876   04 Jun 2027 02:48:44.964            10.088              Murmansk2           315.250
       296   04 Jun 2027 02:48:58.943   04 Jun 2027 02:49:09.930            10.987              Murmansk1           343.344
       297   04 Jun 2027 02:49:16.300   04 Jun 2027 02:49:32.740            16.440                 Moscow           513.750
       298   04 Jun 2027 02:52:14.677   04 Jun 2027 02:53:11.259            56.582                 Moscow          1768.187
       299   04 Jun 2027 04:15:53.113   04 Jun 2027 04:16:23.142            30.029                Irkutsk           938.406
       300   04 Jun 2027 04:17:07.120   04 Jun 2027 04:18:27.158            80.038               Magadan2          2501.188
       301   04 Jun 2027 04:18:57.014   04 Jun 2027 04:20:08.058            71.044               Magadan1          2220.125
       302   04 Jun 2027 04:20:08.058   04 Jun 2027 04:22:10.218           122.160               Magadan2          3817.500
       303   04 Jun 2027 04:58:53.891   04 Jun 2027 05:01:54.365           180.474            RioGallegos          5639.812
       304   04 Jun 2027 05:53:14.194   04 Jun 2027 05:53:41.228            27.034                Irkutsk           844.813
       305   04 Jun 2027 05:53:46.837   04 Jun 2027 05:54:01.285            14.448                Irkutsk           451.500
       306   04 Jun 2027 05:54:15.826   04 Jun 2027 05:57:04.388           168.562                Irkutsk          5267.562
       307   04 Jun 2027 07:30:11.368   04 Jun 2027 07:30:40.303            28.935                Irkutsk           904.219
       308   04 Jun 2027 07:30:42.429   04 Jun 2027 07:31:07.651            25.222              Murmansk2           788.187
       309   04 Jun 2027 07:32:57.038   04 Jun 2027 07:33:04.032             6.994                Norilsk           218.562
       310   04 Jun 2027 07:33:22.000   04 Jun 2027 07:33:51.874            29.874                Irkutsk           933.562
       311   04 Jun 2027 08:09:55.185   04 Jun 2027 08:10:47.405            52.220            RioGallegos          1631.875
       312   04 Jun 2027 08:44:07.462   04 Jun 2027 08:44:47.469            40.007                Sumatra          1250.219
       313   04 Jun 2027 08:45:45.811   04 Jun 2027 08:47:16.672            90.861                Sumatra          2839.406
       314   04 Jun 2027 09:05:51.712   04 Jun 2027 09:06:14.165            22.453                Novosib           701.656
       315   04 Jun 2027 09:08:37.748   04 Jun 2027 09:08:57.346            19.598                Novosib           612.437
       316   04 Jun 2027 09:09:51.122   04 Jun 2027 09:10:14.359            23.237                Novosib           726.156
       317   04 Jun 2027 10:29:11.179   04 Jun 2027 10:31:18.787           127.608                  Delhi          3987.750
       318   04 Jun 2027 10:37:49.953   04 Jun 2027 10:38:35.684            45.731                  Delhi          1429.094
       319   04 Jun 2027 10:42:32.120   04 Jun 2027 10:42:51.820            19.700              Murmansk2           615.625
       320   04 Jun 2027 10:46:34.853   04 Jun 2027 10:46:35.933             1.080                Norilsk            33.750
       321   04 Jun 2027 12:17:20.103   04 Jun 2027 12:18:34.314            74.211              Murmansk2          2319.094
       322   04 Jun 2027 12:18:40.847   04 Jun 2027 12:19:04.056            23.209              Murmansk1           725.281
       323   04 Jun 2027 12:20:06.864   04 Jun 2027 12:20:38.632            31.768              Murmansk1           992.750
       324   04 Jun 2027 12:23:21.807   04 Jun 2027 12:25:06.928           105.121                Norilsk          3285.031
       325   04 Jun 2027 12:31:29.681   04 Jun 2027 12:35:01.176           211.495                Anadyr2          6609.219
       326   04 Jun 2027 13:35:09.176   04 Jun 2027 13:35:48.061            38.885               CapeTown          1215.156
       327   04 Jun 2027 13:53:51.394   04 Jun 2027 13:54:25.088            33.694              Murmansk2          1052.937
       328   04 Jun 2027 13:55:57.228   04 Jun 2027 13:56:05.033             7.805              Murmansk2           243.906
       329   04 Jun 2027 13:56:05.033   04 Jun 2027 13:56:21.007            15.974              Murmansk1           499.187
       330   04 Jun 2027 13:57:16.967   04 Jun 2027 13:57:45.564            28.597              Murmansk1           893.656
       331   04 Jun 2027 13:58:06.785   04 Jun 2027 13:58:40.279            33.494              Murmansk1          1046.688
       332   04 Jun 2027 14:01:49.097   04 Jun 2027 14:02:23.023            33.926              Murmansk1          1060.187
       333   04 Jun 2027 14:03:01.691   04 Jun 2027 14:03:30.171            28.480              Murmansk2           890.000
       334   04 Jun 2027 14:06:14.485   04 Jun 2027 14:08:03.470           108.985                Anadyr2          3405.781
       335   04 Jun 2027 14:08:18.933   04 Jun 2027 14:09:32.435            73.502                Anadyr2          2296.938
       336   04 Jun 2027 15:34:57.622   04 Jun 2027 15:37:34.290           156.668              Murmansk1          4895.875
       337   04 Jun 2027 15:42:02.441   04 Jun 2027 15:42:34.876            32.435                Anadyr1          1013.594
       338   04 Jun 2027 15:42:34.876   04 Jun 2027 15:44:14.682            99.806                Anadyr2          3118.937
       339   04 Jun 2027 15:44:42.741   04 Jun 2027 15:48:44.824           242.083               Magadan1          7565.094
       340   04 Jun 2027 15:53:35.530   04 Jun 2027 15:53:58.455            22.925               Magadan1           716.406
       341   04 Jun 2027 17:17:57.493   04 Jun 2027 17:18:15.523            18.030                Anadyr1           563.438
       342   04 Jun 2027 17:18:26.914   04 Jun 2027 17:18:38.157            11.243                Anadyr2           351.344
       343   04 Jun 2027 17:20:00.141   04 Jun 2027 17:20:07.031             6.890                Anadyr2           215.312
       344   04 Jun 2027 17:20:07.031   04 Jun 2027 17:20:12.988             5.957                Anadyr1           186.156
       345   04 Jun 2027 17:20:14.483   04 Jun 2027 17:21:42.916            88.433               Magadan1          2763.531
       346   04 Jun 2027 17:21:52.381   04 Jun 2027 17:22:18.709            26.328               Magadan2           822.750
       347   04 Jun 2027 17:23:31.934   04 Jun 2027 17:23:46.256            14.322               Magadan1           447.562
       348   04 Jun 2027 17:28:20.607   04 Jun 2027 17:28:42.088            21.481               Magadan1           671.281
       349   04 Jun 2027 17:28:48.099   04 Jun 2027 17:28:58.241            10.142               Magadan1           316.938
       350   04 Jun 2027 17:29:27.840   04 Jun 2027 17:29:57.719            29.879               Magadan1           933.719
       351   04 Jun 2027 18:12:46.660   04 Jun 2027 18:16:24.515           217.855            RioGallegos          6807.969
       352   04 Jun 2027 18:17:21.965   04 Jun 2027 18:19:09.183           107.218            RioGallegos          3350.562
       353   04 Jun 2027 18:55:50.490   04 Jun 2027 18:56:45.367            54.877                Norilsk          1714.906
       354   04 Jun 2027 18:57:39.032   04 Jun 2027 18:59:18.597            99.565                Norilsk          3111.406
       355   04 Jun 2027 19:00:11.264   04 Jun 2027 19:01:06.700            55.436                Irkutsk          1732.375
       356   04 Jun 2027 19:01:59.773   04 Jun 2027 19:03:18.712            78.939                Irkutsk          2466.844
       357   04 Jun 2027 19:10:30.081   04 Jun 2027 19:11:17.821            47.740                Irkutsk          1491.875
       358   04 Jun 2027 19:14:08.528   04 Jun 2027 19:15:32.075            83.547                Sumatra          2610.844
       359   04 Jun 2027 19:16:02.270   04 Jun 2027 19:17:47.224           104.954                Sumatra          3279.813
       360   04 Jun 2027 19:22:32.009   04 Jun 2027 19:23:28.259            56.250                Sumatra          1757.812
       361   04 Jun 2027 20:35:52.957   04 Jun 2027 20:36:49.100            56.143                Novosib          1754.469
       362   04 Jun 2027 20:42:23.489   04 Jun 2027 20:42:51.344            27.855                Novosib           870.469
       363   04 Jun 2027 20:43:59.448   04 Jun 2027 20:44:34.582            35.134                Novosib          1097.937
       364   04 Jun 2027 20:45:13.605   04 Jun 2027 20:47:25.781           132.176                  Delhi          4130.500
       365   04 Jun 2027 20:49:15.839   04 Jun 2027 20:50:05.766            49.927                  Delhi          1560.219
       366   04 Jun 2027 22:10:14.009   04 Jun 2027 22:15:57.468           343.459              Murmansk1         10733.094
       367   04 Jun 2027 22:16:06.984   04 Jun 2027 22:19:48.373           221.389                 Moscow          6918.406
       368   04 Jun 2027 23:45:52.299   04 Jun 2027 23:47:01.869            69.570              Murmansk2          2174.063
       369   04 Jun 2027 23:49:20.044   04 Jun 2027 23:50:06.671            46.627                 Moscow          1457.094
       370   04 Jun 2027 23:51:29.979   04 Jun 2027 23:52:46.464            76.485                 Moscow          2390.156
       371   04 Jun 2027 23:56:30.622   04 Jun 2027 23:56:30.925             0.303                 Moscow             9.469
       372   04 Jun 2027 23:57:33.719   04 Jun 2027 23:57:58.439            24.720                 Moscow           772.500
       373   05 Jun 2027 00:14:03.552   05 Jun 2027 00:17:20.527           196.975               CapeTown          6155.469
       374   05 Jun 2027 01:17:43.404   05 Jun 2027 01:17:53.875            10.471               Magadan2           327.219
       375   05 Jun 2027 01:20:27.320   05 Jun 2027 01:20:55.193            27.873               Magadan2           871.031
       376   05 Jun 2027 01:21:49.902   05 Jun 2027 01:24:11.080           141.178              Murmansk2          4411.812
       377   05 Jun 2027 01:28:14.483   05 Jun 2027 01:29:01.630            47.147                 Moscow          1473.344
       378   05 Jun 2027 01:34:01.439   05 Jun 2027 01:34:18.781            17.342                 Moscow           541.938
       379   05 Jun 2027 01:49:17.480   05 Jun 2027 01:50:24.911            67.431               CapeTown          2107.219
       380   05 Jun 2027 01:57:31.752   05 Jun 2027 01:58:45.392            73.640               CapeTown          2301.250
       381   05 Jun 2027 02:45:58.105   05 Jun 2027 02:46:34.846            36.741                Anadyr1          1148.156
       382   05 Jun 2027 02:46:34.846   05 Jun 2027 02:46:45.690            10.844                Anadyr2           338.875
       383   05 Jun 2027 02:46:59.881   05 Jun 2027 02:47:26.675            26.794               Magadan2           837.313
       384   05 Jun 2027 02:47:34.737   05 Jun 2027 02:48:37.474            62.737               Magadan1          1960.531
       385   05 Jun 2027 02:51:26.572   05 Jun 2027 02:51:40.098            13.526               Magadan2           422.687
       386   05 Jun 2027 02:53:48.882   05 Jun 2027 02:54:05.433            16.551                Norilsk           517.219
       387   05 Jun 2027 02:54:39.122   05 Jun 2027 02:55:06.355            27.233                Norilsk           851.031
       388   05 Jun 2027 02:57:43.651   05 Jun 2027 02:58:55.786            72.135              Murmansk1          2254.219
       389   05 Jun 2027 04:29:44.094   05 Jun 2027 04:31:24.578           100.484               Magadan2          3140.125
       390   05 Jun 2027 04:31:28.411   05 Jun 2027 04:33:41.165           132.754                Anadyr2          4148.562
       391   05 Jun 2027 05:10:26.757   05 Jun 2027 05:13:37.844           191.087            RioGallegos          5971.469
       392   05 Jun 2027 06:05:22.810   05 Jun 2027 06:06:40.493            77.683                Irkutsk          2427.594
       393   05 Jun 2027 06:07:22.836   05 Jun 2027 06:08:38.979            76.143               Magadan2          2379.469
       394   05 Jun 2027 06:08:38.979   05 Jun 2027 06:08:58.164            19.185               Magadan1           599.531
       395   05 Jun 2027 06:09:05.614   05 Jun 2027 06:09:49.307            43.693                Irkutsk          1365.406
       396   05 Jun 2027 06:10:13.027   05 Jun 2027 06:10:29.488            16.461                Novosib           514.406
       397   05 Jun 2027 07:40:23.019   05 Jun 2027 07:40:34.920            11.901                Irkutsk           371.906
       398   05 Jun 2027 07:40:38.039   05 Jun 2027 07:41:02.856            24.817                Irkutsk           775.531
       399   05 Jun 2027 07:41:22.412   05 Jun 2027 07:42:00.845            38.433                Novosib          1201.031
       400   05 Jun 2027 07:42:29.647   05 Jun 2027 07:42:49.288            19.641              Murmansk1           613.781
       401   05 Jun 2027 07:43:09.561   05 Jun 2027 07:43:50.858            41.297              Murmansk2          1290.531
       402   05 Jun 2027 07:43:57.465   05 Jun 2027 07:44:08.919            11.454              Murmansk2           357.937
       403   05 Jun 2027 07:44:58.813   05 Jun 2027 07:45:05.860             7.047                Norilsk           220.219
       404   05 Jun 2027 07:45:46.653   05 Jun 2027 07:45:50.896             4.243                Irkutsk           132.594
       405   05 Jun 2027 08:22:27.506   05 Jun 2027 08:23:07.679            40.173            RioGallegos          1255.406
       406   05 Jun 2027 08:23:31.013   05 Jun 2027 08:23:36.684             5.671            RioGallegos           177.219
       407   05 Jun 2027 08:24:33.805   05 Jun 2027 08:25:03.677            29.872            RioGallegos           933.500
       408   05 Jun 2027 08:56:39.413   05 Jun 2027 08:57:17.428            38.015                Sumatra          1187.969
       409   05 Jun 2027 08:58:10.906   05 Jun 2027 08:59:32.182            81.276                Sumatra          2539.875
       410   05 Jun 2027 09:17:47.079   05 Jun 2027 09:17:47.352             0.273                Novosib             8.531
       411   05 Jun 2027 09:18:21.409   05 Jun 2027 09:19:11.766            50.357                Novosib          1573.656
       412   05 Jun 2027 09:19:28.028   05 Jun 2027 09:19:58.126            30.098                Novosib           940.562
       413   05 Jun 2027 09:21:34.596   05 Jun 2027 09:21:42.951             8.355                Norilsk           261.094
       414   05 Jun 2027 10:42:00.534   05 Jun 2027 10:45:39.260           218.726                  Delhi          6835.188
       415   05 Jun 2027 10:54:36.191   05 Jun 2027 10:54:52.812            16.621              Murmansk1           519.406
       416   05 Jun 2027 10:58:55.212   05 Jun 2027 10:59:11.396            16.184                Norilsk           505.750
       417   05 Jun 2027 12:25:36.083   05 Jun 2027 12:25:57.648            21.565                 Moscow           673.906
       418   05 Jun 2027 12:26:16.179   05 Jun 2027 12:27:12.738            56.559                 Moscow          1767.469
       419   05 Jun 2027 12:27:56.525   05 Jun 2027 12:28:47.597            51.072              Murmansk1          1596.000
       420   05 Jun 2027 12:29:26.193   05 Jun 2027 12:29:31.787             5.594                 Moscow           174.813
       421   05 Jun 2027 12:29:43.536   05 Jun 2027 12:30:02.350            18.814              Murmansk1           587.937
       422   05 Jun 2027 12:30:02.350   05 Jun 2027 12:30:36.880            34.530              Murmansk2          1079.062
       423   05 Jun 2027 12:30:59.124   05 Jun 2027 12:31:13.967            14.843              Murmansk1           463.844
       424   05 Jun 2027 12:32:08.367   05 Jun 2027 12:33:21.465            73.098              Murmansk2          2284.313
       425   05 Jun 2027 12:36:57.377   05 Jun 2027 12:37:44.548            47.171              Murmansk2          1474.094
       426   05 Jun 2027 12:43:10.593   05 Jun 2027 12:46:54.702           224.109                Anadyr1          7003.406
       427   05 Jun 2027 12:48:13.074   05 Jun 2027 12:50:00.948           107.874                Anadyr2          3371.062
       428   05 Jun 2027 14:06:19.081   05 Jun 2027 14:06:25.904             6.823              Murmansk2           213.219
       429   05 Jun 2027 14:13:50.084   05 Jun 2027 14:14:19.632            29.548              Murmansk2           923.375
       430   05 Jun 2027 14:15:31.958   05 Jun 2027 14:15:51.221            19.263              Murmansk2           601.969
       431   05 Jun 2027 14:18:13.499   05 Jun 2027 14:21:33.235           199.736                Anadyr1          6241.750
       432   05 Jun 2027 14:27:35.148   05 Jun 2027 14:27:47.634            12.486                Anadyr1           390.188
       433   05 Jun 2027 15:48:15.053   05 Jun 2027 15:49:43.128            88.075              Murmansk1          2752.344
       434   05 Jun 2027 15:54:03.729   05 Jun 2027 15:56:12.335           128.606                Anadyr2          4018.938
       435   05 Jun 2027 15:56:37.747   05 Jun 2027 15:58:52.004           134.257               Magadan2          4195.531
       436   05 Jun 2027 15:59:12.292   05 Jun 2027 16:00:43.190            90.898               Magadan1          2840.563
       437   05 Jun 2027 16:02:04.072   05 Jun 2027 16:02:24.960            20.888               Magadan1           652.750
       438   05 Jun 2027 16:03:16.990   05 Jun 2027 16:04:38.677            81.687               Magadan2          2552.719
       439   05 Jun 2027 17:29:58.191   05 Jun 2027 17:30:06.628             8.437                Anadyr1           263.656
       440   05 Jun 2027 17:30:40.870   05 Jun 2027 17:31:14.328            33.458                Anadyr2          1045.563
       441   05 Jun 2027 17:32:15.483   05 Jun 2027 17:32:20.513             5.030               Magadan2           157.188
       442   05 Jun 2027 17:32:51.837   05 Jun 2027 17:33:21.117            29.280                Norilsk           915.000
       443   05 Jun 2027 17:34:08.985   05 Jun 2027 17:35:15.446            66.461               Magadan2          2076.906
       444   05 Jun 2027 17:35:35.184   05 Jun 2027 17:35:57.479            22.295               Magadan2           696.719
       445   05 Jun 2027 17:41:06.822   05 Jun 2027 17:41:22.203            15.381               Magadan1           480.656
       446   05 Jun 2027 18:24:31.592   05 Jun 2027 18:27:24.023           172.431            RioGallegos          5388.469
       447   05 Jun 2027 18:27:34.994   05 Jun 2027 18:28:18.432            43.438            RioGallegos          1357.437
       448   05 Jun 2027 18:28:34.485   05 Jun 2027 18:30:38.410           123.925            RioGallegos          3872.656
       449   05 Jun 2027 19:07:50.360   05 Jun 2027 19:09:04.260            73.900                Norilsk          2309.375
       450   05 Jun 2027 19:10:05.809   05 Jun 2027 19:11:20.071            74.262                Norilsk          2320.687
       451   05 Jun 2027 19:12:03.338   05 Jun 2027 19:14:04.999           121.661                Irkutsk          3801.906
       452   05 Jun 2027 19:14:21.396   05 Jun 2027 19:18:39.761           258.365                Novosib          8073.906
       453   05 Jun 2027 19:29:48.035   05 Jun 2027 19:30:38.060            50.025                Sumatra          1563.281
       454   05 Jun 2027 20:47:48.452   05 Jun 2027 20:48:43.308            54.856                Novosib          1714.250
       455   05 Jun 2027 20:50:03.468   05 Jun 2027 20:51:26.030            82.562                Novosib          2580.063
       456   05 Jun 2027 20:55:41.170   05 Jun 2027 20:59:02.474           201.304                  Delhi          6290.750
       457   05 Jun 2027 21:00:46.644   05 Jun 2027 21:00:56.138             9.494                  Delhi           296.688
       458   05 Jun 2027 22:22:10.098   05 Jun 2027 22:26:18.798           248.700              Murmansk1          7771.875
       459   05 Jun 2027 22:27:13.098   05 Jun 2027 22:33:16.538           363.440                 Moscow         11357.500
       460   05 Jun 2027 23:59:02.731   05 Jun 2027 23:59:16.602            13.871              Murmansk2           433.469
       461   06 Jun 2027 00:01:16.607   06 Jun 2027 00:02:53.967            97.360                 Moscow          3042.500
       462   06 Jun 2027 00:03:49.031   06 Jun 2027 00:04:49.571            60.540                 Moscow          1891.875
       463   06 Jun 2027 00:25:41.299   06 Jun 2027 00:26:53.864            72.565               CapeTown          2267.656
       464   06 Jun 2027 00:27:53.764   06 Jun 2027 00:29:20.126            86.362               CapeTown          2698.812
       465   06 Jun 2027 00:37:12.706   06 Jun 2027 00:37:37.248            24.542               CapeTown           766.938
       466   06 Jun 2027 01:28:55.654   06 Jun 2027 01:29:27.553            31.899               Magadan2           996.844
       467   06 Jun 2027 01:32:53.013   06 Jun 2027 01:33:03.354            10.341               Magadan2           323.156
       468   06 Jun 2027 01:33:51.475   06 Jun 2027 01:36:07.233           135.758              Murmansk1          4242.437
       469   06 Jun 2027 01:37:10.268   06 Jun 2027 01:37:21.224            10.956                 Moscow           342.375
       470   06 Jun 2027 01:41:18.558   06 Jun 2027 01:41:29.988            11.430                 Moscow           357.188
       471   06 Jun 2027 01:42:05.871   06 Jun 2027 01:42:19.580            13.709                 Moscow           428.406
       472   06 Jun 2027 01:43:46.592   06 Jun 2027 01:44:04.457            17.865                 Moscow           558.281
       473   06 Jun 2027 02:01:38.087   06 Jun 2027 02:02:18.606            40.519               CapeTown          1266.219
       474   06 Jun 2027 02:05:28.833   06 Jun 2027 02:05:36.079             7.246               CapeTown           226.437
       475   06 Jun 2027 02:06:28.744   06 Jun 2027 02:06:51.290            22.546               CapeTown           704.563
       476   06 Jun 2027 02:07:53.537   06 Jun 2027 02:08:13.649            20.112               CapeTown           628.500
       477   06 Jun 2027 02:11:34.263   06 Jun 2027 02:11:36.820             2.557               CapeTown            79.906
       478   06 Jun 2027 02:11:51.629   06 Jun 2027 02:12:01.084             9.455               CapeTown           295.469
       479   06 Jun 2027 02:57:47.928   06 Jun 2027 03:00:04.485           136.557               Magadan1          4267.406
       480   06 Jun 2027 03:00:04.485   06 Jun 2027 03:00:34.496            30.011               Magadan2           937.844
       481   06 Jun 2027 03:03:26.877   06 Jun 2027 03:03:43.132            16.255                Anadyr1           507.969
       482   06 Jun 2027 03:03:47.218   06 Jun 2027 03:06:45.615           178.397               Magadan2          5574.906
