uniorb/output/strategy_4/Drop/Drop_KinoSat_111903.txt

KinoSat_111903
-------------------------
    Access    *     Start Time (UTCG)     *     Stop Time (UTCG)  *   Duration (s)        *       Station  *  Data (Mbytes)
         1   01 Jun 2027 03:22:12.552   01 Jun 2027 03:23:45.783            93.231              Murmansk2          2913.469
         2   01 Jun 2027 03:23:49.250   01 Jun 2027 03:24:31.186            41.936              Murmansk2          1310.500
         3   01 Jun 2027 03:24:32.517   01 Jun 2027 03:25:47.434            74.917                Irkutsk          2341.156
         4   01 Jun 2027 03:26:13.193   01 Jun 2027 03:29:21.104           187.911                Novosib          5872.219
         5   01 Jun 2027 03:29:35.371   01 Jun 2027 03:30:45.359            69.988                Irkutsk          2187.125
         6   01 Jun 2027 04:10:03.388   01 Jun 2027 04:14:04.648           241.260            RioGallegos          7539.375
         7   01 Jun 2027 04:59:41.370   01 Jun 2027 05:03:09.118           207.748                Novosib          6492.125
         8   01 Jun 2027 05:03:19.710   01 Jun 2027 05:05:19.188           119.478              Murmansk1          3733.687
         9   01 Jun 2027 05:06:08.098   01 Jun 2027 05:06:18.207            10.109                Novosib           315.906
        10   01 Jun 2027 06:38:17.602   01 Jun 2027 06:38:47.278            29.676                Norilsk           927.375
        11   01 Jun 2027 06:38:54.661   01 Jun 2027 06:40:50.456           115.795              Murmansk2          3618.594
        12   01 Jun 2027 06:40:50.456   01 Jun 2027 06:41:09.728            19.272              Murmansk1           602.250
        13   01 Jun 2027 06:41:12.828   01 Jun 2027 06:42:59.617           106.789                 Moscow          3337.156
        14   01 Jun 2027 06:57:28.384   01 Jun 2027 06:59:25.339           116.955               CapeTown          3654.844
        15   01 Jun 2027 08:02:19.292   01 Jun 2027 08:09:38.466           439.174                Norilsk         13724.187
        16   01 Jun 2027 08:09:42.106   01 Jun 2027 08:11:33.323           111.217                 Moscow          3475.531
        17   01 Jun 2027 09:32:27.452   01 Jun 2027 09:33:03.087            35.635                Anadyr1          1113.594
        18   01 Jun 2027 09:33:03.087   01 Jun 2027 09:33:33.180            30.093                Anadyr2           940.406
        19   01 Jun 2027 09:36:39.703   01 Jun 2027 09:38:37.476           117.773                Anadyr2          3680.406
        20   01 Jun 2027 09:39:20.672   01 Jun 2027 09:40:28.386            67.714               Magadan2          2116.062
        21   01 Jun 2027 09:41:09.120   01 Jun 2027 09:42:34.992            85.872                Anadyr2          2683.500
        22   01 Jun 2027 11:08:29.033   01 Jun 2027 11:08:49.185            20.152               Magadan2           629.750
        23   01 Jun 2027 11:11:54.896   01 Jun 2027 11:17:58.175           363.279               Magadan1         11352.469
        24   01 Jun 2027 19:16:31.097   01 Jun 2027 19:16:42.153            11.056                 Moscow           345.500
        25   01 Jun 2027 19:18:56.495   01 Jun 2027 19:19:34.755            38.260                 Moscow          1195.625
        26   01 Jun 2027 20:29:54.532   01 Jun 2027 20:31:48.442           113.910               CapeTown          3559.687
        27   01 Jun 2027 20:55:30.176   01 Jun 2027 20:59:41.978           251.802              Murmansk2          7868.812
        28   02 Jun 2027 00:30:52.792   02 Jun 2027 00:31:27.440            34.648                Irkutsk          1082.750
        29   02 Jun 2027 00:36:30.499   02 Jun 2027 00:37:02.414            31.915                Sumatra           997.344
        30   02 Jun 2027 00:40:50.799   02 Jun 2027 00:41:06.171            15.372                Sumatra           480.375
        31   02 Jun 2027 00:41:19.115   02 Jun 2027 00:41:37.111            17.996                Sumatra           562.375
        32   02 Jun 2027 00:42:00.225   02 Jun 2027 00:43:45.587           105.362                Sumatra          3292.563
        33   02 Jun 2027 01:48:55.966   02 Jun 2027 01:50:00.040            64.074                Anadyr1          2002.312
        34   02 Jun 2027 01:50:00.040   02 Jun 2027 01:50:23.437            23.397                Anadyr2           731.156
        35   02 Jun 2027 01:51:48.693   02 Jun 2027 01:51:56.902             8.209                Anadyr1           256.531
        36   02 Jun 2027 01:52:05.747   02 Jun 2027 01:53:24.018            78.271                Norilsk          2445.969
        37   02 Jun 2027 01:53:48.222   02 Jun 2027 01:54:24.926            36.704                Norilsk          1147.000
        38   02 Jun 2027 01:55:58.239   02 Jun 2027 01:57:41.650           103.411                Irkutsk          3231.594
        39   02 Jun 2027 01:59:14.429   02 Jun 2027 01:59:34.147            19.718                Irkutsk           616.187
        40   02 Jun 2027 02:01:15.791   02 Jun 2027 02:01:38.179            22.388                Irkutsk           699.625
        41   02 Jun 2027 02:04:28.721   02 Jun 2027 02:04:57.903            29.182                  Delhi           911.938
        42   02 Jun 2027 02:08:16.400   02 Jun 2027 02:08:30.645            14.245                  Delhi           445.156
        43   02 Jun 2027 02:09:08.357   02 Jun 2027 02:09:56.705            48.348                  Delhi          1510.875
        44   02 Jun 2027 02:10:54.949   02 Jun 2027 02:13:32.845           157.896                Sumatra          4934.250
        45   02 Jun 2027 02:49:03.028   02 Jun 2027 02:49:51.119            48.091            RioGallegos          1502.844
        46   02 Jun 2027 02:52:37.906   02 Jun 2027 02:52:53.254            15.348            RioGallegos           479.625
        47   02 Jun 2027 03:34:26.280   02 Jun 2027 03:34:51.633            25.353                Norilsk           792.281
        48   02 Jun 2027 03:35:07.567   02 Jun 2027 03:35:31.479            23.912                Novosib           747.250
        49   02 Jun 2027 03:35:41.285   02 Jun 2027 03:38:42.152           180.867              Murmansk2          5652.094
        50   02 Jun 2027 03:38:53.421   02 Jun 2027 03:41:03.572           130.151                Norilsk          4067.219
        51   02 Jun 2027 03:41:07.135   02 Jun 2027 03:42:17.358            70.223                Irkutsk          2194.469
        52   02 Jun 2027 03:43:46.512   02 Jun 2027 03:44:58.770            72.258                  Delhi          2258.062
        53   02 Jun 2027 03:47:34.510   02 Jun 2027 03:51:30.629           236.119                  Delhi          7378.719
        54   02 Jun 2027 04:23:35.533   02 Jun 2027 04:23:58.968            23.435            RioGallegos           732.344
        55   02 Jun 2027 05:14:40.194   02 Jun 2027 05:18:14.690           214.496                Novosib          6703.000
        56   02 Jun 2027 05:20:26.234   02 Jun 2027 05:21:23.644            57.410                 Moscow          1794.063
        57   02 Jun 2027 05:37:52.317   02 Jun 2027 05:39:40.665           108.348               CapeTown          3385.875
        58   02 Jun 2027 05:45:03.388   02 Jun 2027 05:45:50.568            47.180               CapeTown          1474.375
        59   02 Jun 2027 06:36:46.665   02 Jun 2027 06:38:25.471            98.806               Magadan1          3087.688
        60   02 Jun 2027 06:51:47.388   02 Jun 2027 06:52:48.421            61.033              Murmansk2          1907.281
        61   02 Jun 2027 06:53:18.014   02 Jun 2027 06:55:25.438           127.424                 Moscow          3982.000
        62   02 Jun 2027 06:56:33.841   02 Jun 2027 06:58:04.206            90.365                 Moscow          2823.906
        63   02 Jun 2027 07:09:44.943   02 Jun 2027 07:19:36.919           591.976               CapeTown         18499.250
        64   02 Jun 2027 08:14:32.567   02 Jun 2027 08:18:56.985           264.418                Anadyr1          8263.062
        65   02 Jun 2027 08:23:45.290   02 Jun 2027 08:24:43.459            58.169                 Moscow          1817.781
        66   02 Jun 2027 09:49:47.603   02 Jun 2027 09:50:28.504            40.901                Anadyr1          1278.156
        67   02 Jun 2027 09:50:30.323   02 Jun 2027 09:50:35.921             5.598               Magadan2           174.937
        68   02 Jun 2027 09:50:39.717   02 Jun 2027 09:52:26.027           106.310               Magadan2          3322.188
        69   02 Jun 2027 11:20:19.420   02 Jun 2027 11:20:22.375             2.955               Magadan2            92.344
        70   02 Jun 2027 11:23:40.402   02 Jun 2027 11:25:03.719            83.317               Magadan2          2603.656
        71   02 Jun 2027 11:25:03.719   02 Jun 2027 11:26:01.494            57.775               Magadan1          1805.469
        72   02 Jun 2027 11:26:11.165   02 Jun 2027 11:29:31.657           200.492               Magadan1          6265.375
        73   02 Jun 2027 11:29:46.411   02 Jun 2027 11:29:49.888             3.477                Irkutsk           108.656
        74   02 Jun 2027 11:30:04.056   02 Jun 2027 11:30:25.961            21.905                Norilsk           684.531
        75   02 Jun 2027 12:04:57.267   02 Jun 2027 12:06:09.778            72.511            RioGallegos          2265.969
        76   02 Jun 2027 12:40:15.551   02 Jun 2027 12:42:20.663           125.112                Sumatra          3909.750
        77   02 Jun 2027 12:53:31.816   02 Jun 2027 12:56:39.834           188.018                Irkutsk          5875.562
        78   02 Jun 2027 13:42:59.421   02 Jun 2027 13:45:42.882           163.461            RioGallegos          5108.156
        79   02 Jun 2027 14:17:14.769   02 Jun 2027 14:22:00.974           286.205                Sumatra          8943.906
        80   02 Jun 2027 14:32:53.992   02 Jun 2027 14:33:53.053            59.061                Irkutsk          1845.656
        81   02 Jun 2027 14:35:54.330   02 Jun 2027 14:37:14.045            79.715                Irkutsk          2491.094
        82   02 Jun 2027 16:02:40.669   02 Jun 2027 16:10:27.184           466.515                  Delhi         14578.594
        83   02 Jun 2027 16:12:15.339   02 Jun 2027 16:15:20.800           185.461                Novosib          5795.656
        84   02 Jun 2027 18:00:41.331   02 Jun 2027 18:00:49.963             8.632              Murmansk2           269.750
        85   02 Jun 2027 18:03:23.512   02 Jun 2027 18:03:33.134             9.622                Anadyr1           300.687
        86   02 Jun 2027 18:03:47.106   02 Jun 2027 18:04:00.320            13.214                Anadyr1           412.937
        87   02 Jun 2027 18:09:39.016   02 Jun 2027 18:09:51.140            12.124                Anadyr2           378.875
        88   02 Jun 2027 18:57:55.494   02 Jun 2027 19:00:28.348           152.854               CapeTown          4776.687
        89   02 Jun 2027 19:05:15.891   02 Jun 2027 19:05:55.018            39.127               CapeTown          1222.719
        90   02 Jun 2027 19:25:38.023   02 Jun 2027 19:29:28.404           230.381                 Moscow          7199.406
        91   02 Jun 2027 19:31:00.099   02 Jun 2027 19:31:58.982            58.883              Murmansk1          1840.094
        92   02 Jun 2027 19:32:50.667   02 Jun 2027 19:34:28.976            98.309              Murmansk2          3072.156
        93   02 Jun 2027 20:35:10.516   02 Jun 2027 20:38:37.107           206.591               CapeTown          6455.969
        94   02 Jun 2027 21:08:51.333   02 Jun 2027 21:11:06.200           134.867              Murmansk1          4214.594
        95   02 Jun 2027 21:17:36.042   02 Jun 2027 21:17:47.457            11.415               Magadan1           356.719
        96   02 Jun 2027 21:18:08.367   02 Jun 2027 21:18:21.725            13.358               Magadan1           417.437
        97   02 Jun 2027 21:19:22.532   02 Jun 2027 21:19:38.059            15.527               Magadan2           485.219
        98   02 Jun 2027 21:20:26.172   02 Jun 2027 21:20:49.895            23.723               Magadan1           741.344
        99   02 Jun 2027 21:23:33.262   02 Jun 2027 21:24:33.109            59.847               Magadan1          1870.219
       100   02 Jun 2027 22:50:21.992   02 Jun 2027 22:54:44.617           262.625                Anadyr2          8207.031
       101   02 Jun 2027 22:54:52.852   02 Jun 2027 22:55:44.142            51.290                Norilsk          1602.812
       102   02 Jun 2027 22:55:49.556   02 Jun 2027 22:57:33.932           104.376               Magadan1          3261.750
       103   02 Jun 2027 22:57:48.878   02 Jun 2027 22:58:19.223            30.345               Magadan1           948.281
       104   02 Jun 2027 23:44:47.961   02 Jun 2027 23:47:46.950           178.989            RioGallegos          5593.406
       105   02 Jun 2027 23:49:43.186   02 Jun 2027 23:49:53.601            10.415            RioGallegos           325.469
       106   02 Jun 2027 23:50:26.386   02 Jun 2027 23:50:38.397            12.011            RioGallegos           375.344
       107   03 Jun 2027 00:25:59.434   03 Jun 2027 00:26:57.454            58.020                Anadyr1          1813.125
       108   03 Jun 2027 00:27:26.900   03 Jun 2027 00:27:40.628            13.728                Anadyr1           429.000
       109   03 Jun 2027 00:28:10.120   03 Jun 2027 00:30:01.377           111.257                Norilsk          3476.781
       110   03 Jun 2027 00:30:35.797   03 Jun 2027 00:31:44.597            68.800                Norilsk          2150.000
       111   03 Jun 2027 00:32:22.252   03 Jun 2027 00:33:53.518            91.266                Irkutsk          2852.063
       112   03 Jun 2027 00:34:19.208   03 Jun 2027 00:35:37.119            77.911                Novosib          2434.719
       113   03 Jun 2027 00:36:36.099   03 Jun 2027 00:38:49.557           133.458                Novosib          4170.562
       114   03 Jun 2027 01:20:04.252   03 Jun 2027 01:20:05.510             1.258            RioGallegos            39.313
       115   03 Jun 2027 01:22:12.902   03 Jun 2027 01:22:14.254             1.352            RioGallegos            42.250
       116   03 Jun 2027 01:23:22.269   03 Jun 2027 01:23:34.063            11.794            RioGallegos           368.562
       117   03 Jun 2027 01:23:58.613   03 Jun 2027 01:24:40.099            41.486            RioGallegos          1296.438
       118   03 Jun 2027 01:26:47.108   03 Jun 2027 01:27:02.234            15.126            RioGallegos           472.688
       119   03 Jun 2027 01:28:58.017   03 Jun 2027 01:29:11.972            13.955            RioGallegos           436.094
       120   03 Jun 2027 01:30:20.498   03 Jun 2027 01:30:25.414             4.916            RioGallegos           153.625
       121   03 Jun 2027 01:32:55.917   03 Jun 2027 01:32:56.381             0.464            RioGallegos            14.500
       122   03 Jun 2027 02:00:44.429   03 Jun 2027 02:02:14.004            89.575                Anadyr1          2799.219
       123   03 Jun 2027 02:04:08.192   03 Jun 2027 02:05:30.666            82.474                Norilsk          2577.313
       124   03 Jun 2027 02:05:47.318   03 Jun 2027 02:06:27.731            40.413               Magadan2          1262.906
       125   03 Jun 2027 02:08:01.199   03 Jun 2027 02:11:11.277           190.078                Irkutsk          5939.937
       126   03 Jun 2027 02:23:13.347   03 Jun 2027 02:25:19.274           125.927                  Delhi          3935.219
       127   03 Jun 2027 02:29:50.994   03 Jun 2027 02:32:04.974           133.980                Sumatra          4186.875
       128   03 Jun 2027 02:59:07.573   03 Jun 2027 02:59:49.275            41.702            RioGallegos          1303.187
       129   03 Jun 2027 03:46:19.139   03 Jun 2027 03:46:50.857            31.718                Irkutsk           991.188
       130   03 Jun 2027 03:46:55.976   03 Jun 2027 03:50:59.897           243.921                Irkutsk          7622.531
       131   03 Jun 2027 05:25:34.573   03 Jun 2027 05:27:03.672            89.099                Norilsk          2784.344
       132   03 Jun 2027 05:27:10.770   03 Jun 2027 05:29:31.452           140.682                Novosib          4396.312
       133   03 Jun 2027 05:31:00.183   03 Jun 2027 05:32:05.986            65.803                 Moscow          2056.344
       134   03 Jun 2027 05:33:45.708   03 Jun 2027 05:34:03.283            17.575                 Moscow           549.219
       135   03 Jun 2027 05:45:58.437   03 Jun 2027 05:47:00.132            61.695               CapeTown          1927.969
       136   03 Jun 2027 05:48:50.759   03 Jun 2027 05:49:18.538            27.779               CapeTown           868.094
       137   03 Jun 2027 06:49:44.297   03 Jun 2027 06:49:53.035             8.738                Anadyr1           273.063
       138   03 Jun 2027 06:49:53.035   03 Jun 2027 06:51:00.407            67.372                Anadyr2          2105.375
       139   03 Jun 2027 07:01:14.167   03 Jun 2027 07:01:26.846            12.679                 Moscow           396.219
       140   03 Jun 2027 07:03:44.425   03 Jun 2027 07:03:50.144             5.719              Murmansk1           178.719
       141   03 Jun 2027 07:04:32.644   03 Jun 2027 07:05:14.431            41.787                 Moscow          1305.844
       142   03 Jun 2027 07:22:08.129   03 Jun 2027 07:23:44.242            96.113               CapeTown          3003.531
       143   03 Jun 2027 07:27:00.739   03 Jun 2027 07:27:14.843            14.104               CapeTown           440.750
       144   03 Jun 2027 08:23:45.361   03 Jun 2027 08:24:10.046            24.685               Magadan2           771.406
       145   03 Jun 2027 08:24:27.013   03 Jun 2027 08:24:56.006            28.993               Magadan2           906.031
       146   03 Jun 2027 08:25:11.377   03 Jun 2027 08:26:26.296            74.919                Anadyr1          2341.219
       147   03 Jun 2027 08:26:36.069   03 Jun 2027 08:26:40.173             4.104               Magadan2           128.250
       148   03 Jun 2027 08:26:40.173   03 Jun 2027 08:27:36.434            56.261               Magadan1          1758.156
       149   03 Jun 2027 08:35:54.222   03 Jun 2027 08:36:07.698            13.476                 Moscow           421.125
       150   03 Jun 2027 09:11:47.936   03 Jun 2027 09:11:52.212             4.276            RioGallegos           133.625
       151   03 Jun 2027 09:58:55.376   03 Jun 2027 09:59:25.656            30.280               Magadan1           946.250
       152   03 Jun 2027 10:00:44.991   03 Jun 2027 10:01:39.335            54.344               Magadan2          1698.250
       153   03 Jun 2027 10:02:41.124   03 Jun 2027 10:03:01.643            20.519               Magadan2           641.219
       154   03 Jun 2027 10:03:16.857   03 Jun 2027 10:03:41.989            25.132               Magadan1           785.375
       155   03 Jun 2027 10:04:22.546   03 Jun 2027 10:04:28.306             5.760               Magadan2           180.000
       156   03 Jun 2027 10:05:44.122   03 Jun 2027 10:05:47.556             3.434                Norilsk           107.312
       157   03 Jun 2027 10:42:20.189   03 Jun 2027 10:42:53.155            32.966            RioGallegos          1030.187
       158   03 Jun 2027 10:44:00.059   03 Jun 2027 10:44:35.180            35.121            RioGallegos          1097.531
       159   03 Jun 2027 10:51:58.902   03 Jun 2027 10:52:28.631            29.729            RioGallegos           929.031
       160   03 Jun 2027 11:35:19.681   03 Jun 2027 11:38:11.070           171.389               Magadan1          5355.906
       161   03 Jun 2027 11:38:44.079   03 Jun 2027 11:39:29.755            45.676                Irkutsk          1427.375
       162   03 Jun 2027 11:40:27.300   03 Jun 2027 11:40:29.908             2.608                Irkutsk            81.500
       163   03 Jun 2027 11:40:41.722   03 Jun 2027 11:41:16.643            34.921                Norilsk          1091.281
       164   03 Jun 2027 11:41:37.293   03 Jun 2027 11:42:03.402            26.109                Norilsk           815.906
       165   03 Jun 2027 11:42:13.839   03 Jun 2027 11:42:42.850            29.011                Norilsk           906.594
       166   03 Jun 2027 12:17:00.896   03 Jun 2027 12:17:57.851            56.955            RioGallegos          1779.844
       167   03 Jun 2027 12:52:03.428   03 Jun 2027 12:54:50.966           167.538                Sumatra          5235.562
       168   03 Jun 2027 13:05:42.837   03 Jun 2027 13:06:04.736            21.899                Irkutsk           684.344
       169   03 Jun 2027 13:07:12.384   03 Jun 2027 13:08:02.447            50.063                Novosib          1564.469
       170   03 Jun 2027 13:09:28.744   03 Jun 2027 13:10:14.132            45.388                Irkutsk          1418.375
       171   03 Jun 2027 13:55:41.602   03 Jun 2027 13:57:58.173           136.571            RioGallegos          4267.844
       172   03 Jun 2027 14:01:20.299   03 Jun 2027 14:02:11.625            51.326            RioGallegos          1603.937
       173   03 Jun 2027 14:30:08.048   03 Jun 2027 14:34:28.870           260.822                Sumatra          8150.688
       174   03 Jun 2027 14:45:58.937   03 Jun 2027 14:49:57.124           238.187                Irkutsk          7443.344
       175   03 Jun 2027 16:16:04.627   03 Jun 2027 16:21:17.378           312.751                  Delhi          9773.469
       176   03 Jun 2027 16:24:25.827   03 Jun 2027 16:29:17.332           291.505                Novosib          9109.531
       177   03 Jun 2027 18:15:13.024   03 Jun 2027 18:15:53.008            39.984                Anadyr1          1249.500
       178   03 Jun 2027 19:09:55.819   03 Jun 2027 19:12:51.543           175.724               CapeTown          5491.375
       179   03 Jun 2027 19:39:19.803   03 Jun 2027 19:40:01.116            41.313              Murmansk1          1291.031
       180   03 Jun 2027 19:40:02.510   03 Jun 2027 19:41:40.965            98.455                 Moscow          3076.719
       181   03 Jun 2027 19:42:19.550   03 Jun 2027 19:46:21.636           242.086              Murmansk2          7565.188
       182   03 Jun 2027 20:47:48.172   03 Jun 2027 20:54:19.562           391.390               CapeTown         12230.937
       183   03 Jun 2027 20:54:46.870   03 Jun 2027 20:54:46.952             0.082               CapeTown             2.562
       184   03 Jun 2027 21:33:53.396   03 Jun 2027 21:34:22.425            29.029               Magadan2           907.156
       185   03 Jun 2027 21:39:38.313   03 Jun 2027 21:40:02.347            24.034               Magadan2           751.063
       186   03 Jun 2027 23:02:22.903   03 Jun 2027 23:06:10.599           227.696                Anadyr2          7115.500
       187   03 Jun 2027 23:06:28.015   03 Jun 2027 23:08:44.436           136.421               Magadan1          4263.156
       188   03 Jun 2027 23:08:55.869   03 Jun 2027 23:08:59.923             4.054               Magadan1           126.688
       189   03 Jun 2027 23:09:03.621   03 Jun 2027 23:09:45.166            41.545               Magadan1          1298.281
       190   03 Jun 2027 23:11:00.869   03 Jun 2027 23:11:10.773             9.904               Magadan2           309.500
       191   03 Jun 2027 23:11:16.271   03 Jun 2027 23:11:38.236            21.965                Irkutsk           686.406
       192   03 Jun 2027 23:12:02.527   03 Jun 2027 23:12:35.855            33.328                Irkutsk          1041.500
       193   03 Jun 2027 23:14:56.350   03 Jun 2027 23:15:02.004             5.654                Irkutsk           176.687
       194   03 Jun 2027 23:17:16.432   03 Jun 2027 23:17:27.956            11.524               Magadan1           360.125
       195   03 Jun 2027 23:56:38.279   03 Jun 2027 23:59:53.036           194.757            RioGallegos          6086.156
       196   04 Jun 2027 00:02:01.569   04 Jun 2027 00:02:40.723            39.154            RioGallegos          1223.562
       197   04 Jun 2027 00:37:55.978   04 Jun 2027 00:38:39.623            43.645                Anadyr2          1363.906
       198   04 Jun 2027 00:38:45.872   04 Jun 2027 00:39:04.070            18.198                Anadyr1           568.687
       199   04 Jun 2027 00:39:24.512   04 Jun 2027 00:40:12.722            48.210                Anadyr1          1506.562
       200   04 Jun 2027 00:40:23.907   04 Jun 2027 00:42:03.644            99.737                Norilsk          3116.781
       201   04 Jun 2027 00:42:17.944   04 Jun 2027 00:42:42.668            24.724               Magadan2           772.625
       202   04 Jun 2027 00:42:50.486   04 Jun 2027 00:43:59.448            68.962               Magadan2          2155.063
       203   04 Jun 2027 00:45:14.912   04 Jun 2027 00:45:55.905            40.993                Irkutsk          1281.031
       204   04 Jun 2027 00:48:24.482   04 Jun 2027 00:48:26.661             2.179                Novosib            68.094
       205   04 Jun 2027 00:48:32.572   04 Jun 2027 00:49:42.722            70.150                Novosib          2192.187
       206   04 Jun 2027 00:55:43.276   04 Jun 2027 00:55:58.636            15.360                Irkutsk           480.000
       207   04 Jun 2027 00:57:59.680   04 Jun 2027 00:58:43.345            43.665                Sumatra          1364.531
       208   04 Jun 2027 01:01:00.363   04 Jun 2027 01:01:10.609            10.246                Sumatra           320.187
       209   04 Jun 2027 01:01:26.323   04 Jun 2027 01:02:53.509            87.186                Sumatra          2724.562
       210   04 Jun 2027 01:38:17.035   04 Jun 2027 01:38:26.120             9.085            RioGallegos           283.906
       211   04 Jun 2027 01:38:53.671   04 Jun 2027 01:39:35.238            41.567            RioGallegos          1298.969
       212   04 Jun 2027 01:42:04.148   04 Jun 2027 01:42:09.117             4.969            RioGallegos           155.281
       213   04 Jun 2027 01:44:02.762   04 Jun 2027 01:44:34.859            32.097            RioGallegos          1003.031
       214   04 Jun 2027 02:13:19.114   04 Jun 2027 02:13:35.785            16.671                Anadyr2           520.969
       215   04 Jun 2027 02:14:15.627   04 Jun 2027 02:14:30.442            14.815                Anadyr2           462.969
       216   04 Jun 2027 02:14:49.791   04 Jun 2027 02:15:03.605            13.814                Anadyr2           431.688
       217   04 Jun 2027 02:16:10.655   04 Jun 2027 02:17:09.009            58.354                Norilsk          1823.563
       218   04 Jun 2027 02:17:21.713   04 Jun 2027 02:17:47.813            26.100               Magadan1           815.625
       219   04 Jun 2027 02:20:04.948   04 Jun 2027 02:22:48.680           163.732                Irkutsk          5116.625
       220   04 Jun 2027 02:26:03.043   04 Jun 2027 02:26:23.269            20.226                Irkutsk           632.062
       221   04 Jun 2027 02:28:47.211   04 Jun 2027 02:29:21.060            33.849                Irkutsk          1057.781
       222   04 Jun 2027 02:34:46.571   04 Jun 2027 02:35:02.306            15.735                  Delhi           491.719
       223   04 Jun 2027 02:36:45.882   04 Jun 2027 02:40:46.913           241.031                Sumatra          7532.219
       224   04 Jun 2027 03:12:12.682   04 Jun 2027 03:13:02.121            49.439            RioGallegos          1544.969
       225   04 Jun 2027 04:00:00.247   04 Jun 2027 04:00:24.515            24.268                Norilsk           758.375
       226   04 Jun 2027 04:00:49.868   04 Jun 2027 04:01:37.101            47.233                Novosib          1476.031
       227   04 Jun 2027 04:01:38.717   04 Jun 2027 04:01:59.163            20.446                Norilsk           638.938
       228   04 Jun 2027 04:02:09.919   04 Jun 2027 04:02:23.963            14.044                 Moscow           438.875
       229   04 Jun 2027 04:02:25.850   04 Jun 2027 04:03:32.977            67.127              Murmansk1          2097.719
       230   04 Jun 2027 04:03:35.394   04 Jun 2027 04:03:54.458            19.064                Novosib           595.750
       231   04 Jun 2027 04:04:21.924   04 Jun 2027 04:05:09.714            47.790                Irkutsk          1493.437
       232   04 Jun 2027 04:06:50.121   04 Jun 2027 04:06:54.779             4.658                 Moscow           145.563
       233   04 Jun 2027 04:07:15.974   04 Jun 2027 04:08:22.780            66.806                Novosib          2087.688
       234   04 Jun 2027 04:08:45.222   04 Jun 2027 04:14:44.092           358.870                  Delhi         11214.688
       235   04 Jun 2027 05:37:34.012   04 Jun 2027 05:37:50.557            16.545                Novosib           517.031
       236   04 Jun 2027 05:39:07.603   04 Jun 2027 05:41:15.283           127.680                Novosib          3990.000
       237   04 Jun 2027 05:41:46.785   04 Jun 2027 05:43:05.303            78.518                 Moscow          2453.687
       238   04 Jun 2027 05:57:43.648   04 Jun 2027 05:59:51.916           128.268               CapeTown          4008.375
       239   04 Jun 2027 07:00:53.276   04 Jun 2027 07:01:25.532            32.256               Magadan1          1008.000
       240   04 Jun 2027 07:02:00.982   04 Jun 2027 07:03:00.755            59.773                Anadyr1          1867.906
       241   04 Jun 2027 07:04:18.238   04 Jun 2027 07:05:08.960            50.722                Anadyr2          1585.062
       242   04 Jun 2027 07:13:34.897   04 Jun 2027 07:13:44.998            10.101                Norilsk           315.656
       243   04 Jun 2027 07:16:13.693   04 Jun 2027 07:17:30.066            76.373                 Moscow          2386.656
       244   04 Jun 2027 07:34:39.200   04 Jun 2027 07:38:25.121           225.921               CapeTown          7060.031
       245   04 Jun 2027 08:35:15.193   04 Jun 2027 08:35:26.402            11.209                Anadyr1           350.281
       246   04 Jun 2027 08:35:58.751   04 Jun 2027 08:36:00.382             1.631               Magadan2            50.969
       247   04 Jun 2027 08:36:08.930   04 Jun 2027 08:37:11.115            62.185                Anadyr2          1943.281
       248   04 Jun 2027 08:37:29.538   04 Jun 2027 08:38:35.323            65.785               Magadan2          2055.781
       249   04 Jun 2027 08:38:43.281   04 Jun 2027 08:39:30.831            47.550               Magadan1          1485.937
       250   04 Jun 2027 08:39:35.322   04 Jun 2027 08:40:28.904            53.582               Magadan1          1674.437
       251   04 Jun 2027 09:22:42.897   04 Jun 2027 09:22:55.740            12.843            RioGallegos           401.344
       252   04 Jun 2027 10:10:13.761   04 Jun 2027 10:10:35.719            21.958               Magadan2           686.187
       253   04 Jun 2027 10:10:42.593   04 Jun 2027 10:11:33.367            50.774               Magadan2          1586.687
       254   04 Jun 2027 10:12:25.241   04 Jun 2027 10:12:43.077            17.836               Magadan1           557.375
       255   04 Jun 2027 10:12:48.853   04 Jun 2027 10:13:01.231            12.378                Irkutsk           386.813
       256   04 Jun 2027 10:13:22.736   04 Jun 2027 10:14:42.110            79.374               Magadan1          2480.438
       257   04 Jun 2027 10:15:31.568   04 Jun 2027 10:15:57.097            25.529               Magadan2           797.781
       258   04 Jun 2027 10:16:12.994   04 Jun 2027 10:16:17.660             4.666               Magadan1           145.813
       259   04 Jun 2027 10:16:17.660   04 Jun 2027 10:18:32.994           135.334               Magadan2          4229.187
       260   04 Jun 2027 11:45:48.365   04 Jun 2027 11:49:16.049           207.684               Magadan2          6490.125
       261   04 Jun 2027 11:50:03.975   04 Jun 2027 11:53:14.084           190.109               Magadan1          5940.906
       262   04 Jun 2027 11:53:35.092   04 Jun 2027 11:53:37.841             2.749                Norilsk            85.906
       263   04 Jun 2027 11:54:18.444   04 Jun 2027 11:54:40.613            22.169                Novosib           692.781
       264   04 Jun 2027 12:29:08.039   04 Jun 2027 12:29:59.844            51.805            RioGallegos          1618.906
       265   04 Jun 2027 12:32:16.580   04 Jun 2027 12:33:15.917            59.337            RioGallegos          1854.281
       266   04 Jun 2027 13:03:57.394   04 Jun 2027 13:07:03.832           186.438                Sumatra          5826.188
       267   04 Jun 2027 13:17:57.677   04 Jun 2027 13:19:43.637           105.960                Irkutsk          3311.250
       268   04 Jun 2027 13:27:30.290   04 Jun 2027 13:27:46.540            16.250                Irkutsk           507.812
       269   04 Jun 2027 13:32:57.694   04 Jun 2027 13:33:26.055            28.361                Norilsk           886.281
       270   04 Jun 2027 14:08:33.938   04 Jun 2027 14:12:07.231           213.293            RioGallegos          6665.406
       271   04 Jun 2027 14:43:39.929   04 Jun 2027 14:47:55.396           255.467                Sumatra          7983.344
       272   04 Jun 2027 14:59:35.507   04 Jun 2027 15:03:01.868           206.361                Irkutsk          6448.781
       273   04 Jun 2027 16:39:27.158   04 Jun 2027 16:40:55.701            88.543                Norilsk          2766.969
       274   04 Jun 2027 16:42:35.055   04 Jun 2027 16:45:08.112           153.057                Norilsk          4783.031
       275   04 Jun 2027 17:47:51.648   04 Jun 2027 17:48:27.607            35.959               CapeTown          1123.719
       276   04 Jun 2027 17:52:15.741   04 Jun 2027 17:53:19.584            63.843               CapeTown          1995.094
       277   04 Jun 2027 18:09:35.170   04 Jun 2027 18:09:56.498            21.328                 Moscow           666.500
       278   04 Jun 2027 18:11:29.359   04 Jun 2027 18:14:37.283           187.924                 Moscow          5872.625
       279   04 Jun 2027 18:29:03.750   04 Jun 2027 18:29:06.302             2.552                Anadyr1            79.750
       280   04 Jun 2027 18:29:27.754   04 Jun 2027 18:29:48.325            20.571                Anadyr1           642.844
       281   04 Jun 2027 18:30:06.622   04 Jun 2027 18:30:23.080            16.458                Anadyr1           514.312
       282   04 Jun 2027 18:30:45.602   04 Jun 2027 18:31:18.487            32.885                Anadyr1          1027.656
       283   04 Jun 2027 18:35:18.433   04 Jun 2027 18:35:50.609            32.176                Anadyr2          1005.500
       284   04 Jun 2027 19:21:58.948   04 Jun 2027 19:24:22.067           143.119               CapeTown          4472.469
       285   04 Jun 2027 19:33:15.376   04 Jun 2027 19:33:23.981             8.605               CapeTown           268.906
       286   04 Jun 2027 19:51:54.374   04 Jun 2027 19:52:53.919            59.545              Murmansk2          1860.781
       287   04 Jun 2027 19:54:20.454   04 Jun 2027 20:00:40.527           380.073              Murmansk1         11877.281
       288   04 Jun 2027 21:00:47.942   04 Jun 2027 21:05:23.580           275.638               CapeTown          8613.687
       289   04 Jun 2027 21:40:52.731   04 Jun 2027 21:41:25.642            32.911               Magadan2          1028.469
       290   04 Jun 2027 21:42:05.379   04 Jun 2027 21:42:21.526            16.147               Magadan2           504.594
       291   04 Jun 2027 21:43:25.496   04 Jun 2027 21:44:19.701            54.205               Magadan2          1693.906
       292   04 Jun 2027 23:14:23.493   04 Jun 2027 23:18:10.115           226.622                Anadyr1          7081.937
       293   04 Jun 2027 23:18:28.771   04 Jun 2027 23:20:36.128           127.357               Magadan1          3979.906
       294   04 Jun 2027 23:20:58.557   04 Jun 2027 23:22:10.112            71.555               Magadan2          2236.094
       295   04 Jun 2027 23:22:17.964   04 Jun 2027 23:23:39.812            81.848                Irkutsk          2557.750
       296   04 Jun 2027 23:26:57.038   04 Jun 2027 23:27:29.758            32.720                Irkutsk          1022.500
       297   04 Jun 2027 23:39:19.283   04 Jun 2027 23:41:34.851           135.568                Sumatra          4236.500
       298   05 Jun 2027 00:11:44.459   05 Jun 2027 00:12:00.124            15.665            RioGallegos           489.531
       299   05 Jun 2027 00:14:28.567   05 Jun 2027 00:15:02.023            33.456            RioGallegos          1045.500
       300   05 Jun 2027 00:18:01.273   05 Jun 2027 00:18:48.656            47.383            RioGallegos          1480.719
       301   05 Jun 2027 00:49:51.603   05 Jun 2027 00:50:21.216            29.613                Anadyr1           925.406
       302   05 Jun 2027 00:51:22.764   05 Jun 2027 00:52:08.745            45.981                Anadyr1          1436.906
       303   05 Jun 2027 00:52:12.876   05 Jun 2027 00:54:05.947           113.071                Norilsk          3533.469
       304   05 Jun 2027 00:54:36.863   05 Jun 2027 00:56:09.833            92.970               Magadan1          2905.312
       305   05 Jun 2027 00:56:14.482   05 Jun 2027 00:57:29.079            74.597                Irkutsk          2331.156
       306   05 Jun 2027 01:01:53.321   05 Jun 2027 01:02:50.559            57.238                Novosib          1788.687
       307   05 Jun 2027 01:09:56.543   05 Jun 2027 01:10:23.926            27.383                Sumatra           855.719
       308   05 Jun 2027 01:12:43.066   05 Jun 2027 01:14:00.502            77.436                Sumatra          2419.875
       309   05 Jun 2027 01:46:30.522   05 Jun 2027 01:46:56.508            25.986            RioGallegos           812.062
       310   05 Jun 2027 01:48:08.343   05 Jun 2027 01:48:55.833            47.490            RioGallegos          1484.063
       311   05 Jun 2027 02:24:17.425   05 Jun 2027 02:24:29.005            11.580                Anadyr2           361.875
       312   05 Jun 2027 02:25:18.247   05 Jun 2027 02:26:39.602            81.355                Anadyr1          2542.344
       313   05 Jun 2027 02:28:13.107   05 Jun 2027 02:29:03.327            50.220                Norilsk          1569.375
       314   05 Jun 2027 02:29:52.357   05 Jun 2027 02:30:37.097            44.740               Magadan1          1398.125
       315   05 Jun 2027 02:31:54.972   05 Jun 2027 02:32:24.398            29.426              Murmansk1           919.563
       316   05 Jun 2027 02:32:46.469   05 Jun 2027 02:33:56.523            70.054                Novosib          2189.188
       317   05 Jun 2027 02:34:18.162   05 Jun 2027 02:34:46.366            28.204                Irkutsk           881.375
       318   05 Jun 2027 02:36:32.468   05 Jun 2027 02:36:48.672            16.204                Irkutsk           506.375
       319   05 Jun 2027 02:39:33.016   05 Jun 2027 02:40:30.586            57.570                  Delhi          1799.062
       320   05 Jun 2027 02:47:23.659   05 Jun 2027 02:47:44.868            21.209                  Delhi           662.781
       321   05 Jun 2027 02:51:25.735   05 Jun 2027 02:51:56.078            30.343                  Delhi           948.219
       322   05 Jun 2027 03:20:52.723   05 Jun 2027 03:22:30.899            98.176            RioGallegos          3068.000
       323   05 Jun 2027 03:26:15.655   05 Jun 2027 03:26:36.826            21.171            RioGallegos           661.594
       324   05 Jun 2027 03:28:26.852   05 Jun 2027 03:29:37.335            70.483            RioGallegos          2202.594
       325   05 Jun 2027 04:09:19.859   05 Jun 2027 04:12:48.842           208.983                Irkutsk          6530.719
       326   05 Jun 2027 04:14:12.786   05 Jun 2027 04:16:03.885           111.099                Irkutsk          3471.844
       327   05 Jun 2027 05:49:47.461   05 Jun 2027 05:51:14.238            86.777                Norilsk          2711.781
       328   05 Jun 2027 05:51:34.273   05 Jun 2027 05:52:41.000            66.727                Novosib          2085.219
       329   05 Jun 2027 05:56:44.170   05 Jun 2027 05:57:04.663            20.493                 Moscow           640.406
       330   05 Jun 2027 05:57:44.312   05 Jun 2027 05:58:23.631            39.319                 Moscow          1228.719
       331   05 Jun 2027 06:09:34.130   05 Jun 2027 06:12:18.636           164.506               CapeTown          5140.813
       332   05 Jun 2027 07:12:26.958   05 Jun 2027 07:13:22.752            55.794                Anadyr1          1743.562
       333   05 Jun 2027 07:13:22.752   05 Jun 2027 07:14:11.147            48.395                Anadyr2          1512.344
       334   05 Jun 2027 07:14:38.287   05 Jun 2027 07:14:46.640             8.353               Magadan1           261.031
       335   05 Jun 2027 07:15:00.655   05 Jun 2027 07:15:46.233            45.578                Anadyr1          1424.312
       336   05 Jun 2027 07:16:23.979   05 Jun 2027 07:16:48.117            24.138               Magadan1           754.313
       337   05 Jun 2027 07:23:39.561   05 Jun 2027 07:23:56.868            17.307                 Moscow           540.844
       338   05 Jun 2027 07:25:46.871   05 Jun 2027 07:26:01.942            15.071                Norilsk           470.969
       339   05 Jun 2027 07:28:19.614   05 Jun 2027 07:28:38.149            18.535                 Moscow           579.219
       340   05 Jun 2027 07:33:17.215   05 Jun 2027 07:33:29.948            12.733                 Moscow           397.906
       341   05 Jun 2027 07:47:20.381   05 Jun 2027 07:51:57.771           277.390               CapeTown          8668.437
       342   05 Jun 2027 08:46:55.301   05 Jun 2027 08:47:49.643            54.342               Magadan1          1698.187
       343   05 Jun 2027 08:49:00.099   05 Jun 2027 08:49:27.806            27.707               Magadan2           865.844
       344   05 Jun 2027 08:49:32.305   05 Jun 2027 08:51:06.540            94.235                Anadyr2          2944.844
       345   05 Jun 2027 08:51:21.779   05 Jun 2027 08:51:27.550             5.771               Magadan1           180.344
       346   05 Jun 2027 08:52:39.298   05 Jun 2027 08:52:48.379             9.081                Anadyr1           283.781
       347   05 Jun 2027 09:33:50.824   05 Jun 2027 09:34:26.450            35.626            RioGallegos          1113.312
       348   05 Jun 2027 09:35:27.922   05 Jun 2027 09:35:53.822            25.900            RioGallegos           809.375
       349   05 Jun 2027 10:23:06.815   05 Jun 2027 10:23:19.835            13.020               Magadan1           406.875
       350   05 Jun 2027 10:23:43.857   05 Jun 2027 10:24:40.126            56.269               Magadan1          1758.406
       351   05 Jun 2027 10:24:58.517   05 Jun 2027 10:26:42.597           104.080               Magadan2          3252.500
       352   05 Jun 2027 10:28:06.296   05 Jun 2027 10:28:15.407             9.111               Magadan2           284.719
       353   05 Jun 2027 10:28:15.407   05 Jun 2027 10:29:25.382            69.975               Magadan1          2186.719
       354   05 Jun 2027 10:33:08.937   05 Jun 2027 10:33:13.766             4.829                Norilsk           150.906
       355   05 Jun 2027 11:05:45.240   05 Jun 2027 11:05:50.577             5.337            RioGallegos           166.781
       356   05 Jun 2027 11:06:28.063   05 Jun 2027 11:07:00.226            32.163            RioGallegos          1005.094
       357   05 Jun 2027 11:07:29.802   05 Jun 2027 11:07:50.201            20.399            RioGallegos           637.469
       358   05 Jun 2027 11:10:12.774   05 Jun 2027 11:10:32.869            20.095            RioGallegos           627.969
       359   05 Jun 2027 11:44:06.884   05 Jun 2027 11:44:45.822            38.938                Sumatra          1216.812
       360   05 Jun 2027 11:44:56.562   05 Jun 2027 11:45:20.602            24.040                Sumatra           751.250
       361   05 Jun 2027 11:59:04.575   05 Jun 2027 12:02:53.717           229.142               Magadan2          7160.687
       362   05 Jun 2027 12:51:04.443   05 Jun 2027 12:51:17.608            13.165            RioGallegos           411.406
       363   05 Jun 2027 13:18:14.865   05 Jun 2027 13:19:06.450            51.585                Sumatra          1612.031
       364   05 Jun 2027 13:20:40.810   05 Jun 2027 13:21:44.769            63.959                Sumatra          1998.719
       365   05 Jun 2027 13:25:20.536   05 Jun 2027 13:25:35.152            14.616                Sumatra           456.750
       366   05 Jun 2027 13:30:16.625   05 Jun 2027 13:30:25.167             8.542                Irkutsk           266.938
       367   05 Jun 2027 13:32:20.934   05 Jun 2027 13:33:23.274            62.340                Novosib          1948.125
       368   05 Jun 2027 13:35:59.258   05 Jun 2027 13:36:29.882            30.624                Novosib           957.000
       369   05 Jun 2027 13:38:21.875   05 Jun 2027 13:39:12.784            50.909                Irkutsk          1590.906
       370   05 Jun 2027 13:42:48.514   05 Jun 2027 13:43:12.545            24.031                Novosib           750.969
       371   05 Jun 2027 13:45:28.368   05 Jun 2027 13:46:50.944            82.576                Norilsk          2580.500
       372   05 Jun 2027 14:21:42.296   05 Jun 2027 14:25:35.773           233.477            RioGallegos          7296.156
       373   05 Jun 2027 15:09:52.217   05 Jun 2027 15:13:15.155           202.938                Novosib          6341.812
       374   05 Jun 2027 16:44:33.094   05 Jun 2027 16:46:44.845           131.751                 Moscow          4117.219
       375   05 Jun 2027 16:52:01.761   05 Jun 2027 16:52:37.545            35.784              Murmansk2          1118.250
       376   05 Jun 2027 16:53:00.179   05 Jun 2027 16:54:42.476           102.297                Norilsk          3196.781
       377   05 Jun 2027 16:55:20.352   05 Jun 2027 16:58:04.901           164.549                Norilsk          5142.156
       378   05 Jun 2027 18:08:54.468   05 Jun 2027 18:09:23.308            28.840               CapeTown           901.250
       379   05 Jun 2027 18:22:01.761   05 Jun 2027 18:22:52.489            50.728                 Moscow          1585.250
       380   05 Jun 2027 18:23:24.076   05 Jun 2027 18:26:48.136           204.060                 Moscow          6376.875
       381   05 Jun 2027 18:34:56.659   05 Jun 2027 18:34:57.286             0.627              Murmansk1            19.594
       382   05 Jun 2027 18:44:47.926   05 Jun 2027 18:45:28.850            40.924                Anadyr2          1278.875
       383   05 Jun 2027 19:34:04.882   05 Jun 2027 19:35:28.844            83.962               CapeTown          2623.812
       384   05 Jun 2027 19:37:01.159   05 Jun 2027 19:38:08.072            66.913               CapeTown          2091.031
       385   05 Jun 2027 20:04:32.248   05 Jun 2027 20:10:10.970           338.722              Murmansk1         10585.063
       386   05 Jun 2027 20:10:40.521   05 Jun 2027 20:12:37.750           117.229              Murmansk2          3663.406
       387   05 Jun 2027 21:50:32.156   05 Jun 2027 21:52:32.796           120.640                Anadyr1          3770.000
       388   05 Jun 2027 21:52:51.875   05 Jun 2027 21:53:49.902            58.027               Magadan2          1813.344
       389   05 Jun 2027 21:53:49.902   05 Jun 2027 21:55:36.268           106.366               Magadan1          3323.937
       390   05 Jun 2027 21:56:23.061   05 Jun 2027 21:56:55.096            32.035               Magadan2          1001.094
       391   05 Jun 2027 21:57:53.903   05 Jun 2027 21:58:26.597            32.694               Magadan2          1021.687
       392   05 Jun 2027 22:01:44.460   05 Jun 2027 22:02:28.020            43.560               Magadan2          1361.250
       393   05 Jun 2027 22:47:43.298   05 Jun 2027 22:49:33.955           110.657            RioGallegos          3458.031
       394   05 Jun 2027 23:26:23.707   05 Jun 2027 23:27:49.363            85.656                Anadyr2          2676.750
       395   05 Jun 2027 23:27:56.594   05 Jun 2027 23:28:27.604            31.010                Anadyr1           969.063
       396   05 Jun 2027 23:28:29.123   05 Jun 2027 23:28:37.379             8.256                Anadyr2           258.000
       397   05 Jun 2027 23:28:45.082   05 Jun 2027 23:30:42.840           117.758               Magadan2          3679.938
       398   05 Jun 2027 23:31:07.808   05 Jun 2027 23:31:51.801            43.993               Magadan1          1374.781
       399   05 Jun 2027 23:33:39.009   05 Jun 2027 23:34:12.760            33.751               Magadan2          1054.719
       400   05 Jun 2027 23:35:13.498   05 Jun 2027 23:35:42.203            28.705                Irkutsk           897.031
       401   05 Jun 2027 23:36:46.687   05 Jun 2027 23:36:47.831             1.144                Irkutsk            35.750
       402   05 Jun 2027 23:37:49.157   05 Jun 2027 23:38:54.560            65.403                Irkutsk          2043.844
       403   05 Jun 2027 23:49:20.642   05 Jun 2027 23:51:02.361           101.719                Sumatra          3178.719
       404   05 Jun 2027 23:52:07.925   05 Jun 2027 23:53:58.112           110.187                Sumatra          3443.344
       405   06 Jun 2027 01:01:46.198   06 Jun 2027 01:01:48.400             2.202                Anadyr1            68.813
       406   06 Jun 2027 01:01:54.420   06 Jun 2027 01:02:16.144            21.724                Anadyr2           678.875
       407   06 Jun 2027 01:02:48.729   06 Jun 2027 01:03:21.588            32.859                Anadyr2          1026.844
       408   06 Jun 2027 01:04:01.993   06 Jun 2027 01:04:30.808            28.815                Anadyr1           900.469
       409   06 Jun 2027 01:04:30.808   06 Jun 2027 01:04:33.279             2.471                Anadyr2            77.219
       410   06 Jun 2027 01:04:36.927   06 Jun 2027 01:05:00.332            23.405                Anadyr2           731.406
       411   06 Jun 2027 01:05:20.303   06 Jun 2027 01:06:08.259            47.956                Norilsk          1498.625
       412   06 Jun 2027 01:06:25.287   06 Jun 2027 01:08:29.839           124.552               Magadan2          3892.250
       413   06 Jun 2027 01:08:43.582   06 Jun 2027 01:09:45.339            61.757                Irkutsk          1929.906
       414   06 Jun 2027 01:11:47.214   06 Jun 2027 01:12:00.127            12.913                Irkutsk           403.531
       415   06 Jun 2027 01:12:18.955   06 Jun 2027 01:12:53.343            34.388                Novosib          1074.625
       416   06 Jun 2027 01:18:20.017   06 Jun 2027 01:18:25.399             5.382                Novosib           168.187
       417   06 Jun 2027 01:20:37.020   06 Jun 2027 01:20:55.247            18.227                Irkutsk           569.594
       418   06 Jun 2027 01:21:59.096   06 Jun 2027 01:23:40.054           100.958                Sumatra          3154.938
       419   06 Jun 2027 01:56:13.826   06 Jun 2027 01:57:38.801            84.975            RioGallegos          2655.469
       420   06 Jun 2027 02:05:21.299   06 Jun 2027 02:05:27.632             6.333            RioGallegos           197.906
       421   06 Jun 2027 02:36:02.104   06 Jun 2027 02:36:02.898             0.794                Anadyr1            24.812
       422   06 Jun 2027 02:37:17.856   06 Jun 2027 02:38:30.722            72.866                Anadyr1          2277.062
       423   06 Jun 2027 02:40:15.522   06 Jun 2027 02:41:27.297            71.775                Norilsk          2242.969
       424   06 Jun 2027 02:41:42.892   06 Jun 2027 02:41:56.864            13.972                Norilsk           436.625
       425   06 Jun 2027 02:43:23.810   06 Jun 2027 02:44:00.891            37.081              Murmansk1          1158.781
       426   06 Jun 2027 02:44:04.855   06 Jun 2027 02:44:31.252            26.397              Murmansk2           824.906
       427   06 Jun 2027 02:45:10.418   06 Jun 2027 02:45:57.463            47.045                Novosib          1470.156
       428   06 Jun 2027 02:46:23.123   06 Jun 2027 02:46:36.568            13.445                Irkutsk           420.156
       429   06 Jun 2027 02:47:46.221   06 Jun 2027 02:48:18.433            32.212                Irkutsk          1006.625
       430   06 Jun 2027 02:51:27.576   06 Jun 2027 02:52:20.348            52.772                  Delhi          1649.125
       431   06 Jun 2027 02:57:56.824   06 Jun 2027 02:58:24.304            27.480                  Delhi           858.750
       432   06 Jun 2027 03:33:07.432   06 Jun 2027 03:35:08.364           120.932            RioGallegos          3779.125
       433   06 Jun 2027 04:23:01.004   06 Jun 2027 04:23:26.980            25.976                Norilsk           811.750
       434   06 Jun 2027 04:23:47.888   06 Jun 2027 04:24:00.147            12.259              Murmansk1           383.094
       435   06 Jun 2027 04:24:51.557   06 Jun 2027 04:25:57.696            66.139                Norilsk          2066.844
       436   06 Jun 2027 04:26:00.094   06 Jun 2027 04:26:10.916            10.822              Murmansk2           338.187
       437   06 Jun 2027 04:26:10.916   06 Jun 2027 04:26:54.380            43.464              Murmansk1          1358.250
       438   06 Jun 2027 04:27:02.343   06 Jun 2027 04:27:45.626            43.283              Murmansk2          1352.594
       439   06 Jun 2027 04:28:12.565   06 Jun 2027 04:29:02.684            50.119                 Moscow          1566.219
       440   06 Jun 2027 04:29:43.341   06 Jun 2027 04:35:19.286           335.945                  Delhi         10498.281
       441   06 Jun 2027 06:03:03.196   06 Jun 2027 06:03:43.378            40.182                Novosib          1255.687
       442   06 Jun 2027 06:03:56.376   06 Jun 2027 06:04:03.334             6.958                Novosib           217.438
       443   06 Jun 2027 06:04:25.424   06 Jun 2027 06:05:03.250            37.826                 Moscow          1182.062
       444   06 Jun 2027 06:05:15.859   06 Jun 2027 06:06:07.514            51.655                 Moscow          1614.219
       445   06 Jun 2027 06:08:52.781   06 Jun 2027 06:09:08.992            16.211                 Moscow           506.594
       446   06 Jun 2027 06:21:29.702   06 Jun 2027 06:24:41.808           192.106               CapeTown          6003.313
       447   06 Jun 2027 07:24:36.956   06 Jun 2027 07:25:10.944            33.988                Anadyr1          1062.125
       448   06 Jun 2027 07:25:24.346   06 Jun 2027 07:26:23.626            59.280                Anadyr2          1852.500
       449   06 Jun 2027 07:26:23.626   06 Jun 2027 07:26:41.084            17.458                Anadyr1           545.562
       450   06 Jun 2027 07:30:09.475   06 Jun 2027 07:30:36.188            26.713                Anadyr1           834.781
       451   06 Jun 2027 08:00:16.192   06 Jun 2027 08:04:30.968           254.776               CapeTown          7961.750
       452   06 Jun 2027 09:00:32.367   06 Jun 2027 09:00:40.245             7.878               Magadan1           246.187
       453   06 Jun 2027 09:00:42.585   06 Jun 2027 09:01:46.645            64.060                Anadyr2          2001.875
       454   06 Jun 2027 09:02:31.390   06 Jun 2027 09:03:02.848            31.458               Magadan2           983.062
       455   06 Jun 2027 09:03:07.366   06 Jun 2027 09:03:31.304            23.938                Anadyr2           748.063
       456   06 Jun 2027 09:04:43.854   06 Jun 2027 09:05:21.150            37.296                Anadyr1          1165.500
       457   06 Jun 2027 09:45:06.456   06 Jun 2027 09:45:39.917            33.461            RioGallegos          1045.656
       458   06 Jun 2027 10:35:35.065   06 Jun 2027 10:35:57.279            22.214               Magadan2           694.188
       459   06 Jun 2027 10:36:12.467   06 Jun 2027 10:36:18.174             5.707               Magadan2           178.344
       460   06 Jun 2027 10:36:35.890   06 Jun 2027 10:38:42.504           126.614               Magadan1          3956.687
       461   06 Jun 2027 10:39:50.043   06 Jun 2027 10:39:56.972             6.929                Irkutsk           216.531
       462   06 Jun 2027 10:40:01.954   06 Jun 2027 10:40:37.165            35.211               Magadan2          1100.344
       463   06 Jun 2027 10:40:44.394   06 Jun 2027 10:40:50.374             5.980                Norilsk           186.875
       464   06 Jun 2027 10:41:51.956   06 Jun 2027 10:41:52.255             0.299                Norilsk             9.344
       465   06 Jun 2027 10:41:59.802   06 Jun 2027 10:42:14.362            14.560                Norilsk           455.000
       466   06 Jun 2027 10:44:42.050   06 Jun 2027 10:45:10.078            28.028                Norilsk           875.875
       467   06 Jun 2027 11:17:32.715   06 Jun 2027 11:18:08.263            35.548            RioGallegos          1110.875
       468   06 Jun 2027 11:18:09.103   06 Jun 2027 11:18:29.910            20.807            RioGallegos           650.219
       469   06 Jun 2027 11:54:45.426   06 Jun 2027 11:56:40.840           115.414                Sumatra          3606.687
       470   06 Jun 2027 12:10:06.957   06 Jun 2027 12:10:41.052            34.095                Novosib          1065.469
       471   06 Jun 2027 12:12:03.444   06 Jun 2027 12:16:19.627           256.183               Magadan2          8005.719
       472   06 Jun 2027 13:33:40.116   06 Jun 2027 13:34:16.486            36.370                Sumatra          1136.562
       473   06 Jun 2027 13:36:38.033   06 Jun 2027 13:37:45.308            67.275                Sumatra          2102.344
       474   06 Jun 2027 13:47:44.941   06 Jun 2027 13:50:19.485           154.544                Irkutsk          4829.500
       475   06 Jun 2027 14:35:31.361   06 Jun 2027 14:38:15.862           164.501            RioGallegos          5140.656
       476   06 Jun 2027 15:20:32.861   06 Jun 2027 15:22:24.847           111.986                  Delhi          3499.562
       477   06 Jun 2027 15:24:35.405   06 Jun 2027 15:25:48.620            73.215                Norilsk          2287.969
       478   06 Jun 2027 15:29:07.802   06 Jun 2027 15:31:20.489           132.687                Novosib          4146.469
       479   06 Jun 2027 16:56:35.005   06 Jun 2027 16:57:49.351            74.346                 Moscow          2323.312
       480   06 Jun 2027 17:00:55.625   06 Jun 2027 17:01:28.525            32.900              Murmansk2          1028.125
       481   06 Jun 2027 17:04:10.533   06 Jun 2027 17:04:32.308            21.775              Murmansk2           680.469
       482   06 Jun 2027 17:04:56.793   06 Jun 2027 17:09:19.699           262.906                Norilsk          8215.813
