uniorb/output/strategy_4/Drop/Drop_KinoSat_110201.txt

KinoSat_110201
-------------------------
    Access    *     Start Time (UTCG)     *     Stop Time (UTCG)  *   Duration (s)        *       Station  *  Data (Mbytes)
         1   01 Jun 2027 03:04:28.931   01 Jun 2027 03:04:44.483            15.552               Magadan1          1944.000
         2   01 Jun 2027 03:04:53.043   01 Jun 2027 03:05:37.230            44.187               Magadan1          5523.375
         3   01 Jun 2027 03:06:10.503   01 Jun 2027 03:07:21.090            70.587               Magadan2          8823.375
         4   01 Jun 2027 03:07:42.902   01 Jun 2027 03:08:35.747            52.845               Magadan1          6605.625
         5   01 Jun 2027 03:08:41.671   01 Jun 2027 03:08:56.296            14.625               Magadan2          1828.125
         6   01 Jun 2027 03:09:05.916   01 Jun 2027 03:09:15.695             9.779                Irkutsk          1222.375
         7   01 Jun 2027 03:09:22.119   01 Jun 2027 03:10:15.053            52.934                Novosib          6616.750
         8   01 Jun 2027 03:10:31.949   01 Jun 2027 03:10:34.036             2.087              Murmansk1           260.875
         9   01 Jun 2027 03:10:42.698   01 Jun 2027 03:11:16.529            33.831                Novosib          4228.875
        10   01 Jun 2027 03:11:18.661   01 Jun 2027 03:11:22.595             3.934              Murmansk1           491.750
        11   01 Jun 2027 03:45:37.567   01 Jun 2027 03:48:30.795           173.228            RioGallegos         21653.500
        12   01 Jun 2027 04:20:54.098   01 Jun 2027 04:25:26.990           272.892                Sumatra         19193.375
        13   01 Jun 2027 04:42:42.089   01 Jun 2027 04:43:00.239            18.150                Irkutsk          2268.750
        14   01 Jun 2027 04:43:24.698   01 Jun 2027 04:44:20.593            55.895                Novosib          6986.875
        15   01 Jun 2027 04:44:23.145   01 Jun 2027 04:44:31.014             7.869              Murmansk1           983.625
        16   01 Jun 2027 04:44:36.154   01 Jun 2027 04:45:16.659            40.505              Murmansk1          5063.125
        17   01 Jun 2027 04:45:38.035   01 Jun 2027 04:46:01.032            22.997              Murmansk2          2874.625
        18   01 Jun 2027 04:46:06.027   01 Jun 2027 04:46:53.942            47.915              Murmansk1          5989.375
        19   01 Jun 2027 05:25:01.642   01 Jun 2027 05:25:35.617            33.975            RioGallegos          4246.875
        20   01 Jun 2027 05:57:59.243   01 Jun 2027 06:00:32.594           153.351                Sumatra         19168.875
        21   01 Jun 2027 06:04:46.901   01 Jun 2027 06:06:10.948            84.047                  Delhi         10505.875
        22   01 Jun 2027 06:21:32.699   01 Jun 2027 06:22:47.328            74.629                Norilsk          9328.625
        23   01 Jun 2027 07:43:29.730   01 Jun 2027 07:44:03.932            34.202                  Delhi          4275.250
        24   01 Jun 2027 07:48:11.072   01 Jun 2027 07:49:01.930            50.858                  Delhi          6357.250
        25   01 Jun 2027 07:56:17.008   01 Jun 2027 07:57:02.779            45.771                 Moscow          5721.375
        26   01 Jun 2027 07:57:14.540   01 Jun 2027 07:57:17.928             3.388                 Moscow           423.500
        27   01 Jun 2027 07:57:29.743   01 Jun 2027 07:58:54.564            84.821              Murmansk2         10602.625
        28   01 Jun 2027 07:59:40.334   01 Jun 2027 08:00:47.524            67.190                 Moscow          8398.750
        29   01 Jun 2027 09:05:36.025   01 Jun 2027 09:08:09.276           153.251               CapeTown         19156.375
        30   01 Jun 2027 11:19:15.525   01 Jun 2027 11:19:57.988            42.463                Anadyr2          5307.875
        31   01 Jun 2027 11:22:37.743   01 Jun 2027 11:24:14.059            96.316                Anadyr1         12039.500
        32   01 Jun 2027 11:25:06.629   01 Jun 2027 11:27:05.589           118.960                Anadyr2         14870.000
        33   01 Jun 2027 12:57:38.303   01 Jun 2027 12:59:16.818            98.515               Magadan1         12314.375
        34   01 Jun 2027 13:02:40.383   01 Jun 2027 13:02:50.544            10.161               Magadan1          1270.125
        35   01 Jun 2027 13:05:13.814   01 Jun 2027 13:07:10.212           116.398               Magadan2         14549.750
        36   01 Jun 2027 15:25:28.627   01 Jun 2027 15:28:39.209           190.582            RioGallegos         23822.750
        37   01 Jun 2027 16:13:02.891   01 Jun 2027 16:15:01.358           118.467                Irkutsk         14808.375
        38   01 Jun 2027 16:26:47.447   01 Jun 2027 16:29:30.692           163.245                Sumatra         20405.625
        39   01 Jun 2027 17:48:49.240   01 Jun 2027 17:50:18.492            89.252                Novosib         11156.500
        40   01 Jun 2027 17:56:35.776   01 Jun 2027 18:00:49.087           253.311                  Delhi         31663.875
        41   01 Jun 2027 19:32:14.373   01 Jun 2027 19:32:23.003             8.630                  Delhi          1078.750
        42   01 Jun 2027 19:34:30.549   01 Jun 2027 19:34:55.825            25.276                  Delhi          3159.500
        43   01 Jun 2027 20:58:56.355   01 Jun 2027 20:59:14.501            18.146              Murmansk1           382.250
        44   02 Jun 2027 03:23:05.895   02 Jun 2027 03:24:09.861            63.966                Novosib          7995.750
        45   02 Jun 2027 03:24:09.904   02 Jun 2027 03:26:49.801           159.897                Norilsk         19987.125
        46   02 Jun 2027 04:32:42.339   02 Jun 2027 04:37:37.778           295.439                Sumatra         36929.875
        47   02 Jun 2027 04:56:01.825   02 Jun 2027 04:56:10.459             8.634                Irkutsk          1079.250
        48   02 Jun 2027 04:58:19.212   02 Jun 2027 04:58:49.921            30.709                Irkutsk          3838.625
        49   02 Jun 2027 04:59:02.325   02 Jun 2027 05:03:56.758           294.433                Norilsk         36804.125
        50   02 Jun 2027 05:04:18.591   02 Jun 2027 05:06:15.579           116.988              Murmansk2         14623.500
        51   02 Jun 2027 05:36:28.542   02 Jun 2027 05:40:34.329           245.787            RioGallegos         30723.375
        52   02 Jun 2027 05:41:18.880   02 Jun 2027 05:42:02.548            43.668            RioGallegos          5458.500
        53   02 Jun 2027 05:42:49.382   02 Jun 2027 05:43:29.813            40.431            RioGallegos          5053.875
        54   02 Jun 2027 06:10:54.136   02 Jun 2027 06:13:51.199           177.063                Sumatra         22132.875
        55   02 Jun 2027 06:19:38.141   02 Jun 2027 06:20:28.999            50.858                  Delhi          6357.250
        56   02 Jun 2027 06:24:10.066   02 Jun 2027 06:25:43.625            93.559                Novosib         11694.875
        57   02 Jun 2027 06:34:47.408   02 Jun 2027 06:37:45.724           178.316                 Moscow         22289.500
        58   02 Jun 2027 06:38:05.390   02 Jun 2027 06:40:25.638           140.248              Murmansk2         17531.000
        59   02 Jun 2027 07:56:59.665   02 Jun 2027 07:58:47.256           107.591                  Delhi         13448.875
        60   02 Jun 2027 08:10:00.002   02 Jun 2027 08:10:41.654            41.652                 Moscow          5206.500
        61   02 Jun 2027 08:11:35.981   02 Jun 2027 08:17:32.506           356.525              Murmansk2         44565.625
        62   02 Jun 2027 09:16:41.614   02 Jun 2027 09:24:57.902           496.288               CapeTown         62036.000
        63   02 Jun 2027 09:37:55.593   02 Jun 2027 09:45:36.957           461.364                 Moscow         57670.500
        64   02 Jun 2027 09:45:46.470   02 Jun 2027 09:47:14.146            87.676              Murmansk2         10959.500
        65   02 Jun 2027 09:49:08.783   02 Jun 2027 09:49:22.928            14.145              Murmansk1          1768.125
        66   02 Jun 2027 09:49:38.737   02 Jun 2027 09:50:06.807            28.070              Murmansk1          3508.750
        67   02 Jun 2027 09:52:09.648   02 Jun 2027 09:52:36.712            27.064              Murmansk1          3383.000
        68   02 Jun 2027 09:55:55.540   02 Jun 2027 10:01:40.939           345.399                Anadyr2         43174.875
        69   02 Jun 2027 10:04:00.572   02 Jun 2027 10:04:09.695             9.123                Anadyr1          1140.375
        70   02 Jun 2027 11:20:05.529   02 Jun 2027 11:21:44.760            99.231              Murmansk2         12403.875
        71   02 Jun 2027 11:21:44.760   02 Jun 2027 11:22:14.661            29.901              Murmansk1          3737.625
        72   02 Jun 2027 11:23:22.300   02 Jun 2027 11:23:30.084             7.784              Murmansk2           973.000
        73   02 Jun 2027 11:24:13.024   02 Jun 2027 11:24:17.528             4.504              Murmansk2           563.000
        74   02 Jun 2027 11:31:15.306   02 Jun 2027 11:31:50.944            35.638                Anadyr1          4454.750
        75   02 Jun 2027 11:33:40.832   02 Jun 2027 11:36:03.737           142.905                Anadyr2         17863.125
        76   02 Jun 2027 11:36:25.965   02 Jun 2027 11:38:42.378           136.413               Magadan1         17051.625
        77   02 Jun 2027 13:09:35.146   02 Jun 2027 13:14:16.899           281.753               Magadan2         35219.125
        78   02 Jun 2027 15:37:18.620   02 Jun 2027 15:41:40.159           261.539            RioGallegos         32692.375
        79   02 Jun 2027 16:24:57.810   02 Jun 2027 16:26:48.702           110.892                Irkutsk         13861.500
        80   02 Jun 2027 16:38:38.705   02 Jun 2027 16:41:40.880           182.175                Sumatra         22771.875
        81   02 Jun 2027 18:08:21.610   02 Jun 2027 18:10:41.670           140.060                  Delhi         17507.500
        82   02 Jun 2027 18:16:02.868   02 Jun 2027 18:17:48.143           105.275                  Delhi         13159.375
        83   02 Jun 2027 19:46:51.968   02 Jun 2027 19:47:22.870            30.902                 Moscow          3862.750
        84   02 Jun 2027 21:14:15.983   02 Jun 2027 21:15:16.346            60.363                 Moscow          7545.375
        85   02 Jun 2027 21:19:02.770   02 Jun 2027 21:19:19.123            16.353                 Moscow          2044.125
        86   02 Jun 2027 21:21:14.873   02 Jun 2027 21:22:21.442            66.569                 Moscow          8321.125
        87   02 Jun 2027 21:38:21.594   02 Jun 2027 21:38:39.748            18.154               CapeTown          2269.250
        88   02 Jun 2027 21:41:10.635   02 Jun 2027 21:42:24.984            74.349               CapeTown          9293.625
        89   03 Jun 2027 03:35:06.774   03 Jun 2027 03:35:49.788            43.014              Murmansk2          5376.750
        90   03 Jun 2027 03:35:49.788   03 Jun 2027 03:40:02.923           253.135              Murmansk1         31641.875
        91   03 Jun 2027 04:44:36.496   03 Jun 2027 04:47:43.744           187.248                Sumatra         23406.000
        92   03 Jun 2027 05:11:02.494   03 Jun 2027 05:12:47.515           105.021                 Moscow         13127.625
        93   03 Jun 2027 05:13:03.105   03 Jun 2027 05:15:12.611           129.506              Murmansk1         16188.250
        94   03 Jun 2027 05:15:12.611   03 Jun 2027 05:15:49.754            37.143              Murmansk2          4642.875
        95   03 Jun 2027 05:15:49.754   03 Jun 2027 05:16:20.723            30.969              Murmansk1          3871.125
        96   03 Jun 2027 05:49:22.189   03 Jun 2027 05:50:53.580            91.391            RioGallegos         11423.875
        97   03 Jun 2027 06:24:32.815   03 Jun 2027 06:25:57.821            85.006                Sumatra         10625.750
        98   03 Jun 2027 06:28:49.153   03 Jun 2027 06:31:18.646           149.493                  Delhi         18686.625
        99   03 Jun 2027 06:31:57.052   03 Jun 2027 06:34:41.894           164.842                  Delhi         20605.250
       100   03 Jun 2027 06:36:29.092   03 Jun 2027 06:40:14.294           225.202                Novosib         28150.250
       101   03 Jun 2027 06:40:15.020   03 Jun 2027 06:41:49.259            94.239                 Moscow         11779.875
       102   03 Jun 2027 06:46:47.879   03 Jun 2027 06:48:10.244            82.365                Novosib         10295.625
       103   03 Jun 2027 06:48:14.095   03 Jun 2027 06:49:23.043            68.948                Norilsk          8618.500
       104   03 Jun 2027 06:49:35.080   03 Jun 2027 06:51:41.856           126.776              Murmansk1         15847.000
       105   03 Jun 2027 08:22:24.772   03 Jun 2027 08:23:06.448            41.676                Norilsk          5209.500
       106   03 Jun 2027 08:23:30.106   03 Jun 2027 08:29:33.999           363.893              Murmansk2         45486.625
       107   03 Jun 2027 09:28:05.790   03 Jun 2027 09:37:19.297           553.507               CapeTown         69188.375
       108   03 Jun 2027 09:50:17.830   03 Jun 2027 09:54:17.755           239.925                 Moscow         29990.625
       109   03 Jun 2027 09:54:33.132   03 Jun 2027 10:03:06.738           513.606              Murmansk1         64200.750
       110   03 Jun 2027 10:07:47.541   03 Jun 2027 10:16:49.172           541.631                Anadyr2         67703.875
       111   03 Jun 2027 11:43:15.482   03 Jun 2027 11:45:56.429           160.947                Anadyr1         20118.375
       112   03 Jun 2027 11:46:55.133   03 Jun 2027 11:50:49.943           234.810               Magadan1         29351.250
       113   03 Jun 2027 13:21:32.968   03 Jun 2027 13:26:17.278           284.310               Magadan2         35538.750
       114   03 Jun 2027 15:19:39.675   03 Jun 2027 15:21:47.950           128.275                Sumatra         16034.375
       115   03 Jun 2027 15:49:11.146   03 Jun 2027 15:51:09.253           118.107            RioGallegos         14763.375
       116   03 Jun 2027 16:36:54.274   03 Jun 2027 16:38:20.812            86.538                Irkutsk         10817.250
       117   03 Jun 2027 16:44:56.024   03 Jun 2027 16:45:31.129            35.105                Irkutsk          4388.125
       118   03 Jun 2027 16:50:35.688   03 Jun 2027 16:53:30.049           174.361                Sumatra         21795.125
       119   03 Jun 2027 18:15:57.311   03 Jun 2027 18:17:32.341            95.030                Novosib         11878.750
       120   03 Jun 2027 18:20:12.030   03 Jun 2027 18:22:59.298           167.268                  Delhi         20908.500
       121   03 Jun 2027 18:32:39.335   03 Jun 2027 18:32:43.348             4.013                  Delhi           501.625
       122   03 Jun 2027 19:51:16.422   03 Jun 2027 19:51:24.369             7.947                 Moscow           993.375
       123   03 Jun 2027 19:58:15.574   03 Jun 2027 20:00:28.534           132.960                 Moscow         16620.000
       124   03 Jun 2027 21:30:24.777   03 Jun 2027 21:31:04.547            39.770                 Moscow          4971.250
       125   03 Jun 2027 21:33:36.063   03 Jun 2027 21:34:20.135            44.072                 Moscow          5509.000
       126   03 Jun 2027 21:50:12.405   03 Jun 2027 21:51:37.315            84.910               CapeTown         10613.750
       127   03 Jun 2027 21:53:17.147   03 Jun 2027 21:53:23.669             6.522               CapeTown           815.250
       128   03 Jun 2027 21:58:02.032   03 Jun 2027 21:59:43.158           101.126               CapeTown         12640.750
       129   04 Jun 2027 03:24:36.235   04 Jun 2027 03:26:15.169            98.934                Sumatra          5040.500
       130   04 Jun 2027 03:47:11.080   04 Jun 2027 03:47:18.606             7.526                Norilsk           940.750
       131   04 Jun 2027 03:47:20.063   04 Jun 2027 03:50:14.048           173.985              Murmansk2         21748.125
       132   04 Jun 2027 04:56:36.272   04 Jun 2027 04:59:01.764           145.492                Sumatra         18186.500
       133   04 Jun 2027 05:06:49.120   04 Jun 2027 05:08:30.103           100.983                  Delhi         12622.875
       134   04 Jun 2027 05:22:17.803   04 Jun 2027 05:22:48.114            30.311                Norilsk          3788.875
       135   04 Jun 2027 05:23:13.660   04 Jun 2027 05:28:00.439           286.779                Norilsk         35847.375
       136   04 Jun 2027 05:28:11.969   04 Jun 2027 05:28:21.412             9.443              Murmansk1          1180.375
       137   04 Jun 2027 06:02:42.082   04 Jun 2027 06:02:59.991            17.909            RioGallegos          2238.625
       138   04 Jun 2027 06:40:58.528   04 Jun 2027 06:43:52.617           174.089                  Delhi         21761.125
       139   04 Jun 2027 06:47:29.750   04 Jun 2027 06:48:38.565            68.815                  Delhi          8601.875
       140   04 Jun 2027 06:48:50.295   04 Jun 2027 06:50:44.838           114.543                  Delhi         14317.875
       141   04 Jun 2027 06:50:49.985   04 Jun 2027 06:54:28.574           218.589                 Moscow         27323.625
       142   04 Jun 2027 06:58:46.792   04 Jun 2027 06:59:54.598            67.806              Murmansk2          8475.750
       143   04 Jun 2027 06:59:55.933   04 Jun 2027 07:01:56.849           120.916                 Moscow         15114.500
       144   04 Jun 2027 07:02:00.723   04 Jun 2027 07:03:59.523           118.800                Norilsk         14850.000
       145   04 Jun 2027 07:04:01.339   04 Jun 2027 07:04:19.424            18.085              Murmansk1          2260.625
       146   04 Jun 2027 08:25:11.984   04 Jun 2027 08:28:11.578           179.594                 Moscow         22449.250
       147   04 Jun 2027 08:29:20.478   04 Jun 2027 08:29:53.401            32.923                 Moscow          4115.375
       148   04 Jun 2027 08:34:36.181   04 Jun 2027 08:41:35.587           419.406              Murmansk2         52425.750
       149   04 Jun 2027 09:41:40.079   04 Jun 2027 09:48:59.483           439.404               CapeTown         54925.500
       150   04 Jun 2027 10:08:47.213   04 Jun 2027 10:09:22.433            35.220              Murmansk1          4402.500
       151   04 Jun 2027 10:09:35.617   04 Jun 2027 10:10:15.679            40.062                 Moscow          5007.750
       152   04 Jun 2027 10:13:11.303   04 Jun 2027 10:13:51.678            40.375              Murmansk2          5046.875
       153   04 Jun 2027 10:15:04.237   04 Jun 2027 10:16:11.750            67.513              Murmansk2          8439.125
       154   04 Jun 2027 10:19:41.707   04 Jun 2027 10:25:00.670           318.963                Anadyr1         39870.375
       155   04 Jun 2027 10:26:01.068   04 Jun 2027 10:29:24.103           203.035                Anadyr2         25379.375
       156   04 Jun 2027 11:49:09.341   04 Jun 2027 11:50:35.938            86.597              Murmansk1         10824.625
       157   04 Jun 2027 11:51:20.339   04 Jun 2027 11:52:03.594            43.255              Murmansk1          5406.875
       158   04 Jun 2027 11:58:35.492   04 Jun 2027 12:02:38.515           243.023               Magadan2         30377.875
       159   04 Jun 2027 13:33:31.600   04 Jun 2027 13:36:15.905           164.305               Magadan2         20538.125
       160   04 Jun 2027 15:19:21.576   04 Jun 2027 15:22:18.668           177.092                Irkutsk         22136.500
       161   04 Jun 2027 15:29:52.944   04 Jun 2027 15:32:04.824           131.880                Sumatra         16485.000
       162   04 Jun 2027 16:49:42.547   04 Jun 2027 16:51:44.803           122.256                Novosib         15282.000
       163   04 Jun 2027 16:56:34.205   04 Jun 2027 16:59:06.130           151.925                Novosib         18990.625
       164   04 Jun 2027 17:01:35.580   04 Jun 2027 17:01:58.383            22.803                  Delhi          2850.375
       165   04 Jun 2027 17:04:09.039   04 Jun 2027 17:04:38.172            29.133                Sumatra          3641.625
       166   04 Jun 2027 17:09:25.787   04 Jun 2027 17:10:25.600            59.813                Sumatra          7476.625
       167   04 Jun 2027 18:29:06.695   04 Jun 2027 18:29:34.234            27.539                Novosib          3442.375
       168   04 Jun 2027 18:32:06.367   04 Jun 2027 18:34:52.112           165.745                  Delhi         20718.125
       169   04 Jun 2027 18:39:48.480   04 Jun 2027 18:41:38.910           110.430                  Delhi         13803.750
       170   04 Jun 2027 20:03:02.998   04 Jun 2027 20:05:13.719           130.721                 Moscow         16340.125
       171   04 Jun 2027 21:45:34.575   04 Jun 2027 21:46:16.048            41.473                 Moscow          5184.125
       172   04 Jun 2027 21:49:55.422   04 Jun 2027 21:51:07.966            72.544                 Moscow          9068.000
       173   04 Jun 2027 22:07:27.185   04 Jun 2027 22:09:54.288           147.103               CapeTown          8038.501
       174   05 Jun 2027 03:59:03.515   05 Jun 2027 04:01:35.768           152.253                Norilsk         19031.625
       175   05 Jun 2027 05:08:41.667   05 Jun 2027 05:10:18.219            96.552                Sumatra         12069.000
       176   05 Jun 2027 05:16:31.319   05 Jun 2027 05:18:14.099           102.780                Sumatra         12847.500
       177   05 Jun 2027 05:34:53.417   05 Jun 2027 05:36:35.658           102.241                Novosib         12780.125
       178   05 Jun 2027 05:36:39.677   05 Jun 2027 05:39:35.002           175.325                Norilsk         21915.625
       179   05 Jun 2027 05:39:37.240   05 Jun 2027 05:40:24.962            47.722              Murmansk2          5965.250
       180   05 Jun 2027 06:53:13.951   05 Jun 2027 06:57:39.763           265.812                  Delhi         33226.500
       181   05 Jun 2027 07:00:52.427   05 Jun 2027 07:02:57.766           125.339                  Delhi         15667.375
       182   05 Jun 2027 07:03:07.292   05 Jun 2027 07:04:30.203            82.911                Novosib         10363.875
       183   05 Jun 2027 07:04:35.649   05 Jun 2027 07:05:49.986            74.337                 Moscow          9292.125
       184   05 Jun 2027 07:10:36.648   05 Jun 2027 07:11:44.133            67.485              Murmansk1          8435.625
       185   05 Jun 2027 07:11:44.133   05 Jun 2027 07:16:20.343           276.210              Murmansk2         34526.250
       186   05 Jun 2027 07:17:39.249   05 Jun 2027 07:17:42.222             2.973              Murmansk1           371.625
       187   05 Jun 2027 08:37:13.889   05 Jun 2027 08:42:37.069           323.180                 Moscow         40397.500
       188   05 Jun 2027 08:45:45.290   05 Jun 2027 08:51:27.142           341.852                Norilsk         42731.500
       189   05 Jun 2027 08:51:57.477   05 Jun 2027 08:53:33.648            96.171              Murmansk1         12021.375
       190   05 Jun 2027 09:55:27.209   05 Jun 2027 09:57:34.373           127.164               CapeTown         15895.500
       191   05 Jun 2027 10:20:09.554   05 Jun 2027 10:21:28.902            79.348              Murmansk2          9918.500
       192   05 Jun 2027 10:21:59.649   05 Jun 2027 10:22:24.775            25.126              Murmansk1          3140.750
       193   05 Jun 2027 10:22:57.499   05 Jun 2027 10:23:43.310            45.811              Murmansk1          5726.375
       194   05 Jun 2027 10:24:49.269   05 Jun 2027 10:27:34.350           165.081              Murmansk2         20635.125
       195   05 Jun 2027 10:31:37.466   05 Jun 2027 10:36:49.673           312.207                Anadyr2         39025.875
       196   05 Jun 2027 10:37:03.195   05 Jun 2027 10:41:09.486           246.291                Anadyr1         30786.375
       197   05 Jun 2027 12:02:29.219   05 Jun 2027 12:03:21.495            52.276              Murmansk1          6534.500
       198   05 Jun 2027 12:08:43.811   05 Jun 2027 12:09:07.342            23.531                Anadyr1          2941.375
       199   05 Jun 2027 12:11:18.417   05 Jun 2027 12:14:04.170           165.753               Magadan2         20719.125
       200   05 Jun 2027 13:45:30.919   05 Jun 2027 13:46:21.368            50.449               Magadan1          6306.125
       201   05 Jun 2027 13:48:28.825   05 Jun 2027 13:50:19.256           110.431               Magadan1         13803.875
       202   05 Jun 2027 14:43:26.451   05 Jun 2027 14:45:17.774           111.323            RioGallegos         13915.375
       203   05 Jun 2027 15:32:00.551   05 Jun 2027 15:32:46.711            46.160                Irkutsk          5770.000
       204   05 Jun 2027 15:40:51.854   05 Jun 2027 15:43:49.381           177.527                Sumatra         22190.875
       205   05 Jun 2027 15:46:30.618   05 Jun 2027 15:49:51.441           200.823                Sumatra         25102.875
       206   05 Jun 2027 17:10:56.613   05 Jun 2027 17:11:42.483            45.870                Novosib          5733.750
       207   05 Jun 2027 17:13:38.053   05 Jun 2027 17:17:25.131           227.078                  Delhi         28384.750
       208   05 Jun 2027 18:44:04.237   05 Jun 2027 18:46:03.816           119.579                  Delhi         14947.375
       209   05 Jun 2027 18:53:39.441   05 Jun 2027 18:55:04.268            84.827                  Delhi         10603.375
       210   05 Jun 2027 20:14:52.906   05 Jun 2027 20:15:38.555            45.649                 Moscow          5706.125
       211   05 Jun 2027 20:19:18.947   05 Jun 2027 20:20:28.276            69.329                 Moscow          8666.125
       212   05 Jun 2027 21:53:34.050   05 Jun 2027 21:55:09.700            95.650                 Moscow         11956.250
       213   05 Jun 2027 22:14:08.920   05 Jun 2027 22:14:32.481            23.561               CapeTown          1057.750
       214   06 Jun 2027 04:10:54.212   06 Jun 2027 04:11:05.063            10.851                Irkutsk          1356.375
       215   06 Jun 2027 05:20:53.030   06 Jun 2027 05:21:46.772            53.742                Sumatra          6717.750
       216   06 Jun 2027 05:23:31.310   06 Jun 2027 05:25:30.730           119.420                Sumatra         14927.500
       217   06 Jun 2027 05:31:43.101   06 Jun 2027 05:33:46.310           123.209                  Delhi         15401.125
       218   06 Jun 2027 05:46:36.565   06 Jun 2027 05:47:16.996            40.431                Norilsk          5053.875
       219   06 Jun 2027 05:47:32.907   06 Jun 2027 05:49:09.094            96.187              Murmansk1         12023.375
       220   06 Jun 2027 05:49:17.831   06 Jun 2027 05:49:29.381            11.550                 Moscow          1443.750
       221   06 Jun 2027 05:49:34.368   06 Jun 2027 05:52:27.016           172.648              Murmansk1         21581.000
       222   06 Jun 2027 07:05:36.254   06 Jun 2027 07:07:31.899           115.645                  Delhi         14455.625
       223   06 Jun 2027 07:09:33.639   06 Jun 2027 07:09:43.758            10.119                  Delhi          1264.875
       224   06 Jun 2027 07:12:34.207   06 Jun 2027 07:13:51.212            77.005                  Delhi          9625.625
       225   06 Jun 2027 07:13:52.847   06 Jun 2027 07:14:19.588            26.741                Novosib          3342.625
       226   06 Jun 2027 07:14:26.567   06 Jun 2027 07:15:10.874            44.307                 Moscow          5538.375
       227   06 Jun 2027 07:15:24.372   06 Jun 2027 07:17:24.301           119.929                Novosib         14991.125
       228   06 Jun 2027 07:22:28.863   06 Jun 2027 07:24:04.595            95.732              Murmansk2         11966.500
       229   06 Jun 2027 07:24:22.653   06 Jun 2027 07:27:00.293           157.640                Norilsk         19705.000
       230   06 Jun 2027 07:27:16.692   06 Jun 2027 07:29:42.843           146.151              Murmansk2         18268.875
       231   06 Jun 2027 08:52:39.612   06 Jun 2027 08:54:55.016           135.404                 Moscow         16925.500
       232   06 Jun 2027 08:57:23.556   06 Jun 2027 08:58:59.358            95.802                 Moscow         11975.250
       233   06 Jun 2027 08:59:02.447   06 Jun 2027 09:03:14.468           252.021                Norilsk         31502.625
       234   06 Jun 2027 09:09:51.591   06 Jun 2027 09:12:13.434           141.843                Anadyr2         17730.375
       235   06 Jun 2027 10:08:31.060   06 Jun 2027 10:08:59.035            27.975               CapeTown          3496.875
       236   06 Jun 2027 10:36:50.760   06 Jun 2027 10:39:03.378           132.618              Murmansk2         16577.250
       237   06 Jun 2027 10:43:34.441   06 Jun 2027 10:44:56.135            81.694                Anadyr1         10211.750
       238   06 Jun 2027 10:47:39.400   06 Jun 2027 10:53:07.234           327.834                Anadyr2         40979.250
       239   06 Jun 2027 12:13:11.915   06 Jun 2027 12:13:36.057            24.142              Murmansk1          3017.750
       240   06 Jun 2027 12:15:22.806   06 Jun 2027 12:15:31.127             8.321              Murmansk2          1040.125
       241   06 Jun 2027 12:19:17.744   06 Jun 2027 12:19:37.641            19.897                Anadyr2          2487.125
       242   06 Jun 2027 12:21:17.075   06 Jun 2027 12:22:29.026            71.951                Anadyr2          8993.875
       243   06 Jun 2027 12:23:01.041   06 Jun 2027 12:26:05.419           184.378               Magadan2         23047.250
       244   06 Jun 2027 13:57:30.817   06 Jun 2027 13:58:06.530            35.713               Magadan2          4464.125
       245   06 Jun 2027 13:58:55.022   06 Jun 2027 14:00:38.864           103.842               Magadan1         12980.250
       246   06 Jun 2027 14:54:48.174   06 Jun 2027 14:55:41.742            53.568            RioGallegos          6696.000
       247   06 Jun 2027 15:37:46.117   06 Jun 2027 15:39:33.179           107.062                Irkutsk         13382.750
       248   06 Jun 2027 15:41:59.110   06 Jun 2027 15:43:51.096           111.986                Irkutsk         13998.250
       249   06 Jun 2027 15:52:09.455   06 Jun 2027 15:55:40.198           210.743                Sumatra         26342.875
       250   06 Jun 2027 17:13:20.383   06 Jun 2027 17:17:47.724           267.341                Novosib         33417.625
       251   06 Jun 2027 17:22:15.710   06 Jun 2027 17:27:41.041           325.331                  Delhi         40666.375
       252   06 Jun 2027 20:26:45.294   06 Jun 2027 20:28:09.139            83.845                 Moscow         10480.625
       253   06 Jun 2027 22:14:40.445   06 Jun 2027 22:15:08.783            28.338                 Moscow          2021.750
       254   07 Jun 2027 05:33:11.117   07 Jun 2027 05:33:24.199            13.082                Sumatra          1635.250
       255   07 Jun 2027 05:35:15.108   07 Jun 2027 05:37:20.624           125.516                Sumatra         15689.500
       256   07 Jun 2027 05:41:20.571   07 Jun 2027 05:43:56.056           155.485                  Delhi         19435.625
       257   07 Jun 2027 05:58:54.533   07 Jun 2027 06:00:53.140           118.607                Norilsk         14825.875
       258   07 Jun 2027 06:01:05.652   07 Jun 2027 06:01:38.744            33.092                 Moscow          4136.500
       259   07 Jun 2027 06:02:00.535   07 Jun 2027 06:04:28.988           148.453              Murmansk2         18556.625
       260   07 Jun 2027 06:04:28.988   07 Jun 2027 06:05:35.459            66.471              Murmansk1          8308.875
       261   07 Jun 2027 07:26:32.109   07 Jun 2027 07:28:56.348           144.239                Novosib         18029.875
       262   07 Jun 2027 07:34:28.574   07 Jun 2027 07:41:43.690           435.116              Murmansk2         54389.500
       263   07 Jun 2027 09:04:32.059   07 Jun 2027 09:04:43.065            11.006                 Moscow          1375.750
       264   07 Jun 2027 09:05:06.428   07 Jun 2027 09:06:15.537            69.109              Murmansk1          8638.625
       265   07 Jun 2027 09:08:25.431   07 Jun 2027 09:08:31.787             6.356              Murmansk2           794.500
       266   07 Jun 2027 09:08:51.023   07 Jun 2027 09:09:34.201            43.178              Murmansk2          5397.250
       267   07 Jun 2027 09:11:46.410   07 Jun 2027 09:14:51.490           185.080                Norilsk         23135.000
       268   07 Jun 2027 09:21:01.781   07 Jun 2027 09:24:48.926           227.145                Anadyr1         28393.125
       269   07 Jun 2027 10:55:32.363   07 Jun 2027 10:56:35.811            63.448                Anadyr2          7931.000
       270   07 Jun 2027 11:04:48.820   07 Jun 2027 11:06:46.973           118.153                Anadyr2         14769.125
       271   07 Jun 2027 12:23:40.343   07 Jun 2027 12:23:52.955            12.612              Murmansk2          1576.500
       272   07 Jun 2027 12:31:18.888   07 Jun 2027 12:31:36.555            17.667                Anadyr2          2208.375
       273   07 Jun 2027 12:34:03.256   07 Jun 2027 12:38:34.084           270.828               Magadan1         33853.500
       274   07 Jun 2027 14:09:31.207   07 Jun 2027 14:10:01.311            30.104               Magadan1          3763.000
       275   07 Jun 2027 14:11:23.992   07 Jun 2027 14:12:01.757            37.765               Magadan2          4720.625
       276   07 Jun 2027 14:14:22.512   07 Jun 2027 14:14:25.923             3.411               Magadan1           426.375
       277   07 Jun 2027 15:02:14.229   07 Jun 2027 15:02:52.100            37.871            RioGallegos          4733.875
       278   07 Jun 2027 15:05:31.207   07 Jun 2027 15:06:12.615            41.408            RioGallegos          5176.000
       279   07 Jun 2027 15:08:08.491   07 Jun 2027 15:11:13.039           184.548            RioGallegos         23068.500
       280   07 Jun 2027 15:49:33.806   07 Jun 2027 15:50:19.299            45.493                Irkutsk          5686.625
       281   07 Jun 2027 16:03:38.825   07 Jun 2027 16:07:36.774           237.949                Sumatra         29743.625
       282   07 Jun 2027 17:25:13.208   07 Jun 2027 17:26:44.066            90.858                Novosib         11357.250
       283   07 Jun 2027 17:29:53.576   07 Jun 2027 17:30:36.417            42.841                Novosib          5355.125
       284   07 Jun 2027 17:33:37.305   07 Jun 2027 17:37:13.640           216.335                  Delhi         27041.875
       285   07 Jun 2027 17:39:59.223   07 Jun 2027 17:42:15.115           135.892                  Delhi         16986.500
       286   07 Jun 2027 20:38:39.605   07 Jun 2027 20:40:41.641           122.036                 Moscow         15254.500
       287   07 Jun 2027 22:11:42.894   07 Jun 2027 22:12:01.581            18.687              Murmansk2          2335.875
       288   07 Jun 2027 22:38:25.899   07 Jun 2027 22:41:14.929           169.030               CapeTown          8087.875
       289   08 Jun 2027 05:53:08.404   08 Jun 2027 05:56:05.103           176.699                  Delhi         22087.375
       290   08 Jun 2027 06:11:14.322   08 Jun 2027 06:13:46.912           152.590                 Moscow         19073.750
       291   08 Jun 2027 06:14:00.360   08 Jun 2027 06:14:29.144            28.784              Murmansk2          3598.000
       292   08 Jun 2027 06:14:33.583   08 Jun 2027 06:16:27.869           114.286              Murmansk2         14285.750
       293   08 Jun 2027 07:30:48.177   08 Jun 2027 07:32:17.735            89.558                  Delhi         11194.750
       294   08 Jun 2027 07:39:19.446   08 Jun 2027 07:41:01.137           101.691                Novosib         12711.375
       295   08 Jun 2027 07:41:01.762   08 Jun 2027 07:42:13.023            71.261                 Moscow          8907.625
       296   08 Jun 2027 07:47:14.007   08 Jun 2027 07:50:12.957           178.950                 Moscow         22368.750
       297   08 Jun 2027 07:50:18.102   08 Jun 2027 07:51:42.362            84.260                Norilsk         10532.500
       298   08 Jun 2027 07:52:06.307   08 Jun 2027 07:53:07.911            61.604              Murmansk2          7700.500
       299   08 Jun 2027 07:53:07.911   08 Jun 2027 07:53:44.745            36.834              Murmansk1          4604.250
       300   08 Jun 2027 09:13:37.871   08 Jun 2027 09:17:08.531           210.660                 Moscow         26332.500
       301   08 Jun 2027 09:17:16.811   08 Jun 2027 09:18:07.472            50.661              Murmansk2          6332.625
       302   08 Jun 2027 09:18:29.594   08 Jun 2027 09:19:20.328            50.734              Murmansk1          6341.750
       303   08 Jun 2027 09:25:21.590   08 Jun 2027 09:26:30.800            69.210              Murmansk1          8651.250
       304   08 Jun 2027 09:32:37.082   08 Jun 2027 09:36:42.989           245.907                Anadyr2         30738.375
       305   08 Jun 2027 09:37:53.082   08 Jun 2027 09:38:48.170            55.088                Anadyr1          6886.000
       306   08 Jun 2027 11:07:31.044   08 Jun 2027 11:11:25.369           234.325                Anadyr2         29290.625
       307   08 Jun 2027 12:11:38.418   08 Jun 2027 12:12:31.068            52.650               CapeTown          6581.250
       308   08 Jun 2027 12:36:44.863   08 Jun 2027 12:37:08.879            24.016              Murmansk2          3002.000
       309   08 Jun 2027 12:43:56.131   08 Jun 2027 12:45:51.414           115.283                Anadyr1         14410.375
       310   08 Jun 2027 12:45:57.401   08 Jun 2027 12:50:14.004           256.603               Magadan2         32075.375
       311   08 Jun 2027 14:21:32.024   08 Jun 2027 14:23:48.844           136.820               Magadan2         17102.500
       312   08 Jun 2027 15:13:56.478   08 Jun 2027 15:15:28.305            91.827            RioGallegos         11478.375
       313   08 Jun 2027 16:01:24.536   08 Jun 2027 16:05:51.039           266.503                Irkutsk         33312.875
       314   08 Jun 2027 16:15:16.900   08 Jun 2027 16:17:29.129           132.229                Sumatra         16528.625
       315   08 Jun 2027 17:37:07.866   08 Jun 2027 17:39:08.772           120.906                Novosib         15113.250
       316   08 Jun 2027 17:45:10.044   08 Jun 2027 17:49:07.723           237.679                  Delhi         29709.875
       317   08 Jun 2027 20:50:35.459   08 Jun 2027 20:52:08.825            93.366                 Moscow         11670.750
       318   08 Jun 2027 21:15:10.136   08 Jun 2027 21:15:18.005             7.869               CapeTown           983.625
       319   08 Jun 2027 22:53:07.132   08 Jun 2027 22:55:03.354           116.222               CapeTown         14527.750
       320   09 Jun 2027 03:11:30.140   09 Jun 2027 03:14:12.306           162.166                Norilsk         20270.750
       321   09 Jun 2027 04:21:08.667   09 Jun 2027 04:23:38.309           149.642                Sumatra         18705.250
       322   09 Jun 2027 04:46:55.749   09 Jun 2027 04:48:42.818           107.069                Novosib         13383.625
       323   09 Jun 2027 04:48:45.063   09 Jun 2027 04:52:33.838           228.775              Murmansk2         28596.875
       324   09 Jun 2027 05:25:50.329   09 Jun 2027 05:26:13.923            23.594            RioGallegos          2949.250
       325   09 Jun 2027 05:26:24.189   09 Jun 2027 05:27:05.537            41.348            RioGallegos          5168.500
       326   09 Jun 2027 05:29:06.996   09 Jun 2027 05:30:21.714            74.718            RioGallegos          9339.750
       327   09 Jun 2027 05:31:11.071   09 Jun 2027 05:31:30.219            19.148            RioGallegos          2393.500
       328   09 Jun 2027 05:58:14.836   09 Jun 2027 06:00:00.964           106.128                Sumatra         13266.000
       329   09 Jun 2027 06:00:46.288   09 Jun 2027 06:01:47.880            61.592                Sumatra          7699.000
       330   09 Jun 2027 06:05:01.656   09 Jun 2027 06:08:03.219           181.563                  Delhi         22695.375
       331   09 Jun 2027 06:12:09.841   09 Jun 2027 06:16:38.343           268.502                Novosib         33562.750
       332   09 Jun 2027 06:17:28.641   09 Jun 2027 06:19:32.839           124.198                 Moscow         15524.750
       333   09 Jun 2027 06:23:36.471   09 Jun 2027 06:24:32.648            56.177                Novosib          7022.125
       334   09 Jun 2027 06:24:40.058   09 Jun 2027 06:27:44.329           184.271                Norilsk         23033.875
       335   09 Jun 2027 06:27:53.926   09 Jun 2027 06:28:16.764            22.838              Murmansk1          2854.750
       336   09 Jun 2027 07:50:41.827   09 Jun 2027 07:54:14.718           212.891                 Moscow         26611.375
       337   09 Jun 2027 07:58:15.147   09 Jun 2027 07:58:43.031            27.884                Novosib          3485.500
       338   09 Jun 2027 07:59:44.774   09 Jun 2027 08:02:42.171           177.397                Norilsk         22174.625
       339   09 Jun 2027 08:02:58.214   09 Jun 2027 08:03:31.063            32.849              Murmansk2          4106.125
       340   09 Jun 2027 08:03:31.063   09 Jun 2027 08:04:02.163            31.100              Murmansk1          3887.500
       341   09 Jun 2027 08:04:58.826   09 Jun 2027 08:05:45.980            47.154              Murmansk1          5894.250
       342   09 Jun 2027 09:05:49.639   09 Jun 2027 09:08:23.909           154.270               CapeTown         19283.750
       343   09 Jun 2027 09:27:32.820   09 Jun 2027 09:30:03.889           151.069                 Moscow         18883.625
       344   09 Jun 2027 09:30:11.453   09 Jun 2027 09:31:10.998            59.545              Murmansk2          7443.125
       345   09 Jun 2027 09:32:18.018   09 Jun 2027 09:35:08.218           170.200              Murmansk1         21275.000
       346   09 Jun 2027 09:37:22.396   09 Jun 2027 09:38:06.262            43.866              Murmansk2          5483.250
       347   09 Jun 2027 09:44:21.224   09 Jun 2027 09:50:43.314           382.090                Anadyr1         47761.250
       348   09 Jun 2027 11:08:16.038   09 Jun 2027 11:10:18.505           122.467              Murmansk1         15308.375
       349   09 Jun 2027 11:19:30.334   09 Jun 2027 11:20:12.527            42.193                Anadyr1          5274.125
       350   09 Jun 2027 11:22:51.129   09 Jun 2027 11:24:17.741            86.612                Anadyr2         10826.500
       351   09 Jun 2027 11:24:34.396   09 Jun 2027 11:26:15.755           101.359               Magadan1         12669.875
       352   09 Jun 2027 12:57:53.057   09 Jun 2027 13:02:31.992           278.935               Magadan2         34866.875
       353   09 Jun 2027 15:25:43.242   09 Jun 2027 15:28:54.927           191.685            RioGallegos         23960.625
       354   09 Jun 2027 16:13:17.606   09 Jun 2027 16:15:16.587           118.981                Irkutsk         14872.625
       355   09 Jun 2027 16:27:02.071   09 Jun 2027 16:31:46.825           284.754                Sumatra         35594.250
       356   09 Jun 2027 17:49:04.003   09 Jun 2027 17:51:29.230           145.227                Novosib         18153.375
       357   09 Jun 2027 17:56:50.308   09 Jun 2027 17:58:32.097           101.789                  Delhi         12723.625
       358   09 Jun 2027 20:59:11.193   09 Jun 2027 20:59:54.725            43.532              Murmansk2          5441.500
       359   09 Jun 2027 21:02:32.584   09 Jun 2027 21:03:46.751            74.167                 Moscow          9270.875
       360   09 Jun 2027 21:05:13.461   09 Jun 2027 21:07:16.568           123.107                 Moscow         15388.375
       361   09 Jun 2027 21:26:50.457   09 Jun 2027 21:28:20.662            90.205               CapeTown         11275.625
       362   10 Jun 2027 03:23:22.166   10 Jun 2027 03:24:24.787            62.621                Novosib          7827.625
       363   10 Jun 2027 03:24:28.035   10 Jun 2027 03:28:17.274           229.239                Norilsk         28654.875
       364   10 Jun 2027 03:28:35.185   10 Jun 2027 03:28:40.854             5.669              Murmansk2           708.625
       365   10 Jun 2027 04:32:57.015   10 Jun 2027 04:35:51.544           174.529                Sumatra         21816.125
       366   10 Jun 2027 04:58:51.743   10 Jun 2027 05:00:45.537           113.794                Novosib         14224.250
       367   10 Jun 2027 05:00:46.989   10 Jun 2027 05:04:35.928           228.939              Murmansk1         28617.375
       368   10 Jun 2027 05:38:34.503   10 Jun 2027 05:38:59.385            24.882            RioGallegos          3110.250
       369   10 Jun 2027 05:42:16.395   10 Jun 2027 05:42:23.245             6.850            RioGallegos           856.250
       370   10 Jun 2027 05:43:04.194   10 Jun 2027 05:43:45.128            40.934            RioGallegos          5116.750
       371   10 Jun 2027 06:11:10.139   10 Jun 2027 06:14:06.229           176.090                Sumatra         22011.250
       372   10 Jun 2027 06:17:00.201   10 Jun 2027 06:19:05.588           125.387                  Delhi         15673.375
       373   10 Jun 2027 06:24:25.179   10 Jun 2027 06:27:44.200           199.021                Novosib         24877.625
       374   10 Jun 2027 06:28:20.998   10 Jun 2027 06:30:48.223           147.225                 Moscow         18403.125
       375   10 Jun 2027 06:35:03.708   10 Jun 2027 06:38:00.638           176.930                 Moscow         22116.250
       376   10 Jun 2027 06:38:19.938   10 Jun 2027 06:40:06.274           106.336              Murmansk2         13292.000
       377   10 Jun 2027 08:10:16.273   10 Jun 2027 08:10:59.618            43.345                 Moscow          5418.125
       378   10 Jun 2027 08:11:46.603   10 Jun 2027 08:15:58.238           251.635                Norilsk         31454.375
       379   10 Jun 2027 08:16:02.993   10 Jun 2027 08:17:47.353           104.360              Murmansk2         13045.000
       380   10 Jun 2027 09:16:55.698   10 Jun 2027 09:25:13.712           498.014               CapeTown         62251.750
       381   10 Jun 2027 09:38:10.758   10 Jun 2027 09:45:26.292           435.534                 Moscow         54441.750
       382   10 Jun 2027 09:45:51.615   10 Jun 2027 09:48:02.738           131.123                 Moscow         16390.375
       383   10 Jun 2027 09:48:08.040   10 Jun 2027 09:48:59.088            51.048              Murmansk2          6381.000
       384   10 Jun 2027 09:49:23.409   10 Jun 2027 09:49:39.352            15.943              Murmansk2          1992.875
       385   10 Jun 2027 09:49:54.658   10 Jun 2027 09:50:13.648            18.990              Murmansk2          2373.750
       386   10 Jun 2027 09:50:35.666   10 Jun 2027 09:51:25.124            49.458              Murmansk2          6182.250
       387   10 Jun 2027 09:56:10.184   10 Jun 2027 10:04:17.631           487.447                Anadyr1         60930.875
       388   10 Jun 2027 11:22:51.312   10 Jun 2027 11:23:21.944            30.632              Murmansk1          3829.000
       389   10 Jun 2027 11:31:30.124   10 Jun 2027 11:33:55.946           145.822                Anadyr1         18227.750
       390   10 Jun 2027 11:34:25.064   10 Jun 2027 11:36:18.738           113.674                Anadyr1         14209.250
       391   10 Jun 2027 11:36:49.268   10 Jun 2027 11:40:57.742           248.474               Magadan1         31059.250
       392   10 Jun 2027 13:09:49.918   10 Jun 2027 13:14:31.880           281.962               Magadan1         35245.250
       393   10 Jun 2027 15:37:33.289   10 Jun 2027 15:41:55.631           262.342            RioGallegos         32792.750
       394   10 Jun 2027 16:25:12.556   10 Jun 2027 16:27:02.917           110.361                Irkutsk         13795.125
       395   10 Jun 2027 16:38:53.430   10 Jun 2027 16:41:55.826           182.396                Sumatra         22799.500
       396   10 Jun 2027 18:02:18.752   10 Jun 2027 18:03:45.832            87.080                Novosib         10885.000
       397   10 Jun 2027 18:08:36.229   10 Jun 2027 18:10:56.853           140.624                  Delhi         17578.000
       398   10 Jun 2027 19:39:49.068   10 Jun 2027 19:40:10.206            21.138                 Moscow          2642.250
       399   10 Jun 2027 19:47:07.114   10 Jun 2027 19:47:31.303            24.189                 Moscow          3023.625
       400   10 Jun 2027 21:11:17.871   10 Jun 2027 21:11:28.241            10.370              Murmansk2          1296.250
       401   10 Jun 2027 21:14:30.776   10 Jun 2027 21:15:30.812            60.036                 Moscow          7504.500
       402   10 Jun 2027 21:19:17.785   10 Jun 2027 21:19:33.759            15.974                 Moscow          1996.750
       403   10 Jun 2027 21:21:29.915   10 Jun 2027 21:22:36.427            66.512                 Moscow          8314.000
       404   10 Jun 2027 21:38:36.224   10 Jun 2027 21:41:25.592           169.368               CapeTown         21171.000
       405   11 Jun 2027 03:35:23.792   11 Jun 2027 03:35:55.864            32.072              Murmansk2          4009.000
       406   11 Jun 2027 03:35:55.864   11 Jun 2027 03:39:51.113           235.249              Murmansk1         29406.125
       407   11 Jun 2027 04:44:51.270   11 Jun 2027 04:47:58.641           187.371                Sumatra         23421.375
       408   11 Jun 2027 05:10:58.564   11 Jun 2027 05:11:05.195             6.631                Novosib           828.875
       409   11 Jun 2027 05:11:18.718   11 Jun 2027 05:13:02.653           103.935                 Moscow         12991.875
       410   11 Jun 2027 05:13:18.309   11 Jun 2027 05:16:09.820           171.511              Murmansk1         21438.875
       411   11 Jun 2027 05:16:09.820   11 Jun 2027 05:16:38.058            28.238              Murmansk2          3529.750
       412   11 Jun 2027 05:17:44.210   11 Jun 2027 05:18:05.164            20.954              Murmansk1          2619.250
       413   11 Jun 2027 05:18:23.198   11 Jun 2027 05:18:26.018             2.820              Murmansk1           352.500
       414   11 Jun 2027 05:49:38.036   11 Jun 2027 05:50:43.313            65.277            RioGallegos          8159.625
       415   11 Jun 2027 05:55:09.738   11 Jun 2027 05:55:48.079            38.341            RioGallegos          4792.625
       416   11 Jun 2027 06:24:50.360   11 Jun 2027 06:26:12.318            81.958                Sumatra         10244.750
       417   11 Jun 2027 06:27:44.748   11 Jun 2027 06:28:30.015            45.267                Sumatra          5658.375
       418   11 Jun 2027 06:29:04.086   11 Jun 2027 06:30:40.078            95.992                  Delhi         11999.000
       419   11 Jun 2027 06:32:11.833   11 Jun 2027 06:34:02.320           110.487                  Delhi         13810.875
       420   11 Jun 2027 06:36:44.272   11 Jun 2027 06:40:28.240           223.968                Novosib         27996.000
       421   11 Jun 2027 06:40:29.253   11 Jun 2027 06:42:04.728            95.475                 Moscow         11934.375
       422   11 Jun 2027 06:47:02.337   11 Jun 2027 06:48:24.988            82.651                Novosib         10331.375
       423   11 Jun 2027 06:48:29.636   11 Jun 2027 06:51:35.551           185.915                Norilsk         23239.375
       424   11 Jun 2027 08:14:44.909   11 Jun 2027 08:16:34.323           109.414                 Moscow         13676.750
       425   11 Jun 2027 08:23:47.231   11 Jun 2027 08:29:48.851           361.620              Murmansk1         45202.500
       426   11 Jun 2027 09:28:20.094   11 Jun 2027 09:37:33.720           553.626               CapeTown         69203.250
       427   11 Jun 2027 09:50:33.062   11 Jun 2027 09:57:25.133           412.071                 Moscow         51508.875
       428   11 Jun 2027 09:57:25.374   11 Jun 2027 10:03:21.340           355.966              Murmansk2         44495.750
       429   11 Jun 2027 10:08:02.233   11 Jun 2027 10:17:04.640           542.407                Anadyr2         67800.875
       430   11 Jun 2027 11:43:30.308   11 Jun 2027 11:47:17.495           227.187                Anadyr2         28398.375
       431   11 Jun 2027 11:47:57.004   11 Jun 2027 11:51:04.764           187.760               Magadan1         23470.000
       432   11 Jun 2027 11:53:35.884   11 Jun 2027 11:54:07.376            31.492               Magadan1          3936.500
       433   11 Jun 2027 13:21:47.757   11 Jun 2027 13:22:49.587            61.830               Magadan1          7728.750
       434   11 Jun 2027 13:23:04.360   11 Jun 2027 13:26:51.560           227.200               Magadan2         28400.000
       435   11 Jun 2027 15:19:51.676   11 Jun 2027 15:22:03.554           131.878                Sumatra         16484.750
       436   11 Jun 2027 15:49:25.855   11 Jun 2027 15:51:24.488           118.633            RioGallegos         14829.125
       437   11 Jun 2027 16:37:09.046   11 Jun 2027 16:38:35.161            86.115                Irkutsk         10764.375
       438   11 Jun 2027 16:41:52.775   11 Jun 2027 16:42:18.571            25.796                Irkutsk          3224.500
       439   11 Jun 2027 16:45:11.032   11 Jun 2027 16:45:44.395            33.363                Irkutsk          4170.375
       440   11 Jun 2027 16:50:50.512   11 Jun 2027 16:53:43.910           173.398                Sumatra         21674.750
       441   11 Jun 2027 17:01:48.067   11 Jun 2027 17:02:35.780            47.713                Sumatra          5964.125
       442   11 Jun 2027 18:17:47.359   11 Jun 2027 18:19:58.138           130.779                Novosib         16347.375
       443   11 Jun 2027 18:20:26.724   11 Jun 2027 18:23:14.371           167.647                  Delhi         20955.875
       444   11 Jun 2027 19:58:28.840   11 Jun 2027 20:00:44.069           135.229                 Moscow         16903.625
       445   11 Jun 2027 21:50:27.120   11 Jun 2027 21:51:52.502            85.382               CapeTown         10672.750
       446   11 Jun 2027 21:59:57.937   11 Jun 2027 22:01:57.017           119.080               CapeTown         12921.126
       447   12 Jun 2027 03:47:34.541   12 Jun 2027 03:50:37.030           182.489              Murmansk2         22811.125
       448   12 Jun 2027 04:56:51.139   12 Jun 2027 04:59:15.761           144.622                Sumatra         18077.750
       449   12 Jun 2027 05:07:01.931   12 Jun 2027 05:07:17.130            15.199                  Delhi          1899.875
       450   12 Jun 2027 05:23:21.673   12 Jun 2027 05:29:31.332           369.659              Murmansk1         46207.375
       451   12 Jun 2027 06:02:49.720   12 Jun 2027 06:03:14.707            24.987            RioGallegos          3123.375
       452   12 Jun 2027 06:06:23.428   12 Jun 2027 06:07:14.386            50.958            RioGallegos          6369.750
       453   12 Jun 2027 06:08:07.826   12 Jun 2027 06:08:13.276             5.450            RioGallegos           681.250
       454   12 Jun 2027 06:41:13.563   12 Jun 2027 06:47:45.710           392.147                  Delhi         49018.375
       455   12 Jun 2027 06:50:49.383   12 Jun 2027 06:53:04.628           135.245                Novosib         16905.625
       456   12 Jun 2027 06:53:08.704   12 Jun 2027 06:54:33.405            84.701                 Moscow         10587.625
       457   12 Jun 2027 06:59:02.565   12 Jun 2027 06:59:25.443            22.878              Murmansk2          2859.750
       458   12 Jun 2027 06:59:25.443   12 Jun 2027 07:04:36.660           311.217              Murmansk1         38902.125
       459   12 Jun 2027 08:25:26.817   12 Jun 2027 08:30:31.815           304.998                 Moscow         38124.750
       460   12 Jun 2027 08:34:50.944   12 Jun 2027 08:41:50.442           419.498              Murmansk2         52437.250
       461   12 Jun 2027 09:41:57.112   12 Jun 2027 09:46:41.481           284.369               CapeTown         35546.125
       462   12 Jun 2027 10:04:32.424   12 Jun 2027 10:04:52.636            20.212                 Moscow          2526.500
       463   12 Jun 2027 10:05:27.052   12 Jun 2027 10:06:47.367            80.315                 Moscow         10039.375
       464   12 Jun 2027 10:07:24.944   12 Jun 2027 10:07:31.986             7.042              Murmansk1           880.250
       465   12 Jun 2027 10:08:22.565   12 Jun 2027 10:09:01.868            39.303              Murmansk2          4912.875
       466   12 Jun 2027 10:09:23.022   12 Jun 2027 10:09:50.465            27.443                 Moscow          3430.375
       467   12 Jun 2027 10:10:04.429   12 Jun 2027 10:10:13.654             9.225              Murmansk2          1153.125
       468   12 Jun 2027 10:11:17.290   12 Jun 2027 10:11:54.667            37.377              Murmansk2          4672.125
       469   12 Jun 2027 10:13:02.144   12 Jun 2027 10:13:13.856            11.712              Murmansk2          1464.000
       470   12 Jun 2027 10:13:25.087   12 Jun 2027 10:15:50.708           145.621              Murmansk2         18202.625
       471   12 Jun 2027 10:15:50.708   12 Jun 2027 10:15:54.371             3.663              Murmansk1           457.875
       472   12 Jun 2027 10:19:56.434   12 Jun 2027 10:25:15.183           318.749                Anadyr1         39843.625
       473   12 Jun 2027 10:25:17.292   12 Jun 2027 10:29:27.477           250.185                Anadyr2         31273.125
       474   12 Jun 2027 11:51:35.363   12 Jun 2027 11:51:38.199             2.836              Murmansk1           354.500
       475   12 Jun 2027 11:51:51.879   12 Jun 2027 11:52:18.468            26.589              Murmansk1          3323.625
       476   12 Jun 2027 11:58:50.019   12 Jun 2027 12:04:05.749           315.730               Magadan1         39466.250
       477   12 Jun 2027 13:33:46.403   12 Jun 2027 13:36:30.978           164.575               Magadan1         20571.875
       478   12 Jun 2027 15:30:06.484   12 Jun 2027 15:34:28.705           262.221                Sumatra         32777.625
       479   12 Jun 2027 16:49:57.110   12 Jun 2027 16:52:11.493           134.383                Novosib         16797.875
       480   12 Jun 2027 16:59:21.307   12 Jun 2027 16:59:21.638             0.331                Novosib            41.375
       481   12 Jun 2027 17:01:43.034   12 Jun 2027 17:03:11.945            88.911                  Delhi         11113.875
       482   12 Jun 2027 17:04:24.324   12 Jun 2027 17:04:52.269            27.945                Sumatra          3493.125
