uniorb/output/strategy_4/Drop/Drop_KinoSat_111009.txt

KinoSat_111009
-------------------------
    Access    *     Start Time (UTCG)     *     Stop Time (UTCG)  *   Duration (s)        *       Station  *  Data (Mbytes)
         1   01 Jun 2027 03:01:48.909   01 Jun 2027 03:02:19.613            30.704              Murmansk2           959.500
         2   01 Jun 2027 03:02:19.613   01 Jun 2027 03:03:02.562            42.949              Murmansk1          1342.156
         3   01 Jun 2027 03:03:09.986   01 Jun 2027 03:03:53.053            43.067              Murmansk2          1345.844
         4   01 Jun 2027 03:04:28.110   01 Jun 2027 03:05:50.583            82.473              Murmansk1          2577.281
         5   01 Jun 2027 03:06:16.329   01 Jun 2027 03:06:21.741             5.412              Murmansk1           169.125
         6   01 Jun 2027 03:23:56.629   01 Jun 2027 03:24:36.533            39.904               CapeTown          1247.000
         7   01 Jun 2027 03:24:59.739   01 Jun 2027 03:26:59.895           120.156               CapeTown          3754.875
         8   01 Jun 2027 04:25:48.191   01 Jun 2027 04:26:34.203            46.012               Magadan1          1437.875
         9   01 Jun 2027 04:27:01.433   01 Jun 2027 04:27:17.176            15.743                Norilsk           491.969
        10   01 Jun 2027 04:27:23.924   01 Jun 2027 04:28:02.762            38.838               Magadan1          1213.687
        11   01 Jun 2027 04:28:02.762   01 Jun 2027 04:28:28.688            25.926               Magadan2           810.188
        12   01 Jun 2027 04:28:35.993   01 Jun 2027 04:29:46.529            70.536                Anadyr1          2204.250
        13   01 Jun 2027 04:30:43.718   01 Jun 2027 04:31:21.470            37.752                Anadyr2          1179.750
        14   01 Jun 2027 06:03:05.936   01 Jun 2027 06:03:55.751            49.815                Norilsk          1556.719
        15   01 Jun 2027 06:04:00.113   01 Jun 2027 06:05:18.531            78.418                Norilsk          2450.563
        16   01 Jun 2027 06:05:24.725   01 Jun 2027 06:06:32.974            68.249                Anadyr2          2132.781
        17   01 Jun 2027 06:43:27.791   01 Jun 2027 06:44:13.168            45.377            RioGallegos          1418.031
        18   01 Jun 2027 07:38:08.875   01 Jun 2027 07:38:57.762            48.887               Magadan1          1527.719
        19   01 Jun 2027 07:39:01.379   01 Jun 2027 07:41:37.861           156.482               Magadan2          4890.062
        20   01 Jun 2027 07:41:59.187   01 Jun 2027 07:42:33.051            33.864               Magadan2          1058.250
        21   01 Jun 2027 07:42:41.061   01 Jun 2027 07:44:15.322            94.261              Murmansk1          2945.656
        22   01 Jun 2027 07:44:15.322   01 Jun 2027 07:44:55.886            40.564              Murmansk2          1267.625
        23   01 Jun 2027 08:17:43.292   01 Jun 2027 08:18:44.961            61.669            RioGallegos          1927.156
        24   01 Jun 2027 08:21:01.278   01 Jun 2027 08:21:55.906            54.628            RioGallegos          1707.125
        25   01 Jun 2027 08:53:01.922   01 Jun 2027 08:53:45.728            43.806                Sumatra          1368.937
        26   01 Jun 2027 08:55:26.967   01 Jun 2027 08:56:31.779            64.812                Sumatra          2025.375
        27   01 Jun 2027 09:05:38.427   01 Jun 2027 09:06:50.678            72.251                  Delhi          2257.844
        28   01 Jun 2027 09:14:47.442   01 Jun 2027 09:15:08.923            21.481                Irkutsk           671.281
        29   01 Jun 2027 09:15:48.770   01 Jun 2027 09:16:55.432            66.662                Irkutsk          2083.187
        30   01 Jun 2027 09:17:01.773   01 Jun 2027 09:17:22.016            20.243                Irkutsk           632.594
        31   01 Jun 2027 09:17:33.888   01 Jun 2027 09:19:49.452           135.564                Novosib          4236.375
        32   01 Jun 2027 09:20:16.885   01 Jun 2027 09:20:39.329            22.444              Murmansk2           701.375
        33   01 Jun 2027 09:20:42.290   01 Jun 2027 09:21:27.267            44.977                Norilsk          1405.531
        34   01 Jun 2027 09:55:46.599   01 Jun 2027 09:58:39.518           172.919            RioGallegos          5403.719
        35   01 Jun 2027 10:00:04.973   01 Jun 2027 10:00:33.377            28.404            RioGallegos           887.625
        36   01 Jun 2027 10:00:50.029   01 Jun 2027 10:01:25.926            35.897            RioGallegos          1121.781
        37   01 Jun 2027 10:29:59.904   01 Jun 2027 10:30:26.219            26.315                Sumatra           822.344
        38   01 Jun 2027 10:31:18.401   01 Jun 2027 10:32:55.051            96.650                Sumatra          3020.313
        39   01 Jun 2027 10:34:31.150   01 Jun 2027 10:35:11.523            40.373                Sumatra          1261.656
        40   01 Jun 2027 10:36:53.431   01 Jun 2027 10:37:59.738            66.307                  Delhi          2072.094
        41   01 Jun 2027 10:53:11.101   01 Jun 2027 10:53:21.375            10.274                Irkutsk           321.063
        42   01 Jun 2027 10:53:21.762   01 Jun 2027 10:53:28.817             7.055              Murmansk1           220.469
        43   01 Jun 2027 10:53:35.064   01 Jun 2027 10:56:05.093           150.029                Norilsk          4688.406
        44   01 Jun 2027 10:58:01.252   01 Jun 2027 10:58:11.513            10.261              Murmansk2           320.656
        45   01 Jun 2027 10:58:25.621   01 Jun 2027 10:58:39.084            13.463              Murmansk2           420.719
        46   01 Jun 2027 11:00:10.903   01 Jun 2027 11:00:17.100             6.197              Murmansk2           193.656
        47   01 Jun 2027 12:15:27.237   01 Jun 2027 12:17:55.858           148.621                  Delhi          4644.406
        48   01 Jun 2027 12:22:36.535   01 Jun 2027 12:23:00.590            24.055                 Moscow           751.719
        49   01 Jun 2027 12:23:15.996   01 Jun 2027 12:23:45.676            29.680                 Moscow           927.500
        50   01 Jun 2027 12:23:59.789   01 Jun 2027 12:26:41.244           161.455                Novosib          5045.469
        51   01 Jun 2027 12:27:00.643   01 Jun 2027 12:28:12.721            72.078                Norilsk          2252.437
        52   01 Jun 2027 12:28:23.748   01 Jun 2027 12:29:09.485            45.737              Murmansk2          1429.281
        53   01 Jun 2027 12:30:14.220   01 Jun 2027 12:30:25.903            11.683                Norilsk           365.094
        54   01 Jun 2027 12:30:56.042   01 Jun 2027 12:31:47.720            51.678                Norilsk          1614.937
        55   01 Jun 2027 13:37:50.574   01 Jun 2027 13:39:52.006           121.432               CapeTown          3794.750
        56   01 Jun 2027 13:42:44.627   01 Jun 2027 13:43:07.091            22.464               CapeTown           702.000
        57   01 Jun 2027 13:57:41.261   01 Jun 2027 13:59:00.147            78.886                 Moscow          2465.187
        58   01 Jun 2027 14:01:08.250   01 Jun 2027 14:04:39.253           211.003              Murmansk2          6593.844
        59   01 Jun 2027 14:05:18.340   01 Jun 2027 14:05:48.216            29.876              Murmansk2           933.625
        60   01 Jun 2027 14:16:13.699   01 Jun 2027 14:19:52.279           218.580                Anadyr2          6830.625
        61   01 Jun 2027 15:10:41.674   01 Jun 2027 15:11:45.252            63.578               CapeTown          1986.812
        62   01 Jun 2027 15:39:35.898   01 Jun 2027 15:40:54.436            78.538              Murmansk2          2454.313
        63   01 Jun 2027 15:43:43.880   01 Jun 2027 15:44:03.225            19.345              Murmansk1           604.531
        64   01 Jun 2027 15:51:21.375   01 Jun 2027 15:54:12.454           171.079                Anadyr2          5346.219
        65   01 Jun 2027 15:56:38.122   01 Jun 2027 15:59:02.759           144.637               Magadan2          4519.906
        66   01 Jun 2027 17:21:54.478   01 Jun 2027 17:23:33.977            99.499              Murmansk1          3109.344
        67   01 Jun 2027 17:27:12.429   01 Jun 2027 17:31:07.062           234.633                Anadyr2          7332.281
        68   01 Jun 2027 17:31:17.989   01 Jun 2027 17:34:01.740           163.751               Magadan1          5117.219
        69   01 Jun 2027 19:03:06.862   01 Jun 2027 19:04:59.036           112.174                Anadyr2          3505.437
        70   01 Jun 2027 19:05:21.501   01 Jun 2027 19:07:01.352            99.851                Anadyr1          3120.344
        71   01 Jun 2027 19:07:18.366   01 Jun 2027 19:08:43.996            85.630               Magadan2          2675.938
        72   01 Jun 2027 19:08:56.843   01 Jun 2027 19:09:57.413            60.570                Norilsk          1892.812
        73   01 Jun 2027 19:57:35.793   01 Jun 2027 20:01:09.495           213.702            RioGallegos          6678.188
        74   01 Jun 2027 20:41:09.081   01 Jun 2027 20:42:58.730           109.649                Norilsk          3426.531
        75   01 Jun 2027 20:42:58.835   01 Jun 2027 20:43:26.636            27.801               Magadan2           868.781
        76   01 Jun 2027 20:44:11.475   01 Jun 2027 20:44:40.350            28.875               Magadan2           902.344
        77   01 Jun 2027 20:45:09.446   01 Jun 2027 20:45:40.722            31.276                Irkutsk           977.375
        78   01 Jun 2027 20:46:21.391   01 Jun 2027 20:47:04.475            43.084                Irkutsk          1346.375
        79   01 Jun 2027 20:47:11.245   01 Jun 2027 20:48:36.064            84.819                Novosib          2650.594
        80   01 Jun 2027 20:49:53.652   01 Jun 2027 20:51:08.948            75.296                Novosib          2353.000
        81   01 Jun 2027 21:00:58.760   01 Jun 2027 21:02:38.173            99.413                Sumatra          3106.656
        82   01 Jun 2027 22:16:54.901   01 Jun 2027 22:17:18.716            23.815                Norilsk           744.219
        83   01 Jun 2027 22:17:32.315   01 Jun 2027 22:18:38.408            66.093               Magadan1          2065.406
        84   01 Jun 2027 22:18:38.408   01 Jun 2027 22:19:00.137            21.729               Magadan2           679.031
        85   01 Jun 2027 22:20:15.508   01 Jun 2027 22:20:48.476            32.968               Magadan2          1030.250
        86   01 Jun 2027 22:20:55.485   01 Jun 2027 22:22:31.013            95.528                Novosib          2985.250
        87   01 Jun 2027 22:28:43.738   01 Jun 2027 22:32:10.078           206.340                  Delhi          6448.125
        88   01 Jun 2027 23:49:06.729   01 Jun 2027 23:49:49.179            42.450                Anadyr1          1326.563
        89   01 Jun 2027 23:52:54.066   01 Jun 2027 23:53:18.212            24.146                Norilsk           754.563
        90   01 Jun 2027 23:53:23.356   01 Jun 2027 23:54:52.945            89.589               Magadan2          2799.656
        91   01 Jun 2027 23:55:16.931   01 Jun 2027 23:57:43.118           146.187              Murmansk2          4568.344
        92   01 Jun 2027 23:58:28.583   01 Jun 2027 23:59:25.270            56.687              Murmansk1          1771.469
        93   02 Jun 2027 00:00:09.818   02 Jun 2027 00:01:09.264            59.446                 Moscow          1857.687
        94   02 Jun 2027 00:04:54.643   02 Jun 2027 00:05:09.520            14.877                 Moscow           464.906
        95   02 Jun 2027 01:20:25.447   02 Jun 2027 01:20:35.323             9.876                Anadyr1           308.625
        96   02 Jun 2027 01:20:46.734   02 Jun 2027 01:21:42.861            56.127                Anadyr1          1753.969
        97   02 Jun 2027 01:22:22.066   02 Jun 2027 01:22:47.075            25.009                Anadyr2           781.531
        98   02 Jun 2027 01:23:06.879   02 Jun 2027 01:23:22.505            15.626                Anadyr2           488.313
        99   02 Jun 2027 01:25:31.111   02 Jun 2027 01:28:01.123           150.012               Magadan1          4687.875
       100   02 Jun 2027 01:28:48.316   02 Jun 2027 01:29:20.108            31.792               Magadan1           993.500
       101   02 Jun 2027 01:31:02.006   02 Jun 2027 01:31:40.767            38.761              Murmansk1          1211.281
       102   02 Jun 2027 01:32:13.447   02 Jun 2027 01:32:39.985            26.538              Murmansk1           829.313
       103   02 Jun 2027 01:33:05.431   02 Jun 2027 01:33:44.103            38.672              Murmansk1          1208.500
       104   02 Jun 2027 01:34:23.966   02 Jun 2027 01:35:11.193            47.227                 Moscow          1475.844
       105   02 Jun 2027 01:42:11.494   02 Jun 2027 01:42:52.761            41.267                 Moscow          1289.594
       106   02 Jun 2027 01:58:46.823   02 Jun 2027 01:59:49.474            62.651               CapeTown          1957.844
       107   02 Jun 2027 02:09:21.422   02 Jun 2027 02:10:31.630            70.208               CapeTown          2194.000
       108   02 Jun 2027 02:54:57.625   02 Jun 2027 02:55:31.216            33.591                Anadyr1          1049.719
       109   02 Jun 2027 02:56:18.851   02 Jun 2027 02:57:19.235            60.384                Anadyr2          1887.000
       110   02 Jun 2027 02:57:22.602   02 Jun 2027 02:57:59.555            36.953               Magadan1          1154.781
       111   02 Jun 2027 02:59:41.526   02 Jun 2027 03:00:19.390            37.864               Magadan1          1183.250
       112   02 Jun 2027 03:02:10.894   02 Jun 2027 03:03:54.574           103.680                Anadyr2          3240.000
       113   02 Jun 2027 03:04:52.448   02 Jun 2027 03:05:38.710            46.262               Magadan1          1445.688
       114   02 Jun 2027 03:13:49.975   02 Jun 2027 03:14:36.663            46.688              Murmansk1          1459.000
       115   02 Jun 2027 03:16:18.467   02 Jun 2027 03:17:21.885            63.418              Murmansk2          1981.812
       116   02 Jun 2027 03:17:22.856   02 Jun 2027 03:17:46.548            23.692                 Moscow           740.375
       117   02 Jun 2027 03:18:26.835   02 Jun 2027 03:18:57.273            30.438              Murmansk2           951.188
       118   02 Jun 2027 04:31:05.686   02 Jun 2027 04:32:59.817           114.131               Magadan1          3566.594
       119   02 Jun 2027 04:36:23.414   02 Jun 2027 04:38:24.308           120.894               Magadan2          3777.938
       120   02 Jun 2027 04:38:37.170   02 Jun 2027 04:39:11.655            34.485               Magadan2          1077.656
       121   02 Jun 2027 04:39:23.466   02 Jun 2027 04:41:17.617           114.151               Magadan1          3567.219
       122   02 Jun 2027 06:15:38.132   02 Jun 2027 06:16:28.071            49.939               Magadan2          1560.594
       123   02 Jun 2027 06:16:28.581   02 Jun 2027 06:17:14.245            45.664                Anadyr2          1427.000
       124   02 Jun 2027 06:17:18.192   02 Jun 2027 06:17:36.088            17.896                Norilsk           559.250
       125   02 Jun 2027 06:17:44.466   02 Jun 2027 06:18:12.218            27.752                Irkutsk           867.250
       126   02 Jun 2027 07:50:23.151   02 Jun 2027 07:52:11.374           108.223               Magadan1          3381.969
       127   02 Jun 2027 07:52:11.374   02 Jun 2027 07:53:40.512            89.138               Magadan2          2785.562
       128   02 Jun 2027 07:54:17.391   02 Jun 2027 07:54:20.750             3.359               Magadan1           104.969
       129   02 Jun 2027 07:54:54.183   02 Jun 2027 07:55:03.628             9.445                Irkutsk           295.156
       130   02 Jun 2027 08:29:46.656   02 Jun 2027 08:31:53.618           126.962            RioGallegos          3967.562
       131   02 Jun 2027 09:04:49.442   02 Jun 2027 09:08:40.357           230.915                Sumatra          7216.094
       132   02 Jun 2027 09:26:00.733   02 Jun 2027 09:26:13.114            12.381                Irkutsk           386.906
       133   02 Jun 2027 09:27:09.334   02 Jun 2027 09:28:11.866            62.532                Irkutsk          1954.125
       134   02 Jun 2027 09:28:17.080   02 Jun 2027 09:28:45.646            28.566                Norilsk           892.688
       135   02 Jun 2027 09:29:01.649   02 Jun 2027 09:29:02.654             1.005                Irkutsk            31.406
       136   02 Jun 2027 09:29:05.620   02 Jun 2027 09:29:37.392            31.772                Irkutsk           992.875
       137   02 Jun 2027 09:29:58.185   02 Jun 2027 09:30:11.888            13.703              Murmansk1           428.219
       138   02 Jun 2027 09:30:19.774   02 Jun 2027 09:31:04.366            44.592                Novosib          1393.500
       139   02 Jun 2027 10:09:34.896   02 Jun 2027 10:09:59.278            24.382            RioGallegos           761.937
       140   02 Jun 2027 10:14:54.229   02 Jun 2027 10:15:01.200             6.971            RioGallegos           217.844
       141   02 Jun 2027 10:42:52.081   02 Jun 2027 10:44:41.163           109.082                Sumatra          3408.812
       142   02 Jun 2027 11:02:53.159   02 Jun 2027 11:03:19.535            26.376                Novosib           824.250
       143   02 Jun 2027 11:03:34.300   02 Jun 2027 11:04:11.031            36.731                Novosib          1147.844
       144   02 Jun 2027 11:04:35.861   02 Jun 2027 11:04:43.305             7.444                Novosib           232.625
       145   02 Jun 2027 11:05:03.284   02 Jun 2027 11:05:08.930             5.646                Norilsk           176.438
       146   02 Jun 2027 11:05:32.386   02 Jun 2027 11:06:09.729            37.343                Norilsk          1166.969
       147   02 Jun 2027 11:06:15.766   02 Jun 2027 11:06:26.556            10.790                Norilsk           337.188
       148   02 Jun 2027 11:06:35.893   02 Jun 2027 11:06:36.404             0.511                Novosib            15.969
       149   02 Jun 2027 12:28:50.932   02 Jun 2027 12:31:36.264           165.332                  Delhi          5166.625
       150   02 Jun 2027 12:36:32.555   02 Jun 2027 12:36:37.552             4.997                 Moscow           156.156
       151   02 Jun 2027 12:36:41.492   02 Jun 2027 12:36:56.793            15.301              Murmansk1           478.156
       152   02 Jun 2027 12:37:15.776   02 Jun 2027 12:38:39.664            83.888                Novosib          2621.500
       153   02 Jun 2027 12:39:13.445   02 Jun 2027 12:40:02.720            49.275              Murmansk1          1539.844
       154   02 Jun 2027 12:40:02.720   02 Jun 2027 12:40:24.895            22.175              Murmansk2           692.969
       155   02 Jun 2027 12:44:02.255   02 Jun 2027 12:44:20.394            18.139                Norilsk           566.844
       156   02 Jun 2027 13:48:52.727   02 Jun 2027 13:51:30.711           157.984               CapeTown          4937.000
       157   02 Jun 2027 13:54:59.181   02 Jun 2027 13:56:35.049            95.868               CapeTown          2995.875
       158   02 Jun 2027 14:13:21.278   02 Jun 2027 14:14:43.229            81.951              Murmansk1          2560.969
       159   02 Jun 2027 14:16:00.843   02 Jun 2027 14:16:30.876            30.033              Murmansk1           938.531
       160   02 Jun 2027 14:17:08.449   02 Jun 2027 14:17:50.015            41.566              Murmansk2          1298.937
       161   02 Jun 2027 14:28:02.249   02 Jun 2027 14:30:05.698           123.449                Anadyr1          3857.781
       162   02 Jun 2027 14:30:05.701   02 Jun 2027 14:31:40.748            95.047                Anadyr2          2970.219
       163   02 Jun 2027 15:52:07.189   02 Jun 2027 15:53:07.130            59.941              Murmansk2          1873.156
       164   02 Jun 2027 15:55:40.489   02 Jun 2027 15:56:34.485            53.996              Murmansk2          1687.375
       165   02 Jun 2027 16:03:21.172   02 Jun 2027 16:05:22.328           121.156                Anadyr2          3786.125
       166   02 Jun 2027 16:05:39.571   02 Jun 2027 16:05:56.299            16.728                Anadyr1           522.750
       167   02 Jun 2027 16:07:34.775   02 Jun 2027 16:10:28.584           173.809               Magadan2          5431.531
       168   02 Jun 2027 16:11:46.980   02 Jun 2027 16:12:34.954            47.974               Magadan1          1499.187
       169   02 Jun 2027 17:39:13.866   02 Jun 2027 17:41:45.332           151.466                Anadyr1          4733.312
       170   02 Jun 2027 17:42:00.390   02 Jun 2027 17:43:44.246           103.856               Magadan2          3245.500
       171   02 Jun 2027 17:47:28.604   02 Jun 2027 17:47:31.688             3.084               Magadan1            96.375
       172   02 Jun 2027 17:48:59.069   02 Jun 2027 17:49:20.782            21.713               Magadan2           678.531
       173   02 Jun 2027 19:15:07.315   02 Jun 2027 19:17:00.410           113.095                Anadyr1          3534.219
       174   02 Jun 2027 19:17:13.814   02 Jun 2027 19:19:02.303           108.489                Anadyr2          3390.281
       175   02 Jun 2027 19:19:26.465   02 Jun 2027 19:21:26.967           120.502               Magadan1          3765.687
       176   02 Jun 2027 19:23:28.815   02 Jun 2027 19:23:43.686            14.871               Magadan2           464.719
       177   02 Jun 2027 19:24:11.311   02 Jun 2027 19:27:17.912           186.601                Irkutsk          5831.281
       178   02 Jun 2027 20:09:25.514   02 Jun 2027 20:10:34.460            68.946            RioGallegos          2154.563
       179   02 Jun 2027 20:11:35.493   02 Jun 2027 20:11:40.391             4.898            RioGallegos           153.063
       180   02 Jun 2027 20:52:58.930   02 Jun 2027 20:53:15.241            16.311                Norilsk           509.719
       181   02 Jun 2027 20:53:29.562   02 Jun 2027 20:55:09.373            99.811               Magadan1          3119.094
       182   02 Jun 2027 20:56:17.139   02 Jun 2027 20:56:47.086            29.947               Magadan2           935.844
       183   02 Jun 2027 20:57:04.230   02 Jun 2027 20:58:37.687            93.457                Irkutsk          2920.531
       184   02 Jun 2027 20:59:04.596   02 Jun 2027 21:01:24.006           139.410                Novosib          4356.562
       185   02 Jun 2027 21:03:25.351   02 Jun 2027 21:05:13.840           108.489                Novosib          3390.281
       186   02 Jun 2027 22:28:56.899   02 Jun 2027 22:29:04.967             8.068                Norilsk           252.125
       187   02 Jun 2027 22:29:34.025   02 Jun 2027 22:30:59.768            85.743               Magadan1          2679.469
       188   02 Jun 2027 22:32:05.180   02 Jun 2027 22:32:28.694            23.514                Norilsk           734.813
       189   02 Jun 2027 22:32:38.837   02 Jun 2027 22:32:50.436            11.599               Magadan2           362.469
       190   02 Jun 2027 22:32:52.761   02 Jun 2027 22:34:51.065           118.304                Novosib          3697.000
       191   02 Jun 2027 22:35:11.400   02 Jun 2027 22:35:34.990            23.590                Novosib           737.187
       192   02 Jun 2027 22:40:29.008   02 Jun 2027 22:42:45.066           136.058                  Delhi          4251.813
       193   02 Jun 2027 22:44:06.479   02 Jun 2027 22:44:22.288            15.809                  Delhi           494.031
       194   02 Jun 2027 22:45:09.162   02 Jun 2027 22:46:42.531            93.369                  Delhi          2917.781
       195   03 Jun 2027 00:01:46.002   03 Jun 2027 00:01:47.118             1.116                Anadyr1            34.875
       196   03 Jun 2027 00:04:49.049   03 Jun 2027 00:05:42.571            53.522               Magadan2          1672.563
       197   03 Jun 2027 00:06:02.565   03 Jun 2027 00:06:28.647            26.082               Magadan2           815.062
       198   03 Jun 2027 00:07:14.848   03 Jun 2027 00:09:30.655           135.807              Murmansk1          4243.969
       199   03 Jun 2027 00:09:32.475   03 Jun 2027 00:11:43.856           131.381              Murmansk2          4105.656
       200   03 Jun 2027 00:12:32.354   03 Jun 2027 00:13:06.975            34.621                 Moscow          1081.906
       201   03 Jun 2027 00:16:40.601   03 Jun 2027 00:17:02.077            21.476                 Moscow           671.125
       202   03 Jun 2027 00:17:19.130   03 Jun 2027 00:18:24.077            64.947                 Moscow          2029.594
       203   03 Jun 2027 01:32:11.485   03 Jun 2027 01:32:43.380            31.895                Anadyr2           996.719
       204   03 Jun 2027 01:33:40.338   03 Jun 2027 01:34:14.956            34.618                Anadyr2          1081.813
       205   03 Jun 2027 01:35:14.629   03 Jun 2027 01:35:14.738             0.109                Anadyr2             3.406
       206   03 Jun 2027 01:35:29.909   03 Jun 2027 01:35:39.756             9.847                Anadyr1           307.719
       207   03 Jun 2027 01:36:59.020   03 Jun 2027 01:38:26.047            87.027               Magadan1          2719.594
       208   03 Jun 2027 01:39:00.755   03 Jun 2027 01:40:03.595            62.840               Magadan2          1963.750
       209   03 Jun 2027 01:40:57.900   03 Jun 2027 01:40:59.862             1.962                Norilsk            61.313
       210   03 Jun 2027 01:41:38.717   03 Jun 2027 01:41:50.779            12.062               Magadan1           376.938
       211   03 Jun 2027 01:43:03.521   03 Jun 2027 01:44:47.474           103.953              Murmansk1          3248.531
       212   03 Jun 2027 01:45:33.170   03 Jun 2027 01:45:35.040             1.870                Novosib            58.437
       213   03 Jun 2027 01:45:43.124   03 Jun 2027 01:46:06.786            23.662              Murmansk2           739.437
       214   03 Jun 2027 01:48:26.586   03 Jun 2027 01:48:35.022             8.436                 Moscow           263.625
       215   03 Jun 2027 01:51:33.405   03 Jun 2027 01:53:55.436           142.031                Novosib          4438.469
       216   03 Jun 2027 02:21:00.495   03 Jun 2027 02:21:20.329            19.834               CapeTown           619.812
       217   03 Jun 2027 03:07:30.638   03 Jun 2027 03:07:56.113            25.475                Anadyr2           796.094
       218   03 Jun 2027 03:08:59.246   03 Jun 2027 03:09:12.552            13.306               Magadan1           415.812
       219   03 Jun 2027 03:13:32.848   03 Jun 2027 03:14:32.447            59.599               Magadan1          1862.469
       220   03 Jun 2027 03:15:10.629   03 Jun 2027 03:19:50.541           279.912                Anadyr2          8747.250
       221   03 Jun 2027 04:50:26.613   03 Jun 2027 04:50:29.412             2.799                Anadyr1            87.469
       222   03 Jun 2027 04:50:42.689   03 Jun 2027 04:53:44.002           181.313               Magadan2          5666.031
       223   03 Jun 2027 04:53:44.436   03 Jun 2027 04:55:22.501            98.065                Anadyr1          3064.531
       224   03 Jun 2027 06:23:31.448   03 Jun 2027 06:23:33.091             1.643               Magadan1            51.344
       225   03 Jun 2027 06:23:38.990   03 Jun 2027 06:23:40.691             1.701               Magadan2            53.156
       226   03 Jun 2027 06:23:40.691   03 Jun 2027 06:23:51.558            10.867               Magadan1           339.594
       227   03 Jun 2027 06:24:19.919   03 Jun 2027 06:25:04.644            44.725               Magadan1          1397.656
       228   03 Jun 2027 06:25:32.610   03 Jun 2027 06:25:34.368             1.758               Magadan2            54.938
       229   03 Jun 2027 06:25:39.820   03 Jun 2027 06:25:40.902             1.082               Magadan2            33.813
       230   03 Jun 2027 06:25:58.112   03 Jun 2027 06:26:16.075            17.963                Anadyr1           561.344
       231   03 Jun 2027 06:26:16.075   03 Jun 2027 06:27:26.426            70.351                Anadyr2          2198.469
       232   03 Jun 2027 06:27:39.754   03 Jun 2027 06:27:47.826             8.072                Anadyr2           252.250
       233   03 Jun 2027 06:27:47.826   03 Jun 2027 06:28:06.542            18.716                Anadyr1           584.875
       234   03 Jun 2027 06:28:42.834   03 Jun 2027 06:28:56.067            13.233               Magadan2           413.531
       235   03 Jun 2027 06:29:01.997   03 Jun 2027 06:29:21.217            19.220               Magadan1           600.625
       236   03 Jun 2027 06:29:26.891   03 Jun 2027 06:31:17.459           110.568               Magadan2          3455.250
       237   03 Jun 2027 08:00:24.405   03 Jun 2027 08:01:33.855            69.450               Magadan1          2170.312
       238   03 Jun 2027 08:04:02.856   03 Jun 2027 08:04:05.836             2.980                Irkutsk            93.125
       239   03 Jun 2027 08:04:18.937   03 Jun 2027 08:05:12.568            53.631               Magadan2          1675.969
       240   03 Jun 2027 08:05:23.816   03 Jun 2027 08:05:43.539            19.723               Magadan1           616.344
       241   03 Jun 2027 08:05:49.259   03 Jun 2027 08:07:03.311            74.052                Irkutsk          2314.125
       242   03 Jun 2027 08:07:25.121   03 Jun 2027 08:07:33.412             8.291                Novosib           259.094
       243   03 Jun 2027 08:41:53.481   03 Jun 2027 08:42:58.714            65.233            RioGallegos          2038.531
       244   03 Jun 2027 08:44:41.122   03 Jun 2027 08:45:01.526            20.404            RioGallegos           637.625
       245   03 Jun 2027 09:16:42.946   03 Jun 2027 09:18:20.574            97.628                Sumatra          3050.875
       246   03 Jun 2027 09:39:06.305   03 Jun 2027 09:39:08.781             2.476                Irkutsk            77.375
       247   03 Jun 2027 09:40:01.253   03 Jun 2027 09:40:27.409            26.156                Irkutsk           817.375
       248   03 Jun 2027 09:40:29.436   03 Jun 2027 09:40:32.137             2.701                Irkutsk            84.406
       249   03 Jun 2027 09:40:44.469   03 Jun 2027 09:41:08.693            24.224                Irkutsk           757.000
       250   03 Jun 2027 09:41:26.227   03 Jun 2027 09:42:25.671            59.444                Novosib          1857.625
       251   03 Jun 2027 09:42:49.724   03 Jun 2027 09:42:52.713             2.989                Irkutsk            93.406
       252   03 Jun 2027 09:43:03.613   03 Jun 2027 09:43:55.619            52.006                Novosib          1625.187
       253   03 Jun 2027 10:24:51.421   03 Jun 2027 10:25:38.837            47.416            RioGallegos          1481.750
       254   03 Jun 2027 10:56:21.475   03 Jun 2027 10:56:33.440            11.965                Sumatra           373.906
       255   03 Jun 2027 10:59:37.334   03 Jun 2027 10:59:52.660            15.326                Sumatra           478.938
       256   03 Jun 2027 11:00:54.448   03 Jun 2027 11:00:57.855             3.407                  Delhi           106.469
       257   03 Jun 2027 11:03:14.554   03 Jun 2027 11:04:03.446            48.892                  Delhi          1527.875
       258   03 Jun 2027 11:15:00.247   03 Jun 2027 11:15:09.239             8.992                Norilsk           281.000
       259   03 Jun 2027 11:15:26.413   03 Jun 2027 11:15:38.741            12.328                Irkutsk           385.250
       260   03 Jun 2027 11:15:48.607   03 Jun 2027 11:16:17.248            28.641                Norilsk           895.031
       261   03 Jun 2027 11:16:34.617   03 Jun 2027 11:16:48.455            13.838                Novosib           432.437
       262   03 Jun 2027 11:17:25.764   03 Jun 2027 11:17:47.419            21.655                Novosib           676.719
       263   03 Jun 2027 11:18:07.862   03 Jun 2027 11:18:24.700            16.838                Novosib           526.187
       264   03 Jun 2027 11:18:27.701   03 Jun 2027 11:18:38.747            11.046                Norilsk           345.187
       265   03 Jun 2027 12:45:19.337   03 Jun 2027 12:46:21.911            62.574                 Moscow          1955.438
       266   03 Jun 2027 12:47:51.950   03 Jun 2027 12:48:57.988            66.038                 Moscow          2063.687
       267   03 Jun 2027 12:49:28.045   03 Jun 2027 12:50:34.109            66.064              Murmansk2          2064.500
       268   03 Jun 2027 12:50:44.020   03 Jun 2027 12:51:08.234            24.214              Murmansk2           756.687
       269   03 Jun 2027 12:52:15.095   03 Jun 2027 12:53:56.863           101.768                Norilsk          3180.250
       270   03 Jun 2027 12:54:18.288   03 Jun 2027 12:54:29.491            11.203                Norilsk           350.094
       271   03 Jun 2027 14:00:15.323   03 Jun 2027 14:02:45.949           150.626               CapeTown          4707.063
       272   03 Jun 2027 14:22:20.831   03 Jun 2027 14:23:10.717            49.886                 Moscow          1558.937
       273   03 Jun 2027 14:25:36.247   03 Jun 2027 14:27:24.711           108.464              Murmansk2          3389.500
       274   03 Jun 2027 14:39:54.045   03 Jun 2027 14:42:05.689           131.644                Anadyr1          4113.875
       275   03 Jun 2027 14:43:01.016   03 Jun 2027 14:43:39.567            38.551                Anadyr2          1204.719
       276   03 Jun 2027 15:34:43.958   03 Jun 2027 15:36:49.502           125.544               CapeTown          3923.250
       277   03 Jun 2027 16:04:41.483   03 Jun 2027 16:07:35.393           173.910              Murmansk1          5434.687
       278   03 Jun 2027 16:15:21.381   03 Jun 2027 16:16:28.532            67.151                Anadyr2          2098.469
       279   03 Jun 2027 16:17:04.579   03 Jun 2027 16:17:39.280            34.701                Anadyr2          1084.406
       280   03 Jun 2027 16:19:03.550   03 Jun 2027 16:22:40.875           217.325               Magadan1          6791.406
       281   03 Jun 2027 17:51:15.306   03 Jun 2027 17:53:47.347           152.041                Anadyr2          4751.281
       282   03 Jun 2027 17:53:47.350   03 Jun 2027 17:54:07.255            19.905                Anadyr1           622.031
       283   03 Jun 2027 17:54:52.480   03 Jun 2027 17:55:52.958            60.478               Magadan2          1889.938
       284   03 Jun 2027 17:56:03.932   03 Jun 2027 17:57:36.010            92.078               Magadan1          2877.438
       285   03 Jun 2027 19:27:07.455   03 Jun 2027 19:29:01.651           114.196                Anadyr1          3568.625
       286   03 Jun 2027 19:29:10.551   03 Jun 2027 19:31:01.282           110.731                Anadyr2          3460.344
       287   03 Jun 2027 19:31:15.011   03 Jun 2027 19:32:36.216            81.205               Magadan2          2537.656
       288   03 Jun 2027 19:32:39.632   03 Jun 2027 19:33:11.497            31.865                Norilsk           995.781
       289   03 Jun 2027 19:35:08.760   03 Jun 2027 19:37:54.305           165.545                Irkutsk          5173.281
       290   03 Jun 2027 19:39:00.462   03 Jun 2027 19:39:54.649            54.187                Irkutsk          1693.344
       291   03 Jun 2027 19:40:44.356   03 Jun 2027 19:41:14.383            30.027                Irkutsk           938.344
       292   03 Jun 2027 19:52:08.719   03 Jun 2027 19:52:27.897            19.178                Sumatra           599.313
       293   03 Jun 2027 21:04:33.821   03 Jun 2027 21:04:45.979            12.158                Anadyr2           379.937
       294   03 Jun 2027 21:04:59.934   03 Jun 2027 21:05:52.707            52.773                Norilsk          1649.156
       295   03 Jun 2027 21:05:54.561   03 Jun 2027 21:06:50.191            55.630               Magadan1          1738.438
       296   03 Jun 2027 21:07:04.379   03 Jun 2027 21:08:18.387            74.008               Magadan2          2312.750
       297   03 Jun 2027 21:09:00.595   03 Jun 2027 21:10:38.307            97.712                Irkutsk          3053.500
       298   03 Jun 2027 21:11:16.835   03 Jun 2027 21:11:35.860            19.025                Novosib           594.531
       299   03 Jun 2027 21:14:28.846   03 Jun 2027 21:15:03.497            34.651                Novosib          1082.844
       300   03 Jun 2027 21:15:32.968   03 Jun 2027 21:16:43.652            70.684                Novosib          2208.875
       301   03 Jun 2027 21:22:41.831   03 Jun 2027 21:23:41.684            59.853                Sumatra          1870.406
       302   03 Jun 2027 21:31:16.669   03 Jun 2027 21:32:12.641            55.972                Sumatra          1749.125
       303   03 Jun 2027 22:40:58.891   03 Jun 2027 22:41:05.132             6.241                Norilsk           195.031
       304   03 Jun 2027 22:41:35.246   03 Jun 2027 22:42:28.490            53.244               Magadan2          1663.875
       305   03 Jun 2027 22:44:51.093   03 Jun 2027 22:47:27.113           156.020                Novosib          4875.625
       306   03 Jun 2027 22:52:18.979   03 Jun 2027 22:54:37.969           138.990                  Delhi          4343.437
       307   03 Jun 2027 23:01:46.465   03 Jun 2027 23:01:48.341             1.876                  Delhi            58.625
       308   04 Jun 2027 00:10:22.887   04 Jun 2027 00:10:26.819             3.932                Anadyr1           122.875
       309   04 Jun 2027 00:11:36.899   04 Jun 2027 00:12:10.952            34.053                Anadyr1          1064.156
       310   04 Jun 2027 00:12:52.302   04 Jun 2027 00:12:59.773             7.471                Anadyr1           233.469
       311   04 Jun 2027 00:13:06.628   04 Jun 2027 00:14:01.525            54.897                Anadyr2          1715.531
       312   04 Jun 2027 00:16:32.443   04 Jun 2027 00:17:41.256            68.813               Magadan2          2150.406
       313   04 Jun 2027 00:17:44.856   04 Jun 2027 00:18:24.475            39.619               Magadan1          1238.094
       314   04 Jun 2027 00:18:59.635   04 Jun 2027 00:19:22.848            23.213               Magadan1           725.406
       315   04 Jun 2027 00:19:31.245   04 Jun 2027 00:23:39.701           248.456              Murmansk2          7764.250
       316   04 Jun 2027 00:24:59.431   04 Jun 2027 00:26:15.039            75.608                 Moscow          2362.750
       317   04 Jun 2027 00:29:10.492   04 Jun 2027 00:29:20.130             9.638                 Moscow           301.187
       318   04 Jun 2027 00:51:09.225   04 Jun 2027 00:52:26.834            77.609               CapeTown          2425.281
       319   04 Jun 2027 00:54:13.751   04 Jun 2027 00:55:04.767            51.016               CapeTown          1594.250
       320   04 Jun 2027 01:48:27.228   04 Jun 2027 01:50:44.423           137.195               Magadan1          4287.344
       321   04 Jun 2027 01:55:05.157   04 Jun 2027 01:55:25.134            19.977              Murmansk2           624.281
       322   04 Jun 2027 01:55:27.707   04 Jun 2027 01:56:39.899            72.192              Murmansk1          2256.000
       323   04 Jun 2027 01:56:50.361   04 Jun 2027 01:57:48.592            58.231              Murmansk1          1819.719
       324   04 Jun 2027 02:07:17.033   04 Jun 2027 02:09:29.820           132.787                 Moscow          4149.594
       325   04 Jun 2027 03:19:29.498   04 Jun 2027 03:20:20.227            50.729                Anadyr2          1585.281
       326   04 Jun 2027 03:25:27.380   04 Jun 2027 03:31:24.719           357.339               Magadan1         11166.844
       327   04 Jun 2027 05:02:30.494   04 Jun 2027 05:02:50.863            20.369               Magadan2           636.531
       328   04 Jun 2027 05:03:10.624   04 Jun 2027 05:05:25.314           134.690               Magadan2          4209.063
       329   04 Jun 2027 06:35:03.365   04 Jun 2027 06:35:14.952            11.587               Magadan1           362.094
       330   04 Jun 2027 06:35:40.138   04 Jun 2027 06:35:54.798            14.660               Magadan2           458.125
       331   04 Jun 2027 06:35:54.798   04 Jun 2027 06:36:05.296            10.498               Magadan1           328.063
       332   04 Jun 2027 06:36:20.007   04 Jun 2027 06:36:59.857            39.850                Anadyr1          1245.313
       333   04 Jun 2027 06:37:18.488   04 Jun 2027 06:37:30.685            12.197               Magadan1           381.156
       334   04 Jun 2027 06:37:42.180   04 Jun 2027 06:37:44.089             1.909               Magadan1            59.656
       335   04 Jun 2027 06:37:44.089   04 Jun 2027 06:38:08.862            24.773               Magadan2           774.156
       336   04 Jun 2027 06:38:17.886   04 Jun 2027 06:39:20.980            63.094                Anadyr2          1971.687
       337   04 Jun 2027 06:39:27.937   04 Jun 2027 06:39:44.283            16.346               Magadan1           510.812
       338   04 Jun 2027 06:40:11.064   04 Jun 2027 06:40:17.695             6.631                Anadyr2           207.219
       339   04 Jun 2027 06:40:34.229   04 Jun 2027 06:41:00.765            26.536               Magadan1           829.250
       340   04 Jun 2027 06:41:04.053   04 Jun 2027 06:41:31.128            27.075                Novosib           846.094
       341   04 Jun 2027 06:41:38.900   04 Jun 2027 06:42:09.622            30.722                Anadyr1           960.063
       342   04 Jun 2027 06:42:09.622   04 Jun 2027 06:42:40.817            31.195                Anadyr2           974.844
       343   04 Jun 2027 06:42:53.918   04 Jun 2027 06:43:08.065            14.147              Murmansk1           442.094
       344   04 Jun 2027 06:43:12.370   04 Jun 2027 06:43:39.865            27.495              Murmansk1           859.219
       345   04 Jun 2027 08:13:33.091   04 Jun 2027 08:13:52.211            19.120               Magadan2           597.500
       346   04 Jun 2027 08:15:41.352   04 Jun 2027 08:15:45.285             3.933               Magadan1           122.906
       347   04 Jun 2027 08:16:19.603   04 Jun 2027 08:17:02.050            42.447                Novosib          1326.469
       348   04 Jun 2027 08:17:09.175   04 Jun 2027 08:17:39.208            30.033               Magadan2           938.531
       349   04 Jun 2027 08:17:41.469   04 Jun 2027 08:18:05.328            23.859                Novosib           745.594
       350   04 Jun 2027 08:18:09.549   04 Jun 2027 08:18:25.140            15.591                Irkutsk           487.219
       351   04 Jun 2027 08:18:43.990   04 Jun 2027 08:19:09.584            25.594                Irkutsk           799.813
       352   04 Jun 2027 08:54:03.945   04 Jun 2027 08:54:52.938            48.993            RioGallegos          1531.031
       353   04 Jun 2027 08:57:41.660   04 Jun 2027 08:58:03.875            22.215            RioGallegos           694.219
       354   04 Jun 2027 09:28:42.103   04 Jun 2027 09:29:02.004            19.901                Sumatra           621.906
       355   04 Jun 2027 09:31:51.477   04 Jun 2027 09:32:55.266            63.789                Sumatra          1993.406
       356   04 Jun 2027 09:48:51.054   04 Jun 2027 09:48:59.029             7.975                  Delhi           249.219
       357   04 Jun 2027 09:49:53.433   04 Jun 2027 09:51:07.149            73.716                Irkutsk          2303.625
       358   04 Jun 2027 09:51:13.939   04 Jun 2027 09:52:05.479            51.540                Irkutsk          1610.625
       359   04 Jun 2027 09:52:30.415   04 Jun 2027 09:52:43.652            13.237                Irkutsk           413.656
       360   04 Jun 2027 09:52:54.211   04 Jun 2027 09:52:56.122             1.911                Irkutsk            59.719
       361   04 Jun 2027 09:53:10.111   04 Jun 2027 09:53:12.906             2.795                Norilsk            87.344
       362   04 Jun 2027 09:53:13.543   04 Jun 2027 09:53:48.530            34.987                Norilsk          1093.344
       363   04 Jun 2027 09:54:23.762   04 Jun 2027 09:54:31.143             7.381                Norilsk           230.656
       364   04 Jun 2027 09:54:48.790   04 Jun 2027 09:55:08.524            19.734                Norilsk           616.688
       365   04 Jun 2027 09:55:42.836   04 Jun 2027 09:56:15.348            32.512                Novosib          1016.000
       366   04 Jun 2027 10:34:28.982   04 Jun 2027 10:35:10.575            41.593            RioGallegos          1299.781
       367   04 Jun 2027 11:13:03.178   04 Jun 2027 11:13:47.706            44.528                  Delhi          1391.500
       368   04 Jun 2027 11:15:59.516   04 Jun 2027 11:17:10.257            70.741                  Delhi          2210.656
       369   04 Jun 2027 11:27:03.025   04 Jun 2027 11:27:21.871            18.846                Novosib           588.938
       370   04 Jun 2027 11:28:19.324   04 Jun 2027 11:28:39.184            19.860                Norilsk           620.625
       371   04 Jun 2027 11:28:53.093   04 Jun 2027 11:29:24.465            31.372                Novosib           980.375
       372   04 Jun 2027 11:29:42.661   04 Jun 2027 11:30:39.258            56.597                Novosib          1768.656
       373   04 Jun 2027 12:57:18.064   04 Jun 2027 12:57:18.867             0.803                 Moscow            25.094
       374   04 Jun 2027 12:57:44.999   04 Jun 2027 12:58:27.251            42.252                 Moscow          1320.375
       375   04 Jun 2027 12:58:58.226   04 Jun 2027 12:59:39.154            40.928                 Moscow          1279.000
       376   04 Jun 2027 13:00:22.603   04 Jun 2027 13:00:36.742            14.139                 Moscow           441.844
       377   04 Jun 2027 13:00:45.389   04 Jun 2027 13:01:27.408            42.019              Murmansk1          1313.094
       378   04 Jun 2027 13:01:48.206   04 Jun 2027 13:02:08.250            20.044              Murmansk1           626.375
       379   04 Jun 2027 13:02:35.797   04 Jun 2027 13:03:03.748            27.951              Murmansk2           873.469
       380   04 Jun 2027 13:04:17.355   04 Jun 2027 13:04:41.767            24.412              Murmansk2           762.875
       381   04 Jun 2027 13:04:57.638   04 Jun 2027 13:06:20.130            82.492                Norilsk          2577.875
       382   04 Jun 2027 13:08:24.994   04 Jun 2027 13:08:49.784            24.790                Norilsk           774.688
       383   04 Jun 2027 14:11:48.848   04 Jun 2027 14:13:19.501            90.653               CapeTown          2832.906
       384   04 Jun 2027 14:16:27.735   04 Jun 2027 14:16:33.347             5.612               CapeTown           175.375
       385   04 Jun 2027 14:17:35.407   04 Jun 2027 14:18:17.870            42.463               CapeTown          1326.969
       386   04 Jun 2027 14:34:47.006   04 Jun 2027 14:35:20.702            33.696                 Moscow          1053.000
       387   04 Jun 2027 14:37:53.248   04 Jun 2027 14:40:03.916           130.668              Murmansk1          4083.375
       388   04 Jun 2027 14:51:48.083   04 Jun 2027 14:53:47.819           119.736                Anadyr1          3741.750
       389   04 Jun 2027 14:53:47.819   04 Jun 2027 14:54:31.157            43.338                Anadyr2          1354.313
       390   04 Jun 2027 15:46:49.238   04 Jun 2027 15:47:05.459            16.221               CapeTown           506.906
       391   04 Jun 2027 15:47:35.544   04 Jun 2027 15:48:42.542            66.998               CapeTown          2093.687
       392   04 Jun 2027 16:17:19.109   04 Jun 2027 16:18:12.366            53.257              Murmansk1          1664.281
       393   04 Jun 2027 16:19:27.800   04 Jun 2027 16:20:02.814            35.014              Murmansk2          1094.187
       394   04 Jun 2027 16:20:07.540   04 Jun 2027 16:20:38.527            30.987              Murmansk1           968.344
       395   04 Jun 2027 16:27:21.928   04 Jun 2027 16:29:21.544           119.616                Anadyr2          3738.000
       396   04 Jun 2027 16:30:14.301   04 Jun 2027 16:30:56.149            41.848                Anadyr2          1307.750
       397   04 Jun 2027 16:31:02.000   04 Jun 2027 16:32:22.419            80.419               Magadan1          2513.094
       398   04 Jun 2027 16:33:27.418   04 Jun 2027 16:34:22.783            55.365               Magadan2          1730.156
       399   04 Jun 2027 16:34:22.783   04 Jun 2027 16:34:42.600            19.817               Magadan1           619.281
       400   04 Jun 2027 16:34:59.601   04 Jun 2027 16:35:52.430            52.829               Magadan1          1650.906
       401   04 Jun 2027 18:03:16.720   04 Jun 2027 18:06:20.125           183.405                Anadyr1          5731.406
       402   04 Jun 2027 18:06:25.638   04 Jun 2027 18:07:46.606            80.968               Magadan2          2530.250
       403   04 Jun 2027 18:08:05.874   04 Jun 2027 18:08:06.463             0.589               Magadan1            18.406
       404   04 Jun 2027 18:08:43.301   04 Jun 2027 18:09:13.847            30.546               Magadan2           954.563
       405   04 Jun 2027 18:11:23.077   04 Jun 2027 18:11:24.257             1.180               Magadan2            36.875
       406   04 Jun 2027 18:15:10.101   04 Jun 2027 18:15:37.732            27.631               Magadan1           863.469
       407   04 Jun 2027 18:16:34.370   04 Jun 2027 18:16:44.352             9.982               Magadan1           311.937
       408   04 Jun 2027 19:00:41.522   04 Jun 2027 19:02:25.472           103.950            RioGallegos          3248.438
       409   04 Jun 2027 19:39:07.227   04 Jun 2027 19:41:02.731           115.504                Anadyr1          3609.500
       410   04 Jun 2027 19:41:21.167   04 Jun 2027 19:45:09.892           228.725                Norilsk          7147.656
       411   04 Jun 2027 19:46:34.150   04 Jun 2027 19:49:40.405           186.255                Irkutsk          5820.469
       412   04 Jun 2027 19:51:25.795   04 Jun 2027 19:51:55.172            29.377                Irkutsk           918.031
       413   04 Jun 2027 19:52:09.885   04 Jun 2027 19:53:18.353            68.468                Irkutsk          2139.625
       414   04 Jun 2027 20:02:08.376   04 Jun 2027 20:03:52.673           104.297                Sumatra          3259.281
       415   04 Jun 2027 21:17:46.301   04 Jun 2027 21:18:00.151            13.850                Norilsk           432.812
       416   04 Jun 2027 21:18:01.068   04 Jun 2027 21:18:13.506            12.438                Norilsk           388.687
       417   04 Jun 2027 21:18:27.128   04 Jun 2027 21:18:52.749            25.621                Norilsk           800.656
       418   04 Jun 2027 21:20:58.303   04 Jun 2027 21:22:35.779            97.476                Irkutsk          3046.125
       419   04 Jun 2027 21:23:32.227   04 Jun 2027 21:24:59.924            87.697                Novosib          2740.531
       420   04 Jun 2027 21:39:08.197   04 Jun 2027 21:39:14.400             6.203                Sumatra           193.844
       421   04 Jun 2027 21:43:31.247   04 Jun 2027 21:43:42.326            11.079                Sumatra           346.219
       422   04 Jun 2027 21:46:32.209   04 Jun 2027 21:47:20.531            48.322                Sumatra          1510.063
       423   04 Jun 2027 22:48:44.718   04 Jun 2027 22:49:15.354            30.636                Anadyr1           957.375
       424   04 Jun 2027 22:49:30.111   04 Jun 2027 22:50:04.742            34.631                Anadyr1          1082.219
       425   04 Jun 2027 22:53:00.848   04 Jun 2027 22:53:05.827             4.979                Norilsk           155.594
       426   04 Jun 2027 22:53:35.789   04 Jun 2027 22:53:58.013            22.224               Magadan1           694.500
       427   04 Jun 2027 22:55:26.876   04 Jun 2027 22:56:49.540            82.664               Magadan2          2583.250
       428   04 Jun 2027 22:56:50.330   04 Jun 2027 22:58:28.071            97.741                Novosib          3054.406
       429   04 Jun 2027 22:59:21.232   04 Jun 2027 22:59:38.231            16.999              Murmansk1           531.219
       430   04 Jun 2027 23:02:08.051   04 Jun 2027 23:03:28.971            80.920                Novosib          2528.750
       431   04 Jun 2027 23:04:12.938   04 Jun 2027 23:05:20.746            67.808                  Delhi          2119.000
       432   05 Jun 2027 00:22:04.216   05 Jun 2027 00:22:20.928            16.712                Anadyr2           522.250
       433   05 Jun 2027 00:22:44.599   05 Jun 2027 00:23:34.781            50.182                Anadyr2          1568.187
       434   05 Jun 2027 00:23:46.096   05 Jun 2027 00:24:12.251            26.155                Anadyr2           817.344
       435   05 Jun 2027 00:24:36.907   05 Jun 2027 00:24:52.882            15.975                Anadyr2           499.219
       436   05 Jun 2027 00:28:11.476   05 Jun 2027 00:29:43.577            92.101               Magadan2          2878.156
       437   05 Jun 2027 00:29:49.662   05 Jun 2027 00:30:27.981            38.319               Magadan1          1197.469
       438   05 Jun 2027 00:31:13.237   05 Jun 2027 00:35:34.334           261.097              Murmansk2          8159.281
       439   05 Jun 2027 00:36:09.302   05 Jun 2027 00:36:49.501            40.199                 Moscow          1256.219
       440   05 Jun 2027 01:01:55.243   05 Jun 2027 01:03:50.855           115.612               CapeTown          3612.875
       441   05 Jun 2027 01:08:20.837   05 Jun 2027 01:09:22.234            61.397               CapeTown          1918.656
       442   05 Jun 2027 01:59:56.051   05 Jun 2027 02:01:16.540            80.489               Magadan1          2515.281
       443   05 Jun 2027 02:01:36.825   05 Jun 2027 02:01:37.583             0.758               Magadan1            23.687
       444   05 Jun 2027 02:01:47.634   05 Jun 2027 02:02:26.959            39.325               Magadan2          1228.906
       445   05 Jun 2027 02:07:06.872   05 Jun 2027 02:07:22.796            15.924              Murmansk2           497.625
       446   05 Jun 2027 02:07:40.850   05 Jun 2027 02:08:57.433            76.583              Murmansk1          2393.219
       447   05 Jun 2027 02:09:29.337   05 Jun 2027 02:10:09.335            39.998                Novosib          1249.937
       448   05 Jun 2027 02:11:47.617   05 Jun 2027 02:11:53.882             6.265                 Moscow           195.781
       449   05 Jun 2027 02:13:50.026   05 Jun 2027 02:14:01.596            11.570                Novosib           361.562
       450   05 Jun 2027 02:16:02.645   05 Jun 2027 02:17:36.539            93.894                 Moscow          2934.188
       451   05 Jun 2027 02:43:46.685   05 Jun 2027 02:43:48.791             2.106               CapeTown            65.813
       452   05 Jun 2027 02:44:01.341   05 Jun 2027 02:44:52.191            50.850               CapeTown          1589.063
       453   05 Jun 2027 03:37:28.035   05 Jun 2027 03:43:25.849           357.814               Magadan2         11181.687
       454   05 Jun 2027 05:16:13.352   05 Jun 2027 05:16:38.599            25.247                Anadyr1           788.969
       455   05 Jun 2027 05:16:38.599   05 Jun 2027 05:17:46.336            67.737                Anadyr2          2116.781
       456   05 Jun 2027 05:17:46.336   05 Jun 2027 05:19:41.496           115.160                Anadyr1          3598.750
       457   05 Jun 2027 06:48:43.170   05 Jun 2027 06:49:06.466            23.296               Magadan2           728.000
       458   05 Jun 2027 06:49:09.911   05 Jun 2027 06:49:58.294            48.383                Anadyr1          1511.969
       459   05 Jun 2027 06:50:10.987   05 Jun 2027 06:51:09.399            58.412               Magadan1          1825.375
       460   05 Jun 2027 06:51:13.470   05 Jun 2027 06:52:09.253            55.783                Anadyr2          1743.219
       461   05 Jun 2027 06:52:14.255   05 Jun 2027 06:52:27.792            13.537               Magadan2           423.031
       462   05 Jun 2027 06:52:37.380   05 Jun 2027 06:53:23.208            45.828                Anadyr2          1432.125
       463   05 Jun 2027 06:53:23.208   05 Jun 2027 06:53:37.242            14.034                Anadyr1           438.562
       464   05 Jun 2027 06:53:42.849   05 Jun 2027 06:54:10.426            27.577               Magadan2           861.781
       465   05 Jun 2027 06:54:11.461   05 Jun 2027 06:54:26.633            15.172                Anadyr1           474.125
       466   05 Jun 2027 06:54:48.479   05 Jun 2027 06:55:01.027            12.548              Murmansk1           392.125
       467   05 Jun 2027 06:55:01.659   05 Jun 2027 06:55:10.320             8.661              Murmansk1           270.656
       468   05 Jun 2027 06:55:26.270   05 Jun 2027 06:55:26.990             0.720              Murmansk1            22.500
       469   05 Jun 2027 07:03:54.173   05 Jun 2027 07:04:19.170            24.997              Murmansk2           781.156
       470   05 Jun 2027 08:07:32.817   05 Jun 2027 08:09:11.295            98.478                Sumatra          3077.438
       471   05 Jun 2027 08:25:55.102   05 Jun 2027 08:26:23.625            28.523               Magadan2           891.344
       472   05 Jun 2027 08:26:31.698   05 Jun 2027 08:27:46.208            74.510               Magadan1          2328.437
       473   05 Jun 2027 08:28:26.619   05 Jun 2027 08:28:54.281            27.662                Novosib           864.438
       474   05 Jun 2027 08:28:56.635   05 Jun 2027 08:28:58.311             1.676               Magadan1            52.375
       475   05 Jun 2027 08:29:30.567   05 Jun 2027 08:29:34.282             3.715                Irkutsk           116.094
       476   05 Jun 2027 08:29:54.325   05 Jun 2027 08:30:05.097            10.772                Novosib           336.625
       477   05 Jun 2027 08:30:25.421   05 Jun 2027 08:30:27.810             2.389                Irkutsk            74.656
       478   05 Jun 2027 08:30:33.903   05 Jun 2027 08:30:42.430             8.527                Novosib           266.469
       479   05 Jun 2027 08:30:45.692   05 Jun 2027 08:31:13.078            27.386                Irkutsk           855.812
       480   05 Jun 2027 09:06:18.278   05 Jun 2027 09:06:53.602            35.324            RioGallegos          1103.875
       481   05 Jun 2027 09:07:05.386   05 Jun 2027 09:07:36.118            30.732            RioGallegos           960.375
       482   05 Jun 2027 09:40:46.885   05 Jun 2027 09:41:12.632            25.747                Sumatra           804.594
