uniorb/output/strategy_4/Drop/Drop_KinoSat_111208.txt

KinoSat_111208
-------------------------
    Access    *     Start Time (UTCG)     *     Stop Time (UTCG)  *   Duration (s)        *       Station  *  Data (Mbytes)
         1   01 Jun 2027 03:03:09.986   01 Jun 2027 03:04:28.110            78.124              Murmansk1          2441.375
         2   01 Jun 2027 03:04:30.947   01 Jun 2027 03:04:44.566            13.619                 Moscow           425.594
         3   01 Jun 2027 03:05:07.676   01 Jun 2027 03:05:38.131            30.455              Murmansk2           951.719
         4   01 Jun 2027 03:05:50.583   01 Jun 2027 03:06:16.329            25.746              Murmansk2           804.562
         5   01 Jun 2027 03:06:21.741   01 Jun 2027 03:08:24.522           122.781              Murmansk1          3836.906
         6   01 Jun 2027 03:08:24.522   01 Jun 2027 03:08:33.905             9.383              Murmansk2           293.219
         7   01 Jun 2027 04:27:48.975   01 Jun 2027 04:30:02.398           133.423                Anadyr2          4169.469
         8   01 Jun 2027 04:30:13.762   01 Jun 2027 04:30:14.773             1.011                Anadyr2            31.594
         9   01 Jun 2027 04:30:43.239   01 Jun 2027 04:31:16.190            32.951               Magadan2          1029.719
        10   01 Jun 2027 04:31:21.470   01 Jun 2027 04:31:42.230            20.760                Anadyr2           648.750
        11   01 Jun 2027 06:02:36.243   01 Jun 2027 06:06:32.974           236.731                Anadyr1          7397.844
        12   01 Jun 2027 06:06:32.974   01 Jun 2027 06:07:51.896            78.922                Anadyr2          2466.313
        13   01 Jun 2027 07:38:15.024   01 Jun 2027 07:39:00.466            45.442                Anadyr2          1420.063
        14   01 Jun 2027 07:39:24.835   01 Jun 2027 07:41:25.005           120.170                Irkutsk          3755.312
        15   01 Jun 2027 07:41:37.861   01 Jun 2027 07:41:59.187            21.326               Magadan2           666.438
        16   01 Jun 2027 07:42:00.297   01 Jun 2027 07:44:15.107           134.810                Anadyr2          4212.812
        17   01 Jun 2027 07:44:31.976   01 Jun 2027 07:45:16.773            44.797                Novosib          1399.906
        18   01 Jun 2027 07:48:08.064   01 Jun 2027 07:48:17.206             9.142              Murmansk2           285.687
        19   01 Jun 2027 08:20:01.971   01 Jun 2027 08:21:01.278            59.307            RioGallegos          1853.344
        20   01 Jun 2027 08:23:23.540   01 Jun 2027 08:23:29.033             5.493            RioGallegos           171.656
        21   01 Jun 2027 08:25:45.734   01 Jun 2027 08:26:01.437            15.703            RioGallegos           490.719
        22   01 Jun 2027 08:57:32.738   01 Jun 2027 08:58:04.482            31.744                Sumatra           992.000
        23   01 Jun 2027 09:00:26.014   01 Jun 2027 09:01:01.986            35.972                Sumatra          1124.125
        24   01 Jun 2027 09:15:27.548   01 Jun 2027 09:16:10.896            43.348               Magadan2          1354.625
        25   01 Jun 2027 09:17:22.016   01 Jun 2027 09:20:13.112           171.096                Irkutsk          5346.750
        26   01 Jun 2027 09:20:13.393   01 Jun 2027 09:20:53.679            40.286                Irkutsk          1258.938
        27   01 Jun 2027 09:28:11.046   01 Jun 2027 09:28:19.840             8.794              Murmansk1           274.812
        28   01 Jun 2027 09:28:33.498   01 Jun 2027 09:28:41.824             8.326              Murmansk1           260.187
        29   01 Jun 2027 09:58:39.518   01 Jun 2027 10:00:04.973            85.455            RioGallegos          2670.469
        30   01 Jun 2027 10:00:33.377   01 Jun 2027 10:00:50.029            16.652            RioGallegos           520.375
        31   01 Jun 2027 10:01:25.926   01 Jun 2027 10:02:00.922            34.996            RioGallegos          1093.625
        32   01 Jun 2027 10:30:26.219   01 Jun 2027 10:31:18.401            52.182                Sumatra          1630.687
        33   01 Jun 2027 10:32:55.051   01 Jun 2027 10:34:31.150            96.099                Sumatra          3003.094
        34   01 Jun 2027 10:37:27.186   01 Jun 2027 10:39:16.511           109.325                Sumatra          3416.406
        35   01 Jun 2027 10:53:02.204   01 Jun 2027 10:53:18.721            16.517                Norilsk           516.156
        36   01 Jun 2027 10:53:19.892   01 Jun 2027 10:53:21.762             1.870              Murmansk1            58.437
        37   01 Jun 2027 10:53:28.817   01 Jun 2027 10:55:43.335           134.518              Murmansk1          4203.687
        38   01 Jun 2027 10:55:45.985   01 Jun 2027 10:56:47.043            61.058              Murmansk2          1908.063
        39   01 Jun 2027 10:57:00.109   01 Jun 2027 10:57:36.188            36.079              Murmansk2          1127.469
        40   01 Jun 2027 10:57:41.578   01 Jun 2027 10:58:19.457            37.879                Novosib          1183.719
        41   01 Jun 2027 11:38:43.938   01 Jun 2027 11:39:54.905            70.967            RioGallegos          2217.719
        42   01 Jun 2027 12:14:54.363   01 Jun 2027 12:15:27.237            32.874                  Delhi          1027.313
        43   01 Jun 2027 12:17:55.858   01 Jun 2027 12:19:44.258           108.400                  Delhi          3387.500
        44   01 Jun 2027 12:22:55.283   01 Jun 2027 12:23:59.789            64.506                Novosib          2015.813
        45   01 Jun 2027 12:26:41.244   01 Jun 2027 12:28:06.180            84.936                Novosib          2654.250
        46   01 Jun 2027 12:28:12.721   01 Jun 2027 12:30:08.511           115.790                Norilsk          3618.438
        47   01 Jun 2027 12:36:04.350   01 Jun 2027 12:36:06.548             2.198                Norilsk            68.688
        48   01 Jun 2027 12:36:40.452   01 Jun 2027 12:37:33.242            52.790                Norilsk          1649.688
        49   01 Jun 2027 13:59:00.147   01 Jun 2027 14:03:02.015           241.868                 Moscow          7558.375
        50   01 Jun 2027 14:03:59.156   01 Jun 2027 14:05:43.370           104.214              Murmansk1          3256.688
        51   01 Jun 2027 14:05:48.216   01 Jun 2027 14:06:11.503            23.287              Murmansk2           727.719
        52   01 Jun 2027 14:07:11.367   01 Jun 2027 14:09:47.647           156.280                Norilsk          4883.750
        53   01 Jun 2027 14:10:18.392   01 Jun 2027 14:11:50.176            91.784                Norilsk          2868.250
        54   01 Jun 2027 15:13:15.344   01 Jun 2027 15:14:29.191            73.847               CapeTown          2307.719
        55   01 Jun 2027 15:36:49.949   01 Jun 2027 15:37:26.591            36.642                 Moscow          1145.062
        56   01 Jun 2027 15:39:47.844   01 Jun 2027 15:40:55.267            67.423              Murmansk1          2106.969
        57   01 Jun 2027 15:43:43.880   01 Jun 2027 15:44:03.225            19.345              Murmansk2           604.531
        58   01 Jun 2027 15:44:03.225   01 Jun 2027 15:44:30.437            27.212              Murmansk1           850.375
        59   01 Jun 2027 15:53:25.597   01 Jun 2027 15:53:56.359            30.762                Anadyr1           961.312
        60   01 Jun 2027 15:54:12.454   01 Jun 2027 15:55:17.402            64.948                Anadyr2          2029.625
        61   01 Jun 2027 15:58:14.132   01 Jun 2027 15:58:21.886             7.754                Anadyr2           242.313
        62   01 Jun 2027 16:48:36.191   01 Jun 2027 16:50:31.324           115.133               CapeTown          3597.906
        63   01 Jun 2027 16:57:48.744   01 Jun 2027 16:57:56.279             7.535               CapeTown           235.469
        64   01 Jun 2027 17:19:29.162   01 Jun 2027 17:23:22.297           233.135              Murmansk2          7285.469
        65   01 Jun 2027 17:23:33.977   01 Jun 2027 17:25:18.001           104.024              Murmansk1          3250.750
        66   01 Jun 2027 17:29:03.596   01 Jun 2027 17:29:50.829            47.233                Anadyr1          1476.031
        67   01 Jun 2027 17:32:12.896   01 Jun 2027 17:34:01.740           108.844               Magadan2          3401.375
        68   01 Jun 2027 19:04:59.036   01 Jun 2027 19:08:30.941           211.905                Anadyr2          6622.031
        69   01 Jun 2027 19:08:43.996   01 Jun 2027 19:11:04.521           140.525               Magadan1          4391.406
        70   01 Jun 2027 19:11:58.229   01 Jun 2027 19:12:14.144            15.915               Magadan2           497.344
        71   01 Jun 2027 19:14:21.288   01 Jun 2027 19:14:59.825            38.537               Magadan2          1204.281
        72   01 Jun 2027 20:01:21.280   01 Jun 2027 20:03:46.560           145.280            RioGallegos          4540.000
        73   01 Jun 2027 20:40:48.356   01 Jun 2027 20:42:56.443           128.087                Anadyr1          4002.719
        74   01 Jun 2027 20:42:58.730   01 Jun 2027 20:44:56.538           117.808                Norilsk          3681.500
        75   01 Jun 2027 20:45:33.032   01 Jun 2027 20:45:56.065            23.033                Norilsk           719.781
        76   01 Jun 2027 20:46:07.822   01 Jun 2027 20:46:15.618             7.796                Norilsk           243.625
        77   01 Jun 2027 20:47:57.111   01 Jun 2027 20:48:54.557            57.446                Irkutsk          1795.187
        78   01 Jun 2027 20:50:14.177   01 Jun 2027 20:51:07.144            52.967                Irkutsk          1655.219
        79   01 Jun 2027 20:51:56.960   01 Jun 2027 20:52:53.991            57.031                Irkutsk          1782.219
        80   01 Jun 2027 21:03:00.513   01 Jun 2027 21:05:11.238           130.725                Sumatra          4085.156
        81   01 Jun 2027 22:18:03.534   01 Jun 2027 22:18:28.370            24.836                Anadyr2           776.125
        82   01 Jun 2027 22:18:43.254   01 Jun 2027 22:20:46.519           123.265                Norilsk          3852.031
        83   01 Jun 2027 22:21:26.198   01 Jun 2027 22:21:30.974             4.776               Magadan2           149.250
        84   01 Jun 2027 22:22:38.537   01 Jun 2027 22:23:57.329            78.792                Irkutsk          2462.250
        85   01 Jun 2027 22:26:35.390   01 Jun 2027 22:27:11.058            35.668                Novosib          1114.625
        86   01 Jun 2027 22:28:57.209   01 Jun 2027 22:29:55.588            58.379                Novosib          1824.344
        87   01 Jun 2027 22:33:35.398   01 Jun 2027 22:35:08.961            93.563                  Delhi          2923.844
        88   01 Jun 2027 22:36:56.961   01 Jun 2027 22:38:06.058            69.097                  Delhi          2159.281
        89   01 Jun 2027 23:52:26.849   01 Jun 2027 23:52:48.716            21.867                Anadyr1           683.344
        90   01 Jun 2027 23:54:43.403   01 Jun 2027 23:55:26.073            42.670                Norilsk          1333.437
        91   01 Jun 2027 23:56:00.296   01 Jun 2027 23:56:13.512            13.216               Magadan2           413.000
        92   01 Jun 2027 23:56:35.812   01 Jun 2027 23:56:53.654            17.842               Magadan1           557.562
        93   01 Jun 2027 23:57:43.118   01 Jun 2027 23:59:09.092            85.974              Murmansk2          2686.687
        94   01 Jun 2027 23:59:25.270   02 Jun 2027 00:01:07.125           101.855              Murmansk1          3182.969
        95   02 Jun 2027 00:02:04.421   02 Jun 2027 00:02:50.880            46.459              Murmansk2          1451.844
        96   02 Jun 2027 00:05:52.030   02 Jun 2027 00:06:01.074             9.044                  Delhi           282.625
        97   02 Jun 2027 00:10:00.937   02 Jun 2027 00:10:40.403            39.466                  Delhi          1233.312
        98   02 Jun 2027 00:47:42.539   02 Jun 2027 00:48:54.378            71.839            RioGallegos          2244.969
        99   02 Jun 2027 01:23:32.577   02 Jun 2027 01:23:59.105            26.528                Anadyr1           829.000
       100   02 Jun 2027 01:24:23.473   02 Jun 2027 01:24:57.422            33.949                Anadyr1          1060.906
       101   02 Jun 2027 01:25:49.196   02 Jun 2027 01:26:15.601            26.405                Anadyr2           825.156
       102   02 Jun 2027 01:26:15.601   02 Jun 2027 01:26:18.413             2.812                Anadyr1            87.875
       103   02 Jun 2027 01:29:36.729   02 Jun 2027 01:32:11.507           154.778               Magadan2          4836.813
       104   02 Jun 2027 01:32:54.111   02 Jun 2027 01:35:01.994           127.883              Murmansk2          3996.344
       105   02 Jun 2027 01:36:43.337   02 Jun 2027 01:36:57.872            14.535                 Moscow           454.219
       106   02 Jun 2027 01:39:49.745   02 Jun 2027 01:41:50.895           121.150                Novosib          3785.937
       107   02 Jun 2027 02:57:21.313   02 Jun 2027 02:58:52.237            90.924                Anadyr1          2841.375
       108   02 Jun 2027 02:58:54.055   02 Jun 2027 02:59:47.267            53.212                Anadyr2          1662.875
       109   02 Jun 2027 03:17:21.885   02 Jun 2027 03:18:57.273            95.388              Murmansk1          2980.875
       110   02 Jun 2027 03:18:57.273   02 Jun 2027 03:19:10.690            13.417              Murmansk2           419.281
       111   02 Jun 2027 03:19:46.866   02 Jun 2027 03:22:41.778           174.912                 Moscow          5466.000
       112   02 Jun 2027 03:35:55.470   02 Jun 2027 03:38:37.993           162.523               CapeTown          5078.844
       113   02 Jun 2027 04:32:41.176   02 Jun 2027 04:34:47.822           126.646                Anadyr1          3957.688
       114   02 Jun 2027 04:35:15.359   02 Jun 2027 04:35:44.972            29.613               Magadan1           925.406
       115   02 Jun 2027 04:36:00.075   02 Jun 2027 04:36:24.088            24.013                Anadyr2           750.406
       116   02 Jun 2027 04:38:49.268   02 Jun 2027 04:39:11.655            22.387               Magadan1           699.594
       117   02 Jun 2027 04:39:11.655   02 Jun 2027 04:39:23.466            11.811               Magadan2           369.094
       118   02 Jun 2027 04:39:31.543   02 Jun 2027 04:40:21.884            50.341               Magadan2          1573.156
       119   02 Jun 2027 04:40:38.654   02 Jun 2027 04:43:04.181           145.527               Magadan2          4547.719
       120   02 Jun 2027 04:43:04.181   02 Jun 2027 04:43:18.882            14.701               Magadan1           459.406
       121   02 Jun 2027 04:43:27.490   02 Jun 2027 04:44:13.119            45.629                Anadyr1          1425.906
       122   02 Jun 2027 07:50:55.622   02 Jun 2027 07:51:42.278            46.656               Magadan2          1458.000
       123   02 Jun 2027 07:51:53.864   02 Jun 2027 07:52:31.660            37.796                Anadyr1          1181.125
       124   02 Jun 2027 07:52:53.225   02 Jun 2027 07:55:36.728           163.503                Anadyr2          5109.469
       125   02 Jun 2027 07:55:59.780   02 Jun 2027 07:56:52.023            52.243               Magadan1          1632.594
       126   02 Jun 2027 09:28:09.455   02 Jun 2027 09:29:32.556            83.101               Magadan2          2596.906
       127   02 Jun 2027 09:30:34.242   02 Jun 2027 09:30:42.826             8.584              Murmansk1           268.250
       128   02 Jun 2027 09:30:57.301   02 Jun 2027 09:31:42.068            44.767                Irkutsk          1398.969
       129   02 Jun 2027 09:32:00.281   02 Jun 2027 09:32:11.065            10.784                Novosib           337.000
       130   02 Jun 2027 09:32:32.994   02 Jun 2027 09:32:50.975            17.981                Irkutsk           561.906
       131   02 Jun 2027 10:08:12.393   02 Jun 2027 10:08:41.314            28.921            RioGallegos           903.781
       132   02 Jun 2027 10:09:59.278   02 Jun 2027 10:10:35.762            36.484            RioGallegos          1140.125
       133   02 Jun 2027 10:42:35.319   02 Jun 2027 10:42:52.081            16.762                Sumatra           523.812
       134   02 Jun 2027 10:45:23.502   02 Jun 2027 10:47:14.849           111.347                Sumatra          3479.594
       135   02 Jun 2027 11:04:48.708   02 Jun 2027 11:05:17.033            28.325                Irkutsk           885.156
       136   02 Jun 2027 11:06:02.913   02 Jun 2027 11:06:05.718             2.805                Novosib            87.656
       137   02 Jun 2027 11:06:07.551   02 Jun 2027 11:06:40.713            33.162                Irkutsk          1036.312
       138   02 Jun 2027 11:06:50.964   02 Jun 2027 11:08:07.111            76.147                Norilsk          2379.594
       139   02 Jun 2027 11:08:21.341   02 Jun 2027 11:08:35.554            14.213                Novosib           444.156
       140   02 Jun 2027 11:08:44.640   02 Jun 2027 11:09:04.705            20.065                Norilsk           627.031
       141   02 Jun 2027 12:27:13.947   02 Jun 2027 12:28:50.932            96.985                  Delhi          3030.781
       142   02 Jun 2027 12:31:36.264   02 Jun 2027 12:32:22.175            45.911                  Delhi          1434.719
       143   02 Jun 2027 12:35:26.151   02 Jun 2027 12:37:06.613           100.462                Novosib          3139.438
       144   02 Jun 2027 12:38:48.570   02 Jun 2027 12:39:13.445            24.875              Murmansk2           777.344
       145   02 Jun 2027 12:39:19.802   02 Jun 2027 12:40:02.445            42.643                Norilsk          1332.594
       146   02 Jun 2027 12:40:33.007   02 Jun 2027 12:41:20.639            47.632                Norilsk          1488.500
       147   02 Jun 2027 14:11:03.910   02 Jun 2027 14:14:19.829           195.919                 Moscow          6122.469
       148   02 Jun 2027 14:14:35.030   02 Jun 2027 14:17:08.449           153.419              Murmansk2          4794.344
       149   02 Jun 2027 14:17:50.015   02 Jun 2027 14:18:01.775            11.760              Murmansk2           367.500
       150   02 Jun 2027 14:20:02.637   02 Jun 2027 14:21:04.287            61.650                Norilsk          1926.563
       151   02 Jun 2027 14:22:20.698   02 Jun 2027 14:24:02.452           101.754                Norilsk          3179.813
       152   02 Jun 2027 15:25:00.181   02 Jun 2027 15:25:47.606            47.425               CapeTown          1482.031
       153   02 Jun 2027 15:49:43.621   02 Jun 2027 15:49:52.165             8.544                 Moscow           267.000
       154   02 Jun 2027 15:50:39.105   02 Jun 2027 15:51:09.260            30.155                 Moscow           942.344
       155   02 Jun 2027 15:52:08.591   02 Jun 2027 15:53:45.638            97.047              Murmansk1          3032.719
       156   02 Jun 2027 15:56:34.485   02 Jun 2027 15:56:57.000            22.515              Murmansk2           703.594
       157   02 Jun 2027 16:05:22.328   02 Jun 2027 16:07:52.330           150.002                Anadyr2          4687.562
       158   02 Jun 2027 17:00:46.771   02 Jun 2027 17:01:44.676            57.905               CapeTown          1809.531
       159   02 Jun 2027 17:11:28.722   02 Jun 2027 17:12:06.469            37.747               CapeTown          1179.594
       160   02 Jun 2027 17:32:13.883   02 Jun 2027 17:33:12.206            58.323              Murmansk2          1822.594
       161   02 Jun 2027 17:33:53.160   02 Jun 2027 17:35:19.934            86.774              Murmansk1          2711.688
       162   02 Jun 2027 17:35:54.498   02 Jun 2027 17:36:25.086            30.588              Murmansk1           955.875
       163   02 Jun 2027 17:41:04.668   02 Jun 2027 17:41:51.284            46.616                Anadyr2          1456.750
       164   02 Jun 2027 17:42:34.043   02 Jun 2027 17:43:10.118            36.075                Anadyr1          1127.344
       165   02 Jun 2027 17:44:01.467   02 Jun 2027 17:44:09.441             7.974               Magadan1           249.187
       166   02 Jun 2027 17:45:49.908   02 Jun 2027 17:47:28.604            98.696               Magadan1          3084.250
       167   02 Jun 2027 17:49:20.782   02 Jun 2027 17:50:11.803            51.021               Magadan1          1594.406
       168   02 Jun 2027 19:17:00.410   02 Jun 2027 19:19:02.985           122.575                Anadyr1          3830.469
       169   02 Jun 2027 19:19:18.116   02 Jun 2027 19:23:16.172           238.056               Magadan2          7439.250
       170   02 Jun 2027 20:12:37.514   02 Jun 2027 20:15:29.412           171.898            RioGallegos          5371.812
       171   02 Jun 2027 20:18:46.107   02 Jun 2027 20:19:47.665            61.558            RioGallegos          1923.688
       172   02 Jun 2027 20:53:14.772   02 Jun 2027 20:53:19.602             4.830                Anadyr1           150.938
       173   02 Jun 2027 20:54:56.224   02 Jun 2027 20:57:28.376           152.152                Norilsk          4754.750
       174   02 Jun 2027 20:57:58.560   02 Jun 2027 20:58:41.486            42.926                Norilsk          1341.437
       175   02 Jun 2027 20:59:38.775   02 Jun 2027 21:00:53.032            74.257                Irkutsk          2320.531
       176   02 Jun 2027 21:02:37.536   02 Jun 2027 21:02:58.225            20.689                Irkutsk           646.531
       177   02 Jun 2027 21:14:11.909   02 Jun 2027 21:16:50.013           158.104                Sumatra          4940.750
       178   02 Jun 2027 21:19:05.396   02 Jun 2027 21:20:16.597            71.201                Sumatra          2225.031
       179   02 Jun 2027 22:30:45.010   02 Jun 2027 22:31:39.194            54.184                Norilsk          1693.250
       180   02 Jun 2027 22:32:28.694   02 Jun 2027 22:32:47.289            18.595                Norilsk           581.094
       181   02 Jun 2027 22:32:50.436   02 Jun 2027 22:32:59.744             9.308               Magadan1           290.875
       182   02 Jun 2027 22:33:22.232   02 Jun 2027 22:33:45.193            22.961               Magadan1           717.531
       183   02 Jun 2027 22:34:38.249   02 Jun 2027 22:35:47.086            68.837                Irkutsk          2151.156
       184   02 Jun 2027 22:35:49.338   02 Jun 2027 22:38:27.659           158.321                Novosib          4947.531
       185   02 Jun 2027 22:44:22.288   02 Jun 2027 22:45:09.162            46.874                  Delhi          1464.813
       186   03 Jun 2027 00:01:57.642   03 Jun 2027 00:02:36.651            39.009                Anadyr1          1219.031
       187   03 Jun 2027 00:06:08.315   03 Jun 2027 00:06:34.832            26.517                Anadyr1           828.656
       188   03 Jun 2027 00:06:45.341   03 Jun 2027 00:07:02.545            17.204                Norilsk           537.625
       189   03 Jun 2027 00:07:16.887   03 Jun 2027 00:08:29.585            72.698               Magadan2          2271.813
       190   03 Jun 2027 00:08:29.585   03 Jun 2027 00:09:02.389            32.804               Magadan1          1025.125
       191   03 Jun 2027 00:09:17.401   03 Jun 2027 00:09:24.705             7.304               Magadan1           228.250
       192   03 Jun 2027 00:09:30.655   03 Jun 2027 00:11:43.856           133.201              Murmansk1          4162.531
       193   03 Jun 2027 00:11:43.856   03 Jun 2027 00:13:11.446            87.590              Murmansk2          2737.188
       194   03 Jun 2027 00:17:52.103   03 Jun 2027 00:18:17.597            25.494                  Delhi           796.688
       195   03 Jun 2027 00:21:43.726   03 Jun 2027 00:21:53.457             9.731                  Delhi           304.094
       196   03 Jun 2027 00:22:29.112   03 Jun 2027 00:23:44.041            74.929                  Delhi          2341.531
       197   03 Jun 2027 01:04:07.657   03 Jun 2027 01:04:44.874            37.217            RioGallegos          1163.031
       198   03 Jun 2027 01:35:14.738   03 Jun 2027 01:36:04.871            50.133                Anadyr2          1566.656
       199   03 Jun 2027 01:36:58.754   03 Jun 2027 01:37:57.957            59.203                Anadyr1          1850.094
       200   03 Jun 2027 01:41:09.467   03 Jun 2027 01:42:04.303            54.836               Magadan2          1713.625
       201   03 Jun 2027 01:42:04.303   03 Jun 2027 01:42:11.456             7.153               Magadan1           223.531
       202   03 Jun 2027 01:42:35.051   03 Jun 2027 01:43:03.328            28.277               Magadan1           883.656
       203   03 Jun 2027 01:43:15.164   03 Jun 2027 01:43:39.933            24.769               Magadan1           774.031
       204   03 Jun 2027 01:44:54.644   03 Jun 2027 01:45:45.582            50.938              Murmansk1          1591.813
       205   03 Jun 2027 01:46:06.786   03 Jun 2027 01:46:27.098            20.312              Murmansk2           634.750
       206   03 Jun 2027 01:46:41.331   03 Jun 2027 01:46:58.464            17.133                Novosib           535.406
       207   03 Jun 2027 01:47:18.060   03 Jun 2027 01:48:03.310            45.250                Novosib          1414.062
       208   03 Jun 2027 01:48:35.022   03 Jun 2027 01:48:54.265            19.243                 Moscow           601.344
       209   03 Jun 2027 01:51:00.341   03 Jun 2027 01:52:06.338            65.997                Irkutsk          2062.406
       210   03 Jun 2027 02:00:40.077   03 Jun 2027 02:00:59.228            19.151                  Delhi           598.469
       211   03 Jun 2027 02:14:11.267   03 Jun 2027 02:15:21.997            70.730               CapeTown          2210.313
       212   03 Jun 2027 02:22:55.845   03 Jun 2027 02:23:16.615            20.770               CapeTown           649.063
       213   03 Jun 2027 03:14:10.975   03 Jun 2027 03:14:14.276             3.301                Anadyr1           103.156
       214   03 Jun 2027 03:15:10.629   03 Jun 2027 03:15:16.330             5.701                Anadyr1           178.156
       215   03 Jun 2027 03:15:38.238   03 Jun 2027 03:15:49.021            10.783                Anadyr1           336.969
       216   03 Jun 2027 03:16:54.006   03 Jun 2027 03:16:58.010             4.004               Magadan1           125.125
       217   03 Jun 2027 03:17:54.440   03 Jun 2027 03:18:08.080            13.640                Anadyr1           426.250
       218   03 Jun 2027 03:20:03.649   03 Jun 2027 03:20:33.798            30.149                Anadyr2           942.156
       219   03 Jun 2027 03:30:41.477   03 Jun 2027 03:35:11.137           269.660                 Moscow          8426.875
       220   03 Jun 2027 03:47:59.353   03 Jun 2027 03:50:21.787           142.434               CapeTown          4451.062
       221   03 Jun 2027 04:44:46.464   03 Jun 2027 04:46:38.486           112.022                Anadyr2          3500.687
       222   03 Jun 2027 04:46:38.486   03 Jun 2027 04:48:01.453            82.967                Anadyr1          2592.719
       223   03 Jun 2027 04:48:17.573   03 Jun 2027 04:48:24.871             7.298                Anadyr1           228.062
       224   03 Jun 2027 04:50:42.689   03 Jun 2027 04:51:30.409            47.720               Magadan1          1491.250
       225   03 Jun 2027 04:51:33.960   03 Jun 2027 04:52:16.087            42.127               Magadan1          1316.469
       226   03 Jun 2027 04:52:35.864   03 Jun 2027 04:56:37.551           241.687               Magadan1          7552.719
       227   03 Jun 2027 06:28:06.542   03 Jun 2027 06:28:54.608            48.066                Anadyr1          1502.062
       228   03 Jun 2027 06:29:01.997   03 Jun 2027 06:29:21.217            19.220               Magadan2           600.625
       229   03 Jun 2027 06:29:26.891   03 Jun 2027 06:29:36.234             9.343               Magadan1           291.969
       230   03 Jun 2027 06:29:39.835   03 Jun 2027 06:30:36.210            56.375                Anadyr1          1761.719
       231   03 Jun 2027 06:31:17.459   03 Jun 2027 06:31:29.164            11.705               Magadan2           365.781
       232   03 Jun 2027 08:02:59.220   03 Jun 2027 08:03:04.197             4.977               Magadan1           155.531
       233   03 Jun 2027 08:03:43.961   03 Jun 2027 08:04:18.937            34.976               Magadan2          1093.000
       234   03 Jun 2027 08:04:36.981   03 Jun 2027 08:05:37.371            60.390                Irkutsk          1887.188
       235   03 Jun 2027 08:05:43.539   03 Jun 2027 08:06:15.221            31.682               Magadan2           990.062
       236   03 Jun 2027 08:07:06.497   03 Jun 2027 08:07:25.121            18.624                Novosib           582.000
       237   03 Jun 2027 08:07:26.619   03 Jun 2027 08:07:27.288             0.669               Magadan1            20.906
       238   03 Jun 2027 08:07:35.397   03 Jun 2027 08:07:36.542             1.145                Irkutsk            35.781
       239   03 Jun 2027 08:07:48.213   03 Jun 2027 08:07:48.964             0.751               Magadan1            23.469
       240   03 Jun 2027 08:07:48.964   03 Jun 2027 08:08:28.331            39.367               Magadan2          1230.219
       241   03 Jun 2027 08:08:41.451   03 Jun 2027 08:08:47.384             5.933               Magadan2           185.406
       242   03 Jun 2027 08:09:24.377   03 Jun 2027 08:09:43.070            18.693                Novosib           584.156
       243   03 Jun 2027 08:17:03.410   03 Jun 2027 08:17:04.687             1.277              Murmansk2            39.906
       244   03 Jun 2027 08:43:44.395   03 Jun 2027 08:44:41.122            56.727            RioGallegos          1772.719
       245   03 Jun 2027 08:45:01.526   03 Jun 2027 08:45:46.718            45.192            RioGallegos          1412.250
       246   03 Jun 2027 09:19:53.133   03 Jun 2027 09:20:49.092            55.959                Sumatra          1748.719
       247   03 Jun 2027 09:41:28.882   03 Jun 2027 09:41:39.755            10.873                Irkutsk           339.781
       248   03 Jun 2027 09:41:56.039   03 Jun 2027 09:42:49.724            53.685                Irkutsk          1677.656
       249   03 Jun 2027 09:43:03.599   03 Jun 2027 09:43:57.434            53.835                Irkutsk          1682.344
       250   03 Jun 2027 09:44:09.615   03 Jun 2027 09:44:38.674            29.059                Novosib           908.094
       251   03 Jun 2027 09:44:43.730   03 Jun 2027 09:44:51.632             7.902                Norilsk           246.938
       252   03 Jun 2027 10:20:34.261   03 Jun 2027 10:21:08.715            34.454            RioGallegos          1076.687
       253   03 Jun 2027 10:22:30.317   03 Jun 2027 10:23:05.558            35.241            RioGallegos          1101.281
       254   03 Jun 2027 10:54:50.819   03 Jun 2027 10:56:21.475            90.656                Sumatra          2833.000
       255   03 Jun 2027 11:17:41.831   03 Jun 2027 11:18:01.193            19.362                Irkutsk           605.062
       256   03 Jun 2027 11:18:24.700   03 Jun 2027 11:18:32.189             7.489                Novosib           234.031
       257   03 Jun 2027 11:18:38.204   03 Jun 2027 11:19:14.496            36.292                Novosib          1134.125
       258   03 Jun 2027 11:19:20.680   03 Jun 2027 11:20:09.078            48.398                Norilsk          1512.437
       259   03 Jun 2027 12:39:41.183   03 Jun 2027 12:43:16.901           215.718                  Delhi          6741.187
       260   03 Jun 2027 12:48:02.859   03 Jun 2027 12:48:17.039            14.180                Novosib           443.125
       261   03 Jun 2027 12:49:39.965   03 Jun 2027 12:50:37.000            57.035                Novosib          1782.344
       262   03 Jun 2027 12:51:46.899   03 Jun 2027 12:52:14.967            28.068                Norilsk           877.125
       263   03 Jun 2027 14:23:10.717   03 Jun 2027 14:25:09.668           118.951                 Moscow          3717.219
       264   03 Jun 2027 14:26:20.015   03 Jun 2027 14:27:28.517            68.502                 Moscow          2140.688
       265   03 Jun 2027 14:28:02.444   03 Jun 2027 14:28:31.816            29.372              Murmansk1           917.875
       266   03 Jun 2027 14:28:33.310   03 Jun 2027 14:28:52.841            19.531              Murmansk2           610.344
       267   03 Jun 2027 14:29:51.858   03 Jun 2027 14:30:22.349            30.491              Murmansk2           952.844
       268   03 Jun 2027 14:30:48.364   03 Jun 2027 14:30:54.581             6.217              Murmansk1           194.281
       269   03 Jun 2027 14:33:02.703   03 Jun 2027 14:36:02.392           179.689                Norilsk          5615.281
       270   03 Jun 2027 14:45:26.682   03 Jun 2027 14:45:41.533            14.851                Anadyr2           464.094
       271   03 Jun 2027 15:36:49.502   03 Jun 2027 15:37:53.320            63.818               CapeTown          1994.313
       272   03 Jun 2027 16:02:41.040   03 Jun 2027 16:03:16.648            35.608                 Moscow          1112.750
       273   03 Jun 2027 16:04:31.613   03 Jun 2027 16:06:44.644           133.031              Murmansk2          4157.219
       274   03 Jun 2027 16:17:20.098   03 Jun 2027 16:19:42.513           142.415                Anadyr1          4450.469
       275   03 Jun 2027 17:13:00.942   03 Jun 2027 17:14:32.753            91.811               CapeTown          2869.094
       276   03 Jun 2027 17:45:04.250   03 Jun 2027 17:49:36.129           271.879              Murmansk1          8496.219
       277   03 Jun 2027 17:53:05.916   03 Jun 2027 17:53:47.350            41.434                Anadyr1          1294.813
       278   03 Jun 2027 17:55:52.958   03 Jun 2027 17:59:27.007           214.049               Magadan2          6689.031
       279   03 Jun 2027 19:29:01.651   03 Jun 2027 19:31:55.026           173.375                Anadyr1          5417.969
       280   03 Jun 2027 19:32:36.216   03 Jun 2027 19:34:31.298           115.082               Magadan1          3596.313
       281   03 Jun 2027 19:35:46.106   03 Jun 2027 19:35:49.458             3.352               Magadan2           104.750
       282   03 Jun 2027 20:24:09.521   03 Jun 2027 20:27:16.636           187.115            RioGallegos          5847.344
       283   03 Jun 2027 20:30:47.697   03 Jun 2027 20:30:51.031             3.334            RioGallegos           104.187
       284   03 Jun 2027 21:04:45.979   03 Jun 2027 21:05:21.347            35.368                Anadyr2          1105.250
       285   03 Jun 2027 21:06:54.852   03 Jun 2027 21:07:42.605            47.753                Norilsk          1492.281
       286   03 Jun 2027 21:08:18.387   03 Jun 2027 21:08:56.446            38.059               Magadan2          1189.344
       287   03 Jun 2027 21:08:56.446   03 Jun 2027 21:09:35.148            38.702               Magadan1          1209.437
       288   03 Jun 2027 21:09:45.470   03 Jun 2027 21:09:50.747             5.277               Magadan1           164.906
       289   03 Jun 2027 21:09:54.612   03 Jun 2027 21:10:31.491            36.879               Magadan1          1152.469
       290   03 Jun 2027 21:11:25.207   03 Jun 2027 21:14:11.509           166.302                Irkutsk          5196.937
       291   03 Jun 2027 21:25:37.169   03 Jun 2027 21:28:35.812           178.643                Sumatra          5582.594
       292   03 Jun 2027 21:32:12.641   03 Jun 2027 21:32:17.414             4.773                Sumatra           149.156
       293   03 Jun 2027 22:42:46.905   03 Jun 2027 22:43:40.230            53.325                Norilsk          1666.406
       294   03 Jun 2027 22:44:52.670   03 Jun 2027 22:45:02.434             9.764               Magadan1           305.125
       295   03 Jun 2027 22:45:17.771   03 Jun 2027 22:45:41.657            23.886               Magadan2           746.437
       296   03 Jun 2027 22:46:37.266   03 Jun 2027 22:46:43.977             6.711               Magadan2           209.719
       297   03 Jun 2027 22:46:43.977   03 Jun 2027 22:47:06.018            22.041               Magadan1           688.781
       298   03 Jun 2027 22:47:12.135   03 Jun 2027 22:48:50.546            98.411                Irkutsk          3075.344
       299   03 Jun 2027 22:51:57.433   03 Jun 2027 22:52:04.370             6.937                Novosib           216.781
       300   03 Jun 2027 22:52:24.863   03 Jun 2027 22:53:05.700            40.837                Novosib          1276.156
       301   03 Jun 2027 22:55:37.789   03 Jun 2027 22:56:43.355            65.566                  Delhi          2048.938
       302   03 Jun 2027 22:57:50.756   03 Jun 2027 22:58:23.441            32.685                  Delhi          1021.406
       303   03 Jun 2027 22:59:18.845   03 Jun 2027 23:00:09.347            50.502                  Delhi          1578.187
       304   04 Jun 2027 00:13:39.796   04 Jun 2027 00:13:44.203             4.407                Anadyr1           137.719
       305   04 Jun 2027 00:14:01.525   04 Jun 2027 00:14:27.776            26.251                Anadyr2           820.344
       306   04 Jun 2027 00:15:59.569   04 Jun 2027 00:16:39.651            40.082                Anadyr2          1252.563
       307   04 Jun 2027 00:18:30.146   04 Jun 2027 00:18:52.587            22.441                Anadyr1           701.281
       308   04 Jun 2027 00:19:14.289   04 Jun 2027 00:20:52.584            98.295               Magadan2          3071.719
       309   04 Jun 2027 00:21:16.081   04 Jun 2027 00:21:27.004            10.923               Magadan2           341.344
       310   04 Jun 2027 00:21:49.017   04 Jun 2027 00:23:09.350            80.333              Murmansk1          2510.406
       311   04 Jun 2027 00:23:39.701   04 Jun 2027 00:26:07.739           148.038              Murmansk2          4626.188
       312   04 Jun 2027 00:29:55.467   04 Jun 2027 00:31:42.128           106.661                  Delhi          3333.156
       313   04 Jun 2027 01:13:17.025   04 Jun 2027 01:13:22.882             5.857            RioGallegos           183.031
       314   04 Jun 2027 01:14:21.748   04 Jun 2027 01:15:00.011            38.263            RioGallegos          1195.719
       315   04 Jun 2027 01:46:57.599   04 Jun 2027 01:48:05.616            68.017                Anadyr1          2125.531
       316   04 Jun 2027 01:49:00.112   04 Jun 2027 01:49:41.040            40.928                Anadyr1          1279.000
       317   04 Jun 2027 01:49:51.217   04 Jun 2027 01:50:03.297            12.080                Anadyr2           377.500
       318   04 Jun 2027 01:52:39.806   04 Jun 2027 01:53:45.725            65.919               Magadan1          2059.969
       319   04 Jun 2027 01:54:39.531   04 Jun 2027 01:55:05.137            25.606                Norilsk           800.187
       320   04 Jun 2027 01:56:24.903   04 Jun 2027 01:56:30.047             5.144               Magadan2           160.750
       321   04 Jun 2027 01:56:55.542   04 Jun 2027 01:57:46.949            51.407              Murmansk2          1606.469
       322   04 Jun 2027 01:57:48.592   04 Jun 2027 01:58:15.001            26.409              Murmansk1           825.281
       323   04 Jun 2027 01:58:46.723   04 Jun 2027 02:00:00.477            73.754                Novosib          2304.812
       324   04 Jun 2027 02:00:16.366   04 Jun 2027 02:01:28.471            72.105                Novosib          2253.281
       325   04 Jun 2027 02:25:35.556   04 Jun 2027 02:26:13.339            37.783               CapeTown          1180.719
       326   04 Jun 2027 02:30:51.676   04 Jun 2027 02:30:54.066             2.390               CapeTown            74.687
       327   04 Jun 2027 02:31:23.160   04 Jun 2027 02:31:30.821             7.661               CapeTown           239.406
       328   04 Jun 2027 02:32:27.780   04 Jun 2027 02:33:05.886            38.106               CapeTown          1190.812
       329   04 Jun 2027 03:21:04.990   04 Jun 2027 03:21:08.655             3.665                Anadyr1           114.531
       330   04 Jun 2027 03:22:16.355   04 Jun 2027 03:23:00.500            44.145                Anadyr2          1379.531
       331   04 Jun 2027 03:41:44.507   04 Jun 2027 03:42:28.863            44.356              Murmansk2          1386.125
       332   04 Jun 2027 03:44:29.868   04 Jun 2027 03:44:42.544            12.676              Murmansk2           396.125
       333   04 Jun 2027 03:44:53.365   04 Jun 2027 03:45:46.236            52.871              Murmansk1          1652.219
       334   04 Jun 2027 05:02:50.863   04 Jun 2027 05:03:10.624            19.761               Magadan2           617.531
       335   04 Jun 2027 05:03:15.820   04 Jun 2027 05:04:11.750            55.930                Anadyr2          1747.812
       336   04 Jun 2027 05:04:31.963   04 Jun 2027 05:05:25.314            53.351               Magadan1          1667.219
       337   04 Jun 2027 05:05:44.131   04 Jun 2027 05:08:20.488           156.357                Anadyr2          4886.156
       338   04 Jun 2027 06:40:07.991   04 Jun 2027 06:40:11.064             3.073                Anadyr1            96.031
       339   04 Jun 2027 06:40:17.695   04 Jun 2027 06:41:07.690            49.995                Anadyr1          1562.344
       340   04 Jun 2027 06:41:12.667   04 Jun 2027 06:41:39.535            26.868               Magadan1           839.625
       341   04 Jun 2027 06:41:39.535   04 Jun 2027 06:42:02.091            22.556               Magadan2           704.875
       342   04 Jun 2027 06:42:09.622   04 Jun 2027 06:42:40.817            31.195                Anadyr1           974.844
       343   04 Jun 2027 06:43:15.694   04 Jun 2027 06:43:21.532             5.838               Magadan2           182.437
       344   04 Jun 2027 06:44:37.306   04 Jun 2027 06:45:02.736            25.430                Anadyr1           794.687
       345   04 Jun 2027 08:14:34.781   04 Jun 2027 08:14:37.608             2.827               Magadan1            88.344
       346   04 Jun 2027 08:15:26.795   04 Jun 2027 08:15:41.352            14.557               Magadan2           454.906
       347   04 Jun 2027 08:15:45.285   04 Jun 2027 08:16:29.258            43.973               Magadan1          1374.156
       348   04 Jun 2027 08:17:09.175   04 Jun 2027 08:17:39.208            30.033               Magadan1           938.531
       349   04 Jun 2027 08:17:46.104   04 Jun 2027 08:18:15.460            29.356               Magadan1           917.375
       350   04 Jun 2027 08:18:25.140   04 Jun 2027 08:18:43.990            18.850                Irkutsk           589.062
       351   04 Jun 2027 08:19:09.584   04 Jun 2027 08:19:10.694             1.110                Irkutsk            34.688
       352   04 Jun 2027 08:19:27.516   04 Jun 2027 08:20:21.580            54.064               Magadan2          1689.500
       353   04 Jun 2027 08:20:32.284   04 Jun 2027 08:20:41.116             8.832               Magadan1           276.000
       354   04 Jun 2027 08:22:38.693   04 Jun 2027 08:22:58.410            19.717              Murmansk1           616.156
       355   04 Jun 2027 08:55:40.402   04 Jun 2027 08:56:50.300            69.898            RioGallegos          2184.312
       356   04 Jun 2027 09:31:23.605   04 Jun 2027 09:31:51.477            27.872                Sumatra           871.000
       357   04 Jun 2027 09:32:55.266   04 Jun 2027 09:33:04.163             8.897                Sumatra           278.031
       358   04 Jun 2027 09:35:24.770   04 Jun 2027 09:37:13.385           108.615                Sumatra          3394.219
       359   04 Jun 2027 09:52:43.652   04 Jun 2027 09:52:54.211            10.559                Irkutsk           329.969
       360   04 Jun 2027 09:53:10.986   04 Jun 2027 09:53:20.057             9.071                Irkutsk           283.469
       361   04 Jun 2027 09:53:21.811   04 Jun 2027 09:53:22.839             1.028                Novosib            32.125
       362   04 Jun 2027 09:53:48.530   04 Jun 2027 09:54:23.762            35.232                Norilsk          1101.000
       363   04 Jun 2027 09:54:26.168   04 Jun 2027 09:54:47.385            21.217                Irkutsk           663.031
       364   04 Jun 2027 09:55:01.968   04 Jun 2027 09:55:42.836            40.868                Novosib          1277.125
       365   04 Jun 2027 09:55:50.534   04 Jun 2027 09:55:53.993             3.459                Irkutsk           108.094
       366   04 Jun 2027 09:56:15.348   04 Jun 2027 09:56:17.831             2.483                Novosib            77.594
       367   04 Jun 2027 09:56:26.157   04 Jun 2027 09:56:40.497            14.340                Novosib           448.125
       368   04 Jun 2027 09:56:53.652   04 Jun 2027 09:56:56.829             3.177                Irkutsk            99.281
       369   04 Jun 2027 10:33:01.180   04 Jun 2027 10:34:22.814            81.634            RioGallegos          2551.063
       370   04 Jun 2027 11:07:13.881   04 Jun 2027 11:08:31.463            77.582                Sumatra          2424.437
       371   04 Jun 2027 11:22:01.296   04 Jun 2027 11:22:48.877            47.581                  Delhi          1486.906
       372   04 Jun 2027 11:28:35.127   04 Jun 2027 11:28:48.718            13.591                Irkutsk           424.719
       373   04 Jun 2027 11:29:26.479   04 Jun 2027 11:29:59.810            33.331                Irkutsk          1041.594
       374   04 Jun 2027 11:30:19.773   04 Jun 2027 11:30:28.527             8.754                Norilsk           273.563
       375   04 Jun 2027 11:30:38.800   04 Jun 2027 11:31:09.414            30.614                Norilsk           956.687
       376   04 Jun 2027 11:31:16.407   04 Jun 2027 11:31:28.792            12.385                Norilsk           387.031
       377   04 Jun 2027 11:31:58.099   04 Jun 2027 11:32:11.322            13.223                Novosib           413.219
       378   04 Jun 2027 11:32:37.484   04 Jun 2027 11:32:42.922             5.438                Novosib           169.937
       379   04 Jun 2027 12:52:18.055   04 Jun 2027 12:54:54.791           156.736                  Delhi          4898.000
       380   04 Jun 2027 12:55:50.609   04 Jun 2027 12:57:09.489            78.880                  Delhi          2465.000
       381   04 Jun 2027 13:04:16.428   04 Jun 2027 13:04:57.638            41.210                Norilsk          1287.813
       382   04 Jun 2027 13:06:20.130   04 Jun 2027 13:06:31.533            11.403                Norilsk           356.344
       383   04 Jun 2027 13:08:00.790   04 Jun 2027 13:08:24.994            24.204                Norilsk           756.375
       384   04 Jun 2027 13:08:49.784   04 Jun 2027 13:09:20.602            30.818                Norilsk           963.063
       385   04 Jun 2027 14:35:20.702   04 Jun 2027 14:37:07.826           107.124                 Moscow          3347.625
       386   04 Jun 2027 14:38:51.177   04 Jun 2027 14:40:10.910            79.733              Murmansk2          2491.656
       387   04 Jun 2027 14:40:23.999   04 Jun 2027 14:40:34.268            10.269              Murmansk1           320.906
       388   04 Jun 2027 14:41:45.936   04 Jun 2027 14:41:53.722             7.786              Murmansk1           243.312
       389   04 Jun 2027 14:42:17.005   04 Jun 2027 14:42:45.365            28.360              Murmansk2           886.250
       390   04 Jun 2027 14:42:45.365   04 Jun 2027 14:43:51.652            66.287              Murmansk1          2071.469
       391   04 Jun 2027 14:46:25.260   04 Jun 2027 14:48:01.577            96.317                Norilsk          3009.906
       392   04 Jun 2027 14:54:31.157   04 Jun 2027 14:55:30.856            59.699                Anadyr2          1865.594
       393   04 Jun 2027 15:48:42.542   04 Jun 2027 15:49:28.364            45.822               CapeTown          1431.938
       394   04 Jun 2027 16:14:59.045   04 Jun 2027 16:15:27.258            28.213                 Moscow           881.656
       395   04 Jun 2027 16:16:57.029   04 Jun 2027 16:17:38.422            41.393              Murmansk2          1293.531
       396   04 Jun 2027 16:18:12.366   04 Jun 2027 16:19:27.800            75.434              Murmansk1          2357.312
       397   04 Jun 2027 16:26:21.852   04 Jun 2027 16:27:23.786            61.934              Murmansk2          1935.438
       398   04 Jun 2027 16:29:18.689   04 Jun 2027 16:31:31.287           132.598                Anadyr1          4143.687
       399   04 Jun 2027 17:25:19.530   04 Jun 2027 17:26:37.628            78.098               CapeTown          2440.562
       400   04 Jun 2027 17:31:44.265   04 Jun 2027 17:32:12.428            28.163               CapeTown           880.094
       401   04 Jun 2027 17:58:03.085   04 Jun 2027 18:01:35.628           212.543              Murmansk1          6641.969
       402   04 Jun 2027 18:01:35.628   04 Jun 2027 18:02:23.679            48.051              Murmansk2          1501.594
       403   04 Jun 2027 18:05:07.290   04 Jun 2027 18:05:40.920            33.630                Anadyr2          1050.938
       404   04 Jun 2027 18:07:46.606   04 Jun 2027 18:08:43.301            56.695               Magadan2          1771.719
       405   04 Jun 2027 18:09:13.847   04 Jun 2027 18:11:23.077           129.230               Magadan2          4038.437
       406   04 Jun 2027 19:41:02.731   04 Jun 2027 19:44:34.453           211.722                Anadyr1          6616.313
       407   04 Jun 2027 19:44:34.823   04 Jun 2027 19:46:37.090           122.267               Magadan1          3820.844
       408   04 Jun 2027 19:46:44.406   04 Jun 2027 19:47:16.280            31.874               Magadan1           996.063
       409   04 Jun 2027 20:35:49.720   04 Jun 2027 20:38:42.475           172.755            RioGallegos          5398.594
       410   04 Jun 2027 20:40:07.737   04 Jun 2027 20:40:09.777             2.040            RioGallegos            63.750
       411   04 Jun 2027 20:40:25.344   04 Jun 2027 20:41:02.608            37.264            RioGallegos          1164.500
       412   04 Jun 2027 21:16:43.899   04 Jun 2027 21:17:25.373            41.474                Anadyr2          1296.062
       413   04 Jun 2027 21:18:54.335   04 Jun 2027 21:19:44.494            50.159                Norilsk          1567.469
       414   04 Jun 2027 21:20:01.795   04 Jun 2027 21:21:19.901            78.106               Magadan2          2440.812
       415   04 Jun 2027 21:21:19.901   04 Jun 2027 21:21:37.683            17.782               Magadan1           555.687
       416   04 Jun 2027 21:23:15.048   04 Jun 2027 21:24:53.055            98.007                Irkutsk          3062.719
       417   04 Jun 2027 21:25:26.465   04 Jun 2027 21:26:17.357            50.892                Irkutsk          1590.375
       418   04 Jun 2027 21:28:11.084   04 Jun 2027 21:28:43.067            31.983                Irkutsk           999.469
       419   04 Jun 2027 21:37:12.151   04 Jun 2027 21:39:08.197           116.046                Sumatra          3626.437
       420   04 Jun 2027 22:52:48.867   04 Jun 2027 22:53:11.195            22.328                Anadyr1           697.750
       421   04 Jun 2027 22:53:36.635   04 Jun 2027 22:54:22.367            45.732                Anadyr2          1429.125
       422   04 Jun 2027 22:54:48.896   04 Jun 2027 22:55:17.133            28.237                Norilsk           882.406
       423   04 Jun 2027 22:55:26.876   04 Jun 2027 22:56:49.540            82.664               Magadan1          2583.250
       424   04 Jun 2027 22:58:23.363   04 Jun 2027 22:58:29.378             6.015               Magadan2           187.969
       425   04 Jun 2027 22:58:40.440   04 Jun 2027 22:59:23.437            42.997                Irkutsk          1343.656
       426   04 Jun 2027 22:59:26.318   04 Jun 2027 22:59:28.862             2.544                Irkutsk            79.500
       427   04 Jun 2027 22:59:49.134   04 Jun 2027 23:00:37.742            48.608                Novosib          1519.000
       428   04 Jun 2027 23:01:45.820   04 Jun 2027 23:02:08.051            22.231                Novosib           694.719
       429   04 Jun 2027 23:05:22.062   04 Jun 2027 23:05:27.950             5.888                Novosib           184.000
       430   04 Jun 2027 23:05:53.241   04 Jun 2027 23:06:57.325            64.084                Novosib          2002.625
       431   04 Jun 2027 23:08:09.352   04 Jun 2027 23:09:11.514            62.162                  Delhi          1942.563
       432   04 Jun 2027 23:12:33.534   04 Jun 2027 23:13:45.173            71.639                  Delhi          2238.719
       433   05 Jun 2027 00:26:19.606   05 Jun 2027 00:27:04.875            45.269                Anadyr1          1414.656
       434   05 Jun 2027 00:28:07.186   05 Jun 2027 00:28:23.881            16.695                Anadyr2           521.719
       435   05 Jun 2027 00:30:48.886   05 Jun 2027 00:31:21.355            32.469                Norilsk          1014.656
       436   05 Jun 2027 00:31:54.303   05 Jun 2027 00:32:49.916            55.613                Norilsk          1737.906
       437   05 Jun 2027 00:32:54.811   05 Jun 2027 00:33:27.456            32.645               Magadan1          1020.156
       438   05 Jun 2027 00:33:50.620   05 Jun 2027 00:35:10.090            79.470              Murmansk1          2483.437
       439   05 Jun 2027 00:35:19.573   05 Jun 2027 00:36:05.604            46.031                Novosib          1438.469
       440   05 Jun 2027 00:38:09.401   05 Jun 2027 00:39:14.629            65.228              Murmansk2          2038.375
       441   05 Jun 2027 00:39:34.023   05 Jun 2027 00:40:17.353            43.330                 Moscow          1354.062
       442   05 Jun 2027 00:40:54.392   05 Jun 2027 00:41:20.181            25.789                 Moscow           805.906
       443   05 Jun 2027 00:47:03.199   05 Jun 2027 00:47:07.332             4.133                  Delhi           129.156
       444   05 Jun 2027 00:48:58.176   05 Jun 2027 00:49:29.741            31.565                  Delhi           986.406
       445   05 Jun 2027 00:52:33.105   05 Jun 2027 00:53:35.244            62.139                  Delhi          1941.844
       446   05 Jun 2027 01:27:07.501   05 Jun 2027 01:27:27.320            19.819            RioGallegos           619.344
       447   05 Jun 2027 01:58:41.299   05 Jun 2027 02:00:06.097            84.798                Anadyr2          2649.937
       448   05 Jun 2027 02:00:19.027   05 Jun 2027 02:01:01.453            42.426                Anadyr2          1325.813
       449   05 Jun 2027 02:04:08.625   05 Jun 2027 02:05:09.551            60.926               Magadan1          1903.937
       450   05 Jun 2027 02:05:17.245   05 Jun 2027 02:05:42.380            25.135               Magadan2           785.469
       451   05 Jun 2027 02:08:56.727   05 Jun 2027 02:09:52.136            55.409              Murmansk2          1731.531
       452   05 Jun 2027 02:10:51.481   05 Jun 2027 02:11:18.582            27.101              Murmansk1           846.906
       453   05 Jun 2027 02:11:50.541   05 Jun 2027 02:12:41.055            50.514                Novosib          1578.563
       454   05 Jun 2027 02:13:49.006   05 Jun 2027 02:14:36.243            47.237                 Moscow          1476.156
       455   05 Jun 2027 02:21:56.099   05 Jun 2027 02:22:21.606            25.507                 Moscow           797.094
       456   05 Jun 2027 02:37:07.290   05 Jun 2027 02:37:26.675            19.385               CapeTown           605.781
       457   05 Jun 2027 02:41:19.526   05 Jun 2027 02:42:00.664            41.138               CapeTown          1285.562
       458   05 Jun 2027 03:34:17.772   05 Jun 2027 03:34:29.850            12.078                Anadyr2           377.437
       459   05 Jun 2027 03:39:41.119   05 Jun 2027 03:39:58.871            17.752                Anadyr1           554.750
       460   05 Jun 2027 03:42:19.640   05 Jun 2027 03:42:30.263            10.623                Anadyr1           331.969
       461   05 Jun 2027 03:55:21.239   05 Jun 2027 03:55:56.221            34.982              Murmansk2          1093.188
       462   05 Jun 2027 05:15:42.595   05 Jun 2027 05:16:13.352            30.757                Anadyr1           961.156
       463   05 Jun 2027 05:16:13.352   05 Jun 2027 05:16:38.599            25.247                Anadyr2           788.969
       464   05 Jun 2027 05:17:27.855   05 Jun 2027 05:21:18.699           230.844               Magadan1          7213.875
       465   05 Jun 2027 06:51:47.220   05 Jun 2027 06:52:14.255            27.035               Magadan2           844.844
       466   05 Jun 2027 06:52:27.792   05 Jun 2027 06:53:22.108            54.316               Magadan2          1697.375
       467   05 Jun 2027 06:53:23.208   05 Jun 2027 06:54:11.461            48.253                Anadyr2          1507.906
       468   05 Jun 2027 06:54:23.896   05 Jun 2027 06:55:13.025            49.129               Magadan1          1535.281
       469   05 Jun 2027 06:55:51.909   05 Jun 2027 06:55:59.709             7.800                Anadyr2           243.750
       470   05 Jun 2027 08:26:23.625   05 Jun 2027 08:26:31.698             8.073               Magadan1           252.281
       471   05 Jun 2027 08:27:46.208   05 Jun 2027 08:27:53.252             7.044               Magadan2           220.125
       472   05 Jun 2027 08:28:42.491   05 Jun 2027 08:28:56.635            14.144               Magadan1           442.000
       473   05 Jun 2027 08:28:58.311   05 Jun 2027 08:29:48.439            50.128               Magadan1          1566.500
       474   05 Jun 2027 08:30:18.193   05 Jun 2027 08:31:33.079            74.886               Magadan1          2340.187
       475   05 Jun 2027 08:31:56.453   05 Jun 2027 08:31:59.290             2.837                Irkutsk            88.656
       476   05 Jun 2027 08:32:25.352   05 Jun 2027 08:32:32.722             7.370               Magadan1           230.313
       477   05 Jun 2027 08:32:51.867   05 Jun 2027 08:32:57.040             5.173                Norilsk           161.656
       478   05 Jun 2027 08:34:38.960   05 Jun 2027 08:34:42.464             3.504              Murmansk1           109.500
       479   05 Jun 2027 08:35:19.122   05 Jun 2027 08:35:29.624            10.502              Murmansk1           328.187
       480   05 Jun 2027 09:07:39.657   05 Jun 2027 09:08:50.539            70.882            RioGallegos          2215.063
       481   05 Jun 2027 09:43:02.604   05 Jun 2027 09:43:48.139            45.535                Sumatra          1422.969
       482   05 Jun 2027 09:45:18.986   05 Jun 2027 09:45:26.701             7.715                Sumatra           241.094
