uniorb/output/strategy_4/Drop/Drop_KinoSat_111303.txt

KinoSat_111303
-------------------------
    Access    *     Start Time (UTCG)     *     Stop Time (UTCG)  *   Duration (s)        *       Station  *  Data (Mbytes)
         1   01 Jun 2027 03:49:36.889   01 Jun 2027 03:49:58.094            21.205                Norilsk           662.656
         2   01 Jun 2027 03:50:02.441   01 Jun 2027 03:51:11.319            68.878                 Moscow          2152.437
         3   01 Jun 2027 03:51:21.780   01 Jun 2027 03:52:32.163            70.383              Murmansk1          2199.469
         4   01 Jun 2027 03:52:32.163   01 Jun 2027 03:53:25.628            53.465              Murmansk2          1670.781
         5   01 Jun 2027 03:53:42.087   01 Jun 2027 03:53:45.065             2.978              Murmansk1            93.063
         6   01 Jun 2027 03:53:46.894   01 Jun 2027 03:54:19.558            32.664                 Moscow          1020.750
         7   01 Jun 2027 04:08:05.193   01 Jun 2027 04:10:37.699           152.506               CapeTown          4765.812
         8   01 Jun 2027 05:11:34.294   01 Jun 2027 05:11:41.962             7.668               Magadan2           239.625
         9   01 Jun 2027 05:11:52.678   01 Jun 2027 05:12:04.905            12.227               Magadan2           382.094
        10   01 Jun 2027 05:12:17.982   01 Jun 2027 05:16:04.857           226.875                Anadyr2          7089.844
        11   01 Jun 2027 05:16:04.857   01 Jun 2027 05:16:30.320            25.463                Anadyr1           795.719
        12   01 Jun 2027 05:17:38.990   01 Jun 2027 05:17:44.524             5.534                Anadyr1           172.937
        13   01 Jun 2027 06:48:35.213   01 Jun 2027 06:49:12.117            36.904               Magadan1          1153.250
        14   01 Jun 2027 06:49:23.722   01 Jun 2027 06:49:56.683            32.961                Norilsk          1030.031
        15   01 Jun 2027 06:50:02.873   01 Jun 2027 06:50:18.089            15.216                Irkutsk           475.500
        16   01 Jun 2027 06:50:42.000   01 Jun 2027 06:53:29.310           167.310                Anadyr1          5228.438
        17   01 Jun 2027 06:53:38.357   01 Jun 2027 06:53:47.781             9.424              Murmansk2           294.500
        18   01 Jun 2027 06:53:47.781   01 Jun 2027 06:54:16.124            28.343              Murmansk1           885.719
        19   01 Jun 2027 06:54:16.124   01 Jun 2027 06:54:41.199            25.075              Murmansk2           783.594
        20   01 Jun 2027 06:57:18.015   01 Jun 2027 06:58:14.321            56.306                 Moscow          1759.562
        21   01 Jun 2027 07:30:51.125   01 Jun 2027 07:31:31.572            40.447            RioGallegos          1263.969
        22   01 Jun 2027 08:22:45.857   01 Jun 2027 08:26:16.189           210.332               Magadan2          6572.875
        23   01 Jun 2027 08:26:16.189   01 Jun 2027 08:28:22.732           126.543               Magadan1          3954.469
        24   01 Jun 2027 08:28:48.221   01 Jun 2027 08:28:57.827             9.606               Magadan2           300.187
        25   01 Jun 2027 08:29:23.942   01 Jun 2027 08:29:32.957             9.015              Murmansk1           281.719
        26   01 Jun 2027 08:30:57.359   01 Jun 2027 08:31:16.875            19.516              Murmansk1           609.875
        27   01 Jun 2027 08:32:14.467   01 Jun 2027 08:32:43.858            29.391              Murmansk1           918.469
        28   01 Jun 2027 09:03:55.175   01 Jun 2027 09:04:47.878            52.703            RioGallegos          1646.969
        29   01 Jun 2027 09:40:16.784   01 Jun 2027 09:40:39.183            22.399                Sumatra           699.969
        30   01 Jun 2027 09:43:40.615   01 Jun 2027 09:44:15.299            34.684                Sumatra          1083.875
        31   01 Jun 2027 09:45:10.753   01 Jun 2027 09:45:18.911             8.158                Sumatra           254.937
        32   01 Jun 2027 10:00:32.591   01 Jun 2027 10:00:41.782             9.191                Irkutsk           287.219
        33   01 Jun 2027 10:00:44.059   01 Jun 2027 10:03:38.247           174.188                Novosib          5443.375
        34   01 Jun 2027 10:03:49.921   01 Jun 2027 10:04:31.228            41.307              Murmansk1          1290.844
        35   01 Jun 2027 10:04:38.777   01 Jun 2027 10:05:07.362            28.585                Novosib           893.281
        36   01 Jun 2027 10:05:07.521   01 Jun 2027 10:08:04.838           177.317                Norilsk          5541.156
        37   01 Jun 2027 10:40:32.522   01 Jun 2027 10:41:18.571            46.049            RioGallegos          1439.031
        38   01 Jun 2027 10:41:49.253   01 Jun 2027 10:42:20.372            31.119            RioGallegos           972.469
        39   01 Jun 2027 10:44:06.142   01 Jun 2027 10:44:30.511            24.369            RioGallegos           761.531
        40   01 Jun 2027 11:14:51.614   01 Jun 2027 11:15:23.518            31.904                Sumatra           997.000
        41   01 Jun 2027 11:16:46.278   01 Jun 2027 11:17:24.635            38.357                Sumatra          1198.656
        42   01 Jun 2027 11:19:38.125   01 Jun 2027 11:20:13.609            35.484                Sumatra          1108.875
        43   01 Jun 2027 11:22:57.000   01 Jun 2027 11:23:31.261            34.261                Sumatra          1070.656
        44   01 Jun 2027 11:36:55.478   01 Jun 2027 11:40:16.911           201.433                Irkutsk          6294.781
        45   01 Jun 2027 14:43:15.570   01 Jun 2027 14:44:17.607            62.037                 Moscow          1938.656
        46   01 Jun 2027 14:46:47.076   01 Jun 2027 14:49:59.253           192.177              Murmansk2          6005.531
        47   01 Jun 2027 14:53:52.065   01 Jun 2027 14:54:25.974            33.909                Norilsk          1059.656
        48   01 Jun 2027 14:55:55.621   01 Jun 2027 14:56:48.088            52.467                Norilsk          1639.594
        49   01 Jun 2027 15:03:28.584   01 Jun 2027 15:03:36.200             7.616                Anadyr1           238.000
        50   01 Jun 2027 15:04:26.058   01 Jun 2027 15:04:38.409            12.351                Anadyr2           385.969
        51   01 Jun 2027 15:05:05.210   01 Jun 2027 15:05:22.865            17.655                Anadyr2           551.719
        52   01 Jun 2027 15:57:01.529   01 Jun 2027 15:58:48.046           106.517               CapeTown          3328.656
        53   01 Jun 2027 16:21:56.808   01 Jun 2027 16:22:07.477            10.669                 Moscow           333.406
        54   01 Jun 2027 16:22:47.445   01 Jun 2027 16:23:22.818            35.373                 Moscow          1105.406
        55   01 Jun 2027 16:24:29.617   01 Jun 2027 16:25:27.143            57.526              Murmansk2          1797.687
        56   01 Jun 2027 16:29:41.512   01 Jun 2027 16:29:48.499             6.987              Murmansk1           218.344
        57   01 Jun 2027 16:37:28.829   01 Jun 2027 16:39:15.125           106.296                Anadyr1          3321.750
        58   01 Jun 2027 16:39:23.653   01 Jun 2027 16:40:16.252            52.599                Anadyr2          1643.719
        59   01 Jun 2027 16:41:03.766   01 Jun 2027 16:41:54.309            50.543                Anadyr2          1579.469
        60   01 Jun 2027 17:33:02.752   01 Jun 2027 17:34:36.468            93.716               CapeTown          2928.625
        61   01 Jun 2027 17:39:31.676   01 Jun 2027 17:40:31.460            59.784               CapeTown          1868.250
        62   01 Jun 2027 18:04:49.829   01 Jun 2027 18:09:29.800           279.971              Murmansk2          8749.094
        63   01 Jun 2027 18:09:47.052   01 Jun 2027 18:09:54.000             6.948              Murmansk1           217.125
        64   01 Jun 2027 18:16:04.096   01 Jun 2027 18:17:25.888            81.792               Magadan2          2556.000
        65   01 Jun 2027 18:17:50.271   01 Jun 2027 18:18:51.357            61.086               Magadan1          1908.938
        66   01 Jun 2027 18:23:57.172   01 Jun 2027 18:24:06.667             9.495               Magadan2           296.719
        67   01 Jun 2027 19:49:09.354   01 Jun 2027 19:55:28.064           378.710                Anadyr1         11834.687
        68   01 Jun 2027 19:55:42.845   01 Jun 2027 19:55:49.807             6.962                Anadyr1           217.563
        69   01 Jun 2027 19:55:53.532   01 Jun 2027 19:56:22.820            29.288               Magadan1           915.250
        70   01 Jun 2027 19:56:33.608   01 Jun 2027 19:56:43.506             9.898                Anadyr1           309.313
        71   01 Jun 2027 19:56:50.884   01 Jun 2027 19:58:14.929            84.045               Magadan1          2626.406
        72   01 Jun 2027 20:44:27.778   01 Jun 2027 20:47:17.296           169.518            RioGallegos          5297.437
        73   01 Jun 2027 20:50:26.558   01 Jun 2027 20:50:52.312            25.754            RioGallegos           804.812
        74   01 Jun 2027 21:24:54.997   01 Jun 2027 21:27:09.901           134.904                Anadyr2          4215.750
        75   01 Jun 2027 21:27:24.630   01 Jun 2027 21:29:00.682            96.052               Magadan1          3001.625
        76   01 Jun 2027 21:29:16.663   01 Jun 2027 21:29:42.773            26.110                Norilsk           815.938
        77   01 Jun 2027 21:29:48.660   01 Jun 2027 21:30:13.852            25.192                Norilsk           787.250
        78   01 Jun 2027 21:31:38.316   01 Jun 2027 21:32:49.574            71.258                Irkutsk          2226.813
        79   01 Jun 2027 21:40:27.969   01 Jun 2027 21:40:55.965            27.996                Irkutsk           874.875
        80   01 Jun 2027 21:45:58.495   01 Jun 2027 21:47:36.519            98.024                Sumatra          3063.250
        81   01 Jun 2027 21:51:00.701   01 Jun 2027 21:52:17.718            77.017                Sumatra          2406.781
        82   01 Jun 2027 23:00:01.595   01 Jun 2027 23:01:10.305            68.710                Anadyr1          2147.187
        83   01 Jun 2027 23:02:28.997   01 Jun 2027 23:02:39.130            10.133                Anadyr1           316.656
        84   01 Jun 2027 23:02:54.078   01 Jun 2027 23:03:27.643            33.565                Norilsk          1048.906
        85   01 Jun 2027 23:03:31.660   01 Jun 2027 23:04:55.484            83.824               Magadan1          2619.500
        86   01 Jun 2027 23:05:21.423   01 Jun 2027 23:06:01.111            39.688               Magadan2          1240.250
        87   01 Jun 2027 23:06:46.636   01 Jun 2027 23:07:31.560            44.924                Irkutsk          1403.875
        88   01 Jun 2027 23:07:41.882   01 Jun 2027 23:10:14.198           152.316                Novosib          4759.875
        89   01 Jun 2027 23:16:02.270   01 Jun 2027 23:16:53.995            51.725                  Delhi          1616.406
        90   01 Jun 2027 23:19:59.669   01 Jun 2027 23:20:08.186             8.517                  Delhi           266.156
        91   01 Jun 2027 23:20:24.328   01 Jun 2027 23:21:53.273            88.945                  Delhi          2779.531
        92   02 Jun 2027 00:33:55.807   02 Jun 2027 00:34:16.956            21.149                Anadyr2           660.906
        93   02 Jun 2027 00:35:08.298   02 Jun 2027 00:35:39.435            31.137                Anadyr2           973.031
        94   02 Jun 2027 00:36:06.273   02 Jun 2027 00:36:47.469            41.196                Anadyr1          1287.375
        95   02 Jun 2027 00:38:54.281   02 Jun 2027 00:39:26.574            32.293                Anadyr2          1009.156
        96   02 Jun 2027 00:39:39.422   02 Jun 2027 00:41:48.502           129.080               Magadan2          4033.750
        97   02 Jun 2027 00:42:00.997   02 Jun 2027 00:43:38.040            97.043              Murmansk2          3032.594
        98   02 Jun 2027 00:43:58.793   02 Jun 2027 00:44:24.015            25.222              Murmansk2           788.187
        99   02 Jun 2027 00:44:53.118   02 Jun 2027 00:45:05.896            12.778              Murmansk2           399.312
       100   02 Jun 2027 00:46:03.581   02 Jun 2027 00:47:20.523            76.942              Murmansk1          2404.437
       101   02 Jun 2027 00:54:53.978   02 Jun 2027 00:55:52.425            58.447                  Delhi          1826.469
       102   02 Jun 2027 01:32:26.986   02 Jun 2027 01:33:29.826            62.840            RioGallegos          1963.750
       103   02 Jun 2027 01:36:09.475   02 Jun 2027 01:36:50.342            40.867            RioGallegos          1277.094
       104   02 Jun 2027 02:07:13.010   02 Jun 2027 02:08:28.420            75.410                Anadyr2          2356.563
       105   02 Jun 2027 02:10:16.176   02 Jun 2027 02:10:18.417             2.241                Anadyr2            70.031
       106   02 Jun 2027 02:10:49.597   02 Jun 2027 02:10:56.659             7.062                Anadyr1           220.688
       107   02 Jun 2027 02:12:55.375   02 Jun 2027 02:13:23.827            28.452                Anadyr1           889.125
       108   02 Jun 2027 02:13:42.477   02 Jun 2027 02:14:10.572            28.095               Magadan1           877.969
       109   02 Jun 2027 02:14:47.722   02 Jun 2027 02:15:11.286            23.564                Norilsk           736.375
       110   02 Jun 2027 02:15:21.468   02 Jun 2027 02:15:51.698            30.230               Magadan2           944.688
       111   02 Jun 2027 02:17:03.068   02 Jun 2027 02:18:25.059            81.991              Murmansk2          2562.219
       112   02 Jun 2027 02:18:52.701   02 Jun 2027 02:19:53.720            61.019                Novosib          1906.844
       113   02 Jun 2027 02:20:29.697   02 Jun 2027 02:20:56.148            26.451                Novosib           826.594
       114   02 Jun 2027 02:26:14.153   02 Jun 2027 02:26:47.035            32.882                 Moscow          1027.563
       115   02 Jun 2027 02:29:41.519   02 Jun 2027 02:30:07.163            25.644                  Delhi           801.375
       116   02 Jun 2027 02:45:57.794   02 Jun 2027 02:46:07.114             9.320               CapeTown           291.250
       117   02 Jun 2027 02:48:37.884   02 Jun 2027 02:49:20.463            42.579               CapeTown          1330.594
       118   02 Jun 2027 02:52:55.966   02 Jun 2027 02:53:05.532             9.566               CapeTown           298.937
       119   02 Jun 2027 02:54:59.578   02 Jun 2027 02:55:06.766             7.188               CapeTown           224.625
       120   02 Jun 2027 04:01:57.323   02 Jun 2027 04:02:55.618            58.295              Murmansk1          1821.719
       121   02 Jun 2027 04:03:05.397   02 Jun 2027 04:03:28.951            23.554                 Moscow           736.062
       122   02 Jun 2027 04:03:50.069   02 Jun 2027 04:04:33.069            43.000              Murmansk2          1343.750
       123   02 Jun 2027 04:04:33.069   02 Jun 2027 04:05:36.843            63.774              Murmansk1          1992.938
       124   02 Jun 2027 05:23:30.558   02 Jun 2027 05:26:00.654           150.096                Anadyr1          4690.500
       125   02 Jun 2027 05:26:00.654   02 Jun 2027 05:26:18.295            17.641                Anadyr2           551.281
       126   02 Jun 2027 05:26:20.837   02 Jun 2027 05:26:53.033            32.196               Magadan2          1006.125
       127   02 Jun 2027 05:28:30.746   02 Jun 2027 05:29:30.568            59.822                Anadyr2          1869.438
       128   02 Jun 2027 08:37:28.755   02 Jun 2027 08:38:13.136            44.381                Irkutsk          1386.906
       129   02 Jun 2027 08:39:02.080   02 Jun 2027 08:39:16.967            14.887                Novosib           465.219
       130   02 Jun 2027 08:39:38.217   02 Jun 2027 08:40:52.360            74.143               Magadan2          2316.969
       131   02 Jun 2027 08:41:56.736   02 Jun 2027 08:41:56.792             0.056                Novosib             1.750
       132   02 Jun 2027 08:42:04.456   02 Jun 2027 08:42:58.219            53.763              Murmansk2          1680.094
       133   02 Jun 2027 09:15:49.849   02 Jun 2027 09:17:04.662            74.813            RioGallegos          2337.906
       134   02 Jun 2027 09:18:13.911   02 Jun 2027 09:18:28.916            15.005            RioGallegos           468.906
       135   02 Jun 2027 09:19:02.810   02 Jun 2027 09:19:34.302            31.492            RioGallegos           984.125
       136   02 Jun 2027 09:24:49.793   02 Jun 2027 09:25:01.850            12.057            RioGallegos           376.781
       137   02 Jun 2027 09:26:35.550   02 Jun 2027 09:26:38.737             3.187            RioGallegos            99.594
       138   02 Jun 2027 09:27:05.039   02 Jun 2027 09:27:29.043            24.004            RioGallegos           750.125
       139   02 Jun 2027 09:28:01.921   02 Jun 2027 09:28:02.407             0.486            RioGallegos            15.187
       140   02 Jun 2027 09:51:42.940   02 Jun 2027 09:52:49.796            66.856                Sumatra          2089.250
       141   02 Jun 2027 10:00:57.335   02 Jun 2027 10:02:37.421           100.086                Sumatra          3127.688
       142   02 Jun 2027 10:11:58.459   02 Jun 2027 10:12:20.388            21.929                Novosib           685.281
       143   02 Jun 2027 10:12:40.502   02 Jun 2027 10:12:42.172             1.670                Irkutsk            52.188
       144   02 Jun 2027 10:12:45.739   02 Jun 2027 10:13:20.229            34.490                Irkutsk          1077.813
       145   02 Jun 2027 10:13:23.692   02 Jun 2027 10:14:12.084            48.392                Novosib          1512.250
       146   02 Jun 2027 10:14:38.931   02 Jun 2027 10:14:54.894            15.963                Novosib           498.844
       147   02 Jun 2027 10:15:17.744   02 Jun 2027 10:16:03.487            45.743                Irkutsk          1429.469
       148   02 Jun 2027 10:16:12.489   02 Jun 2027 10:16:56.651            44.162                Irkutsk          1380.063
       149   02 Jun 2027 10:52:57.268   02 Jun 2027 10:53:20.430            23.162            RioGallegos           723.813
       150   02 Jun 2027 10:55:15.633   02 Jun 2027 10:55:39.209            23.576            RioGallegos           736.750
       151   02 Jun 2027 11:27:11.369   02 Jun 2027 11:27:47.145            35.776                Sumatra          1118.000
       152   02 Jun 2027 11:31:14.470   02 Jun 2027 11:31:33.967            19.497                Sumatra           609.281
       153   02 Jun 2027 11:41:52.425   02 Jun 2027 11:42:26.400            33.975                  Delhi          1061.719
       154   02 Jun 2027 11:48:45.803   02 Jun 2027 11:49:12.205            26.402                Norilsk           825.062
       155   02 Jun 2027 11:49:36.666   02 Jun 2027 11:49:52.478            15.812                Novosib           494.125
       156   02 Jun 2027 11:49:59.375   02 Jun 2027 11:50:36.417            37.042                Novosib          1157.563
       157   02 Jun 2027 11:50:38.769   02 Jun 2027 11:51:15.430            36.661                Norilsk          1145.656
       158   02 Jun 2027 11:51:18.114   02 Jun 2027 11:52:02.954            44.840                Irkutsk          1401.250
       159   02 Jun 2027 11:52:15.460   02 Jun 2027 11:52:33.609            18.149                Norilsk           567.156
       160   02 Jun 2027 13:12:09.333   02 Jun 2027 13:15:17.371           188.038                  Delhi          5876.188
       161   02 Jun 2027 13:15:28.904   02 Jun 2027 13:17:14.996           106.092                  Delhi          3315.375
       162   02 Jun 2027 13:20:35.286   02 Jun 2027 13:21:17.300            42.014                Novosib          1312.938
       163   02 Jun 2027 13:21:53.969   02 Jun 2027 13:22:45.615            51.646                Novosib          1613.938
       164   02 Jun 2027 13:23:47.506   02 Jun 2027 13:25:03.866            76.360                Novosib          2386.250
       165   02 Jun 2027 14:55:24.236   02 Jun 2027 14:57:19.023           114.787                 Moscow          3587.094
       166   02 Jun 2027 14:58:38.761   02 Jun 2027 14:59:42.108            63.347                 Moscow          1979.594
       167   02 Jun 2027 15:00:04.672   02 Jun 2027 15:02:01.165           116.493              Murmansk1          3640.406
       168   02 Jun 2027 15:05:49.484   02 Jun 2027 15:05:58.618             9.134              Murmansk1           285.437
       169   02 Jun 2027 15:06:28.156   02 Jun 2027 15:08:13.010           104.854                Norilsk          3276.688
       170   02 Jun 2027 15:14:49.028   02 Jun 2027 15:15:03.050            14.022                Anadyr1           438.188
       171   02 Jun 2027 15:15:37.075   02 Jun 2027 15:16:01.359            24.284                Anadyr2           758.875
       172   02 Jun 2027 15:16:38.903   02 Jun 2027 15:17:04.631            25.728                Anadyr2           804.000
       173   02 Jun 2027 16:08:53.133   02 Jun 2027 16:09:52.570            59.437               CapeTown          1857.406
       174   02 Jun 2027 16:16:26.738   02 Jun 2027 16:17:01.314            34.576               CapeTown          1080.500
       175   02 Jun 2027 16:34:44.016   02 Jun 2027 16:35:32.211            48.195                 Moscow          1506.094
       176   02 Jun 2027 16:36:54.046   02 Jun 2027 16:37:43.118            49.072              Murmansk2          1533.500
       177   02 Jun 2027 16:37:57.346   02 Jun 2027 16:38:18.714            21.368              Murmansk1           667.750
       178   02 Jun 2027 16:42:07.945   02 Jun 2027 16:42:50.020            42.075              Murmansk2          1314.844
       179   02 Jun 2027 16:47:31.614   02 Jun 2027 16:47:32.131             0.517              Murmansk1            16.156
       180   02 Jun 2027 16:49:27.160   02 Jun 2027 16:50:54.305            87.145                Anadyr1          2723.281
       181   02 Jun 2027 16:51:03.535   02 Jun 2027 16:51:16.148            12.613                Anadyr1           394.156
       182   02 Jun 2027 16:51:17.854   02 Jun 2027 16:51:50.291            32.437                Anadyr2          1013.656
       183   02 Jun 2027 16:54:57.734   02 Jun 2027 16:55:15.204            17.470                Anadyr1           545.937
       184   02 Jun 2027 16:59:46.165   02 Jun 2027 16:59:52.881             6.716                Anadyr2           209.875
       185   02 Jun 2027 17:00:17.058   02 Jun 2027 17:00:37.322            20.264                Anadyr2           633.250
       186   02 Jun 2027 17:00:43.848   02 Jun 2027 17:00:47.490             3.642                Anadyr1           113.812
       187   02 Jun 2027 17:45:19.436   02 Jun 2027 17:45:38.077            18.641               CapeTown           582.531
       188   02 Jun 2027 17:46:11.600   02 Jun 2027 17:46:35.698            24.098               CapeTown           753.063
       189   02 Jun 2027 17:50:07.097   02 Jun 2027 17:50:47.815            40.718               CapeTown          1272.437
       190   02 Jun 2027 18:17:44.474   02 Jun 2027 18:21:07.139           202.665              Murmansk1          6333.281
       191   02 Jun 2027 18:21:07.139   02 Jun 2027 18:21:46.860            39.721              Murmansk2          1241.281
       192   02 Jun 2027 18:25:14.831   02 Jun 2027 18:25:47.599            32.768                Anadyr2          1024.000
       193   02 Jun 2027 18:27:56.977   02 Jun 2027 18:29:12.578            75.601               Magadan2          2362.531
       194   02 Jun 2027 18:35:01.185   02 Jun 2027 18:35:13.416            12.231               Magadan1           382.219
       195   02 Jun 2027 18:35:59.622   02 Jun 2027 18:36:31.275            31.653               Magadan2           989.156
       196   02 Jun 2027 20:01:10.553   02 Jun 2027 20:03:16.587           126.034                Anadyr2          3938.562
       197   02 Jun 2027 20:03:25.689   02 Jun 2027 20:05:21.128           115.439                Anadyr1          3607.469
       198   02 Jun 2027 20:05:25.672   02 Jun 2027 20:07:25.387           119.715               Magadan1          3741.094
       199   02 Jun 2027 20:08:39.544   02 Jun 2027 20:08:43.234             3.690                Anadyr1           115.313
       200   02 Jun 2027 20:08:51.069   02 Jun 2027 20:09:49.112            58.043               Magadan1          1813.844
       201   02 Jun 2027 20:13:55.771   02 Jun 2027 20:14:00.262             4.491               Magadan2           140.344
       202   02 Jun 2027 20:14:43.957   02 Jun 2027 20:15:02.994            19.037               Magadan2           594.906
       203   02 Jun 2027 20:56:05.133   02 Jun 2027 20:58:34.674           149.541            RioGallegos          4673.156
       204   02 Jun 2027 21:00:26.493   02 Jun 2027 21:00:52.953            26.460            RioGallegos           826.875
       205   02 Jun 2027 21:02:14.089   02 Jun 2027 21:02:36.331            22.242            RioGallegos           695.062
       206   02 Jun 2027 21:36:53.236   02 Jun 2027 21:37:29.578            36.342                Anadyr2          1135.688
       207   02 Jun 2027 21:38:52.820   02 Jun 2027 21:39:17.779            24.959                Anadyr1           779.969
       208   02 Jun 2027 21:39:27.363   02 Jun 2027 21:41:28.015           120.652               Magadan2          3770.375
       209   02 Jun 2027 21:41:44.002   02 Jun 2027 21:42:12.780            28.778                Norilsk           899.313
       210   02 Jun 2027 21:42:55.096   02 Jun 2027 21:43:18.026            22.930               Magadan2           716.563
       211   02 Jun 2027 21:43:26.915   02 Jun 2027 21:44:49.444            82.529                Irkutsk          2579.031
       212   02 Jun 2027 21:52:35.387   02 Jun 2027 21:52:54.336            18.949                Irkutsk           592.156
       213   02 Jun 2027 21:57:29.740   02 Jun 2027 21:58:57.514            87.774                Sumatra          2742.937
       214   02 Jun 2027 22:00:36.261   02 Jun 2027 22:01:24.699            48.438                Sumatra          1513.687
       215   02 Jun 2027 23:11:52.064   02 Jun 2027 23:13:14.665            82.601                Anadyr2          2581.281
       216   02 Jun 2027 23:14:56.089   02 Jun 2027 23:16:07.607            71.518                Norilsk          2234.937
       217   02 Jun 2027 23:16:52.887   02 Jun 2027 23:17:29.572            36.685               Magadan1          1146.406
       218   02 Jun 2027 23:18:03.426   02 Jun 2027 23:18:40.249            36.823               Magadan1          1150.719
       219   02 Jun 2027 23:18:47.872   02 Jun 2027 23:18:56.477             8.605                Irkutsk           268.906
       220   02 Jun 2027 23:19:07.282   02 Jun 2027 23:20:31.014            83.732                Novosib          2616.625
       221   02 Jun 2027 23:23:30.443   02 Jun 2027 23:23:50.535            20.092                Irkutsk           627.875
       222   02 Jun 2027 23:24:45.845   02 Jun 2027 23:25:19.837            33.992                Novosib          1062.250
       223   02 Jun 2027 23:25:51.026   02 Jun 2027 23:27:54.190           123.164                Novosib          3848.875
       224   02 Jun 2027 23:33:48.068   02 Jun 2027 23:34:20.922            32.854                  Delhi          1026.687
       225   03 Jun 2027 00:16:46.365   03 Jun 2027 00:18:01.234            74.869            RioGallegos          2339.656
       226   03 Jun 2027 00:47:19.917   03 Jun 2027 00:47:39.858            19.941                Anadyr1           623.156
       227   03 Jun 2027 00:48:01.755   03 Jun 2027 00:48:36.150            34.395                Anadyr1          1074.844
       228   03 Jun 2027 00:50:56.345   03 Jun 2027 00:51:28.775            32.430                Norilsk          1013.437
       229   03 Jun 2027 00:52:08.958   03 Jun 2027 00:53:16.183            67.225               Magadan2          2100.781
       230   03 Jun 2027 00:53:26.942   03 Jun 2027 00:55:06.246            99.304              Murmansk1          3103.250
       231   03 Jun 2027 00:55:28.702   03 Jun 2027 00:55:56.829            28.127                Novosib           878.969
       232   03 Jun 2027 00:56:02.456   03 Jun 2027 00:57:03.660            61.204              Murmansk2          1912.625
       233   03 Jun 2027 00:59:52.551   03 Jun 2027 00:59:54.545             1.994                 Moscow            62.313
       234   03 Jun 2027 01:00:04.165   03 Jun 2027 01:00:13.564             9.399                 Moscow           293.719
       235   03 Jun 2027 01:02:07.173   03 Jun 2027 01:02:40.852            33.679                  Delhi          1052.469
       236   03 Jun 2027 01:06:56.831   03 Jun 2027 01:07:09.981            13.150                  Delhi           410.938
       237   03 Jun 2027 01:11:48.325   03 Jun 2027 01:12:36.082            47.757                  Delhi          1492.406
       238   03 Jun 2027 01:45:05.182   03 Jun 2027 01:45:42.587            37.405            RioGallegos          1168.906
       239   03 Jun 2027 01:47:13.392   03 Jun 2027 01:48:13.652            60.260            RioGallegos          1883.125
       240   03 Jun 2027 02:18:56.348   03 Jun 2027 02:19:37.811            41.463                Anadyr1          1295.719
       241   03 Jun 2027 02:20:27.339   03 Jun 2027 02:20:45.638            18.299                Anadyr2           571.844
       242   03 Jun 2027 02:22:04.109   03 Jun 2027 02:22:04.167             0.058                Anadyr1             1.812
       243   03 Jun 2027 02:24:30.708   03 Jun 2027 02:26:12.041           101.333               Magadan2          3166.656
       244   03 Jun 2027 02:29:04.200   03 Jun 2027 02:30:03.464            59.264              Murmansk1          1852.000
       245   03 Jun 2027 02:30:51.158   03 Jun 2027 02:31:11.911            20.753              Murmansk2           648.531
       246   03 Jun 2027 02:31:55.673   03 Jun 2027 02:32:50.579            54.906                Novosib          1715.812
       247   03 Jun 2027 02:33:44.327   03 Jun 2027 02:33:46.867             2.540                Novosib            79.375
       248   03 Jun 2027 02:34:17.351   03 Jun 2027 02:34:50.096            32.745                Novosib          1023.281
       249   03 Jun 2027 02:39:32.544   03 Jun 2027 02:39:47.103            14.559                 Moscow           454.969
       250   03 Jun 2027 02:41:41.539   03 Jun 2027 02:41:43.755             2.216                 Moscow            69.250
       251   03 Jun 2027 02:57:26.555   03 Jun 2027 02:58:12.292            45.737               CapeTown          1429.281
       252   03 Jun 2027 03:03:50.180   03 Jun 2027 03:04:00.871            10.691               CapeTown           334.094
       253   03 Jun 2027 03:04:55.378   03 Jun 2027 03:06:40.977           105.599               CapeTown          3299.969
       254   03 Jun 2027 04:14:56.765   03 Jun 2027 04:15:13.110            16.345                 Moscow           510.781
       255   03 Jun 2027 04:15:13.326   03 Jun 2027 04:17:57.270           163.944              Murmansk1          5123.250
       256   03 Jun 2027 04:19:09.141   03 Jun 2027 04:20:59.733           110.592                 Moscow          3456.000
       257   03 Jun 2027 04:37:25.073   03 Jun 2027 04:38:00.065            34.992               CapeTown          1093.500
       258   03 Jun 2027 04:38:18.543   03 Jun 2027 04:38:26.369             7.826               CapeTown           244.563
       259   03 Jun 2027 04:38:54.173   03 Jun 2027 04:40:24.373            90.200               CapeTown          2818.750
       260   03 Jun 2027 04:42:13.028   03 Jun 2027 04:42:36.343            23.315               CapeTown           728.594
       261   03 Jun 2027 04:42:50.407   03 Jun 2027 04:43:49.293            58.886               CapeTown          1840.188
       262   03 Jun 2027 04:44:07.372   03 Jun 2027 04:44:09.723             2.351               CapeTown            73.469
       263   03 Jun 2027 05:35:00.535   03 Jun 2027 05:35:52.431            51.896                Anadyr1          1621.750
       264   03 Jun 2027 05:35:57.305   03 Jun 2027 05:36:49.572            52.267                Anadyr2          1633.344
       265   03 Jun 2027 05:37:37.047   03 Jun 2027 05:41:25.704           228.657               Magadan1          7145.531
       266   03 Jun 2027 07:12:18.321   03 Jun 2027 07:12:43.941            25.620                Anadyr1           800.625
       267   03 Jun 2027 07:13:02.567   03 Jun 2027 07:13:10.642             8.075               Magadan2           252.344
       268   03 Jun 2027 07:13:10.642   03 Jun 2027 07:13:38.154            27.512               Magadan1           859.750
       269   03 Jun 2027 07:13:45.087   03 Jun 2027 07:15:16.332            91.245               Magadan2          2851.406
       270   03 Jun 2027 07:16:36.713   03 Jun 2027 07:17:23.120            46.407                Anadyr1          1450.219
       271   03 Jun 2027 08:46:36.691   03 Jun 2027 08:47:52.857            76.166               Magadan1          2380.188
       272   03 Jun 2027 08:48:10.705   03 Jun 2027 08:48:48.116            37.411               Magadan2          1169.094
       273   03 Jun 2027 08:49:01.587   03 Jun 2027 08:49:27.620            26.033                Irkutsk           813.531
       274   03 Jun 2027 08:49:51.352   03 Jun 2027 08:50:23.928            32.576               Magadan1          1018.000
       275   03 Jun 2027 08:50:30.476   03 Jun 2027 08:50:42.470            11.994                Irkutsk           374.812
       276   03 Jun 2027 08:50:50.785   03 Jun 2027 08:51:13.265            22.480                Irkutsk           702.500
       277   03 Jun 2027 08:51:17.243   03 Jun 2027 08:51:51.971            34.728                Irkutsk          1085.250
       278   03 Jun 2027 08:51:56.582   03 Jun 2027 08:52:59.888            63.306                Irkutsk          1978.313
       279   03 Jun 2027 09:29:43.729   03 Jun 2027 09:30:25.336            41.607            RioGallegos          1300.219
       280   03 Jun 2027 10:03:18.624   03 Jun 2027 10:03:51.652            33.028                Sumatra          1032.125
       281   03 Jun 2027 10:09:49.812   03 Jun 2027 10:09:52.701             2.889                Sumatra            90.281
       282   03 Jun 2027 10:10:22.936   03 Jun 2027 10:10:24.660             1.724                Sumatra            53.875
       283   03 Jun 2027 10:19:42.391   03 Jun 2027 10:19:54.278            11.887                  Delhi           371.469
       284   03 Jun 2027 10:24:53.592   03 Jun 2027 10:25:06.243            12.651                Irkutsk           395.344
       285   03 Jun 2027 10:25:08.212   03 Jun 2027 10:25:22.072            13.860                Irkutsk           433.125
       286   03 Jun 2027 10:25:23.636   03 Jun 2027 10:25:30.502             6.866                Novosib           214.563
       287   03 Jun 2027 10:25:36.935   03 Jun 2027 10:26:44.003            67.068                Novosib          2095.875
       288   03 Jun 2027 10:27:22.739   03 Jun 2027 10:27:47.759            25.020                Irkutsk           781.875
       289   03 Jun 2027 10:27:58.619   03 Jun 2027 10:29:04.717            66.098                Irkutsk          2065.563
       290   03 Jun 2027 11:05:27.498   03 Jun 2027 11:06:09.921            42.423            RioGallegos          1325.719
       291   03 Jun 2027 11:39:39.805   03 Jun 2027 11:40:01.227            21.422                Sumatra           669.437
       292   03 Jun 2027 11:40:21.966   03 Jun 2027 11:40:42.289            20.323                Sumatra           635.094
       293   03 Jun 2027 11:45:28.483   03 Jun 2027 11:45:40.341            11.858                Sumatra           370.562
       294   03 Jun 2027 12:03:15.984   03 Jun 2027 12:03:44.012            28.028                Irkutsk           875.875
       295   03 Jun 2027 13:24:53.416   03 Jun 2027 13:26:21.094            87.678                  Delhi          2739.938
       296   03 Jun 2027 13:27:07.467   03 Jun 2027 13:27:57.762            50.295                  Delhi          1571.719
       297   03 Jun 2027 13:28:40.689   03 Jun 2027 13:29:42.548            61.859                  Delhi          1933.094
       298   03 Jun 2027 13:33:16.195   03 Jun 2027 13:33:47.120            30.925                  Delhi           966.406
       299   03 Jun 2027 13:34:16.067   03 Jun 2027 13:34:40.753            24.686                Novosib           771.438
       300   03 Jun 2027 13:35:45.329   03 Jun 2027 13:37:03.586            78.257                Novosib          2445.531
       301   03 Jun 2027 13:42:16.086   03 Jun 2027 13:42:29.396            13.310                Norilsk           415.937
       302   03 Jun 2027 14:49:02.644   03 Jun 2027 14:50:12.413            69.769               CapeTown          2180.281
       303   03 Jun 2027 14:50:44.397   03 Jun 2027 14:51:39.296            54.899               CapeTown          1715.594
       304   03 Jun 2027 15:07:36.184   03 Jun 2027 15:08:06.329            30.145                 Moscow           942.031
       305   03 Jun 2027 15:08:49.121   03 Jun 2027 15:09:19.058            29.937                 Moscow           935.531
       306   03 Jun 2027 15:12:03.531   03 Jun 2027 15:12:13.168             9.637                 Moscow           301.156
       307   03 Jun 2027 15:12:38.035   03 Jun 2027 15:13:11.477            33.442                 Moscow          1045.062
       308   03 Jun 2027 15:16:07.236   03 Jun 2027 15:16:19.156            11.920              Murmansk2           372.500
       309   03 Jun 2027 15:17:51.207   03 Jun 2027 15:18:08.427            17.220              Murmansk1           538.125
       310   03 Jun 2027 15:19:52.609   03 Jun 2027 15:20:10.456            17.847              Murmansk1           557.719
       311   03 Jun 2027 15:21:41.587   03 Jun 2027 15:21:57.768            16.181              Murmansk2           505.656
       312   03 Jun 2027 15:26:27.355   03 Jun 2027 15:28:03.999            96.644                Anadyr1          3020.125
       313   03 Jun 2027 15:28:19.952   03 Jun 2027 15:28:39.104            19.152                Anadyr1           598.500
       314   03 Jun 2027 15:28:48.752   03 Jun 2027 15:29:07.835            19.083                Anadyr1           596.344
       315   03 Jun 2027 15:29:07.835   03 Jun 2027 15:30:48.953           101.118                Anadyr2          3159.937
       316   03 Jun 2027 16:33:00.694   03 Jun 2027 16:33:03.712             3.018               CapeTown            94.313
       317   03 Jun 2027 16:47:42.620   03 Jun 2027 16:48:06.282            23.662                 Moscow           739.438
       318   03 Jun 2027 16:48:37.585   03 Jun 2027 16:49:16.155            38.570                 Moscow          1205.312
       319   03 Jun 2027 16:49:20.946   03 Jun 2027 16:49:57.776            36.830              Murmansk2          1150.937
       320   03 Jun 2027 16:51:22.732   03 Jun 2027 16:52:08.987            46.255                 Moscow          1445.469
       321   03 Jun 2027 16:56:47.613   03 Jun 2027 16:57:19.133            31.520              Murmansk2           985.000
       322   03 Jun 2027 16:58:22.514   03 Jun 2027 16:59:32.167            69.653              Murmansk1          2176.656
       323   03 Jun 2027 17:03:07.024   03 Jun 2027 17:03:17.344            10.320                Anadyr2           322.500
       324   03 Jun 2027 17:04:57.554   03 Jun 2027 17:05:56.584            59.030                Anadyr2          1844.688
       325   03 Jun 2027 17:11:00.273   03 Jun 2027 17:11:21.506            21.233                Anadyr1           663.531
       326   03 Jun 2027 17:12:31.936   03 Jun 2027 17:12:53.750            21.814                Anadyr1           681.688
       327   03 Jun 2027 18:01:42.755   03 Jun 2027 18:02:58.400            75.645               CapeTown          2363.906
       328   03 Jun 2027 18:30:51.193   03 Jun 2027 18:34:17.426           206.233              Murmansk1          6444.781
       329   03 Jun 2027 18:37:16.316   03 Jun 2027 18:37:46.312            29.996                Anadyr1           937.375
       330   03 Jun 2027 18:38:44.480   03 Jun 2027 18:39:22.548            38.068                Anadyr1          1189.625
       331   03 Jun 2027 18:39:51.699   03 Jun 2027 18:40:27.798            36.099               Magadan2          1128.094
       332   03 Jun 2027 18:40:52.850   03 Jun 2027 18:40:57.240             4.390               Magadan2           137.187
       333   03 Jun 2027 18:41:08.575   03 Jun 2027 18:42:34.356            85.781               Magadan2          2680.656
       334   03 Jun 2027 20:13:11.564   03 Jun 2027 20:16:56.675           225.111                Anadyr1          7034.719
       335   03 Jun 2027 20:17:05.160   03 Jun 2027 20:19:41.259           156.099               Magadan1          4878.094
       336   03 Jun 2027 20:24:04.151   03 Jun 2027 20:24:32.141            27.990               Magadan1           874.687
       337   03 Jun 2027 20:26:04.532   03 Jun 2027 20:26:21.540            17.008               Magadan1           531.500
       338   03 Jun 2027 21:07:48.675   03 Jun 2027 21:10:25.856           157.181            RioGallegos          4911.906
       339   03 Jun 2027 21:11:08.342   03 Jun 2027 21:11:43.418            35.076            RioGallegos          1096.125
       340   03 Jun 2027 21:48:50.804   03 Jun 2027 21:49:31.229            40.425                Anadyr1          1263.281
       341   03 Jun 2027 21:51:02.259   03 Jun 2027 21:51:18.510            16.251                Norilsk           507.844
       342   03 Jun 2027 21:51:30.195   03 Jun 2027 21:53:35.505           125.310               Magadan2          3915.937
       343   03 Jun 2027 21:54:48.067   03 Jun 2027 21:54:48.247             0.180                Norilsk             5.625
       344   03 Jun 2027 21:55:18.390   03 Jun 2027 21:56:52.438            94.048                Irkutsk          2939.000
       345   03 Jun 2027 21:57:58.501   03 Jun 2027 21:58:08.735            10.234                Novosib           319.813
       346   03 Jun 2027 21:58:25.803   03 Jun 2027 21:58:39.287            13.484                Novosib           421.375
       347   03 Jun 2027 21:58:43.634   03 Jun 2027 21:58:47.209             3.575                Novosib           111.719
       348   03 Jun 2027 22:00:01.668   03 Jun 2027 22:00:27.051            25.383                Novosib           793.219
       349   03 Jun 2027 22:01:06.290   03 Jun 2027 22:01:15.199             8.909                Novosib           278.406
       350   03 Jun 2027 22:09:50.175   03 Jun 2027 22:10:52.217            62.042                Sumatra          1938.813
       351   03 Jun 2027 22:12:31.205   03 Jun 2027 22:13:38.305            67.100                Sumatra          2096.875
       352   03 Jun 2027 23:23:41.225   03 Jun 2027 23:24:14.137            32.912                Anadyr1          1028.500
       353   03 Jun 2027 23:25:15.845   03 Jun 2027 23:25:21.082             5.237                Anadyr1           163.656
       354   03 Jun 2027 23:26:28.177   03 Jun 2027 23:26:50.558            22.381                Anadyr2           699.406
       355   03 Jun 2027 23:26:50.558   03 Jun 2027 23:26:53.537             2.979                Anadyr1            93.094
       356   03 Jun 2027 23:26:57.126   03 Jun 2027 23:27:14.542            17.416                Anadyr2           544.250
       357   03 Jun 2027 23:27:36.808   03 Jun 2027 23:29:31.565           114.757               Magadan1          3586.156
       358   03 Jun 2027 23:30:19.689   03 Jun 2027 23:30:34.825            15.136               Magadan1           473.000
       359   03 Jun 2027 23:30:49.933   03 Jun 2027 23:31:24.206            34.273                Irkutsk          1071.031
       360   03 Jun 2027 23:31:45.076   03 Jun 2027 23:31:59.145            14.069                Irkutsk           439.656
       361   03 Jun 2027 23:32:03.601   03 Jun 2027 23:33:19.036            75.435                Novosib          2357.344
       362   03 Jun 2027 23:33:28.398   03 Jun 2027 23:33:43.543            15.145                Novosib           473.281
       363   03 Jun 2027 23:39:01.185   03 Jun 2027 23:41:03.801           122.616                  Delhi          3831.750
       364   03 Jun 2027 23:48:12.356   03 Jun 2027 23:48:20.103             7.747                  Delhi           242.094
       365   03 Jun 2027 23:48:58.736   03 Jun 2027 23:49:45.171            46.435                  Delhi          1451.094
       366   04 Jun 2027 00:28:33.294   04 Jun 2027 00:28:50.061            16.767            RioGallegos           523.969
       367   04 Jun 2027 00:57:34.440   04 Jun 2027 00:58:00.369            25.929                Anadyr1           810.281
       368   04 Jun 2027 00:58:30.957   04 Jun 2027 00:59:13.977            43.020                Anadyr2          1344.375
       369   04 Jun 2027 00:59:39.942   04 Jun 2027 00:59:49.172             9.230                Anadyr2           288.437
       370   04 Jun 2027 01:00:08.902   04 Jun 2027 01:00:17.190             8.288                Anadyr2           259.000
       371   04 Jun 2027 01:00:18.668   04 Jun 2027 01:00:26.847             8.179                Anadyr1           255.594
       372   04 Jun 2027 01:02:53.032   04 Jun 2027 01:03:04.072            11.040                Anadyr2           345.000
       373   04 Jun 2027 01:03:06.839   04 Jun 2027 01:03:14.715             7.876                Norilsk           246.125
       374   04 Jun 2027 01:03:49.127   04 Jun 2027 01:05:11.522            82.395               Magadan2          2574.844
       375   04 Jun 2027 01:05:22.818   04 Jun 2027 01:07:07.123           104.305              Murmansk1          3259.531
       376   04 Jun 2027 01:07:15.015   04 Jun 2027 01:07:55.984            40.969                Novosib          1280.281
       377   04 Jun 2027 01:07:58.385   04 Jun 2027 01:08:05.223             6.838              Murmansk2           213.687
       378   04 Jun 2027 01:08:32.399   04 Jun 2027 01:09:57.483            85.084                Novosib          2658.875
       379   04 Jun 2027 01:20:15.216   04 Jun 2027 01:21:51.001            95.785                  Delhi          2993.281
       380   04 Jun 2027 02:30:40.605   04 Jun 2027 02:32:47.000           126.395                Anadyr1          3949.844
       381   04 Jun 2027 02:33:42.765   04 Jun 2027 02:33:48.756             5.991                Anadyr1           187.219
       382   04 Jun 2027 02:35:58.911   04 Jun 2027 02:37:09.165            70.254               Magadan1          2195.437
       383   04 Jun 2027 02:38:47.313   04 Jun 2027 02:39:15.809            28.496                Norilsk           890.500
       384   04 Jun 2027 02:41:05.579   04 Jun 2027 02:42:07.195            61.616              Murmansk1          1925.500
       385   04 Jun 2027 02:43:04.893   04 Jun 2027 02:44:47.128           102.235                Novosib          3194.844
       386   04 Jun 2027 02:49:33.439   04 Jun 2027 02:50:02.896            29.457                Novosib           920.531
       387   04 Jun 2027 02:55:30.368   04 Jun 2027 02:55:53.329            22.961                 Moscow           717.531
       388   04 Jun 2027 03:11:01.605   04 Jun 2027 03:11:12.295            10.690               CapeTown           334.062
       389   04 Jun 2027 03:11:30.524   04 Jun 2027 03:12:10.445            39.921               CapeTown          1247.531
       390   04 Jun 2027 04:14:07.500   04 Jun 2027 04:14:39.380            31.880                Anadyr1           996.250
       391   04 Jun 2027 04:26:06.247   04 Jun 2027 04:28:08.049           121.802                 Moscow          3806.312
       392   04 Jun 2027 04:28:34.132   04 Jun 2027 04:30:00.912            86.780              Murmansk1          2711.875
       393   04 Jun 2027 05:47:41.568   04 Jun 2027 05:49:15.542            93.974               Magadan1          2936.687
       394   04 Jun 2027 05:49:36.747   04 Jun 2027 05:52:10.041           153.294                Anadyr2          4790.438
       395   04 Jun 2027 05:52:10.041   04 Jun 2027 05:52:37.449            27.408                Anadyr1           856.500
       396   04 Jun 2027 07:24:19.501   04 Jun 2027 07:25:05.533            46.032                Anadyr1          1438.500
       397   04 Jun 2027 07:25:30.118   04 Jun 2027 07:25:45.257            15.139                Anadyr1           473.094
       398   04 Jun 2027 07:25:45.257   04 Jun 2027 07:25:46.094             0.837                Anadyr2            26.156
       399   04 Jun 2027 07:25:48.446   04 Jun 2027 07:26:23.665            35.219               Magadan2          1100.594
       400   04 Jun 2027 07:26:59.490   04 Jun 2027 07:28:02.942            63.452                Anadyr1          1982.875
       401   04 Jun 2027 07:28:36.153   04 Jun 2027 07:29:17.984            41.831                Anadyr2          1307.219
       402   04 Jun 2027 08:58:20.266   04 Jun 2027 08:58:35.196            14.930               Magadan2           466.562
       403   04 Jun 2027 08:59:56.102   04 Jun 2027 09:00:21.991            25.889               Magadan2           809.031
       404   04 Jun 2027 09:00:31.146   04 Jun 2027 09:01:03.358            32.212               Magadan1          1006.625
       405   04 Jun 2027 09:01:05.902   04 Jun 2027 09:01:53.619            47.717               Magadan2          1491.156
       406   04 Jun 2027 09:02:14.596   04 Jun 2027 09:02:28.093            13.497                Irkutsk           421.781
       407   04 Jun 2027 09:02:44.506   04 Jun 2027 09:03:15.369            30.863                Irkutsk           964.469
       408   04 Jun 2027 09:03:20.624   04 Jun 2027 09:03:24.672             4.048                Irkutsk           126.500
       409   04 Jun 2027 09:03:37.412   04 Jun 2027 09:04:23.431            46.019               Magadan2          1438.094
       410   04 Jun 2027 09:04:35.960   04 Jun 2027 09:05:50.820            74.860                Novosib          2339.375
       411   04 Jun 2027 09:43:08.289   04 Jun 2027 09:43:20.277            11.988            RioGallegos           374.625
       412   04 Jun 2027 10:15:01.867   04 Jun 2027 10:15:46.625            44.758                Sumatra          1398.688
       413   04 Jun 2027 10:31:18.787   04 Jun 2027 10:31:28.367             9.580                  Delhi           299.375
       414   04 Jun 2027 10:32:07.084   04 Jun 2027 10:33:26.543            79.459                  Delhi          2483.094
       415   04 Jun 2027 10:37:04.939   04 Jun 2027 10:37:26.483            21.544                Novosib           673.250
       416   04 Jun 2027 10:37:35.523   04 Jun 2027 10:38:09.759            34.236                Irkutsk          1069.875
       417   04 Jun 2027 10:38:48.567   04 Jun 2027 10:38:50.269             1.702                Novosib            53.187
       418   04 Jun 2027 10:39:26.385   04 Jun 2027 10:39:26.957             0.572                Irkutsk            17.875
       419   04 Jun 2027 10:39:36.344   04 Jun 2027 10:39:43.196             6.852                Novosib           214.125
       420   04 Jun 2027 10:39:53.069   04 Jun 2027 10:39:56.889             3.820                Irkutsk           119.375
       421   04 Jun 2027 10:40:18.962   04 Jun 2027 10:40:22.466             3.504                Norilsk           109.500
       422   04 Jun 2027 10:40:33.915   04 Jun 2027 10:40:44.628            10.713                Norilsk           334.781
       423   04 Jun 2027 10:41:09.728   04 Jun 2027 10:41:10.795             1.067                Norilsk            33.344
       424   04 Jun 2027 10:42:51.820   04 Jun 2027 10:43:28.562            36.742              Murmansk2          1148.187
       425   04 Jun 2027 11:18:04.260   04 Jun 2027 11:18:26.142            21.882            RioGallegos           683.813
       426   04 Jun 2027 11:19:23.920   04 Jun 2027 11:19:55.955            32.035            RioGallegos          1001.094
       427   04 Jun 2027 11:52:20.313   04 Jun 2027 11:53:04.965            44.652                Sumatra          1395.375
       428   04 Jun 2027 11:55:45.966   04 Jun 2027 11:57:15.429            89.463                Sumatra          2795.719
       429   04 Jun 2027 12:12:26.641   04 Jun 2027 12:12:38.505            11.864                Irkutsk           370.750
       430   04 Jun 2027 12:15:38.221   04 Jun 2027 12:15:55.436            17.215                Novosib           537.969
       431   04 Jun 2027 12:19:27.681   04 Jun 2027 12:19:59.220            31.539                Norilsk           985.594
       432   04 Jun 2027 13:37:55.460   04 Jun 2027 13:38:26.847            31.387                  Delhi           980.844
       433   04 Jun 2027 13:39:03.004   04 Jun 2027 13:39:42.231            39.227                  Delhi          1225.844
       434   04 Jun 2027 13:42:14.360   04 Jun 2027 13:42:19.826             5.466                  Delhi           170.813
       435   04 Jun 2027 13:43:32.641   04 Jun 2027 13:44:13.632            40.991                 Moscow          1280.969
       436   04 Jun 2027 13:46:26.294   04 Jun 2027 13:49:02.410           156.116                Novosib          4878.625
       437   04 Jun 2027 13:49:48.953   04 Jun 2027 13:50:45.848            56.895                Novosib          1777.969
       438   04 Jun 2027 13:54:31.814   04 Jun 2027 13:54:34.408             2.594                Norilsk            81.062
       439   04 Jun 2027 13:56:24.969   04 Jun 2027 13:57:45.389            80.420                Norilsk          2513.125
       440   04 Jun 2027 14:59:31.619   04 Jun 2027 15:00:08.165            36.546               CapeTown          1142.062
       441   04 Jun 2027 15:02:00.210   04 Jun 2027 15:02:12.997            12.787               CapeTown           399.594
       442   04 Jun 2027 15:02:46.045   04 Jun 2027 15:03:12.130            26.085               CapeTown           815.156
       443   04 Jun 2027 15:05:05.030   04 Jun 2027 15:05:57.556            52.526               CapeTown          1641.438
       444   04 Jun 2027 15:23:17.191   04 Jun 2027 15:24:07.365            50.174              Murmansk2          1567.937
       445   04 Jun 2027 15:26:04.949   04 Jun 2027 15:26:25.787            20.838              Murmansk1           651.187
       446   04 Jun 2027 15:27:59.822   04 Jun 2027 15:28:09.170             9.348              Murmansk1           292.125
       447   04 Jun 2027 15:29:52.813   04 Jun 2027 15:30:13.403            20.590              Murmansk2           643.437
       448   04 Jun 2027 15:31:53.506   04 Jun 2027 15:32:11.145            17.639              Murmansk2           551.219
       449   04 Jun 2027 15:33:42.641   04 Jun 2027 15:33:59.628            16.987              Murmansk2           530.844
       450   04 Jun 2027 15:34:32.304   04 Jun 2027 15:34:57.622            25.318              Murmansk1           791.187
       451   04 Jun 2027 15:38:13.141   04 Jun 2027 15:39:50.163            97.022                Anadyr2          3031.938
       452   04 Jun 2027 15:40:38.956   04 Jun 2027 15:40:52.068            13.112                Anadyr2           409.750
       453   04 Jun 2027 15:41:12.927   04 Jun 2027 15:42:34.876            81.949                Anadyr2          2560.906
       454   04 Jun 2027 17:01:02.008   04 Jun 2027 17:02:31.328            89.320                 Moscow          2791.250
       455   04 Jun 2027 17:03:08.943   04 Jun 2027 17:04:07.384            58.441              Murmansk1          1826.281
       456   04 Jun 2027 17:09:58.559   04 Jun 2027 17:10:24.914            26.355              Murmansk2           823.594
       457   04 Jun 2027 17:13:25.839   04 Jun 2027 17:13:47.246            21.407                Anadyr2           668.969
       458   04 Jun 2027 17:13:54.267   04 Jun 2027 17:14:31.020            36.753                Anadyr1          1148.531
       459   04 Jun 2027 17:14:46.607   04 Jun 2027 17:14:54.845             8.238                Anadyr2           257.438
       460   04 Jun 2027 17:15:38.058   04 Jun 2027 17:15:42.023             3.965                Anadyr1           123.906
       461   04 Jun 2027 17:18:11.269   04 Jun 2027 17:20:10.758           119.489               Magadan2          3734.031
       462   04 Jun 2027 18:17:08.855   04 Jun 2027 18:17:58.714            49.859               CapeTown          1558.094
       463   04 Jun 2027 18:49:17.875   04 Jun 2027 18:51:13.755           115.880                Anadyr1          3621.250
       464   04 Jun 2027 18:51:14.992   04 Jun 2027 18:53:31.691           136.699                Anadyr2          4271.844
       465   04 Jun 2027 18:53:34.484   04 Jun 2027 18:54:20.181            45.697               Magadan1          1428.031
       466   04 Jun 2027 18:55:06.657   04 Jun 2027 18:55:28.936            22.279               Magadan1           696.219
       467   04 Jun 2027 18:56:49.102   04 Jun 2027 18:57:46.700            57.598               Magadan2          1799.937
       468   04 Jun 2027 20:25:12.344   04 Jun 2027 20:27:19.797           127.453                Anadyr1          3982.906
       469   04 Jun 2027 20:27:26.635   04 Jun 2027 20:28:56.634            89.999                Anadyr2          2812.469
       470   04 Jun 2027 20:29:05.770   04 Jun 2027 20:31:44.307           158.537                Norilsk          4954.281
       471   04 Jun 2027 20:37:58.353   04 Jun 2027 20:38:13.031            14.678               Magadan2           458.688
       472   04 Jun 2027 21:19:36.428   04 Jun 2027 21:22:19.023           162.595            RioGallegos          5081.094
       473   04 Jun 2027 21:22:25.729   04 Jun 2027 21:23:02.338            36.609            RioGallegos          1144.031
       474   04 Jun 2027 22:00:47.618   04 Jun 2027 22:01:32.737            45.119                Anadyr2          1409.969
       475   04 Jun 2027 22:03:02.765   04 Jun 2027 22:05:00.564           117.799                Norilsk          3681.219
       476   04 Jun 2027 22:05:00.846   04 Jun 2027 22:05:25.737            24.891               Magadan1           777.844
       477   04 Jun 2027 22:05:32.761   04 Jun 2027 22:05:45.724            12.963                Norilsk           405.094
       478   04 Jun 2027 22:06:09.304   04 Jun 2027 22:06:45.611            36.307                Norilsk          1134.594
       479   04 Jun 2027 22:07:12.100   04 Jun 2027 22:07:21.221             9.121                Irkutsk           285.031
       480   04 Jun 2027 22:08:11.515   04 Jun 2027 22:08:51.882            40.367                Irkutsk          1261.469
       481   04 Jun 2027 22:08:59.242   04 Jun 2027 22:10:33.669            94.427                Novosib          2950.844
       482   04 Jun 2027 22:20:55.958   04 Jun 2027 22:21:41.600            45.642                Sumatra          1426.312
