uniorb/output/strategy_4/Drop/Drop_KinoSat_110707.txt

KinoSat_110707
-------------------------
    Access    *     Start Time (UTCG)     *     Stop Time (UTCG)  *   Duration (s)        *       Station  *  Data (Mbytes)
         1   01 Jun 2027 03:19:50.727   01 Jun 2027 03:20:14.012            23.285                Anadyr1           727.656
         2   01 Jun 2027 03:20:23.079   01 Jun 2027 03:21:07.416            44.337                Anadyr1          1385.531
         3   01 Jun 2027 03:21:13.713   01 Jun 2027 03:22:38.003            84.290                Anadyr1          2634.062
         4   01 Jun 2027 03:22:57.553   01 Jun 2027 03:23:12.009            14.456                Anadyr1           451.750
         5   01 Jun 2027 03:23:14.376   01 Jun 2027 03:23:21.523             7.147                Anadyr2           223.344
         6   01 Jun 2027 03:23:21.523   01 Jun 2027 03:23:24.962             3.439                Anadyr1           107.469
         7   01 Jun 2027 03:23:39.214   01 Jun 2027 03:25:45.065           125.851               Magadan2          3932.844
         8   01 Jun 2027 03:25:47.414   01 Jun 2027 03:27:10.338            82.924                Anadyr1          2591.375
         9   01 Jun 2027 04:55:29.141   01 Jun 2027 04:56:14.753            45.612               Magadan2          1425.375
        10   01 Jun 2027 04:56:17.878   01 Jun 2027 04:56:23.844             5.966               Magadan2           186.438
        11   01 Jun 2027 04:56:31.341   01 Jun 2027 04:56:57.872            26.531               Magadan2           829.094
        12   01 Jun 2027 04:56:57.964   01 Jun 2027 04:58:07.239            69.275                Irkutsk          2164.844
        13   01 Jun 2027 04:58:15.451   01 Jun 2027 04:59:45.748            90.297                Anadyr1          2821.781
        14   01 Jun 2027 04:59:58.889   01 Jun 2027 05:01:17.489            78.600               Magadan2          2456.250
        15   01 Jun 2027 05:01:29.944   01 Jun 2027 05:02:05.779            35.835               Magadan1          1119.844
        16   01 Jun 2027 05:02:20.634   01 Jun 2027 05:02:24.647             4.013                Anadyr1           125.406
        17   01 Jun 2027 05:02:59.051   01 Jun 2027 05:03:32.302            33.251                Norilsk          1039.094
        18   01 Jun 2027 05:05:16.895   01 Jun 2027 05:06:06.774            49.879                Norilsk          1558.719
        19   01 Jun 2027 05:38:12.273   01 Jun 2027 05:41:01.523           169.250            RioGallegos          5289.063
        20   01 Jun 2027 06:32:41.694   01 Jun 2027 06:33:17.781            36.087                Novosib          1127.719
        21   01 Jun 2027 06:33:49.968   01 Jun 2027 06:34:13.749            23.781                Novosib           743.156
        22   01 Jun 2027 06:34:15.166   01 Jun 2027 06:35:13.935            58.769                Irkutsk          1836.531
        23   01 Jun 2027 06:35:21.512   01 Jun 2027 06:36:18.342            56.830                Novosib          1775.938
        24   01 Jun 2027 06:36:25.716   01 Jun 2027 06:38:35.736           130.020                Irkutsk          4063.125
        25   01 Jun 2027 06:38:38.341   01 Jun 2027 06:38:54.661            16.320              Murmansk2           510.000
        26   01 Jun 2027 06:38:54.661   01 Jun 2027 06:39:50.941            56.280              Murmansk1          1758.750
        27   01 Jun 2027 07:13:22.067   01 Jun 2027 07:14:46.354            84.287            RioGallegos          2633.969
        28   01 Jun 2027 07:48:10.484   01 Jun 2027 07:49:07.572            57.088                Sumatra          1784.000
        29   01 Jun 2027 07:49:12.549   01 Jun 2027 07:50:50.322            97.773                Sumatra          3055.406
        30   01 Jun 2027 07:58:50.359   01 Jun 2027 08:00:13.707            83.348                  Delhi          2604.625
        31   01 Jun 2027 08:10:15.187   01 Jun 2027 08:11:51.449            96.262                Novosib          3008.187
        32   01 Jun 2027 08:12:14.243   01 Jun 2027 08:14:10.016           115.773              Murmansk2          3617.906
        33   01 Jun 2027 08:14:11.758   01 Jun 2027 08:15:01.402            49.644              Murmansk2          1551.375
        34   01 Jun 2027 08:15:14.290   01 Jun 2027 08:15:37.090            22.800                 Moscow           712.500
        35   01 Jun 2027 08:16:52.452   01 Jun 2027 08:17:28.546            36.094                Norilsk          1127.937
        36   01 Jun 2027 08:52:53.865   01 Jun 2027 08:53:27.248            33.383            RioGallegos          1043.219
        37   01 Jun 2027 08:55:04.653   01 Jun 2027 08:55:28.773            24.120            RioGallegos           753.750
        38   01 Jun 2027 09:28:00.799   01 Jun 2027 09:29:52.528           111.729                Sumatra          3491.531
        39   01 Jun 2027 09:32:22.771   01 Jun 2027 09:33:04.789            42.018                  Delhi          1313.062
        40   01 Jun 2027 09:33:51.033   01 Jun 2027 09:34:24.628            33.595                  Delhi          1049.844
        41   01 Jun 2027 09:36:27.689   01 Jun 2027 09:37:25.799            58.110                  Delhi          1815.937
        42   01 Jun 2027 09:48:58.682   01 Jun 2027 09:52:03.430           184.748                 Moscow          5773.375
        43   01 Jun 2027 11:22:00.090   01 Jun 2027 11:23:15.127            75.037                 Moscow          2344.906
        44   01 Jun 2027 11:23:32.084   01 Jun 2027 11:26:41.253           189.169              Murmansk2          5911.531
        45   01 Jun 2027 11:26:41.253   01 Jun 2027 11:28:51.780           130.527              Murmansk1          4078.969
        46   01 Jun 2027 11:28:56.624   01 Jun 2027 11:29:31.134            34.510              Murmansk1          1078.438
        47   01 Jun 2027 12:32:32.113   01 Jun 2027 12:36:53.983           261.870               CapeTown          8183.438
        48   01 Jun 2027 12:37:11.182   01 Jun 2027 12:38:52.549           101.367               CapeTown          3167.719
        49   01 Jun 2027 12:57:05.537   01 Jun 2027 12:57:57.265            51.728              Murmansk1          1616.500
        50   01 Jun 2027 12:57:57.265   01 Jun 2027 12:58:09.515            12.250              Murmansk2           382.813
        51   01 Jun 2027 12:58:33.736   01 Jun 2027 12:59:24.530            50.794              Murmansk2          1587.313
        52   01 Jun 2027 13:11:21.800   01 Jun 2027 13:14:39.624           197.824                Anadyr2          6182.000
        53   01 Jun 2027 13:15:21.803   01 Jun 2027 13:17:10.677           108.874                Anadyr1          3402.313
        54   01 Jun 2027 13:17:24.720   01 Jun 2027 13:20:21.513           176.793                Anadyr2          5524.781
        55   01 Jun 2027 14:46:49.375   01 Jun 2027 14:49:10.602           141.227                Anadyr1          4413.344
        56   01 Jun 2027 14:50:25.656   01 Jun 2027 14:50:32.791             7.135                Anadyr1           222.969
        57   01 Jun 2027 14:50:37.507   01 Jun 2027 14:57:23.080           405.573               Magadan1         12674.156
        58   01 Jun 2027 16:25:06.940   01 Jun 2027 16:27:25.465           138.525               Magadan1          4328.906
        59   01 Jun 2027 16:28:38.512   01 Jun 2027 16:29:18.275            39.763               Magadan1          1242.594
        60   01 Jun 2027 16:29:58.900   01 Jun 2027 16:30:18.580            19.680               Magadan1           615.000
        61   01 Jun 2027 17:58:34.996   01 Jun 2027 18:02:06.241           211.245                Anadyr2          6601.406
        62   01 Jun 2027 18:02:13.554   01 Jun 2027 18:03:30.894            77.340               Magadan1          2416.875
        63   01 Jun 2027 18:03:32.095   01 Jun 2027 18:07:16.258           224.163                Norilsk          7005.094
        64   01 Jun 2027 18:07:55.528   01 Jun 2027 18:12:47.728           292.200                Irkutsk          9131.250
        65   01 Jun 2027 18:23:20.152   01 Jun 2027 18:26:48.405           208.253                Sumatra          6507.906
        66   01 Jun 2027 19:37:33.148   01 Jun 2027 19:37:54.230            21.082                Norilsk           658.813
        67   01 Jun 2027 19:41:34.371   01 Jun 2027 19:48:11.537           397.166                Novosib         12411.438
        68   01 Jun 2027 21:16:21.966   01 Jun 2027 21:18:34.344           132.378              Murmansk1          4136.812
        69   01 Jun 2027 21:23:46.204   01 Jun 2027 21:25:25.934            99.730                  Delhi          3116.562
        70   01 Jun 2027 21:26:32.597   01 Jun 2027 21:27:02.748            30.151                  Delhi           942.219
        71   01 Jun 2027 21:35:18.993   01 Jun 2027 21:35:34.370            15.377                  Delhi           480.531
        72   01 Jun 2027 22:44:09.403   01 Jun 2027 22:44:18.820             9.417                Anadyr2           294.281
        73   01 Jun 2027 22:47:06.753   01 Jun 2027 22:47:07.556             0.803                Anadyr2            25.094
        74   01 Jun 2027 22:47:57.089   01 Jun 2027 22:49:37.204           100.115               Magadan2          3128.594
        75   01 Jun 2027 22:49:46.978   01 Jun 2027 22:50:03.248            16.270               Magadan2           508.437
        76   01 Jun 2027 22:50:41.844   01 Jun 2027 22:54:50.688           248.844              Murmansk2          7776.375
        77   01 Jun 2027 22:54:50.688   01 Jun 2027 22:57:11.268           140.580              Murmansk1          4393.125
        78   01 Jun 2027 22:57:23.445   01 Jun 2027 22:58:32.298            68.853                 Moscow          2151.656
        79   01 Jun 2027 22:59:58.688   01 Jun 2027 23:01:08.390            69.702                 Moscow          2178.188
        80   01 Jun 2027 23:22:29.061   01 Jun 2027 23:23:52.837            83.776               CapeTown          2618.000
        81   01 Jun 2027 23:26:24.359   01 Jun 2027 23:28:05.557           101.198               CapeTown          3162.438
        82   02 Jun 2027 00:26:33.225   02 Jun 2027 00:27:13.447            40.222              Murmansk2          1256.937
        83   02 Jun 2027 00:27:50.075   02 Jun 2027 00:29:02.089            72.014              Murmansk2          2250.437
        84   02 Jun 2027 00:29:17.352   02 Jun 2027 00:29:54.215            36.863              Murmansk2          1151.969
        85   02 Jun 2027 00:38:28.677   02 Jun 2027 00:38:32.473             3.796                 Moscow           118.625
        86   02 Jun 2027 00:39:02.624   02 Jun 2027 00:39:23.305            20.681                 Moscow           646.281
        87   02 Jun 2027 00:53:46.513   02 Jun 2027 00:55:20.240            93.727               CapeTown          2928.969
        88   02 Jun 2027 01:01:38.001   02 Jun 2027 01:02:00.020            22.019               CapeTown           688.094
        89   02 Jun 2027 01:50:23.437   02 Jun 2027 01:51:05.993            42.556                Anadyr2          1329.875
        90   02 Jun 2027 01:52:03.440   02 Jun 2027 01:53:16.314            72.874               Magadan2          2277.312
        91   02 Jun 2027 01:53:46.181   02 Jun 2027 01:54:10.109            23.928               Magadan2           747.750
        92   02 Jun 2027 01:57:04.092   02 Jun 2027 01:57:38.283            34.191               Magadan1          1068.469
        93   02 Jun 2027 01:59:46.779   02 Jun 2027 01:59:48.835             2.056                Norilsk            64.250
        94   02 Jun 2027 02:00:25.270   02 Jun 2027 02:00:56.674            31.404               Magadan1           981.375
        95   02 Jun 2027 02:02:31.036   02 Jun 2027 02:03:47.047            76.011              Murmansk1          2375.344
        96   02 Jun 2027 02:05:16.566   02 Jun 2027 02:05:29.814            13.248              Murmansk1           414.000
        97   02 Jun 2027 02:05:49.651   02 Jun 2027 02:06:08.946            19.295                 Moscow           602.969
        98   02 Jun 2027 02:07:01.999   02 Jun 2027 02:07:05.946             3.947                 Moscow           123.344
        99   02 Jun 2027 02:08:19.881   02 Jun 2027 02:08:49.608            29.727                 Moscow           928.969
       100   02 Jun 2027 02:11:08.290   02 Jun 2027 02:11:14.683             6.393              Murmansk2           199.781
       101   02 Jun 2027 02:12:34.352   02 Jun 2027 02:14:10.482            96.130                 Moscow          3004.062
       102   02 Jun 2027 02:37:44.573   02 Jun 2027 02:39:20.511            95.938               CapeTown          2998.062
       103   02 Jun 2027 03:30:54.771   02 Jun 2027 03:36:47.256           352.485                Anadyr2         11015.156
       104   02 Jun 2027 03:36:47.256   02 Jun 2027 03:37:13.803            26.547                Anadyr1           829.594
       105   02 Jun 2027 05:08:35.219   02 Jun 2027 05:13:04.524           269.305                Anadyr2          8415.781
       106   02 Jun 2027 05:13:06.085   02 Jun 2027 05:14:00.407            54.322               Magadan2          1697.563
       107   02 Jun 2027 05:14:08.219   02 Jun 2027 05:14:43.039            34.820               Magadan1          1088.125
       108   02 Jun 2027 06:45:21.692   02 Jun 2027 06:46:20.459            58.767                Irkutsk          1836.469
       109   02 Jun 2027 06:46:51.974   02 Jun 2027 06:47:02.937            10.963                Irkutsk           342.594
       110   02 Jun 2027 06:47:24.594   02 Jun 2027 06:48:08.479            43.885                Irkutsk          1371.406
       111   02 Jun 2027 06:48:14.527   02 Jun 2027 06:51:17.544           183.017                Novosib          5719.281
       112   02 Jun 2027 08:24:24.137   02 Jun 2027 08:24:38.952            14.815                Irkutsk           462.969
       113   02 Jun 2027 08:24:43.459   02 Jun 2027 08:25:26.996            43.537                 Moscow          1360.531
       114   02 Jun 2027 08:25:33.998   02 Jun 2027 08:26:14.356            40.358                Irkutsk          1261.188
       115   02 Jun 2027 08:26:39.793   02 Jun 2027 08:27:43.032            63.239                Novosib          1976.219
       116   02 Jun 2027 08:27:55.157   02 Jun 2027 08:28:10.119            14.962              Murmansk1           467.563
       117   02 Jun 2027 08:28:14.410   02 Jun 2027 08:28:31.853            17.443              Murmansk1           545.094
       118   02 Jun 2027 09:06:04.251   02 Jun 2027 09:06:19.427            15.176            RioGallegos           474.250
       119   02 Jun 2027 09:07:28.835   02 Jun 2027 09:08:23.556            54.721            RioGallegos          1710.031
       120   02 Jun 2027 09:09:19.399   02 Jun 2027 09:09:20.289             0.890            RioGallegos            27.812
       121   02 Jun 2027 09:55:30.653   02 Jun 2027 09:56:55.088            84.435                  Delhi          2638.594
       122   02 Jun 2027 10:01:03.736   02 Jun 2027 10:01:24.492            20.756                Novosib           648.625
       123   02 Jun 2027 10:01:54.791   02 Jun 2027 10:02:01.058             6.267                Norilsk           195.844
       124   02 Jun 2027 10:02:14.087   02 Jun 2027 10:02:51.730            37.643                Norilsk          1176.344
       125   02 Jun 2027 11:40:53.955   02 Jun 2027 11:41:04.640            10.685                Norilsk           333.906
       126   02 Jun 2027 12:43:15.030   02 Jun 2027 12:46:07.380           172.350               CapeTown          5385.937
       127   02 Jun 2027 12:47:14.137   02 Jun 2027 12:48:41.349            87.212               CapeTown          2725.375
       128   02 Jun 2027 13:09:22.647   02 Jun 2027 13:11:21.815           119.168              Murmansk1          3724.000
       129   02 Jun 2027 13:11:31.526   02 Jun 2027 13:12:13.950            42.424              Murmansk1          1325.750
       130   02 Jun 2027 13:23:15.874   02 Jun 2027 13:25:47.978           152.104                Anadyr1          4753.250
       131   02 Jun 2027 13:26:19.219   02 Jun 2027 13:28:42.566           143.347                Anadyr2          4479.594
       132   02 Jun 2027 14:49:01.794   02 Jun 2027 14:49:14.218            12.424              Murmansk1           388.250
       133   02 Jun 2027 14:50:44.992   02 Jun 2027 14:51:07.357            22.365              Murmansk2           698.906
       134   02 Jun 2027 14:54:29.636   02 Jun 2027 14:54:46.336            16.700              Murmansk2           521.875
       135   02 Jun 2027 14:56:35.228   02 Jun 2027 14:56:45.867            10.639              Murmansk1           332.469
       136   02 Jun 2027 14:58:49.850   02 Jun 2027 15:00:55.866           126.016                Anadyr2          3938.000
       137   02 Jun 2027 15:01:15.919   02 Jun 2027 15:01:37.609            21.690                Anadyr2           677.813
       138   02 Jun 2027 15:02:10.074   02 Jun 2027 15:02:23.576            13.502                Anadyr2           421.938
       139   02 Jun 2027 15:02:26.671   02 Jun 2027 15:06:25.721           239.050               Magadan2          7470.312
       140   02 Jun 2027 15:06:25.721   02 Jun 2027 15:08:34.219           128.498               Magadan1          4015.562
       141   02 Jun 2027 16:37:05.531   02 Jun 2027 16:38:48.708           103.177               Magadan1          3224.281
       142   02 Jun 2027 16:39:19.850   02 Jun 2027 16:41:38.379           138.529               Magadan2          4329.031
       143   02 Jun 2027 17:32:00.970   02 Jun 2027 17:34:00.206           119.236            RioGallegos          3726.125
       144   02 Jun 2027 18:10:34.649   02 Jun 2027 18:11:02.324            27.675                Anadyr2           864.844
       145   02 Jun 2027 18:11:51.732   02 Jun 2027 18:11:59.482             7.750                Anadyr1           242.188
       146   02 Jun 2027 18:12:49.290   02 Jun 2027 18:16:55.378           246.088                Norilsk          7690.250
       147   02 Jun 2027 18:18:00.239   02 Jun 2027 18:22:35.700           275.461                Irkutsk          8608.156
       148   02 Jun 2027 18:23:16.688   02 Jun 2027 18:24:43.440            86.752                Irkutsk          2711.000
       149   02 Jun 2027 18:33:29.743   02 Jun 2027 18:35:24.210           114.467                Sumatra          3577.094
       150   02 Jun 2027 18:36:51.701   02 Jun 2027 18:38:59.355           127.654                Sumatra          3989.187
       151   02 Jun 2027 19:51:37.162   02 Jun 2027 19:51:59.857            22.695                Norilsk           709.219
       152   02 Jun 2027 19:55:47.022   02 Jun 2027 19:57:00.223            73.201                Novosib          2287.531
       153   02 Jun 2027 19:58:26.392   02 Jun 2027 19:59:30.848            64.456                Novosib          2014.250
       154   02 Jun 2027 21:27:44.749   02 Jun 2027 21:31:55.380           250.631              Murmansk1          7832.219
       155   02 Jun 2027 21:35:40.379   02 Jun 2027 21:37:06.559            86.180                  Delhi          2693.125
       156   02 Jun 2027 23:00:15.644   02 Jun 2027 23:00:21.294             5.650               Magadan1           176.563
       157   02 Jun 2027 23:01:25.537   02 Jun 2027 23:01:34.623             9.086               Magadan1           283.938
       158   02 Jun 2027 23:01:34.623   02 Jun 2027 23:01:39.689             5.066               Magadan2           158.312
       159   02 Jun 2027 23:01:42.735   02 Jun 2027 23:02:02.876            20.141               Magadan2           629.406
       160   02 Jun 2027 23:02:22.522   02 Jun 2027 23:02:58.066            35.544               Magadan1          1110.750
       161   02 Jun 2027 23:03:08.807   02 Jun 2027 23:04:19.203            70.396              Murmansk1          2199.875
       162   02 Jun 2027 23:04:28.443   02 Jun 2027 23:08:10.589           222.146              Murmansk2          6942.063
       163   02 Jun 2027 23:09:21.497   02 Jun 2027 23:10:56.025            94.528              Murmansk1          2954.000
       164   02 Jun 2027 23:11:45.868   02 Jun 2027 23:14:11.203           145.335                 Moscow          4541.719
       165   02 Jun 2027 23:33:17.634   02 Jun 2027 23:35:20.879           123.245               CapeTown          3851.406
       166   02 Jun 2027 23:38:39.972   02 Jun 2027 23:40:48.747           128.775               CapeTown          4024.219
       167   03 Jun 2027 00:45:39.935   03 Jun 2027 00:45:44.779             4.844                 Moscow           151.375
       168   03 Jun 2027 00:48:22.701   03 Jun 2027 00:49:20.858            58.157                 Moscow          1817.406
       169   03 Jun 2027 01:05:42.095   03 Jun 2027 01:06:15.770            33.675               CapeTown          1052.344
       170   03 Jun 2027 01:09:30.727   03 Jun 2027 01:09:56.542            25.815               CapeTown           806.719
       171   03 Jun 2027 01:13:02.050   03 Jun 2027 01:13:46.769            44.719               CapeTown          1397.469
       172   03 Jun 2027 02:02:25.349   03 Jun 2027 02:03:01.320            35.971                Anadyr2          1124.094
       173   03 Jun 2027 02:03:43.812   03 Jun 2027 02:04:27.499            43.687               Magadan1          1365.219
       174   03 Jun 2027 02:04:32.394   03 Jun 2027 02:05:19.021            46.627               Magadan2          1457.094
       175   03 Jun 2027 02:11:10.603   03 Jun 2027 02:11:33.211            22.608                Norilsk           706.500
       176   03 Jun 2027 02:11:36.528   03 Jun 2027 02:11:51.021            14.493                Norilsk           452.906
       177   03 Jun 2027 02:14:32.185   03 Jun 2027 02:15:51.332            79.147              Murmansk2          2473.344
       178   03 Jun 2027 02:17:10.904   03 Jun 2027 02:17:31.452            20.548              Murmansk1           642.125
       179   03 Jun 2027 02:17:50.917   03 Jun 2027 02:18:33.721            42.804              Murmansk2          1337.625
       180   03 Jun 2027 02:19:11.773   03 Jun 2027 02:19:27.369            15.596                 Moscow           487.375
       181   03 Jun 2027 02:24:27.048   03 Jun 2027 02:24:39.711            12.663                 Moscow           395.719
       182   03 Jun 2027 02:26:01.309   03 Jun 2027 02:27:08.739            67.430                 Moscow          2107.188
       183   03 Jun 2027 02:46:19.560   03 Jun 2027 02:47:47.212            87.652               CapeTown          2739.125
       184   03 Jun 2027 03:44:25.637   03 Jun 2027 03:44:45.793            20.156               Magadan2           629.875
       185   03 Jun 2027 03:45:06.030   03 Jun 2027 03:48:37.292           211.262                Anadyr1          6601.937
       186   03 Jun 2027 03:48:37.292   03 Jun 2027 03:49:26.240            48.948                Anadyr2          1529.625
       187   03 Jun 2027 03:50:35.271   03 Jun 2027 03:50:58.651            23.380               Magadan2           730.625
       188   03 Jun 2027 04:29:14.037   03 Jun 2027 04:29:51.836            37.799            RioGallegos          1181.219
       189   03 Jun 2027 04:34:52.075   03 Jun 2027 04:36:20.879            88.804            RioGallegos          2775.125
       190   03 Jun 2027 05:20:50.617   03 Jun 2027 05:26:15.658           325.041                Irkutsk         10157.531
       191   03 Jun 2027 05:27:02.017   03 Jun 2027 05:27:10.770             8.753                Novosib           273.531
       192   03 Jun 2027 06:57:39.231   03 Jun 2027 06:58:57.699            78.468               Magadan2          2452.125
       193   03 Jun 2027 06:59:07.777   03 Jun 2027 06:59:36.583            28.806                Novosib           900.188
       194   03 Jun 2027 06:59:56.015   03 Jun 2027 07:00:08.482            12.467               Magadan1           389.594
       195   03 Jun 2027 07:00:18.313   03 Jun 2027 07:00:19.631             1.318               Magadan1            41.187
       196   03 Jun 2027 07:03:50.144   03 Jun 2027 07:04:46.242            56.098              Murmansk1          1753.062
       197   03 Jun 2027 08:20:34.658   03 Jun 2027 08:20:50.007            15.349                Sumatra           479.656
       198   03 Jun 2027 08:34:16.654   03 Jun 2027 08:34:46.343            29.689                Irkutsk           927.781
       199   03 Jun 2027 08:35:05.646   03 Jun 2027 08:35:13.690             8.044                Irkutsk           251.375
       200   03 Jun 2027 08:35:25.807   03 Jun 2027 08:35:45.258            19.451                Norilsk           607.844
       201   03 Jun 2027 08:35:52.162   03 Jun 2027 08:35:57.234             5.072                Irkutsk           158.500
       202   03 Jun 2027 08:36:01.860   03 Jun 2027 08:36:45.881            44.021                Irkutsk          1375.656
       203   03 Jun 2027 08:36:51.369   03 Jun 2027 08:36:59.728             8.359                Novosib           261.219
       204   03 Jun 2027 08:37:34.771   03 Jun 2027 08:37:40.981             6.210                Norilsk           194.063
       205   03 Jun 2027 08:37:48.581   03 Jun 2027 08:38:19.499            30.918                Norilsk           966.187
       206   03 Jun 2027 08:42:45.353   03 Jun 2027 08:42:48.110             2.757                Norilsk            86.156
       207   03 Jun 2027 09:20:06.306   03 Jun 2027 09:20:58.723            52.417            RioGallegos          1638.031
       208   03 Jun 2027 09:56:47.071   03 Jun 2027 09:57:54.097            67.026                  Delhi          2094.562
       209   03 Jun 2027 09:59:18.611   03 Jun 2027 10:00:05.687            47.076                  Delhi          1471.125
       210   03 Jun 2027 10:13:02.128   03 Jun 2027 10:13:04.789             2.661                Norilsk            83.156
       211   03 Jun 2027 10:13:10.781   03 Jun 2027 10:13:25.482            14.701                Novosib           459.406
       212   03 Jun 2027 10:14:48.444   03 Jun 2027 10:14:52.813             4.369                Novosib           136.531
       213   03 Jun 2027 11:54:59.687   03 Jun 2027 11:55:01.054             1.367                Norilsk            42.719
       214   03 Jun 2027 12:58:19.088   03 Jun 2027 12:58:40.172            21.084               CapeTown           658.875
       215   03 Jun 2027 13:00:43.655   03 Jun 2027 13:01:13.352            29.697               CapeTown           928.031
       216   03 Jun 2027 13:02:21.334   03 Jun 2027 13:02:57.277            35.943               CapeTown          1123.219
       217   03 Jun 2027 13:19:10.018   03 Jun 2027 13:19:45.255            35.237                 Moscow          1101.156
       218   03 Jun 2027 13:21:41.861   03 Jun 2027 13:24:01.210           139.349              Murmansk2          4354.656
       219   03 Jun 2027 13:24:26.045   03 Jun 2027 13:24:46.246            20.201              Murmansk1           631.281
       220   03 Jun 2027 13:24:51.748   03 Jun 2027 13:25:34.717            42.969              Murmansk1          1342.781
       221   03 Jun 2027 13:26:58.812   03 Jun 2027 13:27:17.562            18.750              Murmansk1           585.938
       222   03 Jun 2027 13:30:27.375   03 Jun 2027 13:30:34.183             6.808              Murmansk1           212.750
       223   03 Jun 2027 13:30:39.128   03 Jun 2027 13:31:13.665            34.537              Murmansk2          1079.281
       224   03 Jun 2027 13:35:11.555   03 Jun 2027 13:37:22.890           131.335                Anadyr2          4104.219
       225   03 Jun 2027 13:38:20.520   03 Jun 2027 13:39:18.448            57.928                Anadyr1          1810.250
       226   03 Jun 2027 13:41:29.935   03 Jun 2027 13:41:44.032            14.097                Anadyr2           440.531
       227   03 Jun 2027 13:43:10.602   03 Jun 2027 13:44:43.529            92.927                Anadyr2          2903.969
       228   03 Jun 2027 15:01:32.461   03 Jun 2027 15:02:30.522            58.061              Murmansk2          1814.406
       229   03 Jun 2027 15:04:44.987   03 Jun 2027 15:05:34.104            49.117              Murmansk2          1534.906
       230   03 Jun 2027 15:08:36.439   03 Jun 2027 15:08:40.267             3.828              Murmansk2           119.625
       231   03 Jun 2027 15:10:50.595   03 Jun 2027 15:12:16.319            85.724                Anadyr2          2678.875
       232   03 Jun 2027 15:13:15.357   03 Jun 2027 15:13:53.859            38.502                Anadyr1          1203.188
       233   03 Jun 2027 15:13:55.891   03 Jun 2027 15:18:56.212           300.321               Magadan1          9385.031
       234   03 Jun 2027 15:18:56.212   03 Jun 2027 15:20:01.405            65.193               Magadan2          2037.281
       235   03 Jun 2027 16:47:55.289   03 Jun 2027 16:48:05.396            10.107                Anadyr1           315.844
       236   03 Jun 2027 16:48:09.295   03 Jun 2027 16:48:15.269             5.974                Anadyr2           186.688
       237   03 Jun 2027 16:49:04.801   03 Jun 2027 16:50:42.825            98.024               Magadan1          3063.250
       238   03 Jun 2027 16:52:42.970   03 Jun 2027 16:53:16.074            33.104               Magadan1          1034.500
       239   03 Jun 2027 16:56:19.706   03 Jun 2027 16:56:27.040             7.334               Magadan1           229.188
       240   03 Jun 2027 16:56:38.459   03 Jun 2027 16:56:57.544            19.085               Magadan2           596.406
       241   03 Jun 2027 17:42:51.032   03 Jun 2027 17:45:42.827           171.795            RioGallegos          5368.594
       242   03 Jun 2027 18:22:33.870   03 Jun 2027 18:23:28.242            54.372                Anadyr1          1699.125
       243   03 Jun 2027 18:23:55.647   03 Jun 2027 18:24:00.363             4.716                Anadyr1           147.375
       244   03 Jun 2027 18:24:45.486   03 Jun 2027 18:27:13.074           147.588                Norilsk          4612.125
       245   03 Jun 2027 18:29:36.029   03 Jun 2027 18:30:21.365            45.336               Magadan2          1416.750
       246   03 Jun 2027 18:31:14.036   03 Jun 2027 18:34:20.941           186.905                Irkutsk          5840.781
       247   03 Jun 2027 18:34:40.219   03 Jun 2027 18:35:22.428            42.209                Irkutsk          1319.031
       248   03 Jun 2027 18:44:27.674   03 Jun 2027 18:48:38.625           250.951                Sumatra          7842.219
       249   03 Jun 2027 18:50:58.395   03 Jun 2027 18:53:07.238           128.843                Sumatra          4026.344
       250   03 Jun 2027 20:05:11.734   03 Jun 2027 20:06:12.504            60.770                Novosib          1899.063
       251   03 Jun 2027 20:07:57.671   03 Jun 2027 20:08:54.971            57.300                Novosib          1790.625
       252   03 Jun 2027 20:14:51.261   03 Jun 2027 20:16:55.709           124.448                  Delhi          3889.000
       253   03 Jun 2027 20:20:27.329   03 Jun 2027 20:20:55.395            28.066                  Delhi           877.063
       254   03 Jun 2027 21:39:26.660   03 Jun 2027 21:43:16.368           229.708              Murmansk2          7178.375
       255   03 Jun 2027 21:43:43.525   03 Jun 2027 21:44:55.244            71.719              Murmansk1          2241.219
       256   03 Jun 2027 23:10:18.888   03 Jun 2027 23:10:27.019             8.131                Anadyr1           254.094
       257   03 Jun 2027 23:10:41.190   03 Jun 2027 23:10:53.355            12.165                Anadyr1           380.156
       258   03 Jun 2027 23:11:10.773   03 Jun 2027 23:13:01.794           111.021               Magadan2          3469.406
       259   03 Jun 2027 23:14:41.359   03 Jun 2027 23:16:14.327            92.968              Murmansk1          2905.250
       260   03 Jun 2027 23:16:22.777   03 Jun 2027 23:18:08.041           105.264              Murmansk2          3289.500
       261   03 Jun 2027 23:18:27.180   03 Jun 2027 23:21:31.686           184.506                 Moscow          5765.812
       262   03 Jun 2027 23:44:24.905   03 Jun 2027 23:44:26.559             1.654               CapeTown            51.688
       263   03 Jun 2027 23:45:29.771   03 Jun 2027 23:46:55.703            85.932               CapeTown          2685.375
       264   03 Jun 2027 23:48:34.829   03 Jun 2027 23:50:32.643           117.814               CapeTown          3681.688
       265   04 Jun 2027 00:50:36.530   04 Jun 2027 00:51:55.089            78.559              Murmansk1          2454.969
       266   04 Jun 2027 00:53:05.801   04 Jun 2027 00:53:30.244            24.443              Murmansk2           763.844
       267   04 Jun 2027 00:53:39.889   04 Jun 2027 00:53:51.709            11.820              Murmansk2           369.375
       268   04 Jun 2027 00:54:15.007   04 Jun 2027 00:56:14.135           119.128              Murmansk1          3722.750
       269   04 Jun 2027 01:18:59.350   04 Jun 2027 01:19:56.376            57.026               CapeTown          1782.063
       270   04 Jun 2027 02:14:29.237   04 Jun 2027 02:15:18.993            49.756                Anadyr1          1554.875
       271   04 Jun 2027 02:15:26.074   04 Jun 2027 02:16:34.440            68.366               Magadan1          2136.438
       272   04 Jun 2027 02:17:15.040   04 Jun 2027 02:17:21.713             6.673               Magadan1           208.531
       273   04 Jun 2027 02:17:47.813   04 Jun 2027 02:18:34.496            46.683               Magadan1          1458.844
       274   04 Jun 2027 02:24:08.672   04 Jun 2027 02:25:04.002            55.330               Magadan2          1729.063
       275   04 Jun 2027 02:26:33.154   04 Jun 2027 02:26:58.637            25.483              Murmansk2           796.344
       276   04 Jun 2027 02:28:44.543   04 Jun 2027 02:29:54.524            69.981              Murmansk2          2186.906
       277   04 Jun 2027 02:29:58.607   04 Jun 2027 02:30:24.323            25.716                 Moscow           803.625
       278   04 Jun 2027 02:37:15.113   04 Jun 2027 02:37:24.839             9.726                 Moscow           303.938
       279   04 Jun 2027 02:37:49.469   04 Jun 2027 02:39:18.609            89.140                 Moscow          2785.625
       280   04 Jun 2027 02:57:58.998   04 Jun 2027 02:59:46.628           107.630               CapeTown          3363.437
       281   04 Jun 2027 03:56:44.296   04 Jun 2027 03:57:26.243            41.947                Anadyr1          1310.844
       282   04 Jun 2027 03:57:38.311   04 Jun 2027 04:00:38.520           180.209                Anadyr2          5631.531
       283   04 Jun 2027 04:40:36.185   04 Jun 2027 04:41:34.010            57.825            RioGallegos          1807.031
       284   04 Jun 2027 05:32:49.132   04 Jun 2027 05:33:17.847            28.715                Irkutsk           897.344
       285   04 Jun 2027 05:33:25.469   04 Jun 2027 05:35:54.969           149.500                Irkutsk          4671.875
       286   04 Jun 2027 05:36:43.589   04 Jun 2027 05:37:17.076            33.487                Anadyr1          1046.469
       287   04 Jun 2027 05:37:19.281   04 Jun 2027 05:38:23.800            64.519                Irkutsk          2016.219
       288   04 Jun 2027 07:11:00.598   04 Jun 2027 07:11:27.089            26.491                Norilsk           827.844
       289   04 Jun 2027 07:13:44.998   04 Jun 2027 07:13:47.056             2.058                Norilsk            64.313
       290   04 Jun 2027 07:15:42.025   04 Jun 2027 07:15:52.018             9.993              Murmansk2           312.281
       291   04 Jun 2027 07:50:24.749   04 Jun 2027 07:50:37.673            12.924            RioGallegos           403.875
       292   04 Jun 2027 07:51:35.750   04 Jun 2027 07:52:19.903            44.153            RioGallegos          1379.781
       293   04 Jun 2027 08:28:22.964   04 Jun 2027 08:29:37.112            74.148                Sumatra          2317.125
       294   04 Jun 2027 08:46:53.748   04 Jun 2027 08:47:25.879            32.131                Irkutsk          1004.094
       295   04 Jun 2027 08:49:03.547   04 Jun 2027 08:49:26.711            23.164                Norilsk           723.875
       296   04 Jun 2027 08:49:44.155   04 Jun 2027 08:49:56.706            12.551                Irkutsk           392.219
       297   04 Jun 2027 08:54:17.281   04 Jun 2027 08:54:36.337            19.056                Norilsk           595.500
       298   04 Jun 2027 10:09:09.067   04 Jun 2027 10:11:06.249           117.182                  Delhi          3661.937
       299   04 Jun 2027 10:12:50.822   04 Jun 2027 10:13:47.367            56.545                  Delhi          1767.031
       300   04 Jun 2027 10:23:24.873   04 Jun 2027 10:23:36.978            12.105                Novosib           378.281
       301   04 Jun 2027 10:24:06.460   04 Jun 2027 10:24:11.326             4.866                Novosib           152.062
       302   04 Jun 2027 10:25:17.132   04 Jun 2027 10:25:25.805             8.673                Novosib           271.031
       303   04 Jun 2027 10:26:55.970   04 Jun 2027 10:26:58.674             2.704                Novosib            84.500
       304   04 Jun 2027 12:01:40.265   04 Jun 2027 12:02:03.538            23.273              Murmansk1           727.281
       305   04 Jun 2027 12:02:11.632   04 Jun 2027 12:02:54.847            43.215                Norilsk          1350.469
       306   04 Jun 2027 12:05:04.887   04 Jun 2027 12:05:44.012            39.125                Norilsk          1222.656
       307   04 Jun 2027 12:13:29.733   04 Jun 2027 12:15:41.322           131.589                Anadyr2          4112.156
       308   04 Jun 2027 13:08:54.937   04 Jun 2027 13:10:34.630            99.693               CapeTown          3115.406
       309   04 Jun 2027 13:16:09.211   04 Jun 2027 13:16:45.916            36.705               CapeTown          1147.031
       310   04 Jun 2027 13:17:57.535   04 Jun 2027 13:18:45.426            47.891               CapeTown          1496.594
       311   04 Jun 2027 13:34:03.287   04 Jun 2027 13:34:03.732             0.445              Murmansk2            13.906
       312   04 Jun 2027 13:34:29.541   04 Jun 2027 13:34:42.978            13.437              Murmansk1           419.906
       313   04 Jun 2027 13:35:18.073   04 Jun 2027 13:35:33.650            15.577              Murmansk1           486.781
       314   04 Jun 2027 13:36:16.902   04 Jun 2027 13:36:46.910            30.008              Murmansk2           937.750
       315   04 Jun 2027 13:38:33.846   04 Jun 2027 13:38:35.578             1.732              Murmansk1            54.125
       316   04 Jun 2027 13:38:58.247   04 Jun 2027 13:39:05.749             7.502              Murmansk1           234.437
       317   04 Jun 2027 13:41:10.908   04 Jun 2027 13:42:23.807            72.899              Murmansk2          2278.094
       318   04 Jun 2027 13:47:08.464   04 Jun 2027 13:49:06.861           118.397                Anadyr1          3699.906
       319   04 Jun 2027 13:49:35.012   04 Jun 2027 13:50:33.804            58.792                Anadyr2          1837.250
       320   04 Jun 2027 13:55:11.120   04 Jun 2027 13:55:38.694            27.574                Anadyr2           861.687
       321   04 Jun 2027 13:56:23.965   04 Jun 2027 13:57:32.808            68.843                Anadyr2          2151.344
       322   04 Jun 2027 15:14:19.067   04 Jun 2027 15:14:48.113            29.046              Murmansk1           907.688
       323   04 Jun 2027 15:16:29.058   04 Jun 2027 15:16:42.530            13.472              Murmansk1           421.000
       324   04 Jun 2027 15:16:42.530   04 Jun 2027 15:16:50.637             8.107              Murmansk2           253.344
       325   04 Jun 2027 15:18:33.283   04 Jun 2027 15:18:44.877            11.594              Murmansk1           362.313
       326   04 Jun 2027 15:20:17.114   04 Jun 2027 15:20:31.933            14.819              Murmansk1           463.094
       327   04 Jun 2027 15:22:51.546   04 Jun 2027 15:25:12.984           141.438                Anadyr2          4419.938
       328   04 Jun 2027 15:25:45.356   04 Jun 2027 15:32:01.123           375.767               Magadan1         11742.719
       329   04 Jun 2027 15:32:10.680   04 Jun 2027 15:33:24.315            73.635               Magadan1          2301.094
       330   04 Jun 2027 17:04:42.366   04 Jun 2027 17:04:45.419             3.053               Magadan2            95.406
       331   04 Jun 2027 17:04:52.066   04 Jun 2027 17:05:00.441             8.375               Magadan2           261.719
       332   04 Jun 2027 17:09:28.728   04 Jun 2027 17:09:37.200             8.472               Magadan1           264.750
       333   04 Jun 2027 17:10:52.527   04 Jun 2027 17:12:50.379           117.852               Magadan1          3682.875
       334   04 Jun 2027 17:54:13.919   04 Jun 2027 17:57:29.842           195.923            RioGallegos          6122.594
       335   04 Jun 2027 18:36:43.131   04 Jun 2027 18:38:14.335            91.204                Norilsk          2850.125
       336   04 Jun 2027 18:39:10.997   04 Jun 2027 18:40:55.064           104.067                Norilsk          3252.094
       337   04 Jun 2027 18:41:20.611   04 Jun 2027 18:42:14.101            53.490                Irkutsk          1671.562
       338   04 Jun 2027 18:44:06.629   04 Jun 2027 18:45:04.587            57.958                Irkutsk          1811.188
       339   04 Jun 2027 18:49:31.617   04 Jun 2027 18:50:44.901            73.284                Irkutsk          2290.125
       340   04 Jun 2027 18:56:02.160   04 Jun 2027 18:56:32.992            30.832                Sumatra           963.500
       341   04 Jun 2027 18:58:38.383   04 Jun 2027 19:00:18.772           100.389                Sumatra          3137.156
       342   04 Jun 2027 19:01:34.114   04 Jun 2027 19:03:03.037            88.923                Sumatra          2778.844
       343   04 Jun 2027 20:16:54.624   04 Jun 2027 20:20:00.878           186.254                Novosib          5820.438
       344   04 Jun 2027 20:25:51.466   04 Jun 2027 20:29:45.737           234.271                  Delhi          7320.969
       345   04 Jun 2027 20:33:54.384   04 Jun 2027 20:34:07.561            13.177                  Delhi           411.781
       346   04 Jun 2027 21:51:15.516   04 Jun 2027 21:57:20.762           365.246              Murmansk2         11413.937
       347   04 Jun 2027 23:25:41.647   04 Jun 2027 23:25:44.967             3.320               Magadan2           103.750
       348   04 Jun 2027 23:26:10.181   04 Jun 2027 23:26:44.711            34.530               Magadan2          1079.062
       349   04 Jun 2027 23:26:56.723   04 Jun 2027 23:30:08.897           192.174              Murmansk1          6005.437
       350   04 Jun 2027 23:30:19.455   04 Jun 2027 23:32:15.004           115.549                 Moscow          3610.906
       351   04 Jun 2027 23:34:19.809   04 Jun 2027 23:35:10.043            50.234                 Moscow          1569.813
       352   04 Jun 2027 23:36:48.539   04 Jun 2027 23:37:01.960            13.421                 Moscow           419.406
       353   04 Jun 2027 23:39:46.432   04 Jun 2027 23:40:53.701            67.269                 Moscow          2102.156
       354   04 Jun 2027 23:55:43.590   04 Jun 2027 23:55:56.893            13.303               CapeTown           415.719
       355   04 Jun 2027 23:56:07.484   04 Jun 2027 23:57:10.868            63.384               CapeTown          1980.750
       356   05 Jun 2027 00:01:04.376   05 Jun 2027 00:02:30.252            85.876               CapeTown          2683.625
       357   05 Jun 2027 01:04:00.581   05 Jun 2027 01:05:05.440            64.859              Murmansk2          2026.844
       358   05 Jun 2027 01:05:50.534   05 Jun 2027 01:06:19.199            28.665                 Moscow           895.781
       359   05 Jun 2027 01:09:54.692   05 Jun 2027 01:09:58.221             3.529                 Moscow           110.281
       360   05 Jun 2027 01:10:35.999   05 Jun 2027 01:10:44.084             8.085                 Moscow           252.656
       361   05 Jun 2027 01:11:16.675   05 Jun 2027 01:11:21.138             4.463              Murmansk1           139.469
       362   05 Jun 2027 01:13:32.096   05 Jun 2027 01:14:29.883            57.787                 Moscow          1805.844
       363   05 Jun 2027 01:29:48.223   05 Jun 2027 01:30:31.789            43.566               CapeTown          1361.437
       364   05 Jun 2027 01:34:00.997   05 Jun 2027 01:34:56.156            55.159               CapeTown          1723.719
       365   05 Jun 2027 02:26:35.158   05 Jun 2027 02:26:49.831            14.673                Anadyr2           458.531
       366   05 Jun 2027 02:27:08.720   05 Jun 2027 02:27:24.575            15.855                Anadyr1           495.469
       367   05 Jun 2027 02:27:27.059   05 Jun 2027 02:29:24.360           117.301               Magadan2          3665.656
       368   05 Jun 2027 02:33:07.504   05 Jun 2027 02:33:11.902             4.398               Magadan1           137.438
       369   05 Jun 2027 02:34:15.685   05 Jun 2027 02:34:45.911            30.226               Magadan1           944.562
       370   05 Jun 2027 02:36:41.122   05 Jun 2027 02:36:44.125             3.003                Norilsk            93.844
       371   05 Jun 2027 02:36:56.208   05 Jun 2027 02:37:03.019             6.811                Norilsk           212.844
       372   05 Jun 2027 02:38:33.785   05 Jun 2027 02:39:02.306            28.521                Norilsk           891.281
       373   05 Jun 2027 02:39:06.704   05 Jun 2027 02:39:46.447            39.743              Murmansk2          1241.969
       374   05 Jun 2027 02:40:57.373   05 Jun 2027 02:41:02.663             5.290              Murmansk1           165.312
       375   05 Jun 2027 02:41:09.462   05 Jun 2027 02:41:32.195            22.733              Murmansk2           710.406
       376   05 Jun 2027 02:42:03.843   05 Jun 2027 02:43:09.026            65.183                 Moscow          2036.969
       377   05 Jun 2027 02:46:07.923   05 Jun 2027 02:46:19.552            11.629                 Moscow           363.406
       378   05 Jun 2027 02:49:25.356   05 Jun 2027 02:49:28.718             3.362                 Moscow           105.062
       379   05 Jun 2027 02:49:34.984   05 Jun 2027 02:49:54.997            20.013                 Moscow           625.406
       380   05 Jun 2027 04:06:53.247   05 Jun 2027 04:06:57.941             4.694                Anadyr1           146.687
       381   05 Jun 2027 04:08:01.606   05 Jun 2027 04:08:19.499            17.893               Magadan2           559.156
       382   05 Jun 2027 04:08:45.727   05 Jun 2027 04:10:43.255           117.528                Anadyr1          3672.750
       383   05 Jun 2027 04:11:02.754   05 Jun 2027 04:14:30.227           207.473                Anadyr2          6483.531
       384   05 Jun 2027 04:52:02.826   05 Jun 2027 04:54:56.720           173.894            RioGallegos          5434.187
       385   05 Jun 2027 05:45:22.853   05 Jun 2027 05:45:59.375            36.522                Irkutsk          1141.313
       386   05 Jun 2027 05:46:14.799   05 Jun 2027 05:46:38.754            23.955                Irkutsk           748.594
       387   05 Jun 2027 05:46:54.290   05 Jun 2027 05:47:21.695            27.405                Irkutsk           856.406
       388   05 Jun 2027 05:48:12.080   05 Jun 2027 05:50:17.001           124.921               Magadan1          3903.781
       389   05 Jun 2027 05:50:51.311   05 Jun 2027 05:51:34.273            42.962                Novosib          1342.562
       390   05 Jun 2027 07:22:04.969   05 Jun 2027 07:22:31.689            26.720                Irkutsk           835.000
       391   05 Jun 2027 07:23:40.903   05 Jun 2027 07:23:42.827             1.924              Murmansk2            60.125
       392   05 Jun 2027 07:27:40.135   05 Jun 2027 07:27:53.738            13.603              Murmansk1           425.094
       393   05 Jun 2027 07:32:53.732   05 Jun 2027 07:33:05.207            11.475              Murmansk2           358.594
       394   05 Jun 2027 08:02:29.655   05 Jun 2027 08:02:41.369            11.714            RioGallegos           366.062
       395   05 Jun 2027 08:02:50.439   05 Jun 2027 08:03:34.927            44.488            RioGallegos          1390.250
       396   05 Jun 2027 08:36:44.051   05 Jun 2027 08:37:42.695            58.644                Sumatra          1832.625
       397   05 Jun 2027 08:41:16.354   05 Jun 2027 08:41:24.962             8.608                Sumatra           269.000
       398   05 Jun 2027 08:58:55.214   05 Jun 2027 08:59:50.493            55.279              Murmansk1          1727.469
       399   05 Jun 2027 08:59:58.865   05 Jun 2027 09:00:53.557            54.692                Irkutsk          1709.125
       400   05 Jun 2027 09:01:41.668   05 Jun 2027 09:01:42.120             0.452                Norilsk            14.125
       401   05 Jun 2027 09:01:57.153   05 Jun 2027 09:02:23.046            25.893                Norilsk           809.156
       402   05 Jun 2027 10:21:39.251   05 Jun 2027 10:24:23.078           163.827                  Delhi          5119.594
       403   05 Jun 2027 10:37:25.372   05 Jun 2027 10:37:34.728             9.356                Novosib           292.375
       404   05 Jun 2027 10:38:14.025   05 Jun 2027 10:38:21.869             7.844                Norilsk           245.125
       405   05 Jun 2027 12:08:58.369   05 Jun 2027 12:10:12.419            74.050              Murmansk1          2314.063
       406   05 Jun 2027 12:10:46.226   05 Jun 2027 12:11:03.325            17.099              Murmansk1           534.344
       407   05 Jun 2027 12:11:04.787   05 Jun 2027 12:11:34.865            30.078              Murmansk2           939.937
       408   05 Jun 2027 12:11:58.720   05 Jun 2027 12:12:57.028            58.308              Murmansk2          1822.125
       409   05 Jun 2027 12:15:17.763   05 Jun 2027 12:16:51.564            93.801                Norilsk          2931.281
       410   05 Jun 2027 12:24:37.259   05 Jun 2027 12:27:57.070           199.811                Anadyr2          6244.094
       411   05 Jun 2027 12:28:32.140   05 Jun 2027 12:29:15.243            43.103                Anadyr1          1346.969
       412   05 Jun 2027 13:46:27.017   05 Jun 2027 13:47:16.963            49.946              Murmansk2          1560.812
       413   05 Jun 2027 13:48:29.923   05 Jun 2027 13:48:47.831            17.908              Murmansk2           559.625
       414   05 Jun 2027 13:50:21.094   05 Jun 2027 13:50:35.591            14.497              Murmansk2           453.031
       415   05 Jun 2027 13:50:54.462   05 Jun 2027 13:51:32.487            38.025              Murmansk1          1188.281
       416   05 Jun 2027 13:55:56.555   05 Jun 2027 13:56:03.352             6.797              Murmansk1           212.406
       417   05 Jun 2027 13:56:20.287   05 Jun 2027 13:56:22.237             1.950              Murmansk2            60.937
       418   05 Jun 2027 13:59:06.329   05 Jun 2027 14:00:55.732           109.403                Anadyr1          3418.844
       419   05 Jun 2027 14:00:55.890   05 Jun 2027 14:02:22.824            86.934                Anadyr2          2716.687
       420   05 Jun 2027 15:27:12.200   05 Jun 2027 15:29:18.644           126.444              Murmansk1          3951.375
       421   05 Jun 2027 15:30:35.234   05 Jun 2027 15:30:44.786             9.552              Murmansk2           298.500
       422   05 Jun 2027 15:32:18.690   05 Jun 2027 15:32:19.141             0.451              Murmansk1            14.094
       423   05 Jun 2027 15:34:52.664   05 Jun 2027 15:37:08.871           136.207                Anadyr1          4256.469
       424   05 Jun 2027 15:37:37.443   05 Jun 2027 15:42:09.841           272.398               Magadan2          8512.437
       425   05 Jun 2027 15:47:01.373   05 Jun 2027 15:47:07.086             5.713               Magadan1           178.531
       426   05 Jun 2027 17:10:47.911   05 Jun 2027 17:12:08.164            80.253                Anadyr1          2507.906
       427   05 Jun 2027 17:13:05.007   05 Jun 2027 17:15:14.409           129.402               Magadan2          4043.813
       428   05 Jun 2027 17:22:31.930   05 Jun 2027 17:22:58.053            26.123               Magadan2           816.344
       429   05 Jun 2027 18:05:49.008   05 Jun 2027 18:09:20.067           211.059            RioGallegos          6595.594
       430   05 Jun 2027 18:10:23.892   05 Jun 2027 18:11:29.849            65.957            RioGallegos          2061.156
       431   05 Jun 2027 18:48:41.830   05 Jun 2027 18:52:55.655           253.825                Norilsk          7932.031
       432   05 Jun 2027 18:53:08.137   05 Jun 2027 18:54:45.955            97.818                Irkutsk          3056.813
       433   05 Jun 2027 18:56:08.276   05 Jun 2027 18:56:56.885            48.609                Irkutsk          1519.031
       434   05 Jun 2027 19:07:13.688   05 Jun 2027 19:10:40.326           206.638                Sumatra          6457.437
       435   05 Jun 2027 19:13:43.683   05 Jun 2027 19:14:03.680            19.997                Sumatra           624.906
       436   05 Jun 2027 20:28:47.343   05 Jun 2027 20:29:55.484            68.141                Novosib          2129.406
       437   05 Jun 2027 20:30:16.748   05 Jun 2027 20:30:45.598            28.850                Novosib           901.563
       438   05 Jun 2027 20:37:12.477   05 Jun 2027 20:37:25.839            13.362                  Delhi           417.563
       439   05 Jun 2027 20:38:02.395   05 Jun 2027 20:40:22.709           140.314                  Delhi          4384.813
       440   05 Jun 2027 20:42:45.766   05 Jun 2027 20:44:26.651           100.885                  Delhi          3152.656
       441   05 Jun 2027 22:03:08.155   05 Jun 2027 22:09:28.231           380.076              Murmansk2         11877.375
       442   05 Jun 2027 23:36:07.236   05 Jun 2027 23:36:16.352             9.116               Magadan1           284.875
       443   05 Jun 2027 23:37:41.401   05 Jun 2027 23:37:43.815             2.414               Magadan1            75.438
       444   05 Jun 2027 23:37:47.669   05 Jun 2027 23:37:56.439             8.770               Magadan1           274.062
       445   05 Jun 2027 23:38:06.156   05 Jun 2027 23:38:18.024            11.868               Magadan1           370.875
       446   05 Jun 2027 23:38:42.629   05 Jun 2027 23:40:23.684           101.055              Murmansk1          3157.969
       447   05 Jun 2027 23:40:34.225   05 Jun 2027 23:40:53.847            19.622                Novosib           613.187
       448   05 Jun 2027 23:41:51.935   05 Jun 2027 23:42:30.470            38.535                Novosib          1204.219
       449   05 Jun 2027 23:42:39.286   05 Jun 2027 23:43:16.552            37.266                 Moscow          1164.563
       450   05 Jun 2027 23:44:00.825   05 Jun 2027 23:44:59.369            58.544              Murmansk1          1829.500
       451   05 Jun 2027 23:45:19.300   05 Jun 2027 23:46:18.040            58.740                 Moscow          1835.625
       452   05 Jun 2027 23:49:15.422   05 Jun 2027 23:49:42.579            27.157                 Moscow           848.656
       453   05 Jun 2027 23:50:38.292   05 Jun 2027 23:50:58.171            19.879                 Moscow           621.219
       454   06 Jun 2027 00:07:10.740   06 Jun 2027 00:09:58.116           167.376               CapeTown          5230.500
       455   06 Jun 2027 01:06:55.466   06 Jun 2027 01:08:29.839            94.373               Magadan1          2949.156
       456   06 Jun 2027 01:14:39.871   06 Jun 2027 01:15:51.675            71.804              Murmansk2          2243.875
       457   06 Jun 2027 01:17:52.288   06 Jun 2027 01:18:01.400             9.112                 Moscow           284.750
       458   06 Jun 2027 01:18:49.876   06 Jun 2027 01:18:58.176             8.300              Murmansk1           259.375
       459   06 Jun 2027 01:19:08.525   06 Jun 2027 01:19:16.167             7.642                 Moscow           238.812
       460   06 Jun 2027 01:21:07.640   06 Jun 2027 01:21:25.976            18.336                 Moscow           573.000
       461   06 Jun 2027 01:22:12.136   06 Jun 2027 01:22:14.615             2.479                 Moscow            77.469
       462   06 Jun 2027 01:22:57.816   06 Jun 2027 01:22:59.076             1.260                 Moscow            39.375
       463   06 Jun 2027 01:23:16.629   06 Jun 2027 01:24:23.359            66.730                 Moscow          2085.312
       464   06 Jun 2027 01:41:59.156   06 Jun 2027 01:43:22.046            82.890               CapeTown          2590.313
       465   06 Jun 2027 02:38:43.205   06 Jun 2027 02:39:33.419            50.214                Anadyr1          1569.188
       466   06 Jun 2027 02:39:44.266   06 Jun 2027 02:40:48.450            64.184                Anadyr1          2005.750
       467   06 Jun 2027 02:40:57.301   06 Jun 2027 02:41:59.525            62.224               Magadan2          1944.500
       468   06 Jun 2027 02:47:03.325   06 Jun 2027 02:47:28.470            25.145                Norilsk           785.781
       469   06 Jun 2027 02:49:31.550   06 Jun 2027 02:49:51.622            20.072                Norilsk           627.250
       470   06 Jun 2027 02:50:34.423   06 Jun 2027 02:51:13.060            38.637              Murmansk2          1207.406
       471   06 Jun 2027 02:51:13.060   06 Jun 2027 02:51:53.233            40.173              Murmansk1          1255.406
       472   06 Jun 2027 02:53:40.276   06 Jun 2027 02:53:45.602             5.326              Murmansk1           166.438
       473   06 Jun 2027 02:53:55.967   06 Jun 2027 02:54:04.754             8.787              Murmansk1           274.594
       474   06 Jun 2027 02:54:09.656   06 Jun 2027 02:55:04.367            54.711                 Moscow          1709.719
       475   06 Jun 2027 04:20:15.794   06 Jun 2027 04:20:40.502            24.708                Irkutsk           772.125
       476   06 Jun 2027 04:21:39.528   06 Jun 2027 04:22:13.932            34.404               Magadan2          1075.125
       477   06 Jun 2027 04:22:37.199   06 Jun 2027 04:23:50.892            73.693               Magadan1          2302.906
       478   06 Jun 2027 04:24:14.433   06 Jun 2027 04:24:20.967             6.534               Magadan1           204.188
       479   06 Jun 2027 04:24:40.472   06 Jun 2027 04:24:46.769             6.297                Anadyr2           196.781
       480   06 Jun 2027 04:24:48.786   06 Jun 2027 04:25:09.748            20.962               Magadan1           655.062
       481   06 Jun 2027 04:25:51.838   06 Jun 2027 04:26:04.990            13.152               Magadan2           411.000
       482   06 Jun 2027 05:03:33.458   06 Jun 2027 05:06:38.254           184.796            RioGallegos          5774.875
