uniorb/output/strategy_4/Drop/Drop_KinoSat_110404.txt

KinoSat_110404
-------------------------
    Access    *     Start Time (UTCG)     *     Stop Time (UTCG)  *   Duration (s)        *       Station  *  Data (Mbytes)
         1   01 Jun 2027 04:03:28.971   01 Jun 2027 04:03:47.717            18.746               Magadan1          2343.250
         2   01 Jun 2027 04:04:15.603   01 Jun 2027 04:06:14.357           118.754               Magadan2         14844.250
         3   01 Jun 2027 04:06:34.719   01 Jun 2027 04:07:12.318            37.599               Magadan1          4699.875
         4   01 Jun 2027 04:07:18.878   01 Jun 2027 04:07:54.083            35.205               Magadan2          4400.625
         5   01 Jun 2027 04:08:11.720   01 Jun 2027 04:08:28.362            16.642               Magadan1          2080.250
         6   01 Jun 2027 04:08:49.483   01 Jun 2027 04:09:08.102            18.619                Norilsk          2327.375
         7   01 Jun 2027 04:13:37.812   01 Jun 2027 04:13:50.926            13.114                Norilsk          1639.250
         8   01 Jun 2027 04:43:26.907   01 Jun 2027 04:43:55.913            29.006            RioGallegos          3625.750
         9   01 Jun 2027 04:51:19.614   01 Jun 2027 04:51:38.197            18.583            RioGallegos          2322.875
        10   01 Jun 2027 05:19:19.709   01 Jun 2027 05:20:28.976            69.267                Sumatra          8658.375
        11   01 Jun 2027 05:24:02.302   01 Jun 2027 05:25:03.687            61.385                Sumatra          7673.125
        12   01 Jun 2027 05:40:57.331   01 Jun 2027 05:41:42.375            45.044                Irkutsk          5630.500
        13   01 Jun 2027 05:42:10.189   01 Jun 2027 05:42:40.421            30.232              Murmansk1          3779.000
        14   01 Jun 2027 05:42:48.371   01 Jun 2027 05:44:28.535           100.164                Novosib         12520.500
        15   01 Jun 2027 05:45:41.945   01 Jun 2027 05:46:03.162            21.217                Novosib          2652.125
        16   01 Jun 2027 06:25:14.404   01 Jun 2027 06:25:21.413             7.009            RioGallegos           876.125
        17   01 Jun 2027 06:54:48.924   01 Jun 2027 06:55:10.372            21.448                Sumatra          2681.000
        18   01 Jun 2027 06:56:43.757   01 Jun 2027 06:57:48.090            64.333                Sumatra          8041.625
        19   01 Jun 2027 07:05:02.027   01 Jun 2027 07:05:31.346            29.319                  Delhi          3664.875
        20   01 Jun 2027 07:07:09.651   01 Jun 2027 07:07:16.422             6.771                  Delhi           846.375
        21   01 Jun 2027 07:18:24.426   01 Jun 2027 07:19:05.634            41.208                Novosib          5151.000
        22   01 Jun 2027 07:19:16.664   01 Jun 2027 07:19:41.213            24.549              Murmansk1          3068.625
        23   01 Jun 2027 07:19:48.350   01 Jun 2027 07:20:32.732            44.382                 Moscow          5547.750
        24   01 Jun 2027 07:20:39.857   01 Jun 2027 07:21:06.025            26.168                 Moscow          3271.000
        25   01 Jun 2027 07:21:14.896   01 Jun 2027 07:22:08.622            53.726                Novosib          6715.750
        26   01 Jun 2027 08:55:01.824   01 Jun 2027 08:57:20.276           138.452                 Moscow         17306.500
        27   01 Jun 2027 08:57:37.105   01 Jun 2027 09:01:34.347           237.242                Norilsk         29655.250
        28   01 Jun 2027 09:01:37.733   01 Jun 2027 09:03:16.931            99.198              Murmansk2         12399.750
        29   01 Jun 2027 10:23:38.311   01 Jun 2027 10:25:11.204            92.893                 Moscow         11611.625
        30   01 Jun 2027 10:42:28.932   01 Jun 2027 10:47:32.031           303.099                Anadyr2         37887.375
        31   01 Jun 2027 12:18:23.094   01 Jun 2027 12:18:31.478             8.384                Anadyr1          1048.000
        32   01 Jun 2027 12:19:54.500   01 Jun 2027 12:21:35.639           101.139                Anadyr1         12642.375
        33   01 Jun 2027 13:55:35.035   01 Jun 2027 13:59:38.019           242.984               Magadan2         30373.000
        34   01 Jun 2027 14:03:06.262   01 Jun 2027 14:06:14.427           188.165               Magadan1         23520.625
        35   01 Jun 2027 16:24:04.746   01 Jun 2027 16:27:13.528           188.782            RioGallegos         23597.750
        36   01 Jun 2027 16:27:33.832   01 Jun 2027 16:29:26.660           112.828            RioGallegos         14103.500
        37   01 Jun 2027 17:13:33.629   01 Jun 2027 17:15:11.274            97.645                Irkutsk         12205.625
        38   01 Jun 2027 17:15:11.715   01 Jun 2027 17:15:16.331             4.616                Irkutsk           577.000
        39   01 Jun 2027 17:25:06.560   01 Jun 2027 17:26:43.674            97.114                Sumatra         12139.250
        40   01 Jun 2027 17:28:57.325   01 Jun 2027 17:29:35.870            38.545                Sumatra          4818.125
        41   01 Jun 2027 17:31:37.405   01 Jun 2027 17:31:55.781            18.376                Sumatra          2297.000
        42   01 Jun 2027 18:46:45.057   01 Jun 2027 18:48:22.619            97.562                Novosib         12195.250
        43   01 Jun 2027 18:55:03.894   01 Jun 2027 18:56:44.024           100.130                  Delhi          1829.250
        44   02 Jun 2027 04:20:36.197   02 Jun 2027 04:20:37.633             1.436                Irkutsk           179.500
        45   02 Jun 2027 04:20:50.338   02 Jun 2027 04:21:44.738            54.400                Novosib          6800.000
        46   02 Jun 2027 04:21:47.895   02 Jun 2027 04:22:02.935            15.040              Murmansk2          1880.000
        47   02 Jun 2027 05:30:55.466   02 Jun 2027 05:32:46.183           110.717                Sumatra         13839.625
        48   02 Jun 2027 05:44:40.110   02 Jun 2027 05:46:25.748           105.638                  Delhi         13204.750
        49   02 Jun 2027 05:54:25.114   02 Jun 2027 05:56:41.486           136.372                Irkutsk         17046.500
        50   02 Jun 2027 05:56:45.592   02 Jun 2027 06:01:41.602           296.010                Norilsk         37001.250
        51   02 Jun 2027 06:01:54.212   02 Jun 2027 06:04:12.820           138.608              Murmansk2         17326.000
        52   02 Jun 2027 06:39:28.524   02 Jun 2027 06:43:09.066           220.542            RioGallegos         27567.750
        53   02 Jun 2027 07:32:36.471   02 Jun 2027 07:34:07.284            90.813                Novosib         11351.625
        54   02 Jun 2027 07:34:19.936   02 Jun 2027 07:37:41.358           201.422                Norilsk         25177.750
        55   02 Jun 2027 07:37:46.956   02 Jun 2027 07:39:31.402           104.446              Murmansk2         13055.750
        56   02 Jun 2027 08:58:18.312   02 Jun 2027 09:01:22.256           183.944                  Delhi         22993.000
        57   02 Jun 2027 09:01:35.094   02 Jun 2027 09:03:45.209           130.115                Novosib         16264.375
        58   02 Jun 2027 09:09:06.178   02 Jun 2027 09:13:33.863           267.685                Norilsk         33460.625
        59   02 Jun 2027 09:14:23.822   02 Jun 2027 09:15:17.998            54.176              Murmansk2          6772.000
        60   02 Jun 2027 10:18:35.621   02 Jun 2027 10:20:05.693            90.072               CapeTown         11259.000
        61   02 Jun 2027 10:38:03.538   02 Jun 2027 10:38:47.911            44.373                 Moscow          5546.625
        62   02 Jun 2027 10:41:39.757   02 Jun 2027 10:44:44.749           184.992              Murmansk2         23124.000
        63   02 Jun 2027 10:45:00.179   02 Jun 2027 10:47:36.317           156.138                 Moscow         19517.250
        64   02 Jun 2027 10:48:26.584   02 Jun 2027 10:51:15.597           169.013              Murmansk2         21126.625
        65   02 Jun 2027 10:54:06.560   02 Jun 2027 11:00:32.643           386.083                Anadyr2         48260.375
        66   02 Jun 2027 11:56:02.341   02 Jun 2027 11:59:28.638           206.297               CapeTown         25787.125
        67   02 Jun 2027 12:31:47.150   02 Jun 2027 12:33:37.045           109.895                Anadyr2         13736.875
        68   02 Jun 2027 14:07:29.488   02 Jun 2027 14:09:35.358           125.870               Magadan1         15733.750
        69   02 Jun 2027 14:10:11.952   02 Jun 2027 14:11:49.125            97.173               Magadan2         12146.625
        70   02 Jun 2027 14:12:23.014   02 Jun 2027 14:12:55.897            32.883               Magadan2          4110.375
        71   02 Jun 2027 14:16:33.265   02 Jun 2027 14:17:00.642            27.377               Magadan1          3422.125
        72   02 Jun 2027 16:35:26.509   02 Jun 2027 16:41:33.356           366.847            RioGallegos         45855.875
        73   02 Jun 2027 17:22:55.994   02 Jun 2027 17:24:29.520            93.526                Irkutsk         11690.750
        74   02 Jun 2027 17:25:38.697   02 Jun 2027 17:27:13.349            94.652                Novosib         11831.500
        75   02 Jun 2027 17:36:46.224   02 Jun 2027 17:38:36.204           109.980                Sumatra         13747.500
        76   02 Jun 2027 17:40:22.790   02 Jun 2027 17:40:58.923            36.133                Sumatra          4516.625
        77   02 Jun 2027 17:42:51.137   02 Jun 2027 17:43:06.603            15.466                Sumatra          1933.250
        78   02 Jun 2027 18:58:40.019   02 Jun 2027 19:00:46.364           126.345                Novosib         15793.125
        79   02 Jun 2027 19:06:38.404   02 Jun 2027 19:07:39.377            60.973                  Delhi          7621.625
        80   02 Jun 2027 19:08:40.088   02 Jun 2027 19:10:09.010            88.922                  Delhi         11115.250
        81   02 Jun 2027 20:37:03.555   02 Jun 2027 20:37:26.921            23.366              Murmansk2          2920.750
        82   02 Jun 2027 20:38:17.977   02 Jun 2027 20:40:43.274           145.297                 Moscow         13320.500
        83   03 Jun 2027 04:27:54.531   03 Jun 2027 04:28:55.557            61.026                Irkutsk          7628.250
        84   03 Jun 2027 05:42:38.685   03 Jun 2027 05:42:58.201            19.516                Sumatra          2439.500
        85   03 Jun 2027 05:44:24.298   03 Jun 2027 05:45:14.650            50.352                Sumatra          6294.000
        86   03 Jun 2027 05:54:48.855   03 Jun 2027 05:55:23.278            34.423                  Delhi          4302.875
        87   03 Jun 2027 06:08:47.448   03 Jun 2027 06:13:43.202           295.754                Norilsk         36969.250
        88   03 Jun 2027 06:13:56.103   03 Jun 2027 06:16:07.270           131.167              Murmansk2         16395.875
        89   03 Jun 2027 06:51:22.926   03 Jun 2027 06:55:11.289           228.363            RioGallegos         28545.375
        90   03 Jun 2027 07:26:03.392   03 Jun 2027 07:28:40.288           156.896                Sumatra         19612.000
        91   03 Jun 2027 07:34:07.554   03 Jun 2027 07:39:20.376           312.822                  Delhi         39102.750
        92   03 Jun 2027 07:39:20.900   03 Jun 2027 07:39:46.988            26.088                Novosib          3261.000
        93   03 Jun 2027 07:40:01.740   03 Jun 2027 07:40:59.753            58.013                 Moscow          7251.625
        94   03 Jun 2027 07:44:14.800   03 Jun 2027 07:44:42.921            28.121                 Moscow          3515.125
        95   03 Jun 2027 07:44:43.087   03 Jun 2027 07:46:04.976            81.889                Novosib         10236.125
        96   03 Jun 2027 07:46:08.674   03 Jun 2027 07:49:43.099           214.425                Norilsk         26803.125
        97   03 Jun 2027 07:49:47.014   03 Jun 2027 07:51:30.417           103.403              Murmansk1         12925.375
        98   03 Jun 2027 09:10:02.917   03 Jun 2027 09:12:31.613           148.696                  Delhi         18587.000
        99   03 Jun 2027 09:15:28.075   03 Jun 2027 09:15:35.649             7.574                Novosib           946.750
       100   03 Jun 2027 09:19:51.411   03 Jun 2027 09:20:07.879            16.468                Novosib          2058.500
       101   03 Jun 2027 09:21:36.024   03 Jun 2027 09:25:32.606           236.582                Norilsk         29572.750
       102   03 Jun 2027 09:26:14.898   03 Jun 2027 09:27:19.225            64.327              Murmansk1          8040.875
       103   03 Jun 2027 10:31:12.102   03 Jun 2027 10:33:54.063           161.961               CapeTown         20245.125
       104   03 Jun 2027 10:50:01.235   03 Jun 2027 10:50:26.317            25.082                 Moscow          3135.250
       105   03 Jun 2027 10:53:41.385   03 Jun 2027 10:56:26.878           165.493              Murmansk2         20686.625
       106   03 Jun 2027 10:57:06.811   03 Jun 2027 10:59:33.110           146.299                 Moscow         18287.375
       107   03 Jun 2027 10:59:34.692   03 Jun 2027 11:03:17.172           222.480              Murmansk1         27810.000
       108   03 Jun 2027 11:05:51.843   03 Jun 2027 11:13:23.084           451.241                Anadyr1         56405.125
       109   03 Jun 2027 12:08:14.116   03 Jun 2027 12:13:11.514           297.398               CapeTown         37174.750
       110   03 Jun 2027 12:29:28.810   03 Jun 2027 12:32:52.970           204.160              Murmansk1         25520.000
       111   03 Jun 2027 12:45:51.691   03 Jun 2027 12:48:45.154           173.463               Magadan1         21682.875
       112   03 Jun 2027 14:19:25.378   03 Jun 2027 14:21:11.218           105.840               Magadan1         13230.000
       113   03 Jun 2027 14:22:17.178   03 Jun 2027 14:23:51.073            93.895               Magadan1         11736.875
       114   03 Jun 2027 16:47:14.004   03 Jun 2027 16:53:04.545           350.541            RioGallegos         43817.625
       115   03 Jun 2027 17:36:38.119   03 Jun 2027 17:39:54.294           196.175                Novosib         24521.875
       116   03 Jun 2027 17:42:19.209   03 Jun 2027 17:42:25.673             6.464                Novosib           808.000
       117   03 Jun 2027 17:48:32.736   03 Jun 2027 17:51:21.360           168.624                Sumatra         21078.000
       118   03 Jun 2027 17:53:06.212   03 Jun 2027 17:53:19.557            13.345                Sumatra          1668.125
       119   03 Jun 2027 19:18:19.949   03 Jun 2027 19:22:25.854           245.905                  Delhi         30738.125
       120   03 Jun 2027 20:49:41.728   03 Jun 2027 20:52:42.972           181.244                 Moscow         16515.125
       121   04 Jun 2027 03:07:08.613   04 Jun 2027 03:07:57.860            49.247                Novosib          6155.875
       122   04 Jun 2027 04:45:24.208   04 Jun 2027 04:46:16.570            52.362                Norilsk          6545.250
       123   04 Jun 2027 04:47:49.212   04 Jun 2027 04:49:38.120           108.908              Murmansk1         13613.500
       124   04 Jun 2027 04:49:38.120   04 Jun 2027 04:53:16.096           217.976              Murmansk2         27247.000
       125   04 Jun 2027 05:26:38.380   04 Jun 2027 05:32:17.504           339.124            RioGallegos         42390.500
       126   04 Jun 2027 05:54:28.293   04 Jun 2027 06:07:06.149           757.856                Sumatra         94732.000
       127   04 Jun 2027 06:08:15.211   04 Jun 2027 06:14:24.183           368.972                Irkutsk         46121.500
       128   04 Jun 2027 06:20:49.342   04 Jun 2027 06:21:00.905            11.563                Norilsk          1445.375
       129   04 Jun 2027 06:21:06.973   04 Jun 2027 06:22:19.019            72.046                Novosib          9005.750
       130   04 Jun 2027 06:22:51.473   04 Jun 2027 06:23:25.156            33.683              Murmansk1          4210.375
       131   04 Jun 2027 06:23:40.086   04 Jun 2027 06:25:44.906           124.820                Norilsk         15602.500
       132   04 Jun 2027 06:25:46.198   04 Jun 2027 06:28:02.419           136.221              Murmansk2         17027.625
       133   04 Jun 2027 07:03:15.291   04 Jun 2027 07:06:50.413           215.122            RioGallegos         26890.250
       134   04 Jun 2027 07:37:43.162   04 Jun 2027 07:39:33.290           110.128                Sumatra         13766.000
       135   04 Jun 2027 07:45:55.798   04 Jun 2027 07:51:19.251           323.453                  Delhi         40431.625
       136   04 Jun 2027 07:51:28.656   04 Jun 2027 07:52:58.844            90.188                Irkutsk         11273.500
       137   04 Jun 2027 07:56:17.082   04 Jun 2027 07:58:01.508           104.426                Novosib         13053.250
       138   04 Jun 2027 07:58:02.034   04 Jun 2027 08:01:44.711           222.677                Norilsk         27834.625
       139   04 Jun 2027 08:01:44.732   04 Jun 2027 08:03:29.832           105.100              Murmansk1         13137.500
       140   04 Jun 2027 09:21:41.497   04 Jun 2027 09:22:59.751            78.254                  Delhi          9781.750
       141   04 Jun 2027 09:33:37.508   04 Jun 2027 09:37:30.321           232.813                Norilsk         29101.625
       142   04 Jun 2027 09:38:05.124   04 Jun 2027 09:39:20.602            75.478              Murmansk1          9434.750
       143   04 Jun 2027 10:45:51.681   04 Jun 2027 10:46:58.245            66.564               CapeTown          8320.500
       144   04 Jun 2027 11:01:57.774   04 Jun 2027 11:02:51.423            53.649                 Moscow          6706.125
       145   04 Jun 2027 11:05:42.943   04 Jun 2027 11:06:07.066            24.123              Murmansk1          3015.375
       146   04 Jun 2027 11:06:08.791   04 Jun 2027 11:11:28.567           319.776                 Moscow         39972.000
       147   04 Jun 2027 11:11:38.076   04 Jun 2027 11:15:18.650           220.574              Murmansk1         27571.750
       148   04 Jun 2027 11:17:41.500   04 Jun 2027 11:26:06.706           505.206                Anadyr1         63150.750
       149   04 Jun 2027 12:15:36.839   04 Jun 2027 12:25:08.845           572.006               CapeTown         71500.750
       150   04 Jun 2027 12:42:01.059   04 Jun 2027 12:47:24.187           323.128              Murmansk2         40391.000
       151   04 Jun 2027 12:53:52.399   04 Jun 2027 12:55:32.317            99.918                Anadyr2         12489.750
       152   04 Jun 2027 12:57:04.887   04 Jun 2027 12:59:59.103           174.216               Magadan1         21777.000
       153   04 Jun 2027 14:33:39.786   04 Jun 2027 14:35:52.296           132.510               Magadan1         16563.750
       154   04 Jun 2027 16:13:26.517   04 Jun 2027 16:16:10.167           163.650                Irkutsk         20456.250
       155   04 Jun 2027 16:59:04.596   04 Jun 2027 17:00:37.100            92.504            RioGallegos         11563.000
       156   04 Jun 2027 17:01:44.006   04 Jun 2027 17:02:17.319            33.313            RioGallegos          4164.125
       157   04 Jun 2027 17:46:44.715   04 Jun 2027 17:48:38.328           113.613                Irkutsk         14201.625
       158   04 Jun 2027 17:48:52.364   04 Jun 2027 17:51:12.252           139.888                Novosib         17486.000
       159   04 Jun 2027 17:52:30.433   04 Jun 2027 17:54:26.721           116.288                Novosib         14536.000
       160   04 Jun 2027 19:30:06.870   04 Jun 2027 19:32:16.012           129.142                  Delhi         16142.750
       161   04 Jun 2027 19:34:26.457   04 Jun 2027 19:34:48.526            22.069                  Delhi          2758.625
       162   04 Jun 2027 20:56:56.617   04 Jun 2027 20:57:07.268            10.651              Murmansk2          1331.375
       163   04 Jun 2027 20:57:28.562   04 Jun 2027 20:58:24.294            55.732              Murmansk1          6966.500
       164   04 Jun 2027 21:01:17.948   04 Jun 2027 21:02:37.221            79.273                 Moscow          9909.125
       165   04 Jun 2027 21:30:33.918   04 Jun 2027 21:31:49.943            76.025               CapeTown          9503.125
       166   04 Jun 2027 23:03:00.162   04 Jun 2027 23:03:45.186            45.024               CapeTown          5628.000
       167   05 Jun 2027 03:19:34.477   05 Jun 2027 03:20:03.334            28.857                Norilsk          3607.125
       168   05 Jun 2027 03:20:30.560   05 Jun 2027 03:20:35.334             4.774                Anadyr1           596.750
       169   05 Jun 2027 03:20:44.092   05 Jun 2027 03:20:58.405            14.313               Magadan1          1789.125
       170   05 Jun 2027 03:21:05.937   05 Jun 2027 03:21:52.691            46.754                Norilsk          5844.250
       171   05 Jun 2027 03:21:54.598   05 Jun 2027 03:25:56.586           241.988              Murmansk2         30248.500
       172   05 Jun 2027 03:25:56.586   05 Jun 2027 03:27:11.212            74.626              Murmansk1          9328.250
       173   05 Jun 2027 04:36:32.904   05 Jun 2027 04:37:04.278            31.374                Sumatra          3921.750
       174   05 Jun 2027 04:38:02.901   05 Jun 2027 04:38:05.305             2.404                Sumatra           300.500
       175   05 Jun 2027 04:56:52.503   05 Jun 2027 04:56:55.817             3.314                Norilsk           414.250
       176   05 Jun 2027 04:56:58.329   05 Jun 2027 04:58:01.805            63.476                Novosib          7934.500
       177   05 Jun 2027 04:59:41.314   05 Jun 2027 05:02:01.104           139.790              Murmansk2         17473.750
       178   05 Jun 2027 05:02:01.104   05 Jun 2027 05:05:06.159           185.055              Murmansk1         23131.875
       179   05 Jun 2027 05:39:50.233   05 Jun 2027 05:44:15.695           265.462            RioGallegos         33182.750
       180   05 Jun 2027 06:14:10.936   05 Jun 2027 06:19:07.479           296.543                Sumatra         37067.875
       181   05 Jun 2027 06:23:01.559   05 Jun 2027 06:26:12.704           191.145                Irkutsk         23893.125
       182   05 Jun 2027 06:32:26.506   05 Jun 2027 06:34:40.185           133.679                 Moscow         16709.875
       183   05 Jun 2027 06:34:40.513   05 Jun 2027 06:37:46.699           186.186                Norilsk         23273.250
       184   05 Jun 2027 06:37:59.480   05 Jun 2027 06:39:58.234           118.754              Murmansk2         14844.250
       185   05 Jun 2027 07:15:05.095   05 Jun 2027 07:18:20.739           195.644            RioGallegos         24455.500
       186   05 Jun 2027 07:49:14.682   05 Jun 2027 07:49:18.089             3.407                Sumatra           425.875
       187   05 Jun 2027 07:57:38.988   05 Jun 2027 08:03:14.687           335.699                  Delhi         41962.375
       188   05 Jun 2027 08:03:26.277   05 Jun 2027 08:04:31.719            65.442                Novosib          8180.250
       189   05 Jun 2027 08:08:30.541   05 Jun 2027 08:11:40.681           190.140                 Moscow         23767.500
       190   05 Jun 2027 08:11:52.610   05 Jun 2027 08:15:29.602           216.992              Murmansk1         27124.000
       191   05 Jun 2027 09:37:53.621   05 Jun 2027 09:38:17.315            23.694                 Moscow          2961.750
       192   05 Jun 2027 09:44:57.909   05 Jun 2027 09:47:53.110           175.201                 Moscow         21900.125
       193   05 Jun 2027 09:47:56.614   05 Jun 2027 09:51:22.084           205.470              Murmansk2         25683.750
       194   05 Jun 2027 11:13:52.936   05 Jun 2027 11:14:19.790            26.854                 Moscow          3356.750
       195   05 Jun 2027 11:17:44.397   05 Jun 2027 11:17:55.064            10.667              Murmansk1          1333.375
       196   05 Jun 2027 11:18:34.678   05 Jun 2027 11:23:22.404           287.726                 Moscow         35965.750
       197   05 Jun 2027 11:23:39.452   05 Jun 2027 11:27:19.994           220.542              Murmansk1         27567.750
       198   05 Jun 2027 11:29:34.003   05 Jun 2027 11:38:45.067           551.064                Anadyr2         68883.000
       199   05 Jun 2027 12:27:33.177   05 Jun 2027 12:37:01.240           568.063               CapeTown         71007.875
       200   05 Jun 2027 12:54:36.414   05 Jun 2027 13:03:02.589           506.175              Murmansk2         63271.875
       201   05 Jun 2027 13:05:03.380   05 Jun 2027 13:14:25.282           561.902                Anadyr2         70237.750
       202   05 Jun 2027 13:15:04.383   05 Jun 2027 13:15:51.707            47.324               Magadan1          5915.500
       203   05 Jun 2027 14:43:50.860   05 Jun 2027 14:44:38.560            47.700               Magadan2          5962.500
       204   05 Jun 2027 14:47:05.840   05 Jun 2027 14:48:35.345            89.505               Magadan1         11188.125
       205   05 Jun 2027 16:24:37.425   05 Jun 2027 16:31:19.918           402.493                Irkutsk         50311.625
       206   05 Jun 2027 16:40:54.700   05 Jun 2027 16:43:21.085           146.385                Sumatra         18298.125
       207   05 Jun 2027 16:43:56.580   05 Jun 2027 16:45:39.713           103.133                Sumatra         12891.625
       208   05 Jun 2027 17:59:43.206   05 Jun 2027 18:03:12.823           209.617                Novosib         26202.125
       209   05 Jun 2027 21:08:57.994   05 Jun 2027 21:09:59.282            61.288              Murmansk2          7661.000
       210   05 Jun 2027 21:13:00.955   05 Jun 2027 21:14:33.796            92.841                 Moscow         11605.125
       211   05 Jun 2027 21:16:40.813   05 Jun 2027 21:18:15.202            94.389              Murmansk1         11798.625
       212   05 Jun 2027 21:18:52.152   05 Jun 2027 21:20:03.362            71.210                 Moscow          8901.250
       213   05 Jun 2027 21:40:21.301   05 Jun 2027 21:40:40.640            19.339               CapeTown          2417.375
       214   05 Jun 2027 21:43:48.992   05 Jun 2027 21:45:31.885           102.893               CapeTown         12861.625
       215   06 Jun 2027 03:31:40.569   06 Jun 2027 03:31:56.852            16.283               Magadan2          2035.375
       216   06 Jun 2027 03:32:59.011   06 Jun 2027 03:38:09.611           310.600                Norilsk         38825.000
       217   06 Jun 2027 03:38:15.503   06 Jun 2027 03:42:41.530           266.027              Murmansk2         33253.375
       218   06 Jun 2027 04:08:06.878   06 Jun 2027 04:10:37.409           150.531            RioGallegos         18816.375
       219   06 Jun 2027 04:46:02.833   06 Jun 2027 04:47:33.289            90.456                Sumatra         11307.000
       220   06 Jun 2027 05:08:53.793   06 Jun 2027 05:10:27.063            93.270                Norilsk         11658.750
       221   06 Jun 2027 05:11:34.171   06 Jun 2027 05:14:03.232           149.061              Murmansk2         18632.625
       222   06 Jun 2027 05:14:03.232   06 Jun 2027 05:16:56.922           173.690              Murmansk1         21711.250
       223   06 Jun 2027 05:51:51.031   06 Jun 2027 05:56:12.582           261.551            RioGallegos         32693.875
       224   06 Jun 2027 06:26:27.033   06 Jun 2027 06:31:03.234           276.201                Sumatra         34525.125
       225   06 Jun 2027 06:34:08.683   06 Jun 2027 06:34:31.048            22.365                Irkutsk          2795.625
       226   06 Jun 2027 06:35:10.876   06 Jun 2027 06:38:31.719           200.843                Novosib         25105.375
       227   06 Jun 2027 06:43:48.338   06 Jun 2027 06:44:46.149            57.811                 Moscow          7226.375
       228   06 Jun 2027 06:44:52.773   06 Jun 2027 06:45:56.410            63.637                 Moscow          7954.625
       229   06 Jun 2027 06:45:57.238   06 Jun 2027 06:49:48.551           231.313                Norilsk         28914.125
       230   06 Jun 2027 06:49:57.520   06 Jun 2027 06:51:54.687           117.167              Murmansk2         14645.875
       231   06 Jun 2027 07:26:51.551   06 Jun 2027 07:29:33.346           161.795            RioGallegos         20224.375
       232   06 Jun 2027 08:10:52.729   06 Jun 2027 08:15:06.349           253.620                  Delhi         31702.500
       233   06 Jun 2027 08:15:23.008   06 Jun 2027 08:15:41.489            18.481                Novosib          2310.125
       234   06 Jun 2027 08:15:50.838   06 Jun 2027 08:16:11.868            21.030                Norilsk          2628.750
       235   06 Jun 2027 08:20:28.472   06 Jun 2027 08:23:45.793           197.321                 Moscow         24665.125
       236   06 Jun 2027 08:23:54.858   06 Jun 2027 08:27:29.696           214.838              Murmansk1         26854.750
       237   06 Jun 2027 09:49:49.434   06 Jun 2027 09:50:18.832            29.398                 Moscow          3674.750
       238   06 Jun 2027 09:55:39.147   06 Jun 2027 09:57:15.047            95.900              Murmansk1         11987.500
       239   06 Jun 2027 09:57:44.829   06 Jun 2027 10:01:20.907           216.078                Norilsk         27009.750
       240   06 Jun 2027 10:01:29.953   06 Jun 2027 10:03:23.656           113.703              Murmansk2         14212.875
       241   06 Jun 2027 11:25:46.397   06 Jun 2027 11:26:34.464            48.067                 Moscow          6008.375
       242   06 Jun 2027 11:29:25.672   06 Jun 2027 11:31:24.755           119.083              Murmansk2         14885.375
       243   06 Jun 2027 11:31:24.755   06 Jun 2027 11:39:21.145           476.390              Murmansk1         59548.750
       244   06 Jun 2027 11:44:34.558   06 Jun 2027 11:51:19.044           404.486                Anadyr1         50560.750
       245   06 Jun 2027 12:43:57.794   06 Jun 2027 12:48:48.574           290.780               CapeTown         36347.500
       246   06 Jun 2027 13:07:15.270   06 Jun 2027 13:14:58.381           463.111              Murmansk2         57888.875
       247   06 Jun 2027 13:17:03.918   06 Jun 2027 13:21:41.375           277.457                Anadyr1         34682.125
       248   06 Jun 2027 13:23:59.159   06 Jun 2027 13:25:23.133            83.974               Magadan2         10496.750
       249   06 Jun 2027 13:27:12.475   06 Jun 2027 13:28:41.216            88.741               Magadan1         11092.625
       250   06 Jun 2027 15:07:49.046   06 Jun 2027 15:07:51.309             2.263               Magadan1           282.875
       251   06 Jun 2027 15:49:49.688   06 Jun 2027 15:52:20.698           151.010            RioGallegos         18876.250
       252   06 Jun 2027 16:36:07.327   06 Jun 2027 16:41:07.152           299.825                Irkutsk         37478.125
       253   06 Jun 2027 16:42:37.729   06 Jun 2027 16:43:41.352            63.623                Irkutsk          7952.875
       254   06 Jun 2027 16:51:24.567   06 Jun 2027 16:53:41.568           137.001                Sumatra         17125.125
       255   06 Jun 2027 16:55:47.025   06 Jun 2027 16:57:53.022           125.997                Sumatra         15749.625
       256   06 Jun 2027 18:15:14.035   06 Jun 2027 18:15:30.170            16.135                Novosib          2016.875
       257   06 Jun 2027 18:17:26.273   06 Jun 2027 18:17:32.193             5.920                Novosib           740.000
       258   06 Jun 2027 18:22:26.091   06 Jun 2027 18:24:13.027           106.936                  Delhi         13367.000
       259   06 Jun 2027 21:21:27.710   06 Jun 2027 21:21:59.276            31.566              Murmansk1          3945.750
       260   06 Jun 2027 21:24:48.337   06 Jun 2027 21:27:02.786           134.449                 Moscow         16806.125
       261   06 Jun 2027 21:27:53.959   06 Jun 2027 21:28:46.156            52.197                 Moscow          6524.625
       262   06 Jun 2027 21:31:14.149   06 Jun 2027 21:32:02.595            48.446                 Moscow          6055.750
       263   06 Jun 2027 21:51:16.136   06 Jun 2027 21:52:50.240            94.104               CapeTown         11763.000
       264   06 Jun 2027 21:55:22.170   06 Jun 2027 21:57:25.713           123.543               CapeTown          8180.625
       265   07 Jun 2027 03:45:00.411   07 Jun 2027 03:53:53.313           532.902              Murmansk2         66612.750
       266   07 Jun 2027 04:56:54.018   07 Jun 2027 04:59:32.744           158.726                Sumatra         19840.750
       267   07 Jun 2027 05:20:53.805   07 Jun 2027 05:20:55.270             1.465                Irkutsk           183.125
       268   07 Jun 2027 05:21:26.824   07 Jun 2027 05:22:16.004            49.180                Novosib          6147.500
       269   07 Jun 2027 05:23:27.771   07 Jun 2027 05:25:51.668           143.897              Murmansk2         17987.125
       270   07 Jun 2027 05:25:51.668   07 Jun 2027 05:28:48.415           176.747              Murmansk1         22093.375
       271   07 Jun 2027 06:03:50.832   07 Jun 2027 06:08:07.933           257.101            RioGallegos         32137.625
       272   07 Jun 2027 06:38:36.671   07 Jun 2027 06:42:53.194           256.523                Sumatra         32065.375
       273   07 Jun 2027 06:46:16.636   07 Jun 2027 06:46:50.412            33.776                Irkutsk          4222.000
       274   07 Jun 2027 06:47:03.594   07 Jun 2027 06:50:54.585           230.991                Irkutsk         28873.875
       275   07 Jun 2027 06:55:20.461   07 Jun 2027 06:55:51.844            31.383                Novosib          3922.875
       276   07 Jun 2027 06:56:39.514   07 Jun 2027 06:58:23.503           103.989                Novosib         12998.625
       277   07 Jun 2027 06:58:25.103   07 Jun 2027 07:01:50.441           205.338                Norilsk         25667.250
       278   07 Jun 2027 07:02:02.107   07 Jun 2027 07:03:51.728           109.621              Murmansk1         13702.625
       279   07 Jun 2027 08:22:53.062   07 Jun 2027 08:26:53.682           240.620                  Delhi         30077.500
       280   07 Jun 2027 08:27:09.359   07 Jun 2027 08:28:00.652            51.293                 Moscow          6411.625
       281   07 Jun 2027 08:32:29.445   07 Jun 2027 08:33:41.412            71.967                Novosib          8995.875
       282   07 Jun 2027 08:33:58.502   07 Jun 2027 08:37:48.307           229.805                Norilsk         28725.625
       283   07 Jun 2027 08:37:54.888   07 Jun 2027 08:39:30.074            95.186              Murmansk1         11898.250
       284   07 Jun 2027 10:02:19.744   07 Jun 2027 10:02:53.497            33.753                 Moscow          4219.125
       285   07 Jun 2027 10:03:11.347   07 Jun 2027 10:04:09.362            58.015                 Moscow          7251.875
       286   07 Jun 2027 10:07:23.494   07 Jun 2027 10:11:54.535           271.041                 Moscow         33880.125
       287   07 Jun 2027 10:11:55.521   07 Jun 2027 10:13:12.044            76.523                Norilsk          9565.375
       288   07 Jun 2027 10:13:17.324   07 Jun 2027 10:15:25.289           127.965              Murmansk2         15995.625
       289   07 Jun 2027 11:41:46.817   07 Jun 2027 11:43:22.337            95.520              Murmansk2         11940.000
       290   07 Jun 2027 11:44:13.061   07 Jun 2027 11:47:03.326           170.265                 Moscow         21283.125
       291   07 Jun 2027 11:47:12.135   07 Jun 2027 11:51:22.060           249.925              Murmansk2         31240.625
       292   07 Jun 2027 11:57:20.955   07 Jun 2027 12:03:49.210           388.255                Anadyr2         48531.875
       293   07 Jun 2027 12:56:43.546   07 Jun 2027 13:00:30.581           227.035               CapeTown         28379.375
       294   07 Jun 2027 13:19:58.229   07 Jun 2027 13:26:52.142           413.913              Murmansk2         51739.125
       295   07 Jun 2027 13:31:20.470   07 Jun 2027 13:33:15.337           114.867                Anadyr2         14358.375
       296   07 Jun 2027 13:33:50.700   07 Jun 2027 13:37:50.364           239.664               Magadan2         29958.000
       297   07 Jun 2027 16:00:53.431   07 Jun 2027 16:04:06.767           193.336            RioGallegos         24167.000
       298   07 Jun 2027 16:06:41.875   07 Jun 2027 16:07:21.734            39.859            RioGallegos          4982.375
       299   07 Jun 2027 16:48:39.281   07 Jun 2027 16:51:40.144           180.863                Irkutsk         22607.875
       300   07 Jun 2027 16:53:33.909   07 Jun 2027 16:54:13.038            39.129                Irkutsk          4891.125
       301   07 Jun 2027 17:02:28.749   07 Jun 2027 17:05:25.592           176.843                Sumatra         22105.375
       302   07 Jun 2027 17:07:13.655   07 Jun 2027 17:08:04.827            51.172                Sumatra          6396.500
       303   07 Jun 2027 17:09:59.023   07 Jun 2027 17:11:30.856            91.833                Sumatra         11479.125
       304   07 Jun 2027 18:26:36.557   07 Jun 2027 18:27:15.821            39.264                Novosib          4908.000
       305   07 Jun 2027 18:32:46.237   07 Jun 2027 18:35:14.724           148.487                  Delhi         18560.875
       306   07 Jun 2027 21:34:41.730   07 Jun 2027 21:36:23.914           102.184              Murmansk1         12773.000
       307   07 Jun 2027 21:40:52.720   07 Jun 2027 21:42:49.389           116.669                 Moscow         14583.625
       308   07 Jun 2027 22:02:26.870   07 Jun 2027 22:05:05.543           158.673               CapeTown          8912.750
       309   08 Jun 2027 03:56:51.696   08 Jun 2027 04:03:11.008           379.312              Murmansk1         47414.000
       310   08 Jun 2027 05:08:07.468   08 Jun 2027 05:11:20.010           192.542                Sumatra         24067.750
       311   08 Jun 2027 05:32:56.835   08 Jun 2027 05:33:01.627             4.792                Norilsk           599.000
       312   08 Jun 2027 05:33:23.434   08 Jun 2027 05:37:53.478           270.044                Norilsk         33755.500
       313   08 Jun 2027 05:37:54.678   08 Jun 2027 05:40:40.657           165.979              Murmansk1         20747.375
       314   08 Jun 2027 06:15:49.549   08 Jun 2027 06:20:01.466           251.917            RioGallegos         31489.625
       315   08 Jun 2027 06:50:40.484   08 Jun 2027 06:54:36.808           236.324                Sumatra         29540.500
       316   08 Jun 2027 06:57:51.902   08 Jun 2027 06:58:41.737            49.835                Irkutsk          6229.375
       317   08 Jun 2027 06:58:41.975   08 Jun 2027 06:58:58.103            16.128                Novosib          2016.000
       318   08 Jun 2027 06:59:54.667   08 Jun 2027 07:03:14.714           200.047                Irkutsk         25005.875
       319   08 Jun 2027 07:07:59.518   08 Jun 2027 07:09:42.288           102.770                 Moscow         12846.250
       320   08 Jun 2027 07:09:49.076   08 Jun 2027 07:13:52.330           243.254                Norilsk         30406.750
       321   08 Jun 2027 07:14:03.073   08 Jun 2027 07:15:49.330           106.257              Murmansk2         13282.125
       322   08 Jun 2027 08:34:50.046   08 Jun 2027 08:38:35.737           225.691                  Delhi         28211.375
       323   08 Jun 2027 08:38:55.015   08 Jun 2027 08:39:52.023            57.008                Novosib          7126.000
       324   08 Jun 2027 08:44:50.820   08 Jun 2027 08:45:29.895            39.075                Novosib          4884.375
       325   08 Jun 2027 08:45:54.897   08 Jun 2027 08:49:48.880           233.983                Norilsk         29247.875
       326   08 Jun 2027 08:49:58.169   08 Jun 2027 08:51:30.719            92.550              Murmansk1         11568.750
       327   08 Jun 2027 10:14:19.994   08 Jun 2027 10:15:46.642            86.648                 Moscow         10831.000
       328   08 Jun 2027 10:17:40.707   08 Jun 2027 10:18:29.831            49.124              Murmansk2          6140.500
       329   08 Jun 2027 10:19:14.081   08 Jun 2027 10:21:25.848           131.767              Murmansk1         16470.875
       330   08 Jun 2027 10:21:31.852   08 Jun 2027 10:23:54.196           142.344                 Moscow         17793.000
       331   08 Jun 2027 10:24:45.065   08 Jun 2027 10:27:26.955           161.890              Murmansk1         20236.250
       332   08 Jun 2027 10:32:28.564   08 Jun 2027 10:34:26.078           117.514                Anadyr1         14689.250
       333   08 Jun 2027 11:32:25.396   08 Jun 2027 11:37:03.667           278.271               CapeTown         34783.875
       334   08 Jun 2027 11:52:24.290   08 Jun 2027 11:58:48.838           384.548                 Moscow         48068.500
       335   08 Jun 2027 11:58:52.308   08 Jun 2027 12:01:47.713           175.405              Murmansk1         21925.625
       336   08 Jun 2027 13:43:56.951   08 Jun 2027 13:50:13.661           376.710               Magadan1         47088.750
       337   08 Jun 2027 16:12:20.382   08 Jun 2027 16:15:56.290           215.908            RioGallegos         26988.500
       338   08 Jun 2027 16:17:14.595   08 Jun 2027 16:18:44.978            90.383            RioGallegos         11297.875
       339   08 Jun 2027 16:20:16.724   08 Jun 2027 16:20:22.693             5.969            RioGallegos           746.125
       340   08 Jun 2027 17:02:21.052   08 Jun 2027 17:05:32.818           191.766                Irkutsk         23970.750
       341   08 Jun 2027 17:15:57.018   08 Jun 2027 17:17:15.918            78.900                Sumatra          9862.500
       342   08 Jun 2027 17:18:38.610   08 Jun 2027 17:20:15.947            97.337                Sumatra         12167.125
       343   08 Jun 2027 18:37:41.102   08 Jun 2027 18:39:18.155            97.053                Novosib         12131.625
       344   08 Jun 2027 18:43:53.610   08 Jun 2027 18:44:57.557            63.947                  Delhi          7993.375
       345   08 Jun 2027 18:46:53.898   08 Jun 2027 18:46:59.749             5.851                  Delhi           731.375
       346   08 Jun 2027 18:51:21.013   08 Jun 2027 18:52:36.105            75.092                  Delhi          9386.500
       347   08 Jun 2027 21:47:39.265   08 Jun 2027 21:48:18.959            39.694              Murmansk1          4961.750
       348   08 Jun 2027 21:48:31.644   08 Jun 2027 21:50:02.911            91.267                 Moscow         11408.375
       349   08 Jun 2027 21:51:15.406   08 Jun 2027 21:52:51.114            95.708                 Moscow          8264.000
       350   09 Jun 2027 04:08:54.573   09 Jun 2027 04:09:50.731            56.158                Novosib          7019.750
       351   09 Jun 2027 04:10:01.027   09 Jun 2027 04:11:05.483            64.456                Norilsk          8057.000
       352   09 Jun 2027 05:20:44.019   09 Jun 2027 05:23:13.264           149.245                Sumatra         18655.625
       353   09 Jun 2027 05:44:58.541   09 Jun 2027 05:49:54.789           296.248                Norilsk         37031.000
       354   09 Jun 2027 05:50:09.540   09 Jun 2027 05:52:33.649           144.109              Murmansk1         18013.625
       355   09 Jun 2027 06:27:47.030   09 Jun 2027 06:31:52.744           245.714            RioGallegos         30714.250
       356   09 Jun 2027 07:02:38.713   09 Jun 2027 07:06:13.051           214.338                Sumatra         26792.250
       357   09 Jun 2027 07:09:56.554   09 Jun 2027 07:10:31.488            34.934                Novosib          4366.750
       358   09 Jun 2027 07:10:33.641   09 Jun 2027 07:15:27.473           293.832                  Delhi         36729.000
       359   09 Jun 2027 07:15:30.421   09 Jun 2027 07:16:02.222            31.801                Irkutsk          3975.125
       360   09 Jun 2027 07:20:38.397   09 Jun 2027 07:22:23.247           104.850                Novosib         13106.250
       361   09 Jun 2027 07:22:28.690   09 Jun 2027 07:25:54.203           205.513                Norilsk         25689.125
       362   09 Jun 2027 07:26:19.891   09 Jun 2027 07:27:47.443            87.552              Murmansk2         10944.000
       363   09 Jun 2027 08:46:43.438   09 Jun 2027 08:50:10.944           207.506                  Delhi         25938.250
       364   09 Jun 2027 08:50:20.841   09 Jun 2027 08:52:54.611           153.770                Novosib         19221.250
       365   09 Jun 2027 08:56:21.335   09 Jun 2027 08:57:14.480            53.145                Novosib          6643.125
       366   09 Jun 2027 08:57:19.740   09 Jun 2027 09:01:48.988           269.248                Norilsk         33656.000
       367   09 Jun 2027 09:01:52.640   09 Jun 2027 09:03:31.583            98.943              Murmansk1         12367.875
       368   09 Jun 2027 10:26:19.496   09 Jun 2027 10:27:52.368            92.872                 Moscow         11609.000
       369   09 Jun 2027 10:29:41.719   09 Jun 2027 10:33:08.995           207.276              Murmansk1         25909.500
       370   09 Jun 2027 10:33:13.570   09 Jun 2027 10:35:53.035           159.465                 Moscow         19933.125
       371   09 Jun 2027 10:36:20.168   09 Jun 2027 10:36:29.758             9.590                Norilsk          1198.750
       372   09 Jun 2027 10:36:45.066   09 Jun 2027 10:39:28.621           163.555              Murmansk2         20444.375
       373   09 Jun 2027 10:45:13.272   09 Jun 2027 10:47:47.526           154.254                Anadyr2         19281.750
       374   09 Jun 2027 13:55:49.592   09 Jun 2027 14:00:09.519           259.927               Magadan1         32490.875
       375   09 Jun 2027 14:02:21.857   09 Jun 2027 14:03:21.224            59.367               Magadan2          7420.875
       376   09 Jun 2027 14:04:47.445   09 Jun 2027 14:05:19.588            32.143               Magadan2          4017.875
       377   09 Jun 2027 16:23:57.604   09 Jun 2027 16:30:32.615           395.011            RioGallegos         49376.375
       378   09 Jun 2027 17:13:48.538   09 Jun 2027 17:15:26.333            97.795                Irkutsk         12224.375
       379   09 Jun 2027 17:15:27.016   09 Jun 2027 17:15:30.989             3.973                Irkutsk           496.625
       380   09 Jun 2027 17:25:20.897   09 Jun 2027 17:26:58.651            97.754                Sumatra         12219.250
       381   09 Jun 2027 17:29:12.018   09 Jun 2027 17:31:54.018           162.000                Sumatra         20250.000
       382   09 Jun 2027 18:46:59.622   09 Jun 2027 18:48:37.585            97.963                Novosib         12245.375
       383   09 Jun 2027 18:55:18.157   09 Jun 2027 18:56:58.827           100.670                  Delhi         12583.750
       384   09 Jun 2027 20:27:46.334   09 Jun 2027 20:29:55.220           128.886                 Moscow         16110.750
       385   09 Jun 2027 21:56:56.763   09 Jun 2027 21:58:43.076           106.313              Murmansk2          8091.626
       386   10 Jun 2027 04:21:05.738   10 Jun 2027 04:21:59.477            53.739                Novosib          6717.375
       387   10 Jun 2027 04:22:03.960   10 Jun 2027 04:22:17.737            13.777              Murmansk2          1722.125
       388   10 Jun 2027 05:31:09.852   10 Jun 2027 05:33:00.701           110.849                Sumatra         13856.125
       389   10 Jun 2027 05:44:52.577   10 Jun 2027 05:46:40.693           108.116                  Delhi         13514.500
       390   10 Jun 2027 05:57:00.329   10 Jun 2027 06:01:56.257           295.928                Norilsk         36991.000
       391   10 Jun 2027 06:02:11.526   10 Jun 2027 06:04:27.384           135.858              Murmansk2         16982.250
       392   10 Jun 2027 06:39:43.083   10 Jun 2027 06:43:41.147           238.064            RioGallegos         29758.000
       393   10 Jun 2027 07:14:31.280   10 Jun 2027 07:17:40.059           188.779                Sumatra         23597.375
       394   10 Jun 2027 07:22:23.677   10 Jun 2027 07:23:07.057            43.380                Novosib          5422.500
       395   10 Jun 2027 07:23:51.720   10 Jun 2027 07:28:04.675           252.955                Irkutsk         31619.375
       396   10 Jun 2027 07:32:52.365   10 Jun 2027 07:34:21.902            89.537                Novosib         11192.125
       397   10 Jun 2027 07:34:36.803   10 Jun 2027 07:37:56.026           199.223                Norilsk         24902.875
       398   10 Jun 2027 07:38:04.131   10 Jun 2027 07:39:46.026           101.895              Murmansk1         12736.875
       399   10 Jun 2027 08:58:32.776   10 Jun 2027 09:01:36.379           183.603                  Delhi         22950.375
       400   10 Jun 2027 09:01:49.700   10 Jun 2027 09:04:00.521           130.821                Novosib         16352.625
       401   10 Jun 2027 09:09:20.803   10 Jun 2027 09:13:48.496           267.693                Norilsk         33461.625
       402   10 Jun 2027 09:14:25.180   10 Jun 2027 09:15:32.652            67.472              Murmansk1          8434.000
       403   10 Jun 2027 10:18:50.927   10 Jun 2027 10:20:22.420            91.493               CapeTown         11436.625
       404   10 Jun 2027 10:38:18.155   10 Jun 2027 10:39:02.585            44.430                 Moscow          5553.750
       405   10 Jun 2027 10:41:54.417   10 Jun 2027 10:45:22.006           207.589              Murmansk1         25948.625
       406   10 Jun 2027 10:45:22.154   10 Jun 2027 10:47:50.925           148.771                 Moscow         18596.375
       407   10 Jun 2027 10:48:41.377   10 Jun 2027 10:51:30.258           168.881              Murmansk2         21110.125
       408   10 Jun 2027 10:54:20.974   10 Jun 2027 11:00:47.970           386.996                Anadyr1         48374.500
       409   10 Jun 2027 11:56:16.920   10 Jun 2027 12:01:18.612           301.692               CapeTown         37711.500
       410   10 Jun 2027 14:07:44.066   10 Jun 2027 14:09:49.616           125.550               Magadan2         15693.750
       411   10 Jun 2027 14:10:26.888   10 Jun 2027 14:12:08.012           101.124               Magadan1         12640.500
       412   10 Jun 2027 14:12:38.123   10 Jun 2027 14:13:10.396            32.273               Magadan1          4034.125
       413   10 Jun 2027 14:16:48.103   10 Jun 2027 14:18:55.851           127.748               Magadan1         15968.500
       414   10 Jun 2027 16:35:40.964   10 Jun 2027 16:41:47.563           366.599            RioGallegos         45824.875
       415   10 Jun 2027 17:23:10.538   10 Jun 2027 17:24:44.502            93.964                Irkutsk         11745.500
       416   10 Jun 2027 17:25:51.679   10 Jun 2027 17:26:08.800            17.121                Irkutsk          2140.125
       417   10 Jun 2027 17:27:26.427   10 Jun 2027 17:28:21.182            54.755                Novosib          6844.375
       418   10 Jun 2027 17:37:00.654   10 Jun 2027 17:38:50.662           110.008                Sumatra         13751.000
       419   10 Jun 2027 17:39:21.123   10 Jun 2027 17:40:35.797            74.674                Sumatra          9334.250
       420   10 Jun 2027 17:43:06.342   10 Jun 2027 17:43:20.728            14.386                Sumatra          1798.250
       421   10 Jun 2027 18:58:54.604   10 Jun 2027 19:00:50.526           115.922                Novosib         14490.250
       422   10 Jun 2027 19:06:52.776   10 Jun 2027 19:07:54.474            61.698                  Delhi          7712.250
       423   10 Jun 2027 19:08:54.800   10 Jun 2027 19:10:24.858            90.058                  Delhi         11257.250
       424   10 Jun 2027 20:37:18.418   10 Jun 2027 20:37:43.707            25.289              Murmansk1          3161.125
       425   10 Jun 2027 20:38:32.030   10 Jun 2027 20:40:58.238           146.208                 Moscow         12061.750
       426   11 Jun 2027 04:28:09.245   11 Jun 2027 04:29:14.793            65.548                Irkutsk          8193.500
       427   11 Jun 2027 05:42:53.156   11 Jun 2027 05:43:13.526            20.370                Sumatra          2546.250
       428   11 Jun 2027 05:44:38.683   11 Jun 2027 05:45:29.476            50.793                Sumatra          6349.125
       429   11 Jun 2027 05:55:02.492   11 Jun 2027 05:55:38.484            35.992                  Delhi          4499.000
       430   11 Jun 2027 06:09:02.185   11 Jun 2027 06:13:57.862           295.677                Norilsk         36959.625
       431   11 Jun 2027 06:14:11.978   11 Jun 2027 06:16:21.844           129.866              Murmansk2         16233.250
       432   11 Jun 2027 06:51:37.462   11 Jun 2027 06:55:25.706           228.244            RioGallegos         28530.500
       433   11 Jun 2027 07:26:17.804   11 Jun 2027 07:28:54.248           156.444                Sumatra         19555.500
       434   11 Jun 2027 07:34:22.129   11 Jun 2027 07:39:35.018           312.889                  Delhi         39111.125
       435   11 Jun 2027 07:39:36.331   11 Jun 2027 07:39:51.470            15.139              Murmansk1          1892.375
       436   11 Jun 2027 07:39:54.145   11 Jun 2027 07:41:03.860            69.715                Irkutsk          8714.375
       437   11 Jun 2027 07:44:31.617   11 Jun 2027 07:44:57.597            25.980                 Moscow          3247.500
       438   11 Jun 2027 07:45:03.758   11 Jun 2027 07:46:19.580            75.822                Novosib          9477.750
       439   11 Jun 2027 07:46:25.563   11 Jun 2027 07:49:57.760           212.197                Norilsk         26524.625
       440   11 Jun 2027 07:49:58.508   11 Jun 2027 07:51:45.046           106.538              Murmansk2         13317.250
       441   11 Jun 2027 09:10:17.313   11 Jun 2027 09:12:45.458           148.145                  Delhi         18518.125
       442   11 Jun 2027 09:15:24.212   11 Jun 2027 09:15:50.563            26.351                Novosib          3293.875
       443   11 Jun 2027 09:20:06.454   11 Jun 2027 09:20:22.034            15.580                Novosib          1947.500
       444   11 Jun 2027 09:21:51.486   11 Jun 2027 09:25:47.225           235.739                Norilsk         29467.375
       445   11 Jun 2027 09:26:16.334   11 Jun 2027 09:27:33.880            77.546              Murmansk2          9693.250
       446   11 Jun 2027 10:31:27.263   11 Jun 2027 10:34:09.676           162.413               CapeTown         20301.625
       447   11 Jun 2027 10:50:15.839   11 Jun 2027 10:50:40.563            24.724                 Moscow          3090.500
       448   11 Jun 2027 10:53:56.045   11 Jun 2027 10:56:41.864           165.819              Murmansk2         20727.375
       449   11 Jun 2027 10:57:21.463   11 Jun 2027 10:59:47.702           146.239                 Moscow         18279.875
       450   11 Jun 2027 10:59:50.463   11 Jun 2027 11:03:31.830           221.367              Murmansk2         27670.875
       451   11 Jun 2027 11:06:06.329   11 Jun 2027 11:13:38.313           451.984                Anadyr2         56498.000
       452   11 Jun 2027 12:08:28.958   11 Jun 2027 12:13:26.151           297.193               CapeTown         37149.125
       453   11 Jun 2027 12:28:59.355   11 Jun 2027 12:32:33.569           214.214                 Moscow         26776.750
       454   11 Jun 2027 12:41:30.393   11 Jun 2027 12:42:20.710            50.317                Anadyr2          6289.625
       455   11 Jun 2027 12:46:05.472   11 Jun 2027 12:48:14.890           129.418               Magadan2         16177.250
       456   11 Jun 2027 14:19:39.973   11 Jun 2027 14:21:23.656           103.683               Magadan1         12960.375
       457   11 Jun 2027 14:21:26.155   11 Jun 2027 14:22:32.070            65.915               Magadan2          8239.375
       458   11 Jun 2027 16:47:28.507   11 Jun 2027 16:53:18.883           350.376            RioGallegos         43797.000
       459   11 Jun 2027 17:36:52.239   11 Jun 2027 17:42:34.384           342.145                Novosib         42768.125
       460   11 Jun 2027 17:50:24.539   11 Jun 2027 17:51:36.147            71.608                Sumatra          8951.000
       461   11 Jun 2027 17:53:21.068   11 Jun 2027 17:53:32.705            11.637                Sumatra          1454.625
       462   11 Jun 2027 19:18:34.398   11 Jun 2027 19:22:40.548           246.150                  Delhi         30768.750
       463   11 Jun 2027 20:49:56.009   11 Jun 2027 20:52:57.954           181.945                 Moscow         15819.375
       464   12 Jun 2027 04:45:38.816   12 Jun 2027 04:46:31.458            52.642                Norilsk          6580.250
       465   12 Jun 2027 04:48:03.799   12 Jun 2027 04:49:53.856           110.057              Murmansk2         13757.125
       466   12 Jun 2027 04:49:53.856   12 Jun 2027 04:53:30.606           216.750              Murmansk1         27093.750
       467   12 Jun 2027 05:27:22.890   12 Jun 2027 05:32:32.131           309.241            RioGallegos         38655.125
       468   12 Jun 2027 05:54:42.839   12 Jun 2027 06:07:20.839           758.000                Sumatra         94750.000
       469   12 Jun 2027 06:08:30.024   12 Jun 2027 06:13:13.505           283.481                Irkutsk         35435.125
       470   12 Jun 2027 06:21:04.080   12 Jun 2027 06:21:17.429            13.349                Norilsk          1668.625
       471   12 Jun 2027 06:21:22.215   12 Jun 2027 06:22:33.688            71.473                Novosib          8934.125
       472   12 Jun 2027 06:23:03.871   12 Jun 2027 06:25:59.568           175.697                Norilsk         21962.125
       473   12 Jun 2027 06:26:00.768   12 Jun 2027 06:28:17.002           136.234              Murmansk1         17029.250
       474   12 Jun 2027 07:03:29.797   12 Jun 2027 07:07:04.741           214.944            RioGallegos         26868.000
       475   12 Jun 2027 07:37:57.488   12 Jun 2027 07:39:46.871           109.383                Sumatra         13672.875
       476   12 Jun 2027 07:46:10.305   12 Jun 2027 07:51:33.855           323.550                  Delhi         40443.750
       477   12 Jun 2027 07:52:03.457   12 Jun 2027 07:53:13.524            70.067                Irkutsk          8758.375
       478   12 Jun 2027 07:56:30.165   12 Jun 2027 07:59:49.726           199.561                 Moscow         24945.125
       479   12 Jun 2027 07:59:57.665   12 Jun 2027 08:01:59.369           121.704                Norilsk         15213.000
       480   12 Jun 2027 08:01:59.967   12 Jun 2027 08:03:44.466           104.499              Murmansk2         13062.375
       481   12 Jun 2027 09:21:55.809   12 Jun 2027 09:23:12.532            76.723                  Delhi          9590.375
       482   12 Jun 2027 09:33:53.017   12 Jun 2027 09:37:44.924           231.907                Norilsk         28988.375
