uniorb/output/strategy_4/Drop/Drop_KinoSat_112005.txt

KinoSat_112005
-------------------------
    Access    *     Start Time (UTCG)     *     Stop Time (UTCG)  *   Duration (s)        *       Station  *  Data (Mbytes)
         1   01 Jun 2027 03:00:01.643   01 Jun 2027 03:00:09.650             8.007                Norilsk           250.219
         2   01 Jun 2027 03:00:44.932   01 Jun 2027 03:01:52.018            67.086                Norilsk          2096.437
         3   01 Jun 2027 03:02:13.812   01 Jun 2027 03:03:48.677            94.865                Irkutsk          2964.531
         4   01 Jun 2027 03:03:51.308   01 Jun 2027 03:04:06.675            15.367                Norilsk           480.219
         5   01 Jun 2027 03:04:17.559   01 Jun 2027 03:06:17.542           119.983                  Delhi          3749.469
         6   01 Jun 2027 03:15:08.872   01 Jun 2027 03:17:50.447           161.575                Sumatra          5049.219
         7   01 Jun 2027 03:45:32.661   01 Jun 2027 03:45:37.567             4.906            RioGallegos           153.312
         8   01 Jun 2027 03:49:02.510   01 Jun 2027 03:49:25.985            23.475            RioGallegos           733.594
         9   01 Jun 2027 04:35:17.263   01 Jun 2027 04:36:48.528            91.265                Irkutsk          2852.031
        10   01 Jun 2027 04:37:19.215   01 Jun 2027 04:40:05.360           166.145                Irkutsk          5192.031
        11   01 Jun 2027 04:40:49.094   01 Jun 2027 04:46:14.206           325.112                  Delhi         10159.750
        12   01 Jun 2027 06:14:50.738   01 Jun 2027 06:15:36.845            46.107              Murmansk1          1440.844
        13   01 Jun 2027 06:15:52.386   01 Jun 2027 06:16:32.459            40.073                Norilsk          1252.281
        14   01 Jun 2027 06:16:33.877   01 Jun 2027 06:19:28.685           174.808              Murmansk2          5462.750
        15   01 Jun 2027 06:21:57.066   01 Jun 2027 06:22:32.041            34.975                 Moscow          1092.969
        16   01 Jun 2027 06:34:18.673   01 Jun 2027 06:38:05.492           226.819               CapeTown          7088.094
        17   01 Jun 2027 06:41:17.514   01 Jun 2027 06:42:21.451            63.937               CapeTown          1998.031
        18   01 Jun 2027 07:38:09.367   01 Jun 2027 07:38:15.024             5.657                Anadyr2           176.781
        19   01 Jun 2027 07:38:57.762   01 Jun 2027 07:39:01.379             3.617               Magadan2           113.031
        20   01 Jun 2027 07:39:01.379   01 Jun 2027 07:41:15.511           134.132               Magadan1          4191.625
        21   01 Jun 2027 07:49:36.503   01 Jun 2027 07:51:22.385           105.882              Murmansk2          3308.813
        22   01 Jun 2027 07:51:22.385   01 Jun 2027 07:51:46.616            24.231              Murmansk1           757.219
        23   01 Jun 2027 07:52:02.535   01 Jun 2027 07:52:14.902            12.367                 Moscow           386.469
        24   01 Jun 2027 07:52:55.619   01 Jun 2027 07:53:59.670            64.051                 Moscow          2001.594
        25   01 Jun 2027 07:57:02.779   01 Jun 2027 07:57:07.736             4.957                 Moscow           154.906
        26   01 Jun 2027 07:57:25.726   01 Jun 2027 07:57:56.141            30.415                 Moscow           950.469
        27   01 Jun 2027 08:11:52.391   01 Jun 2027 08:18:54.491           422.100               CapeTown         13190.625
        28   01 Jun 2027 09:13:57.384   01 Jun 2027 09:14:58.932            61.548                Anadyr2          1923.375
        29   01 Jun 2027 09:14:58.932   01 Jun 2027 09:18:25.550           206.618                Anadyr1          6456.813
        30   01 Jun 2027 09:19:01.054   01 Jun 2027 09:19:26.077            25.023               Magadan2           781.969
        31   01 Jun 2027 10:47:38.132   01 Jun 2027 10:54:51.061           432.929                Anadyr2         13529.031
        32   01 Jun 2027 10:54:52.724   01 Jun 2027 10:55:14.983            22.259               Magadan1           695.594
        33   01 Jun 2027 12:23:14.353   01 Jun 2027 12:29:48.154           393.801               Magadan1         12306.281
        34   01 Jun 2027 14:46:06.771   01 Jun 2027 14:52:25.150           378.379            RioGallegos         11824.344
        35   01 Jun 2027 17:17:50.632   01 Jun 2027 17:19:15.673            85.041                Norilsk          2657.531
        36   01 Jun 2027 20:29:05.611   01 Jun 2027 20:30:41.797            96.186              Murmansk2          3005.813
        37   01 Jun 2027 20:31:29.620   01 Jun 2027 20:34:50.365           200.745              Murmansk1          6273.281
        38   01 Jun 2027 20:35:01.104   01 Jun 2027 20:37:21.649           140.545              Murmansk2          4392.031
        39   01 Jun 2027 23:51:06.620   01 Jun 2027 23:52:42.006            95.386                Anadyr2          2980.813
        40   01 Jun 2027 23:52:48.716   01 Jun 2027 23:53:17.822            29.106                Anadyr1           909.563
        41   01 Jun 2027 23:53:18.212   01 Jun 2027 23:54:43.403            85.191                Norilsk          2662.219
        42   01 Jun 2027 23:54:52.945   01 Jun 2027 23:56:00.296            67.351               Magadan1          2104.719
        43   01 Jun 2027 23:58:33.907   01 Jun 2027 23:59:04.604            30.697                Irkutsk           959.281
        44   02 Jun 2027 00:00:07.577   02 Jun 2027 00:00:35.484            27.907                Irkutsk           872.094
        45   02 Jun 2027 00:00:59.037   02 Jun 2027 00:01:17.260            18.223                Irkutsk           569.469
        46   02 Jun 2027 00:14:23.134   02 Jun 2027 00:15:55.881            92.747                Sumatra          2898.344
        47   02 Jun 2027 00:16:35.111   02 Jun 2027 00:17:03.208            28.097                Sumatra           878.031
        48   02 Jun 2027 00:19:31.459   02 Jun 2027 00:20:38.073            66.614                Sumatra          2081.688
        49   02 Jun 2027 00:52:12.188   02 Jun 2027 00:52:36.925            24.737            RioGallegos           773.031
        50   02 Jun 2027 01:26:30.584   02 Jun 2027 01:26:36.568             5.984                Anadyr2           187.000
        51   02 Jun 2027 01:26:47.245   02 Jun 2027 01:27:21.585            34.340                Anadyr1          1073.125
        52   02 Jun 2027 01:28:01.297   02 Jun 2027 01:28:19.735            18.438                Anadyr1           576.187
        53   02 Jun 2027 01:28:33.310   02 Jun 2027 01:29:15.193            41.883                Anadyr1          1308.844
        54   02 Jun 2027 01:29:34.461   02 Jun 2027 01:32:45.542           191.081               Magadan1          5971.281
        55   02 Jun 2027 01:32:55.763   02 Jun 2027 01:34:18.730            82.967                Irkutsk          2592.719
        56   02 Jun 2027 01:35:52.827   02 Jun 2027 01:36:00.760             7.933                Irkutsk           247.906
        57   02 Jun 2027 01:36:21.377   02 Jun 2027 01:36:46.776            25.399                Irkutsk           793.719
        58   02 Jun 2027 01:46:40.786   02 Jun 2027 01:48:32.637           111.851                Sumatra          3495.344
        59   02 Jun 2027 01:49:48.983   02 Jun 2027 01:51:02.459            73.476                Sumatra          2296.125
        60   02 Jun 2027 02:26:47.644   02 Jun 2027 02:27:15.803            28.159            RioGallegos           879.969
        61   02 Jun 2027 02:27:40.252   02 Jun 2027 02:27:51.420            11.168            RioGallegos           349.000
        62   02 Jun 2027 02:29:06.625   02 Jun 2027 02:29:07.357             0.732            RioGallegos            22.875
        63   02 Jun 2027 02:29:49.270   02 Jun 2027 02:30:12.624            23.354            RioGallegos           729.813
        64   02 Jun 2027 03:09:04.438   02 Jun 2027 03:11:04.252           119.814               Magadan1          3744.188
        65   02 Jun 2027 03:11:04.252   02 Jun 2027 03:11:07.239             2.987               Magadan2            93.344
        66   02 Jun 2027 03:11:09.138   02 Jun 2027 03:11:41.120            31.982               Magadan2           999.438
        67   02 Jun 2027 03:13:17.528   02 Jun 2027 03:13:40.263            22.735                Novosib           710.469
        68   02 Jun 2027 03:14:25.595   02 Jun 2027 03:14:33.831             8.236                Norilsk           257.375
        69   02 Jun 2027 03:14:35.440   02 Jun 2027 03:17:14.438           158.998                Irkutsk          4968.688
        70   02 Jun 2027 03:17:43.680   02 Jun 2027 03:18:22.180            38.500                Novosib          1203.125
        71   02 Jun 2027 03:18:35.230   02 Jun 2027 03:20:33.233           118.003                Irkutsk          3687.594
        72   02 Jun 2027 03:57:46.822   02 Jun 2027 04:02:33.251           286.429            RioGallegos          8950.906
        73   02 Jun 2027 04:49:17.580   02 Jun 2027 04:52:33.521           195.941                Irkutsk          6123.156
        74   02 Jun 2027 04:53:16.415   02 Jun 2027 05:01:58.429           522.014                  Delhi         16312.937
        75   02 Jun 2027 06:28:07.203   02 Jun 2027 06:28:25.456            18.253                Novosib           570.406
        76   02 Jun 2027 06:28:35.953   02 Jun 2027 06:30:03.486            87.533              Murmansk1          2735.406
        77   02 Jun 2027 06:33:13.608   02 Jun 2027 06:34:01.460            47.852                 Moscow          1495.375
        78   02 Jun 2027 07:50:18.558   02 Jun 2027 07:51:12.843            54.285                Anadyr1          1696.406
        79   02 Jun 2027 08:24:44.184   02 Jun 2027 08:24:47.194             3.010               CapeTown            94.062
        80   02 Jun 2027 08:31:16.261   02 Jun 2027 08:32:51.530            95.269               CapeTown          2977.156
        81   02 Jun 2027 09:22:56.023   02 Jun 2027 09:23:32.977            36.954                Anadyr1          1154.813
        82   02 Jun 2027 09:25:01.501   02 Jun 2027 09:25:31.129            29.628                Anadyr1           925.875
        83   02 Jun 2027 09:25:55.901   02 Jun 2027 09:27:47.442           111.541                Anadyr1          3485.656
        84   02 Jun 2027 09:28:08.834   02 Jun 2027 09:28:09.455             0.621               Magadan2            19.406
        85   02 Jun 2027 09:28:09.455   02 Jun 2027 09:29:32.556            83.101               Magadan1          2596.906
        86   02 Jun 2027 09:29:34.531   02 Jun 2027 09:31:33.507           118.976                Anadyr1          3718.000
        87   02 Jun 2027 11:00:17.734   02 Jun 2027 11:01:11.262            53.528               Magadan2          1672.750
        88   02 Jun 2027 11:01:23.581   02 Jun 2027 11:04:52.915           209.334               Magadan1          6541.688
        89   02 Jun 2027 11:05:14.495   02 Jun 2027 11:07:13.085           118.590               Magadan2          3705.937
        90   02 Jun 2027 12:21:33.511   02 Jun 2027 12:21:40.752             7.241                Sumatra           226.281
        91   02 Jun 2027 12:30:23.291   02 Jun 2027 12:32:34.523           131.232                Irkutsk          4101.000
        92   02 Jun 2027 12:32:42.583   02 Jun 2027 12:32:54.931            12.348                Irkutsk           385.875
        93   02 Jun 2027 12:33:27.112   02 Jun 2027 12:34:48.860            81.748                Novosib          2554.625
        94   02 Jun 2027 12:36:25.250   02 Jun 2027 12:41:14.466           289.216               Magadan1          9038.000
        95   02 Jun 2027 13:55:47.421   02 Jun 2027 13:57:13.819            86.398                Sumatra          2699.938
        96   02 Jun 2027 14:01:30.974   02 Jun 2027 14:02:25.213            54.239                Sumatra          1694.969
        97   02 Jun 2027 14:07:16.948   02 Jun 2027 14:08:03.988            47.040                Irkutsk          1470.000
        98   02 Jun 2027 14:08:39.714   02 Jun 2027 14:09:12.347            32.633                Irkutsk          1019.781
        99   02 Jun 2027 14:15:40.388   02 Jun 2027 14:17:12.354            91.966                Irkutsk          2873.937
       100   02 Jun 2027 14:59:39.982   02 Jun 2027 15:03:24.871           224.889            RioGallegos          7027.781
       101   02 Jun 2027 15:45:34.832   02 Jun 2027 15:46:21.590            46.758                Novosib          1461.187
       102   02 Jun 2027 15:49:12.415   02 Jun 2027 15:49:35.913            23.498                Norilsk           734.312
       103   02 Jun 2027 15:50:03.672   02 Jun 2027 15:50:37.698            34.026                Novosib          1063.312
       104   02 Jun 2027 15:52:58.954   02 Jun 2027 15:55:12.086           133.132                Novosib          4160.375
       105   02 Jun 2027 17:23:23.572   02 Jun 2027 17:24:35.929            72.357                 Moscow          2261.156
       106   02 Jun 2027 17:29:27.768   02 Jun 2027 17:32:52.485           204.717                Norilsk          6397.406
       107   02 Jun 2027 17:34:33.397   02 Jun 2027 17:35:05.274            31.877                Norilsk           996.156
       108   02 Jun 2027 18:39:53.739   02 Jun 2027 18:40:10.967            17.228               CapeTown           538.375
       109   02 Jun 2027 18:59:08.252   02 Jun 2027 19:00:50.719           102.467                 Moscow          3202.094
       110   02 Jun 2027 19:02:05.291   02 Jun 2027 19:03:56.931           111.640              Murmansk2          3488.750
       111   02 Jun 2027 19:04:32.484   02 Jun 2027 19:04:46.741            14.257                 Moscow           445.531
       112   02 Jun 2027 19:05:54.719   02 Jun 2027 19:07:59.039           124.320              Murmansk1          3885.000
       113   02 Jun 2027 20:10:54.314   02 Jun 2027 20:13:35.308           160.994               CapeTown          5031.063
       114   02 Jun 2027 20:41:46.340   02 Jun 2027 20:44:07.986           141.646              Murmansk2          4426.437
       115   02 Jun 2027 20:44:33.471   02 Jun 2027 20:49:17.720           284.249              Murmansk1          8882.781
       116   02 Jun 2027 22:27:16.410   02 Jun 2027 22:30:30.737           194.327                Anadyr1          6072.719
       117   02 Jun 2027 22:30:59.768   02 Jun 2027 22:32:29.777            90.009               Magadan1          2812.781
       118   02 Jun 2027 22:32:59.744   02 Jun 2027 22:33:22.232            22.488               Magadan1           702.750
       119   02 Jun 2027 22:34:10.762   02 Jun 2027 22:34:42.900            32.138               Magadan1          1004.313
       120   02 Jun 2027 23:23:28.907   02 Jun 2027 23:26:02.253           153.346            RioGallegos          4792.062
       121   02 Jun 2027 23:28:19.826   02 Jun 2027 23:28:30.357            10.531            RioGallegos           329.094
       122   03 Jun 2027 00:03:06.547   03 Jun 2027 00:04:37.059            90.512                Anadyr1          2828.500
       123   03 Jun 2027 00:04:40.666   03 Jun 2027 00:05:08.352            27.686                Anadyr2           865.188
       124   03 Jun 2027 00:05:11.949   03 Jun 2027 00:06:45.341            93.392                Norilsk          2918.500
       125   03 Jun 2027 00:07:30.484   03 Jun 2027 00:08:29.585            59.101               Magadan1          1846.906
       126   03 Jun 2027 00:09:13.570   03 Jun 2027 00:09:17.401             3.831               Magadan1           119.719
       127   03 Jun 2027 00:09:59.199   03 Jun 2027 00:10:05.102             5.903               Magadan2           184.469
       128   03 Jun 2027 00:10:09.715   03 Jun 2027 00:11:02.078            52.363                Irkutsk          1636.344
       129   03 Jun 2027 00:11:43.777   03 Jun 2027 00:13:25.323           101.546                Irkutsk          3173.312
       130   03 Jun 2027 00:25:12.281   03 Jun 2027 00:27:07.755           115.474                Sumatra          3608.562
       131   03 Jun 2027 00:29:00.062   03 Jun 2027 00:29:07.694             7.632                Sumatra           238.500
       132   03 Jun 2027 00:33:38.010   03 Jun 2027 00:33:43.800             5.790                Sumatra           180.938
       133   03 Jun 2027 00:57:14.723   03 Jun 2027 00:58:26.782            72.059            RioGallegos          2251.844
       134   03 Jun 2027 01:06:50.910   03 Jun 2027 01:08:00.657            69.747            RioGallegos          2179.594
       135   03 Jun 2027 01:38:24.372   03 Jun 2027 01:38:36.706            12.334                Anadyr2           385.438
       136   03 Jun 2027 01:39:55.524   03 Jun 2027 01:40:05.801            10.277                Anadyr2           321.156
       137   03 Jun 2027 01:40:33.310   03 Jun 2027 01:40:58.082            24.772                Anadyr1           774.125
       138   03 Jun 2027 01:40:58.082   03 Jun 2027 01:41:04.901             6.819                Anadyr2           213.094
       139   03 Jun 2027 01:41:16.466   03 Jun 2027 01:41:20.151             3.685                Anadyr2           115.156
       140   03 Jun 2027 01:41:35.694   03 Jun 2027 01:42:00.997            25.303                Anadyr2           790.719
       141   03 Jun 2027 01:42:04.303   03 Jun 2027 01:43:03.328            59.025               Magadan2          1844.531
       142   03 Jun 2027 01:43:03.328   03 Jun 2027 01:43:15.164            11.836               Magadan1           369.875
       143   03 Jun 2027 01:44:42.385   03 Jun 2027 01:45:06.978            24.593               Magadan2           768.531
       144   03 Jun 2027 01:45:35.040   03 Jun 2027 01:46:41.331            66.291                Novosib          2071.594
       145   03 Jun 2027 01:46:58.464   03 Jun 2027 01:47:18.060            19.596                Novosib           612.375
       146   03 Jun 2027 01:48:03.642   03 Jun 2027 01:48:48.425            44.783                Irkutsk          1399.469
       147   03 Jun 2027 01:49:57.780   03 Jun 2027 01:50:48.341            50.561                Novosib          1580.031
       148   03 Jun 2027 01:55:41.212   03 Jun 2027 01:56:20.070            38.858                  Delhi          1214.312
       149   03 Jun 2027 01:58:47.828   03 Jun 2027 01:58:47.949             0.121                Sumatra             3.781
       150   03 Jun 2027 02:01:44.407   03 Jun 2027 02:03:27.398           102.991                Sumatra          3218.469
       151   03 Jun 2027 02:04:54.640   03 Jun 2027 02:07:03.892           129.252                Sumatra          4039.125
       152   03 Jun 2027 02:44:10.264   03 Jun 2027 02:45:10.515            60.251            RioGallegos          1882.844
       153   03 Jun 2027 03:21:17.072   03 Jun 2027 03:21:22.022             4.950               Magadan2           154.687
       154   03 Jun 2027 03:21:25.847   03 Jun 2027 03:23:07.510           101.663               Magadan1          3176.969
       155   03 Jun 2027 03:23:43.074   03 Jun 2027 03:24:00.506            17.432                Irkutsk           544.750
       156   03 Jun 2027 03:26:12.221   03 Jun 2027 03:28:08.104           115.883                Irkutsk          3621.344
       157   03 Jun 2027 03:28:45.491   03 Jun 2027 03:30:20.308            94.817                Irkutsk          2963.031
       158   03 Jun 2027 03:31:19.452   03 Jun 2027 03:33:18.991           119.539                  Delhi          3735.594
       159   03 Jun 2027 04:10:04.173   03 Jun 2027 04:10:22.511            18.338            RioGallegos           573.062
       160   03 Jun 2027 04:12:55.278   03 Jun 2027 04:15:16.351           141.073            RioGallegos          4408.531
       161   03 Jun 2027 04:58:24.431   03 Jun 2027 05:00:39.804           135.373                Irkutsk          4230.406
       162   03 Jun 2027 05:01:35.305   03 Jun 2027 05:03:43.594           128.289                Irkutsk          4009.031
       163   03 Jun 2027 05:05:54.344   03 Jun 2027 05:13:23.206           448.862                  Delhi         14026.937
       164   03 Jun 2027 06:38:39.412   03 Jun 2027 06:39:05.359            25.947                Novosib           810.844
       165   03 Jun 2027 06:39:31.728   03 Jun 2027 06:40:04.142            32.414              Murmansk2          1012.938
       166   03 Jun 2027 06:40:12.434   03 Jun 2027 06:41:28.971            76.537                 Moscow          2391.781
       167   03 Jun 2027 06:45:17.851   03 Jun 2027 06:46:06.347            48.496                 Moscow          1515.500
       168   03 Jun 2027 06:58:12.549   03 Jun 2027 06:58:39.984            27.435               CapeTown           857.344
       169   03 Jun 2027 06:59:06.704   03 Jun 2027 07:01:26.313           139.609               CapeTown          4362.781
       170   03 Jun 2027 08:01:24.215   03 Jun 2027 08:02:12.557            48.342                Anadyr2          1510.687
       171   03 Jun 2027 08:02:40.191   03 Jun 2027 08:02:47.917             7.726               Magadan2           241.438
       172   03 Jun 2027 08:02:59.220   03 Jun 2027 08:03:04.197             4.977               Magadan2           155.531
       173   03 Jun 2027 08:03:27.628   03 Jun 2027 08:03:52.603            24.975                Anadyr1           780.469
       174   03 Jun 2027 08:04:18.937   03 Jun 2027 08:05:12.568            53.631               Magadan1          1675.969
       175   03 Jun 2027 08:06:49.128   03 Jun 2027 08:07:26.690            37.562                Anadyr1          1173.813
       176   03 Jun 2027 09:37:32.293   03 Jun 2027 09:37:53.483            21.190                Anadyr1           662.188
       177   03 Jun 2027 09:38:00.032   03 Jun 2027 09:38:11.951            11.919               Magadan1           372.469
       178   03 Jun 2027 09:38:47.710   03 Jun 2027 09:39:27.689            39.979               Magadan2          1249.344
       179   03 Jun 2027 09:40:10.462   03 Jun 2027 09:41:37.813            87.351               Magadan1          2729.719
       180   03 Jun 2027 11:09:38.345   03 Jun 2027 11:10:40.241            61.896               Magadan1          1934.250
       181   03 Jun 2027 11:12:49.903   03 Jun 2027 11:13:08.337            18.434               Magadan1           576.062
       182   03 Jun 2027 11:13:18.030   03 Jun 2027 11:16:40.915           202.885               Magadan1          6340.156
       183   03 Jun 2027 11:17:02.561   03 Jun 2027 11:17:33.537            30.976                Norilsk           968.000
       184   03 Jun 2027 11:17:39.137   03 Jun 2027 11:19:10.126            90.989               Magadan1          2843.406
       185   03 Jun 2027 11:59:34.384   03 Jun 2027 12:00:42.299            67.915            RioGallegos          2122.344
       186   03 Jun 2027 12:30:46.593   03 Jun 2027 12:30:47.412             0.819                Sumatra            25.594
       187   03 Jun 2027 12:32:36.467   03 Jun 2027 12:33:17.233            40.766                Sumatra          1273.937
       188   03 Jun 2027 12:42:20.355   03 Jun 2027 12:44:27.473           127.118                Irkutsk          3972.438
       189   03 Jun 2027 12:47:15.882   03 Jun 2027 12:47:51.630            35.748                Norilsk          1117.125
       190   03 Jun 2027 12:50:26.916   03 Jun 2027 12:51:53.040            86.124               Magadan1          2691.375
       191   03 Jun 2027 13:30:30.599   03 Jun 2027 13:30:50.527            19.928            RioGallegos           622.750
       192   03 Jun 2027 13:39:36.504   03 Jun 2027 13:40:22.257            45.753            RioGallegos          1429.781
       193   03 Jun 2027 14:04:53.629   03 Jun 2027 14:05:18.568            24.939                Sumatra           779.344
       194   03 Jun 2027 14:07:39.900   03 Jun 2027 14:09:43.542           123.642                Sumatra          3863.812
       195   03 Jun 2027 14:12:30.683   03 Jun 2027 14:14:40.391           129.708                Sumatra          4053.375
       196   03 Jun 2027 14:19:44.321   03 Jun 2027 14:24:26.070           281.749                Irkutsk          8804.656
       197   03 Jun 2027 15:49:32.875   03 Jun 2027 15:51:19.871           106.996                  Delhi          3343.625
       198   03 Jun 2027 15:57:44.944   03 Jun 2027 16:01:47.969           243.025                Novosib          7594.531
       199   03 Jun 2027 17:36:37.203   03 Jun 2027 17:37:05.027            27.824                 Moscow           869.500
       200   03 Jun 2027 17:37:44.882   03 Jun 2027 17:38:44.486            59.604              Murmansk1          1862.625
       201   03 Jun 2027 17:42:19.057   03 Jun 2027 17:47:31.910           312.853                Norilsk          9776.656
       202   03 Jun 2027 19:11:44.398   03 Jun 2027 19:17:46.326           361.928                 Moscow         11310.250
       203   03 Jun 2027 20:24:33.831   03 Jun 2027 20:25:19.302            45.471               CapeTown          1420.969
       204   03 Jun 2027 20:32:51.647   03 Jun 2027 20:33:17.005            25.358               CapeTown           792.438
       205   03 Jun 2027 20:54:31.394   03 Jun 2027 21:01:11.566           400.172              Murmansk2         12505.375
       206   03 Jun 2027 22:39:18.187   03 Jun 2027 22:42:26.364           188.177                Anadyr2          5880.531
       207   03 Jun 2027 22:42:28.490   03 Jun 2027 22:43:20.744            52.254               Magadan2          1632.938
       208   03 Jun 2027 22:43:43.429   03 Jun 2027 22:44:09.283            25.854               Magadan1           807.937
       209   03 Jun 2027 22:44:41.067   03 Jun 2027 22:44:52.670            11.603               Magadan1           362.594
       210   03 Jun 2027 22:45:02.434   03 Jun 2027 22:45:17.771            15.337               Magadan1           479.281
       211   03 Jun 2027 22:46:20.588   03 Jun 2027 22:46:37.266            16.678               Magadan1           521.187
       212   03 Jun 2027 22:46:43.977   03 Jun 2027 22:47:06.018            22.041               Magadan2           688.781
       213   03 Jun 2027 22:48:28.866   03 Jun 2027 22:48:48.330            19.464               Magadan2           608.250
       214   03 Jun 2027 22:49:48.034   03 Jun 2027 22:49:57.380             9.346               Magadan2           292.063
       215   03 Jun 2027 23:34:48.447   03 Jun 2027 23:37:46.642           178.195            RioGallegos          5568.594
       216   03 Jun 2027 23:39:54.253   03 Jun 2027 23:40:34.988            40.735            RioGallegos          1272.969
       217   03 Jun 2027 23:42:00.162   03 Jun 2027 23:42:12.246            12.084            RioGallegos           377.625
       218   04 Jun 2027 00:15:05.990   04 Jun 2027 00:16:31.046            85.056                Anadyr1          2658.000
       219   04 Jun 2027 00:16:39.651   04 Jun 2027 00:16:54.420            14.769                Anadyr2           461.531
       220   04 Jun 2027 00:17:10.240   04 Jun 2027 00:19:04.378           114.138                Norilsk          3566.812
       221   04 Jun 2027 00:20:52.584   04 Jun 2027 00:21:03.580            10.996               Magadan2           343.625
       222   04 Jun 2027 00:21:16.081   04 Jun 2027 00:21:27.004            10.923               Magadan1           341.344
       223   04 Jun 2027 00:21:27.004   04 Jun 2027 00:21:57.306            30.302               Magadan2           946.938
       224   04 Jun 2027 00:22:07.114   04 Jun 2027 00:24:07.880           120.766                Irkutsk          3773.937
       225   04 Jun 2027 00:28:31.324   04 Jun 2027 00:28:53.475            22.151                Irkutsk           692.219
       226   04 Jun 2027 00:36:25.073   04 Jun 2027 00:37:56.949            91.876                Sumatra          2871.125
       227   04 Jun 2027 00:43:02.673   04 Jun 2027 00:45:28.316           145.643                Sumatra          4551.344
       228   04 Jun 2027 01:50:16.968   04 Jun 2027 01:50:17.753             0.785                Anadyr2            24.531
       229   04 Jun 2027 01:50:33.929   04 Jun 2027 01:50:42.122             8.193                Anadyr2           256.031
       230   04 Jun 2027 01:51:47.609   04 Jun 2027 01:52:32.866            45.257                Anadyr1          1414.281
       231   04 Jun 2027 01:52:48.497   04 Jun 2027 01:53:11.658            23.161                Anadyr1           723.781
       232   04 Jun 2027 01:53:41.199   04 Jun 2027 01:55:21.016            99.817               Magadan2          3119.281
       233   04 Jun 2027 01:55:30.073   04 Jun 2027 01:56:24.903            54.830               Magadan2          1713.438
       234   04 Jun 2027 01:56:55.212   04 Jun 2027 01:59:05.798           130.586                Irkutsk          4080.813
       235   04 Jun 2027 02:06:32.688   04 Jun 2027 02:08:39.796           127.108                  Delhi          3972.125
       236   04 Jun 2027 02:11:01.059   04 Jun 2027 02:11:58.458            57.399                Sumatra          1793.719
       237   04 Jun 2027 02:45:06.130   04 Jun 2027 02:46:22.256            76.126            RioGallegos          2378.938
       238   04 Jun 2027 02:47:33.361   04 Jun 2027 02:48:03.358            29.997            RioGallegos           937.406
       239   04 Jun 2027 02:50:36.555   04 Jun 2027 02:52:12.049            95.494            RioGallegos          2984.188
       240   04 Jun 2027 03:33:16.980   04 Jun 2027 03:33:30.883            13.903               Magadan1           434.469
       241   04 Jun 2027 03:33:51.682   04 Jun 2027 03:34:35.899            44.217               Magadan2          1381.781
       242   04 Jun 2027 03:37:22.491   04 Jun 2027 03:37:45.560            23.069                Irkutsk           720.906
       243   04 Jun 2027 03:38:03.305   04 Jun 2027 03:40:30.446           147.141                Novosib          4598.156
       244   04 Jun 2027 03:40:33.662   04 Jun 2027 03:42:53.984           140.322                  Delhi          4385.062
       245   04 Jun 2027 03:43:07.551   04 Jun 2027 03:44:13.554            66.003                Irkutsk          2062.594
       246   04 Jun 2027 03:46:53.786   04 Jun 2027 03:48:23.465            89.679                  Delhi          2802.469
       247   04 Jun 2027 04:22:26.544   04 Jun 2027 04:28:18.210           351.666            RioGallegos         10989.563
       248   04 Jun 2027 05:10:58.878   04 Jun 2027 05:12:17.546            78.668                Irkutsk          2458.375
       249   04 Jun 2027 05:13:37.771   04 Jun 2027 05:14:37.160            59.389                Irkutsk          1855.906
       250   04 Jun 2027 05:14:56.654   04 Jun 2027 05:16:01.199            64.545                Novosib          2017.031
       251   04 Jun 2027 05:16:16.862   04 Jun 2027 05:16:41.912            25.050                Novosib           782.812
       252   04 Jun 2027 05:16:53.417   04 Jun 2027 05:17:14.955            21.538                Novosib           673.062
       253   04 Jun 2027 05:18:53.235   04 Jun 2027 05:24:03.607           310.372                  Delhi          9699.125
       254   04 Jun 2027 06:49:59.645   04 Jun 2027 06:50:03.125             3.480                Norilsk           108.750
       255   04 Jun 2027 06:51:09.259   04 Jun 2027 06:51:29.024            19.765                Novosib           617.656
       256   04 Jun 2027 06:51:29.953   04 Jun 2027 06:51:59.760            29.807              Murmansk2           931.469
       257   04 Jun 2027 06:52:18.162   04 Jun 2027 06:53:15.509            57.347                 Moscow          1792.094
       258   04 Jun 2027 06:57:21.621   04 Jun 2027 06:58:11.752            50.131                 Moscow          1566.594
       259   04 Jun 2027 07:10:17.139   04 Jun 2027 07:10:50.656            33.517               CapeTown          1047.406
       260   04 Jun 2027 07:13:25.389   04 Jun 2027 07:14:45.299            79.910               CapeTown          2497.188
       261   04 Jun 2027 08:13:15.546   04 Jun 2027 08:14:13.860            58.314                Anadyr2          1822.312
       262   04 Jun 2027 08:14:34.781   04 Jun 2027 08:14:37.608             2.827               Magadan2            88.344
       263   04 Jun 2027 08:15:13.095   04 Jun 2027 08:15:31.332            18.237                Anadyr1           569.906
       264   04 Jun 2027 08:16:17.715   04 Jun 2027 08:16:44.309            26.594                Anadyr2           831.062
       265   04 Jun 2027 09:49:50.487   04 Jun 2027 09:50:29.774            39.287               Magadan1          1227.719
       266   04 Jun 2027 09:50:37.171   04 Jun 2027 09:51:03.072            25.901               Magadan2           809.406
       267   04 Jun 2027 09:51:07.401   04 Jun 2027 09:52:13.996            66.595               Magadan2          2081.094
       268   04 Jun 2027 09:53:12.906   04 Jun 2027 09:53:13.543             0.637                Norilsk            19.906
       269   04 Jun 2027 09:53:37.190   04 Jun 2027 09:54:38.129            60.939               Magadan2          1904.344
       270   04 Jun 2027 10:35:10.575   04 Jun 2027 10:35:24.463            13.888            RioGallegos           434.000
       271   04 Jun 2027 11:20:10.593   04 Jun 2027 11:20:57.886            47.293               Magadan1          1477.906
       272   04 Jun 2027 11:21:47.080   04 Jun 2027 11:22:24.748            37.668               Magadan1          1177.125
       273   04 Jun 2027 11:23:32.786   04 Jun 2027 11:24:52.982            80.196               Magadan2          2506.125
       274   04 Jun 2027 11:25:10.455   04 Jun 2027 11:28:24.201           193.746               Magadan2          6054.562
       275   04 Jun 2027 11:29:03.178   04 Jun 2027 11:30:00.454            57.276                Norilsk          1789.875
       276   04 Jun 2027 11:30:05.350   04 Jun 2027 11:30:19.773            14.423                Norilsk           450.719
       277   04 Jun 2027 11:30:28.527   04 Jun 2027 11:30:38.800            10.273                Norilsk           321.031
       278   04 Jun 2027 11:31:09.414   04 Jun 2027 11:31:16.407             6.993                Norilsk           218.531
       279   04 Jun 2027 12:06:01.382   04 Jun 2027 12:07:20.862            79.480            RioGallegos          2483.750
       280   04 Jun 2027 12:13:07.455   04 Jun 2027 12:13:10.178             2.723            RioGallegos            85.094
       281   04 Jun 2027 12:42:06.873   04 Jun 2027 12:42:28.991            22.118                Sumatra           691.188
       282   04 Jun 2027 12:45:48.109   04 Jun 2027 12:47:23.308            95.199                Sumatra          2974.969
       283   04 Jun 2027 12:54:20.620   04 Jun 2027 12:55:40.802            80.182                Irkutsk          2505.687
       284   04 Jun 2027 12:57:38.918   04 Jun 2027 12:57:41.750             2.832                Irkutsk            88.500
       285   04 Jun 2027 12:59:15.182   04 Jun 2027 13:00:29.807            74.625                Norilsk          2332.031
       286   04 Jun 2027 13:42:53.174   04 Jun 2027 13:43:44.001            50.827            RioGallegos          1588.344
       287   04 Jun 2027 13:44:48.222   04 Jun 2027 13:45:25.473            37.251            RioGallegos          1164.094
       288   04 Jun 2027 13:51:10.482   04 Jun 2027 13:52:48.838            98.356            RioGallegos          3073.625
       289   04 Jun 2027 14:17:10.257   04 Jun 2027 14:18:57.565           107.308                Sumatra          3353.375
       290   04 Jun 2027 14:22:05.132   04 Jun 2027 14:22:25.912            20.780                Sumatra           649.375
       291   04 Jun 2027 14:31:52.124   04 Jun 2027 14:33:05.809            73.685                Novosib          2302.656
       292   04 Jun 2027 14:34:53.617   04 Jun 2027 14:38:10.444           196.827                Irkutsk          6150.844
       293   04 Jun 2027 14:40:36.284   04 Jun 2027 14:42:21.228           104.944                Irkutsk          3279.500
       294   04 Jun 2027 16:02:01.263   04 Jun 2027 16:08:02.178           360.915                  Delhi         11278.594
       295   04 Jun 2027 16:12:51.619   04 Jun 2027 16:16:30.659           219.040                Novosib          6845.000
       296   04 Jun 2027 17:55:18.658   04 Jun 2027 17:59:11.398           232.740                Norilsk          7273.125
       297   04 Jun 2027 19:24:27.539   04 Jun 2027 19:31:07.398           399.859                 Moscow         12495.594
       298   04 Jun 2027 20:35:20.957   04 Jun 2027 20:35:59.572            38.615               CapeTown          1206.719
       299   04 Jun 2027 20:38:33.346   04 Jun 2027 20:40:16.129           102.783               CapeTown          3211.969
       300   04 Jun 2027 20:45:10.399   04 Jun 2027 20:46:10.002            59.603               CapeTown          1862.594
       301   04 Jun 2027 21:07:21.991   04 Jun 2027 21:13:01.984           339.993              Murmansk2         10624.781
       302   04 Jun 2027 22:51:39.169   04 Jun 2027 22:51:54.014            14.845                Anadyr1           463.906
       303   04 Jun 2027 22:52:11.914   04 Jun 2027 22:52:36.192            24.278                Anadyr1           758.688
       304   04 Jun 2027 22:53:35.631   04 Jun 2027 22:55:00.345            84.714               Magadan2          2647.312
       305   04 Jun 2027 22:55:00.345   04 Jun 2027 22:55:26.876            26.531               Magadan1           829.094
       306   04 Jun 2027 22:56:49.540   04 Jun 2027 22:57:19.291            29.751               Magadan1           929.719
       307   04 Jun 2027 22:57:26.812   04 Jun 2027 22:57:51.056            24.244               Magadan2           757.625
       308   04 Jun 2027 22:58:23.363   04 Jun 2027 22:58:50.089            26.726               Magadan1           835.188
       309   04 Jun 2027 22:59:41.475   04 Jun 2027 23:00:09.303            27.828               Magadan2           869.625
       310   04 Jun 2027 23:46:22.212   04 Jun 2027 23:49:35.102           192.890            RioGallegos          6027.812
       311   04 Jun 2027 23:53:49.059   04 Jun 2027 23:54:06.750            17.691            RioGallegos           552.844
       312   04 Jun 2027 23:54:35.549   04 Jun 2027 23:55:02.462            26.913            RioGallegos           841.031
       313   05 Jun 2027 00:27:04.875   05 Jun 2027 00:28:21.309            76.434                Anadyr1          2388.563
       314   05 Jun 2027 00:29:09.572   05 Jun 2027 00:30:48.886            99.314                Norilsk          3103.563
       315   05 Jun 2027 00:31:56.311   05 Jun 2027 00:32:10.412            14.101               Magadan1           440.656
       316   05 Jun 2027 00:32:29.420   05 Jun 2027 00:32:54.811            25.391               Magadan1           793.469
       317   05 Jun 2027 00:33:39.821   05 Jun 2027 00:35:00.613            80.792                Irkutsk          2524.750
       318   05 Jun 2027 00:37:11.628   05 Jun 2027 00:38:14.595            62.967                Irkutsk          1967.719
       319   05 Jun 2027 00:42:02.405   05 Jun 2027 00:42:23.645            21.240                Irkutsk           663.750
       320   05 Jun 2027 00:47:51.446   05 Jun 2027 00:50:55.729           184.283                Sumatra          5758.844
       321   05 Jun 2027 01:24:12.409   05 Jun 2027 01:24:32.638            20.229            RioGallegos           632.156
       322   05 Jun 2027 01:27:45.269   05 Jun 2027 01:28:14.004            28.735            RioGallegos           897.969
       323   05 Jun 2027 02:02:08.308   05 Jun 2027 02:02:55.895            47.587                Anadyr1          1487.094
       324   05 Jun 2027 02:04:05.620   05 Jun 2027 02:04:31.889            26.269                Anadyr1           820.906
       325   05 Jun 2027 02:05:03.486   05 Jun 2027 02:06:57.172           113.686                Norilsk          3552.688
       326   05 Jun 2027 02:07:22.499   05 Jun 2027 02:07:55.325            32.826               Magadan1          1025.813
       327   05 Jun 2027 02:08:56.418   05 Jun 2027 02:11:33.287           156.869                Irkutsk          4902.156
       328   05 Jun 2027 02:17:50.242   05 Jun 2027 02:18:14.392            24.150                  Delhi           754.687
       329   05 Jun 2027 02:22:08.771   05 Jun 2027 02:22:37.117            28.346                  Delhi           885.812
       330   05 Jun 2027 02:23:21.398   05 Jun 2027 02:28:54.261           332.863                Sumatra         10401.969
       331   05 Jun 2027 03:45:43.860   05 Jun 2027 03:46:04.142            20.282               Magadan1           633.812
       332   05 Jun 2027 03:48:58.592   05 Jun 2027 03:51:51.255           172.663                Novosib          5395.719
       333   05 Jun 2027 03:52:13.671   05 Jun 2027 03:55:18.636           184.965                  Delhi          5780.156
       334   05 Jun 2027 03:55:24.508   05 Jun 2027 03:56:42.396            77.888                Novosib          2434.000
       335   05 Jun 2027 03:56:49.812   05 Jun 2027 03:57:43.212            53.400                Novosib          1668.750
       336   05 Jun 2027 03:59:00.941   05 Jun 2027 04:02:36.324           215.383                  Delhi          6730.719
       337   05 Jun 2027 04:34:58.523   05 Jun 2027 04:39:15.325           256.802            RioGallegos          8025.062
       338   05 Jun 2027 05:25:14.659   05 Jun 2027 05:25:52.631            37.972                Novosib          1186.625
       339   05 Jun 2027 05:26:15.237   05 Jun 2027 05:26:28.106            12.869                 Moscow           402.156
       340   05 Jun 2027 05:27:01.454   05 Jun 2027 05:27:11.031             9.577                Novosib           299.281
       341   05 Jun 2027 05:27:33.409   05 Jun 2027 05:27:35.750             2.341                 Moscow            73.156
       342   05 Jun 2027 05:27:42.324   05 Jun 2027 05:28:54.712            72.388                Novosib          2262.125
       343   05 Jun 2027 05:29:15.284   05 Jun 2027 05:29:41.894            26.610                 Moscow           831.563
       344   05 Jun 2027 05:29:49.333   05 Jun 2027 05:30:45.589            56.256                Novosib          1758.000
       345   05 Jun 2027 05:51:31.810   05 Jun 2027 05:51:38.814             7.004               CapeTown           218.875
       346   05 Jun 2027 05:53:01.286   05 Jun 2027 05:53:15.384            14.098               CapeTown           440.562
       347   05 Jun 2027 05:55:02.801   05 Jun 2027 05:57:02.345           119.544               CapeTown          3735.750
       348   05 Jun 2027 07:02:01.340   05 Jun 2027 07:02:34.600            33.260                Norilsk          1039.375
       349   05 Jun 2027 07:03:28.642   05 Jun 2027 07:03:54.173            25.531              Murmansk2           797.844
       350   05 Jun 2027 07:03:57.022   05 Jun 2027 07:04:23.330            26.308                 Moscow           822.125
       351   05 Jun 2027 07:04:27.084   05 Jun 2027 07:04:46.284            19.200              Murmansk1           600.000
       352   05 Jun 2027 07:04:51.293   05 Jun 2027 07:05:56.453            65.160              Murmansk1          2036.250
       353   05 Jun 2027 07:22:27.072   05 Jun 2027 07:22:29.167             2.095               CapeTown            65.469
       354   05 Jun 2027 07:24:30.275   05 Jun 2027 07:27:11.581           161.306               CapeTown          5040.812
       355   05 Jun 2027 08:25:51.568   05 Jun 2027 08:26:14.905            23.337                Anadyr1           729.281
       356   05 Jun 2027 08:26:23.625   05 Jun 2027 08:26:31.698             8.073               Magadan2           252.281
       357   05 Jun 2027 08:27:38.951   05 Jun 2027 08:28:04.927            25.976                Anadyr2           811.750
       358   05 Jun 2027 08:28:04.927   05 Jun 2027 08:28:53.897            48.970                Anadyr1          1530.313
       359   05 Jun 2027 09:56:02.710   05 Jun 2027 09:57:01.314            58.604               Magadan1          1831.375
       360   05 Jun 2027 10:01:50.832   05 Jun 2027 10:03:04.293            73.461               Magadan2          2295.656
       361   05 Jun 2027 10:03:10.086   05 Jun 2027 10:03:21.655            11.569               Magadan2           361.531
       362   05 Jun 2027 10:04:18.515   05 Jun 2027 10:05:35.794            77.279               Magadan1          2414.969
       363   05 Jun 2027 10:07:23.039   05 Jun 2027 10:07:35.797            12.758                Anadyr2           398.688
       364   05 Jun 2027 11:32:40.213   05 Jun 2027 11:33:57.497            77.284               Magadan1          2415.125
       365   05 Jun 2027 11:36:16.741   05 Jun 2027 11:36:41.716            24.975               Magadan1           780.469
       366   05 Jun 2027 11:37:00.157   05 Jun 2027 11:42:59.940           359.783               Magadan2         11243.219
       367   05 Jun 2027 13:06:24.176   05 Jun 2027 13:09:40.194           196.018                Irkutsk          6125.562
       368   05 Jun 2027 13:55:20.890   05 Jun 2027 13:56:54.460            93.570            RioGallegos          2924.063
       369   05 Jun 2027 13:59:59.001   05 Jun 2027 14:00:53.543            54.542            RioGallegos          1704.438
       370   05 Jun 2027 14:05:15.584   05 Jun 2027 14:05:21.193             5.609            RioGallegos           175.281
       371   05 Jun 2027 14:29:34.720   05 Jun 2027 14:35:30.389           355.669                Sumatra         11114.656
       372   05 Jun 2027 14:44:57.464   05 Jun 2027 14:51:24.689           387.225                Irkutsk         12100.781
       373   05 Jun 2027 16:15:04.767   05 Jun 2027 16:21:53.426           408.659                  Delhi         12770.594
       374   05 Jun 2027 16:24:52.520   05 Jun 2027 16:29:59.931           307.411                Novosib          9606.594
       375   05 Jun 2027 19:37:20.008   05 Jun 2027 19:44:39.574           439.566                 Moscow         13736.437
       376   05 Jun 2027 20:48:29.301   05 Jun 2027 20:49:43.929            74.628               CapeTown          2332.125
       377   05 Jun 2027 20:50:27.999   05 Jun 2027 20:53:00.597           152.598               CapeTown          4768.687
       378   05 Jun 2027 21:20:20.788   05 Jun 2027 21:24:46.295           265.507              Murmansk2          8297.094
       379   05 Jun 2027 23:05:36.934   05 Jun 2027 23:06:08.415            31.481               Magadan1           983.781
       380   05 Jun 2027 23:06:21.260   05 Jun 2027 23:06:37.484            16.224               Magadan1           507.000
       381   05 Jun 2027 23:06:55.637   05 Jun 2027 23:07:09.193            13.556               Magadan1           423.625
       382   05 Jun 2027 23:07:17.995   05 Jun 2027 23:08:27.406            69.411               Magadan2          2169.094
       383   05 Jun 2027 23:17:43.652   05 Jun 2027 23:18:29.260            45.608               Magadan2          1425.250
       384   05 Jun 2027 23:58:03.653   06 Jun 2027 00:00:51.509           167.856            RioGallegos          5245.500
       385   06 Jun 2027 00:03:21.900   06 Jun 2027 00:03:24.551             2.651            RioGallegos            82.844
       386   06 Jun 2027 00:03:30.112   06 Jun 2027 00:03:38.449             8.337            RioGallegos           260.531
       387   06 Jun 2027 00:05:01.747   06 Jun 2027 00:06:07.298            65.551            RioGallegos          2048.469
       388   06 Jun 2027 00:39:03.124   06 Jun 2027 00:40:23.120            79.996                Anadyr2          2499.875
       389   06 Jun 2027 00:41:09.698   06 Jun 2027 00:42:50.450           100.752                Norilsk          3148.500
       390   06 Jun 2027 00:44:05.727   06 Jun 2027 00:44:27.437            21.710                Norilsk           678.438
       391   06 Jun 2027 00:44:53.382   06 Jun 2027 00:45:21.358            27.976               Magadan2           874.250
       392   06 Jun 2027 00:45:30.451   06 Jun 2027 00:47:01.398            90.947                Irkutsk          2842.094
       393   06 Jun 2027 00:49:17.526   06 Jun 2027 00:49:55.995            38.469                Novosib          1202.156
       394   06 Jun 2027 00:53:59.480   06 Jun 2027 00:55:00.717            61.237                Irkutsk          1913.656
       395   06 Jun 2027 00:59:27.440   06 Jun 2027 01:00:09.634            42.194                Sumatra          1318.563
       396   06 Jun 2027 01:01:19.962   06 Jun 2027 01:02:23.680            63.718                Sumatra          1991.188
       397   06 Jun 2027 01:33:38.447   06 Jun 2027 01:33:45.975             7.528            RioGallegos           235.250
       398   06 Jun 2027 01:35:15.788   06 Jun 2027 01:36:04.514            48.726            RioGallegos          1522.687
       399   06 Jun 2027 01:40:56.617   06 Jun 2027 01:41:42.629            46.012            RioGallegos          1437.875
       400   06 Jun 2027 02:14:22.442   06 Jun 2027 02:14:31.548             9.106                Anadyr2           284.563
       401   06 Jun 2027 02:16:06.046   06 Jun 2027 02:16:58.287            52.241                Anadyr1          1632.531
       402   06 Jun 2027 02:17:05.914   06 Jun 2027 02:18:22.415            76.501                Norilsk          2390.656
       403   06 Jun 2027 02:18:31.566   06 Jun 2027 02:18:38.717             7.151                Norilsk           223.469
       404   06 Jun 2027 02:20:28.849   06 Jun 2027 02:20:36.857             8.008               Magadan1           250.250
       405   06 Jun 2027 02:20:58.491   06 Jun 2027 02:23:19.620           141.129                Irkutsk          4410.281
       406   06 Jun 2027 02:25:09.272   06 Jun 2027 02:26:11.776            62.504                Irkutsk          1953.250
       407   06 Jun 2027 02:33:25.475   06 Jun 2027 02:33:42.965            17.490                  Delhi           546.563
       408   06 Jun 2027 02:35:50.563   06 Jun 2027 02:42:20.671           390.108                Sumatra         12190.875
       409   06 Jun 2027 04:00:39.315   06 Jun 2027 04:01:24.098            44.783                Novosib          1399.469
       410   06 Jun 2027 04:01:26.082   06 Jun 2027 04:06:11.408           285.326                Irkutsk          8916.438
       411   06 Jun 2027 04:06:18.813   06 Jun 2027 04:07:22.054            63.241                Irkutsk          1976.281
       412   06 Jun 2027 04:48:05.176   06 Jun 2027 04:49:35.491            90.315            RioGallegos          2822.344
       413   06 Jun 2027 05:38:20.150   06 Jun 2027 05:38:27.153             7.003                 Moscow           218.844
       414   06 Jun 2027 05:39:01.169   06 Jun 2027 05:39:45.344            44.175                 Moscow          1380.469
       415   06 Jun 2027 05:40:14.863   06 Jun 2027 05:40:16.563             1.700                 Moscow            53.125
       416   06 Jun 2027 05:40:18.857   06 Jun 2027 05:40:30.117            11.260                 Moscow           351.875
       417   06 Jun 2027 05:40:39.081   06 Jun 2027 05:42:32.788           113.707                Novosib          3553.344
       418   06 Jun 2027 05:45:06.428   06 Jun 2027 05:45:09.961             3.533                 Moscow           110.406
       419   06 Jun 2027 05:45:44.770   06 Jun 2027 05:46:04.229            19.459                 Moscow           608.094
       420   06 Jun 2027 05:59:22.905   06 Jun 2027 06:00:29.020            66.115               CapeTown          2066.094
       421   06 Jun 2027 06:03:29.309   06 Jun 2027 06:04:53.404            84.095               CapeTown          2627.969
       422   06 Jun 2027 07:14:03.125   06 Jun 2027 07:14:29.918            26.793                Norilsk           837.281
       423   06 Jun 2027 07:14:55.260   06 Jun 2027 07:15:18.915            23.655                Norilsk           739.219
       424   06 Jun 2027 07:15:27.755   06 Jun 2027 07:15:47.455            19.700              Murmansk2           615.625
       425   06 Jun 2027 07:16:14.950   06 Jun 2027 07:16:34.659            19.709              Murmansk1           615.906
       426   06 Jun 2027 07:16:38.723   06 Jun 2027 07:16:39.276             0.553              Murmansk1            17.281
       427   06 Jun 2027 07:16:43.308   06 Jun 2027 07:18:18.143            94.835                 Moscow          2963.594
       428   06 Jun 2027 07:34:42.796   06 Jun 2027 07:35:26.671            43.875               CapeTown          1371.094
       429   06 Jun 2027 07:37:16.360   06 Jun 2027 07:39:46.521           150.161               CapeTown          4692.531
       430   06 Jun 2027 08:38:04.011   06 Jun 2027 08:38:31.002            26.991               Magadan2           843.469
       431   06 Jun 2027 08:39:42.781   06 Jun 2027 08:40:22.256            39.475                Anadyr1          1233.594
       432   06 Jun 2027 08:43:04.276   06 Jun 2027 08:43:57.494            53.218                Anadyr2          1663.062
       433   06 Jun 2027 10:13:50.570   06 Jun 2027 10:15:01.070            70.500               Magadan1          2203.125
       434   06 Jun 2027 10:15:43.706   06 Jun 2027 10:16:28.994            45.288               Magadan1          1415.250
       435   06 Jun 2027 10:16:59.544   06 Jun 2027 10:19:32.338           152.794                Anadyr1          4774.812
       436   06 Jun 2027 11:45:14.580   06 Jun 2027 11:51:02.774           348.194               Magadan1         10881.063
       437   06 Jun 2027 11:51:18.096   06 Jun 2027 11:54:51.868           213.772               Magadan2          6680.375
       438   06 Jun 2027 12:40:47.452   06 Jun 2027 12:42:51.033           123.581            RioGallegos          3861.906
       439   06 Jun 2027 13:11:04.090   06 Jun 2027 13:11:38.801            34.711                Sumatra          1084.719
       440   06 Jun 2027 13:11:57.158   06 Jun 2027 13:12:49.241            52.083                Sumatra          1627.594
       441   06 Jun 2027 13:19:31.630   06 Jun 2027 13:21:40.519           128.889                Irkutsk          4027.781
       442   06 Jun 2027 14:07:54.593   06 Jun 2027 14:10:53.489           178.896            RioGallegos          5590.500
       443   06 Jun 2027 14:13:05.366   06 Jun 2027 14:13:51.499            46.133            RioGallegos          1441.656
       444   06 Jun 2027 14:16:48.424   06 Jun 2027 14:17:55.125            66.701            RioGallegos          2084.406
       445   06 Jun 2027 14:42:09.438   06 Jun 2027 14:50:09.570           480.132                Sumatra         15004.125
       446   06 Jun 2027 14:51:06.057   06 Jun 2027 14:51:38.395            32.338                Sumatra          1010.562
       447   06 Jun 2027 14:58:48.778   06 Jun 2027 15:05:43.622           414.844                Irkutsk         12963.875
       448   06 Jun 2027 16:27:32.155   06 Jun 2027 16:35:35.216           483.061                  Delhi         15095.656
       449   06 Jun 2027 16:36:02.291   06 Jun 2027 16:43:03.143           420.852                Novosib         13151.625
       450   06 Jun 2027 19:50:26.949   06 Jun 2027 19:56:06.021           339.072                 Moscow         10596.000
       451   06 Jun 2027 21:01:16.690   06 Jun 2027 21:06:22.982           306.292               CapeTown          9571.625
       452   06 Jun 2027 21:33:36.656   06 Jun 2027 21:36:15.601           158.945              Murmansk1          4967.031
       453   07 Jun 2027 00:10:13.855   07 Jun 2027 00:10:23.417             9.562            RioGallegos           298.812
       454   07 Jun 2027 00:10:27.574   07 Jun 2027 00:11:08.554            40.980            RioGallegos          1280.625
       455   07 Jun 2027 00:16:59.628   07 Jun 2027 00:18:09.612            69.984            RioGallegos          2187.000
       456   07 Jun 2027 00:51:00.643   07 Jun 2027 00:51:43.835            43.192                Anadyr1          1349.750
       457   07 Jun 2027 00:52:04.073   07 Jun 2027 00:52:06.014             1.941                Anadyr2            60.656
       458   07 Jun 2027 00:53:10.421   07 Jun 2027 00:55:10.815           120.394                Norilsk          3762.312
       459   07 Jun 2027 00:55:48.395   07 Jun 2027 00:55:52.655             4.260               Magadan2           133.125
       460   07 Jun 2027 00:56:21.935   07 Jun 2027 00:57:04.711            42.776               Magadan1          1336.750
       461   07 Jun 2027 00:57:23.576   07 Jun 2027 00:59:03.066            99.490                Irkutsk          3109.063
       462   07 Jun 2027 00:59:26.443   07 Jun 2027 01:00:02.552            36.109                Novosib          1128.406
       463   07 Jun 2027 01:01:40.827   07 Jun 2027 01:02:02.730            21.903                Novosib           684.469
       464   07 Jun 2027 01:04:16.527   07 Jun 2027 01:04:24.682             8.155                Novosib           254.844
       465   07 Jun 2027 01:11:11.068   07 Jun 2027 01:12:03.090            52.022                Sumatra          1625.688
       466   07 Jun 2027 01:13:46.112   07 Jun 2027 01:14:48.451            62.339                Sumatra          1948.094
       467   07 Jun 2027 01:17:57.987   07 Jun 2027 01:18:58.572            60.585                Sumatra          1893.281
       468   07 Jun 2027 01:51:54.757   07 Jun 2027 01:52:06.975            12.218            RioGallegos           381.812
       469   07 Jun 2027 01:55:14.144   07 Jun 2027 01:55:37.681            23.537            RioGallegos           735.531
       470   07 Jun 2027 02:25:46.999   07 Jun 2027 02:26:23.778            36.779                Anadyr1          1149.344
       471   07 Jun 2027 02:26:56.320   07 Jun 2027 02:27:07.891            11.571                Anadyr1           361.594
       472   07 Jun 2027 02:27:49.025   07 Jun 2027 02:28:06.081            17.056                Anadyr1           533.000
       473   07 Jun 2027 02:28:27.766   07 Jun 2027 02:28:46.829            19.063                Anadyr1           595.719
       474   07 Jun 2027 02:29:08.395   07 Jun 2027 02:30:14.282            65.887                Norilsk          2058.969
       475   07 Jun 2027 02:32:21.095   07 Jun 2027 02:33:05.661            44.566                Norilsk          1392.687
       476   07 Jun 2027 02:33:09.498   07 Jun 2027 02:34:26.289            76.791                Novosib          2399.719
       477   07 Jun 2027 02:34:57.394   07 Jun 2027 02:35:06.663             9.269                Novosib           289.656
       478   07 Jun 2027 02:36:08.261   07 Jun 2027 02:36:23.067            14.806                Irkutsk           462.687
       479   07 Jun 2027 02:37:17.174   07 Jun 2027 02:38:43.478            86.304                Irkutsk          2697.000
       480   07 Jun 2027 02:46:35.579   07 Jun 2027 02:46:39.322             3.743                  Delhi           116.969
       481   07 Jun 2027 02:48:32.083   07 Jun 2027 02:57:13.573           521.490                Sumatra         16296.563
       482   07 Jun 2027 04:12:39.245   07 Jun 2027 04:12:56.972            17.727                Novosib           553.969
