uniorb/output/strategy_4/Drop/Drop_KinoSat_111909.txt

KinoSat_111909
-------------------------
    Access    *     Start Time (UTCG)     *     Stop Time (UTCG)  *   Duration (s)        *       Station  *  Data (Mbytes)
         1   01 Jun 2027 04:01:29.639   01 Jun 2027 04:03:33.883           124.244                Irkutsk          3882.625
         2   01 Jun 2027 04:03:36.504   01 Jun 2027 04:06:36.305           179.801                Irkutsk          5618.781
         3   01 Jun 2027 04:07:02.873   01 Jun 2027 04:07:19.259            16.386                Norilsk           512.062
         4   01 Jun 2027 04:07:27.578   01 Jun 2027 04:07:54.607            27.029                Novosib           844.656
         5   01 Jun 2027 05:40:04.540   01 Jun 2027 05:41:45.792           101.252                Norilsk          3164.125
         6   01 Jun 2027 05:41:56.550   01 Jun 2027 05:42:10.189            13.639              Murmansk2           426.219
         7   01 Jun 2027 05:42:31.989   01 Jun 2027 05:48:33.662           361.673                 Moscow         11302.281
         8   01 Jun 2027 06:04:20.993   01 Jun 2027 06:06:10.251           109.258               CapeTown          3414.312
         9   01 Jun 2027 06:12:09.159   01 Jun 2027 06:12:28.045            18.886               CapeTown           590.188
        10   01 Jun 2027 07:04:19.687   01 Jun 2027 07:05:18.145            58.458                Anadyr2          1826.812
        11   01 Jun 2027 07:15:17.028   01 Jun 2027 07:17:31.857           134.829              Murmansk2          4213.406
        12   01 Jun 2027 07:17:31.857   01 Jun 2027 07:19:03.454            91.597              Murmansk1          2862.406
        13   01 Jun 2027 07:20:32.732   01 Jun 2027 07:20:39.857             7.125                 Moscow           222.656
        14   01 Jun 2027 07:21:06.025   01 Jun 2027 07:21:39.107            33.082                 Moscow          1033.812
        15   01 Jun 2027 07:37:02.133   01 Jun 2027 07:41:53.259           291.126               CapeTown          9097.688
        16   01 Jun 2027 08:39:28.050   01 Jun 2027 08:43:31.105           243.055                Anadyr1          7595.469
        17   01 Jun 2027 08:43:31.105   01 Jun 2027 08:45:15.477           104.372                Anadyr2          3261.625
        18   01 Jun 2027 10:12:43.867   01 Jun 2027 10:14:14.178            90.311                Anadyr1          2822.219
        19   01 Jun 2027 10:14:19.654   01 Jun 2027 10:20:31.862           372.208                Anadyr2         11631.500
        20   01 Jun 2027 11:48:56.811   01 Jun 2027 11:55:23.936           387.125               Magadan1         12097.656
        21   01 Jun 2027 11:55:30.886   01 Jun 2027 11:55:35.712             4.826               Magadan2           150.812
        22   01 Jun 2027 14:11:03.219   01 Jun 2027 14:15:14.946           251.727            RioGallegos          7866.469
        23   01 Jun 2027 14:15:23.970   01 Jun 2027 14:18:21.117           177.147            RioGallegos          5535.844
        24   01 Jun 2027 14:46:22.533   01 Jun 2027 14:48:56.855           154.322                Sumatra          4822.562
        25   01 Jun 2027 14:49:14.772   01 Jun 2027 14:49:45.586            30.814                Sumatra           962.938
        26   01 Jun 2027 15:02:16.755   01 Jun 2027 15:05:00.369           163.614                Irkutsk          5112.937
        27   01 Jun 2027 16:46:32.906   01 Jun 2027 16:48:46.127           133.221                Norilsk          4163.156
        28   01 Jun 2027 19:54:17.289   01 Jun 2027 19:55:20.816            63.527              Murmansk2          1985.219
        29   01 Jun 2027 19:57:03.611   01 Jun 2027 20:02:57.108           353.497              Murmansk1         11046.781
        30   01 Jun 2027 21:03:19.528   01 Jun 2027 21:07:21.656           242.128               CapeTown          7566.500
        31   02 Jun 2027 01:51:53.661   02 Jun 2027 01:52:51.005            57.344            RioGallegos          1792.000
        32   02 Jun 2027 02:28:55.031   02 Jun 2027 02:29:05.143            10.112                Anadyr1           316.000
        33   02 Jun 2027 02:30:30.433   02 Jun 2027 02:31:58.091            87.658                Norilsk          2739.312
        34   02 Jun 2027 02:32:11.693   02 Jun 2027 02:32:55.600            43.907               Magadan2          1372.094
        35   02 Jun 2027 02:34:04.516   02 Jun 2027 02:34:41.362            36.846              Murmansk2          1151.437
        36   02 Jun 2027 02:34:42.716   02 Jun 2027 02:36:29.730           107.014                Irkutsk          3344.188
        37   02 Jun 2027 02:37:02.262   02 Jun 2027 02:37:10.637             8.375                Irkutsk           261.719
        38   02 Jun 2027 02:39:51.357   02 Jun 2027 02:40:02.721            11.364                Irkutsk           355.125
        39   02 Jun 2027 02:41:48.780   02 Jun 2027 02:42:46.366            57.586                  Delhi          1799.563
        40   02 Jun 2027 02:45:52.973   02 Jun 2027 02:47:50.509           117.536                  Delhi          3673.000
        41   02 Jun 2027 03:24:14.104   02 Jun 2027 03:26:12.993           118.889            RioGallegos          3715.281
        42   02 Jun 2027 04:12:33.430   02 Jun 2027 04:15:05.181           151.751                Irkutsk          4742.219
        43   02 Jun 2027 04:16:12.790   02 Jun 2027 04:18:38.738           145.948                Irkutsk          4560.875
        44   02 Jun 2027 04:18:52.735   02 Jun 2027 04:19:16.666            23.931                Norilsk           747.844
        45   02 Jun 2027 04:25:45.276   02 Jun 2027 04:28:19.748           154.472                  Delhi          4827.250
        46   02 Jun 2027 05:53:19.953   02 Jun 2027 05:54:51.939            91.986                Novosib          2874.563
        47   02 Jun 2027 05:56:23.531   02 Jun 2027 05:58:40.175           136.644                 Moscow          4270.125
        48   02 Jun 2027 05:59:04.004   02 Jun 2027 06:00:41.656            97.652                 Moscow          3051.625
        49   02 Jun 2027 06:15:37.416   02 Jun 2027 06:16:07.011            29.595               CapeTown           924.844
        50   02 Jun 2027 06:16:52.635   02 Jun 2027 06:17:52.092            59.457               CapeTown          1858.031
        51   02 Jun 2027 06:19:49.019   02 Jun 2027 06:24:32.817           283.798               CapeTown          8868.687
        52   02 Jun 2027 07:15:40.056   02 Jun 2027 07:18:03.627           143.571                Anadyr1          4486.594
        53   02 Jun 2027 07:18:41.546   02 Jun 2027 07:19:05.736            24.190               Magadan2           755.938
        54   02 Jun 2027 07:27:53.849   02 Jun 2027 07:28:05.375            11.526                Norilsk           360.187
        55   02 Jun 2027 07:29:57.967   02 Jun 2027 07:31:03.906            65.939              Murmansk2          2060.594
        56   02 Jun 2027 07:35:21.698   02 Jun 2027 07:35:44.278            22.580                 Moscow           705.625
        57   02 Jun 2027 07:51:35.140   02 Jun 2027 07:54:19.390           164.250               CapeTown          5132.813
        58   02 Jun 2027 08:52:19.812   02 Jun 2027 08:57:15.532           295.720                Anadyr2          9241.250
        59   02 Jun 2027 10:25:28.269   02 Jun 2027 10:25:45.480            17.211               Magadan2           537.844
        60   02 Jun 2027 10:26:56.550   02 Jun 2027 10:31:58.445           301.895               Magadan1          9434.219
        61   02 Jun 2027 10:32:30.860   02 Jun 2027 10:32:33.883             3.023                Novosib            94.469
        62   02 Jun 2027 11:07:59.878   02 Jun 2027 11:08:17.736            17.858            RioGallegos           558.063
        63   02 Jun 2027 11:08:45.571   02 Jun 2027 11:09:18.740            33.169            RioGallegos          1036.531
        64   02 Jun 2027 11:14:30.991   02 Jun 2027 11:15:03.297            32.306            RioGallegos          1009.562
        65   02 Jun 2027 11:46:06.867   02 Jun 2027 11:47:10.744            63.877                Sumatra          1996.156
        66   02 Jun 2027 12:01:14.647   02 Jun 2027 12:07:10.491           355.844               Magadan2         11120.125
        67   02 Jun 2027 13:32:37.096   02 Jun 2027 13:32:50.388            13.292                Irkutsk           415.375
        68   02 Jun 2027 13:37:33.921   02 Jun 2027 13:37:48.285            14.364                Irkutsk           448.875
        69   02 Jun 2027 13:38:18.746   02 Jun 2027 13:39:11.638            52.892                Irkutsk          1652.875
        70   02 Jun 2027 13:42:30.124   02 Jun 2027 13:43:06.702            36.578                Irkutsk          1143.063
        71   02 Jun 2027 13:47:12.957   02 Jun 2027 13:47:45.898            32.941                Norilsk          1029.406
        72   02 Jun 2027 14:24:12.932   02 Jun 2027 14:28:00.719           227.787            RioGallegos          7118.344
        73   02 Jun 2027 15:10:31.055   02 Jun 2027 15:11:02.964            31.909                Novosib           997.156
        74   02 Jun 2027 15:14:32.538   02 Jun 2027 15:14:39.914             7.376                Norilsk           230.500
        75   02 Jun 2027 15:15:34.956   02 Jun 2027 15:15:38.389             3.433                Novosib           107.281
        76   02 Jun 2027 15:16:03.999   02 Jun 2027 15:17:46.347           102.348                Norilsk          3198.375
        77   02 Jun 2027 15:19:54.950   02 Jun 2027 15:20:24.104            29.154                Norilsk           911.063
        78   02 Jun 2027 15:23:40.230   02 Jun 2027 15:24:01.868            21.638                Norilsk           676.187
        79   02 Jun 2027 15:24:33.934   02 Jun 2027 15:24:51.973            18.039                Norilsk           563.719
        80   02 Jun 2027 16:46:50.130   02 Jun 2027 16:49:33.977           163.847                 Moscow          5120.219
        81   02 Jun 2027 16:50:17.925   02 Jun 2027 16:51:14.761            56.836              Murmansk2          1776.125
        82   02 Jun 2027 16:54:34.097   02 Jun 2027 17:00:32.417           358.320                Norilsk         11197.500
        83   02 Jun 2027 18:24:23.529   02 Jun 2027 18:25:20.542            57.013                 Moscow          1781.656
        84   02 Jun 2027 18:27:27.795   02 Jun 2027 18:28:10.384            42.589              Murmansk2          1330.906
        85   02 Jun 2027 18:29:02.924   02 Jun 2027 18:29:42.670            39.746                 Moscow          1242.063
        86   02 Jun 2027 18:31:15.177   02 Jun 2027 18:31:58.005            42.828              Murmansk1          1338.375
        87   02 Jun 2027 18:35:17.218   02 Jun 2027 18:37:13.822           116.604              Murmansk2          3643.875
        88   02 Jun 2027 19:36:23.066   02 Jun 2027 19:37:35.265            72.199               CapeTown          2256.219
        89   02 Jun 2027 20:06:55.745   02 Jun 2027 20:08:26.103            90.358              Murmansk2          2823.688
        90   02 Jun 2027 20:08:39.866   02 Jun 2027 20:13:25.583           285.717              Murmansk1          8928.656
        91   02 Jun 2027 20:14:00.616   02 Jun 2027 20:14:54.095            53.479              Murmansk1          1671.219
        92   02 Jun 2027 21:52:49.386   02 Jun 2027 21:54:36.342           106.956                Anadyr1          3342.375
        93   02 Jun 2027 21:54:47.414   02 Jun 2027 21:55:57.827            70.413                Anadyr2          2200.406
        94   02 Jun 2027 21:56:01.792   02 Jun 2027 21:58:40.717           158.925               Magadan1          4966.406
        95   02 Jun 2027 21:59:13.609   02 Jun 2027 21:59:51.704            38.095               Magadan2          1190.469
        96   02 Jun 2027 22:03:03.024   02 Jun 2027 22:03:08.138             5.114               Magadan2           159.812
        97   02 Jun 2027 22:03:13.633   02 Jun 2027 22:03:32.581            18.948               Magadan1           592.125
        98   02 Jun 2027 22:03:39.528   02 Jun 2027 22:04:02.798            23.270               Magadan1           727.187
        99   02 Jun 2027 22:49:43.945   02 Jun 2027 22:51:31.844           107.899            RioGallegos          3371.844
       100   02 Jun 2027 23:28:40.635   02 Jun 2027 23:30:05.838            85.203                Anadyr2          2662.594
       101   02 Jun 2027 23:30:10.546   02 Jun 2027 23:30:52.315            41.769                Anadyr1          1305.281
       102   02 Jun 2027 23:30:55.664   02 Jun 2027 23:30:57.453             1.789                Anadyr1            55.906
       103   02 Jun 2027 23:31:02.446   02 Jun 2027 23:32:46.378           103.932               Magadan1          3247.875
       104   02 Jun 2027 23:32:52.072   02 Jun 2027 23:33:41.686            49.614               Magadan1          1550.437
       105   02 Jun 2027 23:33:53.063   02 Jun 2027 23:34:08.231            15.168                Norilsk           474.000
       106   02 Jun 2027 23:34:23.199   02 Jun 2027 23:34:46.957            23.758               Magadan1           742.437
       107   02 Jun 2027 23:35:50.889   02 Jun 2027 23:36:24.885            33.996               Magadan1          1062.375
       108   02 Jun 2027 23:36:25.389   02 Jun 2027 23:36:59.912            34.523                Irkutsk          1078.844
       109   02 Jun 2027 23:37:31.559   02 Jun 2027 23:38:00.331            28.772                Irkutsk           899.125
       110   02 Jun 2027 23:51:25.017   02 Jun 2027 23:53:16.697           111.680                Sumatra          3490.000
       111   02 Jun 2027 23:54:01.343   02 Jun 2027 23:54:16.416            15.073                Sumatra           471.031
       112   03 Jun 2027 00:22:42.399   03 Jun 2027 00:23:15.913            33.514            RioGallegos          1047.313
       113   03 Jun 2027 00:25:10.710   03 Jun 2027 00:25:16.679             5.969            RioGallegos           186.531
       114   03 Jun 2027 00:26:27.593   03 Jun 2027 00:27:33.096            65.503            RioGallegos          2046.969
       115   03 Jun 2027 01:04:02.144   03 Jun 2027 01:04:03.278             1.134                Anadyr2            35.438
       116   03 Jun 2027 01:04:10.961   03 Jun 2027 01:05:05.691            54.730                Anadyr2          1710.312
       117   03 Jun 2027 01:05:39.337   03 Jun 2027 01:06:18.429            39.092                Anadyr2          1221.625
       118   03 Jun 2027 01:06:31.939   03 Jun 2027 01:06:41.674             9.735                Norilsk           304.219
       119   03 Jun 2027 01:07:05.845   03 Jun 2027 01:07:37.743            31.898                Norilsk           996.813
       120   03 Jun 2027 01:07:39.396   03 Jun 2027 01:08:41.419            62.023               Magadan2          1938.219
       121   03 Jun 2027 01:08:57.977   03 Jun 2027 01:09:07.102             9.125               Magadan2           285.156
       122   03 Jun 2027 01:10:14.422   03 Jun 2027 01:10:24.542            10.120                Norilsk           316.250
       123   03 Jun 2027 01:10:29.482   03 Jun 2027 01:13:31.672           182.190                Irkutsk          5693.437
       124   03 Jun 2027 01:22:39.530   03 Jun 2027 01:23:16.669            37.139                  Delhi          1160.594
       125   03 Jun 2027 01:24:16.993   03 Jun 2027 01:25:43.111            86.118                Sumatra          2691.188
       126   03 Jun 2027 01:33:42.654   03 Jun 2027 01:33:58.136            15.482                Sumatra           483.813
       127   03 Jun 2027 01:58:31.512   03 Jun 2027 02:00:01.984            90.472            RioGallegos          2827.250
       128   03 Jun 2027 02:38:16.412   03 Jun 2027 02:38:19.799             3.387                Anadyr2           105.844
       129   03 Jun 2027 02:39:35.430   03 Jun 2027 02:39:56.827            21.397                Anadyr2           668.656
       130   03 Jun 2027 02:40:46.366   03 Jun 2027 02:40:52.838             6.472                Anadyr1           202.250
       131   03 Jun 2027 02:40:56.166   03 Jun 2027 02:41:03.127             6.961                Anadyr2           217.531
       132   03 Jun 2027 02:42:00.068   03 Jun 2027 02:43:06.343            66.275                Anadyr2          2071.094
       133   03 Jun 2027 02:43:15.524   03 Jun 2027 02:43:44.600            29.076                Norilsk           908.625
       134   03 Jun 2027 02:44:41.354   03 Jun 2027 02:45:14.463            33.109                Norilsk          1034.656
       135   03 Jun 2027 02:45:37.425   03 Jun 2027 02:46:19.051            41.626              Murmansk1          1300.812
       136   03 Jun 2027 02:46:21.928   03 Jun 2027 02:47:18.273            56.345                Novosib          1760.781
       137   03 Jun 2027 02:48:13.926   03 Jun 2027 02:48:15.380             1.454                Novosib            45.437
       138   03 Jun 2027 02:48:46.382   03 Jun 2027 02:49:11.456            25.074                Irkutsk           783.563
       139   03 Jun 2027 02:51:55.200   03 Jun 2027 02:53:38.485           103.285                Irkutsk          3227.656
       140   03 Jun 2027 03:35:27.097   03 Jun 2027 03:37:16.317           109.220            RioGallegos          3413.125
       141   03 Jun 2027 04:26:17.302   03 Jun 2027 04:27:39.880            82.578                Novosib          2580.563
       142   03 Jun 2027 04:27:52.033   03 Jun 2027 04:29:50.989           118.956                Irkutsk          3717.375
       143   03 Jun 2027 04:33:26.148   03 Jun 2027 04:33:49.857            23.709                Novosib           740.906
       144   03 Jun 2027 04:33:49.900   03 Jun 2027 04:37:21.432           211.532                  Delhi          6610.375
       145   03 Jun 2027 06:06:37.105   03 Jun 2027 06:07:01.221            24.116              Murmansk1           753.625
       146   03 Jun 2027 06:07:29.976   03 Jun 2027 06:08:10.970            40.994                 Moscow          1281.063
       147   03 Jun 2027 06:09:29.214   03 Jun 2027 06:09:33.713             4.499                 Moscow           140.594
       148   03 Jun 2027 06:23:46.379   03 Jun 2027 06:26:59.229           192.850               CapeTown          6026.563
       149   03 Jun 2027 07:26:53.583   03 Jun 2027 07:28:43.114           109.531                Anadyr1          3422.844
       150   03 Jun 2027 08:02:44.329   03 Jun 2027 08:06:54.134           249.805               CapeTown          7806.406
       151   03 Jun 2027 09:02:57.518   03 Jun 2027 09:03:04.866             7.348                Anadyr2           229.625
       152   03 Jun 2027 09:03:10.711   03 Jun 2027 09:03:25.248            14.537                Anadyr2           454.281
       153   03 Jun 2027 09:03:25.248   03 Jun 2027 09:03:59.822            34.574                Anadyr1          1080.438
       154   03 Jun 2027 09:04:05.025   03 Jun 2027 09:04:48.232            43.207               Magadan2          1350.219
       155   03 Jun 2027 09:05:06.300   03 Jun 2027 09:05:16.251             9.951               Magadan2           310.969
       156   03 Jun 2027 09:05:24.308   03 Jun 2027 09:07:00.067            95.759                Anadyr1          2992.469
       157   03 Jun 2027 10:37:57.231   03 Jun 2027 10:38:16.582            19.351               Magadan1           604.719
       158   03 Jun 2027 10:38:24.882   03 Jun 2027 10:38:39.926            15.044               Magadan1           470.125
       159   03 Jun 2027 10:38:52.070   03 Jun 2027 10:40:59.267           127.197               Magadan2          3974.906
       160   03 Jun 2027 10:41:44.850   03 Jun 2027 10:42:02.121            17.271                Norilsk           539.719
       161   03 Jun 2027 10:42:17.276   03 Jun 2027 10:42:58.022            40.746               Magadan2          1273.313
       162   03 Jun 2027 10:43:07.208   03 Jun 2027 10:43:11.148             3.940                Norilsk           123.125
       163   03 Jun 2027 10:43:11.380   03 Jun 2027 10:44:46.025            94.645               Magadan1          2957.656
       164   03 Jun 2027 11:56:52.342   03 Jun 2027 11:58:49.664           117.322                Sumatra          3666.312
       165   03 Jun 2027 12:07:55.839   03 Jun 2027 12:09:11.043            75.204                Irkutsk          2350.125
       166   03 Jun 2027 12:14:36.349   03 Jun 2027 12:18:09.752           213.403               Magadan1          6668.844
       167   03 Jun 2027 13:35:56.741   03 Jun 2027 13:36:29.648            32.907                Sumatra          1028.344
       168   03 Jun 2027 13:38:46.341   03 Jun 2027 13:40:04.514            78.173                Sumatra          2442.906
       169   03 Jun 2027 13:45:01.375   03 Jun 2027 13:45:44.816            43.441                Irkutsk          1357.531
       170   03 Jun 2027 13:50:04.729   03 Jun 2027 13:50:12.861             8.132                Irkutsk           254.125
       171   03 Jun 2027 13:52:35.802   03 Jun 2027 13:54:58.475           142.673                Irkutsk          4458.531
       172   03 Jun 2027 14:38:22.012   03 Jun 2027 14:40:04.927           102.915            RioGallegos          3216.094
       173   03 Jun 2027 15:14:53.764   03 Jun 2027 15:15:34.746            40.982                  Delhi          1280.687
       174   03 Jun 2027 15:22:39.984   03 Jun 2027 15:23:17.521            37.537                  Delhi          1173.031
       175   03 Jun 2027 15:26:56.408   03 Jun 2027 15:27:28.000            31.592                Norilsk           987.250
       176   03 Jun 2027 15:27:29.345   03 Jun 2027 15:28:22.103            52.758                Novosib          1648.688
       177   03 Jun 2027 15:29:44.072   03 Jun 2027 15:30:37.223            53.151                Norilsk          1660.969
       178   03 Jun 2027 15:31:00.251   03 Jun 2027 15:31:03.519             3.268                Norilsk           102.125
       179   03 Jun 2027 15:31:46.968   03 Jun 2027 15:32:59.939            72.971                Novosib          2280.344
       180   03 Jun 2027 16:58:52.528   03 Jun 2027 17:00:06.115            73.587                 Moscow          2299.594
       181   03 Jun 2027 17:00:44.079   03 Jun 2027 17:02:05.805            81.726                 Moscow          2553.938
       182   03 Jun 2027 17:05:40.335   03 Jun 2027 17:06:29.198            48.863              Murmansk1          1526.969
       183   03 Jun 2027 17:07:21.945   03 Jun 2027 17:11:43.323           261.378                Norilsk          8168.063
       184   03 Jun 2027 18:36:56.089   03 Jun 2027 18:38:38.822           102.733                 Moscow          3210.406
       185   03 Jun 2027 18:39:47.649   03 Jun 2027 18:41:39.198           111.549              Murmansk2          3485.906
       186   03 Jun 2027 18:43:53.644   03 Jun 2027 18:44:33.611            39.967              Murmansk2          1248.969
       187   03 Jun 2027 19:00:56.607   03 Jun 2027 19:01:29.681            33.074                Anadyr2          1033.562
       188   03 Jun 2027 19:01:44.306   03 Jun 2027 19:02:13.555            29.249                Anadyr2           914.031
       189   03 Jun 2027 19:48:32.487   03 Jun 2027 19:51:03.727           151.240               CapeTown          4726.250
       190   03 Jun 2027 20:19:38.087   03 Jun 2027 20:24:08.808           270.721              Murmansk2          8460.031
       191   03 Jun 2027 20:25:26.154   03 Jun 2027 20:25:34.324             8.170              Murmansk1           255.313
       192   03 Jun 2027 22:04:51.178   03 Jun 2027 22:10:01.970           310.792                Anadyr1          9712.250
       193   03 Jun 2027 22:10:05.238   03 Jun 2027 22:11:33.018            87.780               Magadan2          2743.125
       194   03 Jun 2027 22:11:33.018   03 Jun 2027 22:12:06.990            33.972               Magadan1          1061.625
       195   03 Jun 2027 22:14:34.426   03 Jun 2027 22:15:07.103            32.677               Magadan1          1021.156
       196   03 Jun 2027 22:15:19.420   03 Jun 2027 22:15:26.782             7.362               Magadan1           230.062
       197   03 Jun 2027 22:16:12.402   03 Jun 2027 22:16:38.816            26.414               Magadan2           825.438
       198   03 Jun 2027 23:00:44.830   03 Jun 2027 23:03:27.450           162.620            RioGallegos          5081.875
       199   03 Jun 2027 23:05:44.114   03 Jun 2027 23:05:57.463            13.349            RioGallegos           417.156
       200   03 Jun 2027 23:40:40.340   03 Jun 2027 23:42:36.503           116.163                Anadyr2          3630.094
       201   03 Jun 2027 23:42:45.537   03 Jun 2027 23:44:11.997            86.460                Norilsk          2701.875
       202   03 Jun 2027 23:44:40.030   03 Jun 2027 23:45:03.821            23.791               Magadan2           743.469
       203   03 Jun 2027 23:45:52.093   03 Jun 2027 23:45:59.115             7.022                Norilsk           219.438
       204   03 Jun 2027 23:46:00.614   03 Jun 2027 23:46:03.391             2.777               Magadan2            86.781
       205   03 Jun 2027 23:46:03.391   03 Jun 2027 23:46:48.921            45.530               Magadan1          1422.813
       206   03 Jun 2027 23:47:36.540   03 Jun 2027 23:48:10.955            34.415                Irkutsk          1075.469
       207   03 Jun 2027 23:50:04.706   03 Jun 2027 23:50:28.892            24.186                Irkutsk           755.813
       208   03 Jun 2027 23:52:05.419   03 Jun 2027 23:52:52.533            47.114                Irkutsk          1472.313
       209   04 Jun 2027 00:02:25.653   04 Jun 2027 00:04:22.250           116.597                Sumatra          3643.656
       210   04 Jun 2027 00:35:26.227   04 Jun 2027 00:35:53.943            27.716            RioGallegos           866.125
       211   04 Jun 2027 00:39:06.621   04 Jun 2027 00:39:27.102            20.481            RioGallegos           640.031
       212   04 Jun 2027 00:41:07.179   04 Jun 2027 00:41:30.619            23.440            RioGallegos           732.500
       213   04 Jun 2027 00:44:12.092   04 Jun 2027 00:44:15.421             3.329            RioGallegos           104.031
       214   04 Jun 2027 01:15:55.435   04 Jun 2027 01:16:58.193            62.758                Anadyr2          1961.187
       215   04 Jun 2027 01:16:58.193   04 Jun 2027 01:17:00.759             2.566                Anadyr1            80.188
       216   04 Jun 2027 01:17:38.744   04 Jun 2027 01:18:30.292            51.548                Anadyr2          1610.875
       217   04 Jun 2027 01:18:34.011   04 Jun 2027 01:20:18.176           104.165                Norilsk          3255.156
       218   04 Jun 2027 01:20:32.391   04 Jun 2027 01:20:58.442            26.051               Magadan2           814.094
       219   04 Jun 2027 01:22:29.066   04 Jun 2027 01:25:00.691           151.625                Irkutsk          4738.281
       220   04 Jun 2027 01:29:41.078   04 Jun 2027 01:30:03.449            22.371                Irkutsk           699.094
       221   04 Jun 2027 01:32:43.408   04 Jun 2027 01:33:47.211            63.803                  Delhi          1993.844
       222   04 Jun 2027 01:36:26.372   04 Jun 2027 01:36:27.839             1.467                Sumatra            45.844
       223   04 Jun 2027 01:39:15.021   04 Jun 2027 01:41:06.859           111.838                Sumatra          3494.937
       224   04 Jun 2027 02:14:36.216   04 Jun 2027 02:14:40.176             3.960            RioGallegos           123.750
       225   04 Jun 2027 02:15:26.291   04 Jun 2027 02:15:28.533             2.242            RioGallegos            70.063
       226   04 Jun 2027 02:15:36.938   04 Jun 2027 02:16:11.457            34.519            RioGallegos          1078.719
       227   04 Jun 2027 02:19:15.723   04 Jun 2027 02:19:55.768            40.045            RioGallegos          1251.406
       228   04 Jun 2027 02:22:32.226   04 Jun 2027 02:22:38.951             6.725            RioGallegos           210.156
       229   04 Jun 2027 02:52:38.529   04 Jun 2027 02:52:41.892             3.363                Anadyr2           105.094
       230   04 Jun 2027 02:53:02.574   04 Jun 2027 02:53:29.489            26.915                Anadyr1           841.094
       231   04 Jun 2027 02:53:45.231   04 Jun 2027 02:53:48.670             3.439                Anadyr1           107.469
       232   04 Jun 2027 02:53:59.480   04 Jun 2027 02:55:04.580            65.100                Anadyr1          2034.375
       233   04 Jun 2027 02:56:33.209   04 Jun 2027 02:57:06.749            33.540                Norilsk          1048.125
       234   04 Jun 2027 02:57:22.905   04 Jun 2027 02:58:20.860            57.955              Murmansk1          1811.094
       235   04 Jun 2027 02:58:22.606   04 Jun 2027 02:59:14.525            51.919                Novosib          1622.469
       236   04 Jun 2027 03:00:16.947   04 Jun 2027 03:00:44.340            27.393              Murmansk1           856.031
       237   04 Jun 2027 03:00:46.481   04 Jun 2027 03:01:05.816            19.335                Novosib           604.219
       238   04 Jun 2027 03:01:07.505   04 Jun 2027 03:01:14.848             7.343                Norilsk           229.469
       239   04 Jun 2027 03:01:28.099   04 Jun 2027 03:03:29.389           121.290                Irkutsk          3790.313
       240   04 Jun 2027 03:03:48.663   04 Jun 2027 03:03:51.481             2.818                Norilsk            88.063
       241   04 Jun 2027 03:03:58.277   04 Jun 2027 03:06:56.206           177.929                Irkutsk          5560.281
       242   04 Jun 2027 03:08:53.790   04 Jun 2027 03:10:32.213            98.423                  Delhi          3075.719
       243   04 Jun 2027 03:47:46.022   04 Jun 2027 03:48:23.562            37.540            RioGallegos          1173.125
       244   04 Jun 2027 03:50:09.569   04 Jun 2027 03:52:58.604           169.035            RioGallegos          5282.344
       245   04 Jun 2027 04:38:54.874   04 Jun 2027 04:39:11.287            16.413                 Moscow           512.906
       246   04 Jun 2027 04:39:15.930   04 Jun 2027 04:39:29.416            13.486                Novosib           421.438
       247   04 Jun 2027 04:39:31.761   04 Jun 2027 04:40:02.429            30.668                 Moscow           958.375
       248   04 Jun 2027 04:40:02.809   04 Jun 2027 04:40:25.050            22.241              Murmansk1           695.031
       249   04 Jun 2027 04:40:37.536   04 Jun 2027 04:40:54.070            16.534                Irkutsk           516.687
       250   04 Jun 2027 04:41:04.621   04 Jun 2027 04:41:28.013            23.392                Novosib           731.000
       251   04 Jun 2027 04:41:56.894   04 Jun 2027 04:42:30.074            33.180                 Moscow          1036.875
       252   04 Jun 2027 04:42:34.620   04 Jun 2027 04:44:09.487            94.867                Novosib          2964.594
       253   04 Jun 2027 04:46:54.873   04 Jun 2027 04:48:22.640            87.767                  Delhi          2742.719
       254   04 Jun 2027 06:18:47.437   04 Jun 2027 06:18:57.956            10.519                 Moscow           328.719
       255   04 Jun 2027 06:19:09.946   04 Jun 2027 06:19:26.690            16.744                 Moscow           523.250
       256   04 Jun 2027 06:20:11.843   04 Jun 2027 06:20:28.070            16.227                 Moscow           507.094
       257   04 Jun 2027 06:20:46.584   04 Jun 2027 06:21:29.806            43.222                 Moscow          1350.688
       258   04 Jun 2027 06:35:47.840   04 Jun 2027 06:36:21.354            33.514               CapeTown          1047.312
       259   04 Jun 2027 06:39:00.625   04 Jun 2027 06:40:01.347            60.722               CapeTown          1897.563
       260   04 Jun 2027 07:38:46.913   04 Jun 2027 07:39:43.053            56.140                Anadyr1          1754.375
       261   04 Jun 2027 07:40:05.775   04 Jun 2027 07:40:17.064            11.289               Magadan2           352.781
       262   04 Jun 2027 07:40:47.636   04 Jun 2027 07:41:02.480            14.844               Magadan1           463.875
       263   04 Jun 2027 07:42:00.966   04 Jun 2027 07:43:29.355            88.389                Anadyr2          2762.156
       264   04 Jun 2027 08:16:15.395   04 Jun 2027 08:19:40.368           204.973               CapeTown          6405.406
       265   04 Jun 2027 09:15:27.901   04 Jun 2027 09:15:45.142            17.241               Magadan2           538.781
       266   04 Jun 2027 09:15:58.950   04 Jun 2027 09:17:24.677            85.727                Anadyr2          2678.969
       267   04 Jun 2027 09:17:39.256   04 Jun 2027 09:18:53.314            74.058                Anadyr1          2314.312
       268   04 Jun 2027 09:19:04.673   04 Jun 2027 09:20:10.044            65.371               Magadan1          2042.844
       269   04 Jun 2027 10:50:33.624   04 Jun 2027 10:50:45.908            12.284               Magadan1           383.875
       270   04 Jun 2027 10:51:49.008   04 Jun 2027 10:52:18.303            29.295               Magadan2           915.469
       271   04 Jun 2027 10:52:18.303   04 Jun 2027 10:54:04.291           105.988               Magadan1          3312.125
       272   04 Jun 2027 10:54:50.302   04 Jun 2027 10:55:06.570            16.268                Irkutsk           508.375
       273   04 Jun 2027 10:55:24.201   04 Jun 2027 10:56:00.424            36.223               Magadan1          1131.969
       274   04 Jun 2027 10:56:08.939   04 Jun 2027 10:56:11.157             2.218                Norilsk            69.312
       275   04 Jun 2027 10:56:27.660   04 Jun 2027 10:56:46.611            18.951                Norilsk           592.219
       276   04 Jun 2027 11:31:39.143   04 Jun 2027 11:32:47.987            68.844            RioGallegos          2151.375
       277   04 Jun 2027 12:08:03.356   04 Jun 2027 12:09:48.628           105.272                Sumatra          3289.750
       278   04 Jun 2027 12:19:54.149   04 Jun 2027 12:21:09.651            75.502                Irkutsk          2359.437
       279   04 Jun 2027 12:27:51.161   04 Jun 2027 12:27:56.346             5.185                Norilsk           162.031
       280   04 Jun 2027 12:28:08.722   04 Jun 2027 12:28:38.581            29.859                Norilsk           933.094
       281   04 Jun 2027 12:35:49.318   04 Jun 2027 12:36:33.806            44.488                Norilsk          1390.250
       282   04 Jun 2027 13:08:13.117   04 Jun 2027 13:08:28.751            15.634            RioGallegos           488.563
       283   04 Jun 2027 13:10:15.010   04 Jun 2027 13:13:10.759           175.749            RioGallegos          5492.156
       284   04 Jun 2027 13:42:33.434   04 Jun 2027 13:43:01.981            28.547                Sumatra           892.094
       285   04 Jun 2027 13:49:39.882   04 Jun 2027 13:51:06.091            86.209                Sumatra          2694.031
       286   04 Jun 2027 13:57:30.877   04 Jun 2027 13:58:56.691            85.814                Irkutsk          2681.688
       287   04 Jun 2027 14:01:50.523   04 Jun 2027 14:02:25.446            34.923                Irkutsk          1091.344
       288   04 Jun 2027 14:12:56.171   04 Jun 2027 14:13:25.436            29.265                Norilsk           914.531
       289   04 Jun 2027 15:27:17.195   04 Jun 2027 15:29:17.508           120.313                  Delhi          3759.781
       290   04 Jun 2027 15:31:59.958   04 Jun 2027 15:32:44.848            44.890                  Delhi          1402.813
       291   04 Jun 2027 15:35:12.629   04 Jun 2027 15:37:15.906           123.277                  Delhi          3852.406
       292   04 Jun 2027 15:39:11.947   04 Jun 2027 15:40:20.332            68.385                Novosib          2137.031
       293   04 Jun 2027 15:42:37.975   04 Jun 2027 15:43:27.596            49.621                Norilsk          1550.656
       294   04 Jun 2027 15:47:25.765   04 Jun 2027 15:47:38.156            12.391                Norilsk           387.219
       295   04 Jun 2027 15:48:31.684   04 Jun 2027 15:49:19.112            47.428                Norilsk          1482.125
       296   04 Jun 2027 17:10:57.948   04 Jun 2027 17:12:03.206            65.258                 Moscow          2039.313
       297   04 Jun 2027 17:13:13.315   04 Jun 2027 17:14:11.562            58.247                 Moscow          1820.219
       298   04 Jun 2027 17:15:09.965   04 Jun 2027 17:15:48.053            38.088              Murmansk2          1190.250
       299   04 Jun 2027 17:20:16.091   04 Jun 2027 17:24:27.552           251.461                Norilsk          7858.156
       300   04 Jun 2027 18:35:34.206   04 Jun 2027 18:36:06.007            31.801               CapeTown           993.781
       301   04 Jun 2027 18:49:34.793   04 Jun 2027 18:54:13.695           278.902                 Moscow          8715.688
       302   04 Jun 2027 20:00:45.282   04 Jun 2027 20:02:45.487           120.205               CapeTown          3756.406
       303   04 Jun 2027 20:04:29.978   04 Jun 2027 20:05:20.203            50.225               CapeTown          1569.531
       304   04 Jun 2027 20:32:25.162   04 Jun 2027 20:36:48.116           262.954              Murmansk2          8217.313
       305   04 Jun 2027 20:37:27.051   04 Jun 2027 20:38:41.885            74.834              Murmansk1          2338.562
       306   04 Jun 2027 22:16:52.861   04 Jun 2027 22:20:43.250           230.389                Anadyr1          7199.656
       307   04 Jun 2027 22:20:53.925   04 Jun 2027 22:24:05.137           191.212               Magadan2          5975.375
       308   04 Jun 2027 22:24:46.804   04 Jun 2027 22:24:49.953             3.149               Magadan2            98.406
       309   04 Jun 2027 22:30:14.178   04 Jun 2027 22:30:26.279            12.101               Magadan2           378.156
       310   04 Jun 2027 23:12:11.221   04 Jun 2027 23:15:13.140           181.919            RioGallegos          5684.969
       311   04 Jun 2027 23:18:02.223   04 Jun 2027 23:18:36.435            34.212            RioGallegos          1069.125
       312   04 Jun 2027 23:52:39.534   04 Jun 2027 23:54:10.804            91.270                Anadyr2          2852.188
       313   04 Jun 2027 23:54:44.213   04 Jun 2027 23:56:16.092            91.879                Norilsk          2871.219
       314   04 Jun 2027 23:56:30.105   04 Jun 2027 23:56:47.305            17.200               Magadan2           537.500
       315   04 Jun 2027 23:57:41.096   04 Jun 2027 23:57:45.411             4.315               Magadan2           134.844
       316   04 Jun 2027 23:57:51.233   04 Jun 2027 23:58:32.890            41.657               Magadan2          1301.781
       317   04 Jun 2027 23:58:46.839   04 Jun 2027 23:59:21.485            34.646               Magadan1          1082.687
       318   05 Jun 2027 00:00:02.233   05 Jun 2027 00:00:23.987            21.754               Magadan2           679.813
       319   05 Jun 2027 00:01:30.881   05 Jun 2027 00:03:32.920           122.039                Irkutsk          3813.719
       320   05 Jun 2027 00:13:44.518   05 Jun 2027 00:14:11.638            27.120                Sumatra           847.500
       321   05 Jun 2027 00:17:15.509   05 Jun 2027 00:18:06.614            51.105                Sumatra          1597.031
       322   05 Jun 2027 00:46:37.615   05 Jun 2027 00:47:52.349            74.734            RioGallegos          2335.437
       323   05 Jun 2027 00:56:11.379   05 Jun 2027 00:56:24.540            13.161            RioGallegos           411.281
       324   05 Jun 2027 01:27:47.511   05 Jun 2027 01:29:21.363            93.852                Anadyr2          2932.875
       325   05 Jun 2027 01:29:38.573   05 Jun 2027 01:29:54.453            15.880                Anadyr2           496.250
       326   05 Jun 2027 01:30:34.479   05 Jun 2027 01:30:47.004            12.525                Anadyr1           391.406
       327   05 Jun 2027 01:31:07.012   05 Jun 2027 01:32:30.406            83.394                Norilsk          2606.062
       328   05 Jun 2027 01:32:59.592   05 Jun 2027 01:33:46.552            46.960               Magadan1          1467.500
       329   05 Jun 2027 01:34:29.661   05 Jun 2027 01:36:15.195           105.534                Irkutsk          3297.937
       330   05 Jun 2027 01:37:06.127   05 Jun 2027 01:37:23.314            17.187                Novosib           537.094
       331   05 Jun 2027 01:40:21.816   05 Jun 2027 01:40:24.838             3.022                Novosib            94.438
       332   05 Jun 2027 01:40:48.616   05 Jun 2027 01:42:49.393           120.777                Novosib          3774.281
       333   05 Jun 2027 01:51:01.909   05 Jun 2027 01:53:43.288           161.379                Sumatra          5043.094
       334   05 Jun 2027 03:10:47.069   05 Jun 2027 03:11:57.799            70.730               Magadan2          2210.313
       335   05 Jun 2027 03:12:43.817   05 Jun 2027 03:13:49.656            65.839                Irkutsk          2057.469
       336   05 Jun 2027 03:14:23.813   05 Jun 2027 03:14:39.340            15.527              Murmansk1           485.219
       337   05 Jun 2027 03:14:39.340   05 Jun 2027 03:15:01.840            22.500              Murmansk2           703.125
       338   05 Jun 2027 03:15:04.876   05 Jun 2027 03:16:09.770            64.894                Norilsk          2027.938
       339   05 Jun 2027 03:16:37.554   05 Jun 2027 03:17:44.570            67.016                Novosib          2094.250
       340   05 Jun 2027 03:17:44.797   05 Jun 2027 03:21:18.708           213.911                  Delhi          6684.719
       341   05 Jun 2027 04:00:11.191   05 Jun 2027 04:05:14.616           303.425            RioGallegos          9482.031
       342   05 Jun 2027 04:50:27.400   05 Jun 2027 04:51:34.584            67.184                Irkutsk          2099.500
       343   05 Jun 2027 04:53:13.945   05 Jun 2027 04:53:27.310            13.365                Novosib           417.656
       344   05 Jun 2027 04:53:36.641   05 Jun 2027 04:55:50.917           134.276                Novosib          4196.125
       345   05 Jun 2027 04:56:58.329   05 Jun 2027 04:57:31.868            33.539                Novosib          1048.094
       346   05 Jun 2027 04:59:34.857   05 Jun 2027 05:00:51.527            76.670                  Delhi          2395.938
       347   05 Jun 2027 06:30:26.694   05 Jun 2027 06:30:47.213            20.519                 Moscow           641.219
       348   05 Jun 2027 06:30:52.195   05 Jun 2027 06:30:54.727             2.532                 Moscow            79.125
       349   05 Jun 2027 06:31:43.536   05 Jun 2027 06:31:50.880             7.344                 Moscow           229.500
       350   05 Jun 2027 06:47:54.478   05 Jun 2027 06:50:42.149           167.671               CapeTown          5239.719
       351   05 Jun 2027 07:50:37.643   05 Jun 2027 07:51:44.239            66.596                Anadyr1          2081.125
       352   05 Jun 2027 07:52:00.862   05 Jun 2027 07:52:05.444             4.582               Magadan1           143.188
       353   05 Jun 2027 07:52:41.399   05 Jun 2027 07:53:13.466            32.067                Anadyr2          1002.094
       354   05 Jun 2027 08:01:57.979   05 Jun 2027 08:02:49.532            51.553                 Moscow          1611.031
       355   05 Jun 2027 09:27:20.698   05 Jun 2027 09:27:42.260            21.562               Magadan1           673.812
       356   05 Jun 2027 09:27:58.259   05 Jun 2027 09:28:34.028            35.769               Magadan1          1117.781
       357   05 Jun 2027 09:28:39.276   05 Jun 2027 09:28:42.627             3.351               Magadan2           104.719
       358   05 Jun 2027 09:29:11.151   05 Jun 2027 09:29:50.177            39.026               Magadan2          1219.562
       359   05 Jun 2027 09:30:55.091   05 Jun 2027 09:32:37.674           102.583                Anadyr1          3205.719
       360   05 Jun 2027 10:58:37.518   05 Jun 2027 10:59:03.110            25.592               Magadan2           799.750
       361   05 Jun 2027 10:59:07.401   05 Jun 2027 11:02:37.540           210.139               Magadan1          6566.844
       362   05 Jun 2027 11:03:09.915   05 Jun 2027 11:04:56.613           106.698               Magadan2          3334.312
       363   05 Jun 2027 11:04:56.613   05 Jun 2027 11:05:40.664            44.051               Magadan1          1376.594
       364   05 Jun 2027 11:05:46.071   05 Jun 2027 11:07:34.721           108.650               Magadan2          3395.312
       365   05 Jun 2027 11:07:54.633   05 Jun 2027 11:08:32.443            37.810               Magadan2          1181.562
       366   05 Jun 2027 11:10:22.864   05 Jun 2027 11:11:08.687            45.823                Norilsk          1431.969
       367   05 Jun 2027 11:43:33.628   05 Jun 2027 11:44:47.638            74.010            RioGallegos          2312.812
       368   05 Jun 2027 12:19:28.547   05 Jun 2027 12:19:59.787            31.240                Sumatra           976.250
       369   05 Jun 2027 12:31:55.684   05 Jun 2027 12:35:06.561           190.877                Irkutsk          5964.906
       370   05 Jun 2027 12:48:44.607   05 Jun 2027 12:49:16.510            31.903                Norilsk           996.969
       371   05 Jun 2027 13:20:37.615   05 Jun 2027 13:21:25.250            47.635            RioGallegos          1488.594
       372   05 Jun 2027 13:25:40.499   05 Jun 2027 13:25:50.586            10.087            RioGallegos           315.219
       373   05 Jun 2027 13:28:12.183   05 Jun 2027 13:30:35.038           142.855            RioGallegos          4464.219
       374   05 Jun 2027 13:54:52.917   05 Jun 2027 13:56:52.795           119.878                Sumatra          3746.188
       375   05 Jun 2027 14:09:28.972   05 Jun 2027 14:10:31.849            62.877                Novosib          1964.906
       376   05 Jun 2027 14:13:22.907   05 Jun 2027 14:13:33.924            11.017                Norilsk           344.281
       377   05 Jun 2027 14:14:46.820   05 Jun 2027 14:15:30.482            43.662                Irkutsk          1364.437
       378   05 Jun 2027 14:21:45.013   05 Jun 2027 14:21:49.426             4.413                Norilsk           137.906
       379   05 Jun 2027 15:39:49.164   05 Jun 2027 15:44:41.771           292.607                  Delhi          9143.969
       380   05 Jun 2027 15:48:13.439   05 Jun 2027 15:52:49.942           276.503                Novosib          8640.719
       381   05 Jun 2027 17:26:11.783   05 Jun 2027 17:27:10.879            59.096                 Moscow          1846.750
       382   05 Jun 2027 17:27:49.997   05 Jun 2027 17:29:24.809            94.812              Murmansk2          2962.875
       383   05 Jun 2027 17:33:21.117   05 Jun 2027 17:36:03.057           161.940                Norilsk          5060.625
       384   05 Jun 2027 17:36:27.464   05 Jun 2027 17:36:28.088             0.624                Norilsk            19.500
       385   05 Jun 2027 18:37:46.531   05 Jun 2027 18:38:34.197            47.666               CapeTown          1489.563
       386   05 Jun 2027 19:02:21.250   05 Jun 2027 19:06:47.599           266.349                 Moscow          8323.406
       387   05 Jun 2027 19:09:29.895   05 Jun 2027 19:09:35.733             5.838              Murmansk1           182.438
       388   05 Jun 2027 19:11:22.981   05 Jun 2027 19:11:59.143            36.162              Murmansk1          1130.062
       389   05 Jun 2027 19:14:29.305   05 Jun 2027 19:14:42.706            13.401              Murmansk1           418.781
       390   05 Jun 2027 20:13:02.102   05 Jun 2027 20:14:21.264            79.162               CapeTown          2473.813
       391   05 Jun 2027 20:15:53.530   05 Jun 2027 20:17:17.405            83.875               CapeTown          2621.094
       392   05 Jun 2027 20:45:18.598   05 Jun 2027 20:50:30.204           311.606              Murmansk2          9737.688
       393   05 Jun 2027 22:28:54.400   05 Jun 2027 22:32:44.188           229.788                Anadyr2          7180.875
       394   05 Jun 2027 22:32:48.375   05 Jun 2027 22:36:34.714           226.339               Magadan2          7073.094
       395   05 Jun 2027 22:41:56.818   05 Jun 2027 22:42:08.293            11.475               Magadan1           358.594
       396   05 Jun 2027 23:23:48.421   05 Jun 2027 23:26:06.130           137.709            RioGallegos          4303.406
       397   05 Jun 2027 23:26:29.682   05 Jun 2027 23:27:02.537            32.855            RioGallegos          1026.719
       398   05 Jun 2027 23:29:10.917   05 Jun 2027 23:30:07.878            56.961            RioGallegos          1780.031
       399   06 Jun 2027 00:04:38.134   06 Jun 2027 00:05:46.844            68.710                Anadyr2          2147.187
       400   06 Jun 2027 00:06:00.649   06 Jun 2027 00:06:06.165             5.516                Anadyr2           172.375
       401   06 Jun 2027 00:06:43.828   06 Jun 2027 00:08:18.432            94.604                Norilsk          2956.375
       402   06 Jun 2027 00:08:22.350   06 Jun 2027 00:08:36.032            13.682               Magadan1           427.562
       403   06 Jun 2027 00:09:14.433   06 Jun 2027 00:10:14.612            60.179                Norilsk          1880.594
       404   06 Jun 2027 00:10:14.778   06 Jun 2027 00:10:49.536            34.758               Magadan2          1086.187
       405   06 Jun 2027 00:11:09.974   06 Jun 2027 00:11:35.166            25.192                Irkutsk           787.250
       406   06 Jun 2027 00:12:03.190   06 Jun 2027 00:12:25.509            22.319                Irkutsk           697.469
       407   06 Jun 2027 00:15:40.427   06 Jun 2027 00:15:47.080             6.653                Irkutsk           207.906
       408   06 Jun 2027 00:19:25.782   06 Jun 2027 00:19:57.995            32.213                Irkutsk          1006.656
       409   06 Jun 2027 00:21:45.339   06 Jun 2027 00:22:00.447            15.108                Irkutsk           472.125
       410   06 Jun 2027 00:25:15.016   06 Jun 2027 00:26:29.327            74.311                Sumatra          2322.219
       411   06 Jun 2027 00:26:46.147   06 Jun 2027 00:28:23.272            97.125                Sumatra          3035.156
       412   06 Jun 2027 01:02:27.427   06 Jun 2027 01:02:54.213            26.786            RioGallegos           837.062
       413   06 Jun 2027 01:08:11.775   06 Jun 2027 01:08:35.184            23.409            RioGallegos           731.531
       414   06 Jun 2027 01:39:38.299   06 Jun 2027 01:41:33.242           114.943                Anadyr2          3591.969
       415   06 Jun 2027 01:42:38.575   06 Jun 2027 01:44:01.178            82.603                Norilsk          2581.344
       416   06 Jun 2027 01:44:29.681   06 Jun 2027 01:44:32.559             2.878                Norilsk            89.938
       417   06 Jun 2027 01:45:16.645   06 Jun 2027 01:46:07.049            50.404               Magadan2          1575.125
       418   06 Jun 2027 01:46:31.173   06 Jun 2027 01:48:50.764           139.591                Irkutsk          4362.219
       419   06 Jun 2027 01:55:11.558   06 Jun 2027 01:55:39.470            27.912                  Delhi           872.250
       420   06 Jun 2027 01:58:07.726   06 Jun 2027 01:58:24.299            16.573                  Delhi           517.906
       421   06 Jun 2027 01:59:33.680   06 Jun 2027 01:59:55.828            22.148                  Delhi           692.125
       422   06 Jun 2027 02:01:05.731   06 Jun 2027 02:04:56.511           230.780                Sumatra          7211.875
       423   06 Jun 2027 03:23:08.545   06 Jun 2027 03:23:26.623            18.078               Magadan2           564.937
       424   06 Jun 2027 03:25:53.731   06 Jun 2027 03:26:20.883            27.152                Irkutsk           848.500
       425   06 Jun 2027 03:26:35.696   06 Jun 2027 03:27:44.447            68.751                Irkutsk          2148.469
       426   06 Jun 2027 03:28:02.102   06 Jun 2027 03:28:23.933            21.831                Irkutsk           682.219
       427   06 Jun 2027 03:28:36.853   06 Jun 2027 03:30:01.671            84.818                Norilsk          2650.563
       428   06 Jun 2027 03:30:19.136   06 Jun 2027 03:33:13.250           174.114                Irkutsk          5441.062
       429   06 Jun 2027 03:34:13.237   06 Jun 2027 03:35:26.166            72.929                  Delhi          2279.031
       430   06 Jun 2027 03:39:46.026   06 Jun 2027 03:42:16.127           150.101                  Delhi          4690.656
       431   06 Jun 2027 04:12:50.014   06 Jun 2027 04:14:00.532            70.518            RioGallegos          2203.688
       432   06 Jun 2027 04:14:59.867   06 Jun 2027 04:16:18.980            79.113            RioGallegos          2472.281
       433   06 Jun 2027 05:02:47.497   06 Jun 2027 05:02:48.964             1.467                Novosib            45.844
       434   06 Jun 2027 05:03:09.167   06 Jun 2027 05:04:15.524            66.357                Novosib          2073.656
       435   06 Jun 2027 05:05:01.417   06 Jun 2027 05:06:11.772            70.355                Novosib          2198.594
       436   06 Jun 2027 05:06:49.616   06 Jun 2027 05:07:07.940            18.324                 Moscow           572.625
       437   06 Jun 2027 05:08:22.180   06 Jun 2027 05:09:08.558            46.378                Novosib          1449.312
       438   06 Jun 2027 05:25:12.793   06 Jun 2027 05:25:46.589            33.796               CapeTown          1056.125
       439   06 Jun 2027 05:26:12.277   06 Jun 2027 05:27:00.381            48.104               CapeTown          1503.250
       440   06 Jun 2027 06:42:22.934   06 Jun 2027 06:42:35.605            12.671              Murmansk2           395.969
       441   06 Jun 2027 06:46:56.365   06 Jun 2027 06:47:06.931            10.566                 Moscow           330.187
       442   06 Jun 2027 06:47:43.382   06 Jun 2027 06:48:41.567            58.185                 Moscow          1818.281
       443   06 Jun 2027 07:00:06.611   06 Jun 2027 07:00:07.509             0.898               CapeTown            28.063
       444   06 Jun 2027 07:01:41.566   06 Jun 2027 07:02:54.660            73.094               CapeTown          2284.188
       445   06 Jun 2027 08:02:55.359   06 Jun 2027 08:03:09.552            14.193               Magadan2           443.531
       446   06 Jun 2027 08:03:26.070   06 Jun 2027 08:03:27.020             0.950               Magadan2            29.687
       447   06 Jun 2027 08:03:45.142   06 Jun 2027 08:04:49.291            64.149                Anadyr2          2004.656
       448   06 Jun 2027 08:05:09.248   06 Jun 2027 08:05:09.824             0.576               Magadan1            18.000
       449   06 Jun 2027 08:05:10.046   06 Jun 2027 08:05:14.460             4.414                Anadyr2           137.937
       450   06 Jun 2027 08:05:14.460   06 Jun 2027 08:05:35.877            21.417                Anadyr1           669.281
       451   06 Jun 2027 08:06:32.381   06 Jun 2027 08:07:29.567            57.186                Anadyr1          1787.062
       452   06 Jun 2027 09:40:32.232   06 Jun 2027 09:40:33.504             1.272               Magadan1            39.750
       453   06 Jun 2027 09:40:53.334   06 Jun 2027 09:41:13.173            19.839               Magadan1           619.969
       454   06 Jun 2027 09:41:17.981   06 Jun 2027 09:41:23.817             5.836                Anadyr2           182.375
       455   06 Jun 2027 09:41:57.360   06 Jun 2027 09:41:57.921             0.561               Magadan1            17.531
       456   06 Jun 2027 09:43:02.189   06 Jun 2027 09:43:45.106            42.917               Magadan1          1341.156
       457   06 Jun 2027 10:22:18.527   06 Jun 2027 10:23:13.747            55.220            RioGallegos          1725.625
       458   06 Jun 2027 11:10:27.349   06 Jun 2027 11:11:02.134            34.785               Magadan2          1087.031
       459   06 Jun 2027 11:14:26.156   06 Jun 2027 11:15:55.741            89.585               Magadan1          2799.531
       460   06 Jun 2027 11:16:53.842   06 Jun 2027 11:20:29.943           216.101               Magadan2          6753.156
       461   06 Jun 2027 11:55:31.390   06 Jun 2027 11:56:46.108            74.718            RioGallegos          2334.938
       462   06 Jun 2027 12:31:03.632   06 Jun 2027 12:32:37.977            94.345                Sumatra          2948.281
       463   06 Jun 2027 12:44:00.548   06 Jun 2027 12:47:14.433           193.885                Irkutsk          6058.906
       464   06 Jun 2027 13:33:07.549   06 Jun 2027 13:34:41.624            94.075            RioGallegos          2939.844
       465   06 Jun 2027 13:37:22.981   06 Jun 2027 13:38:01.591            38.610            RioGallegos          1206.563
       466   06 Jun 2027 14:07:20.978   06 Jun 2027 14:12:20.612           299.634                Sumatra          9363.562
       467   06 Jun 2027 14:22:49.796   06 Jun 2027 14:24:54.651           124.855                Irkutsk          3901.719
       468   06 Jun 2027 14:26:49.153   06 Jun 2027 14:27:21.751            32.598                Irkutsk          1018.688
       469   06 Jun 2027 15:52:32.383   06 Jun 2027 15:57:07.054           274.671                  Delhi          8583.469
       470   06 Jun 2027 16:01:01.865   06 Jun 2027 16:02:08.001            66.136                Novosib          2066.750
       471   06 Jun 2027 16:04:22.042   06 Jun 2027 16:04:56.201            34.159                Norilsk          1067.469
       472   06 Jun 2027 16:09:51.210   06 Jun 2027 16:10:44.602            53.392                Norilsk          1668.500
       473   06 Jun 2027 17:35:18.360   06 Jun 2027 17:35:22.839             4.479                 Moscow           139.969
       474   06 Jun 2027 17:35:52.946   06 Jun 2027 17:38:11.167           138.221                 Moscow          4319.406
       475   06 Jun 2027 17:41:46.976   06 Jun 2027 17:41:57.910            10.934              Murmansk1           341.688
       476   06 Jun 2027 17:50:57.921   06 Jun 2027 17:51:22.954            25.033              Murmansk2           782.281
       477   06 Jun 2027 17:54:09.030   06 Jun 2027 17:55:06.814            57.784                Anadyr2          1805.750
       478   06 Jun 2027 18:48:31.751   06 Jun 2027 18:50:33.051           121.300               CapeTown          3790.625
       479   06 Jun 2027 18:55:22.357   06 Jun 2027 18:55:30.491             8.134               CapeTown           254.187
       480   06 Jun 2027 18:58:53.265   06 Jun 2027 19:00:37.459           104.194               CapeTown          3256.063
       481   06 Jun 2027 19:15:18.542   06 Jun 2027 19:19:27.943           249.401                 Moscow          7793.781
       482   06 Jun 2027 20:25:24.089   06 Jun 2027 20:27:24.610           120.521               CapeTown          3766.281
