uniorb/output/strategy_4/Drop/Drop_KinoSat_111610.txt

KinoSat_111610
-------------------------
    Access    *     Start Time (UTCG)     *     Stop Time (UTCG)  *   Duration (s)        *       Station  *  Data (Mbytes)
         1   01 Jun 2027 04:05:45.563   01 Jun 2027 04:06:12.655            27.092                Novosib           846.625
         2   01 Jun 2027 04:06:38.900   01 Jun 2027 04:07:49.107            70.207                 Moscow          2193.969
         3   01 Jun 2027 04:07:52.285   01 Jun 2027 04:08:23.080            30.795                Norilsk           962.344
         4   01 Jun 2027 04:08:24.765   01 Jun 2027 04:10:28.513           123.748              Murmansk2          3867.125
         5   01 Jun 2027 04:11:10.145   01 Jun 2027 04:14:12.029           181.884                 Moscow          5683.875
         6   01 Jun 2027 04:26:18.114   01 Jun 2027 04:34:48.216           510.102               CapeTown         15940.687
         7   01 Jun 2027 05:41:45.792   01 Jun 2027 05:42:08.944            23.152                Norilsk           723.500
         8   01 Jun 2027 05:42:10.189   01 Jun 2027 05:45:10.669           180.480              Murmansk2          5640.000
         9   01 Jun 2027 07:05:18.145   01 Jun 2027 07:06:01.618            43.473                Anadyr2          1358.531
        10   01 Jun 2027 07:06:16.657   01 Jun 2027 07:06:27.467            10.810                Norilsk           337.813
        11   01 Jun 2027 07:06:34.804   01 Jun 2027 07:08:30.301           115.497                Anadyr1          3609.281
        12   01 Jun 2027 07:09:56.324   01 Jun 2027 07:11:10.920            74.596                Anadyr1          2331.125
        13   01 Jun 2027 07:11:36.794   01 Jun 2027 07:11:55.072            18.278              Murmansk2           571.188
        14   01 Jun 2027 08:41:22.447   01 Jun 2027 08:42:58.779            96.332                Anadyr2          3010.375
        15   01 Jun 2027 08:43:31.105   01 Jun 2027 08:46:39.739           188.634                Anadyr1          5894.812
        16   01 Jun 2027 10:16:59.064   01 Jun 2027 10:17:54.240            55.176               Magadan2          1724.250
        17   01 Jun 2027 10:18:16.805   01 Jun 2027 10:21:54.994           218.189               Magadan2          6818.406
        18   01 Jun 2027 11:53:36.328   01 Jun 2027 11:57:15.617           219.289                Irkutsk          6852.781
        19   01 Jun 2027 11:57:37.058   01 Jun 2027 11:58:24.257            47.199                 Moscow          1474.969
        20   01 Jun 2027 11:58:43.477   01 Jun 2027 11:59:21.830            38.353                Novosib          1198.531
        21   01 Jun 2027 12:03:13.979   01 Jun 2027 12:03:58.998            45.019              Murmansk2          1406.844
        22   01 Jun 2027 12:04:18.583   01 Jun 2027 12:04:32.606            14.023              Murmansk2           438.219
        23   01 Jun 2027 12:04:55.526   01 Jun 2027 12:05:33.556            38.030              Murmansk2          1188.437
        24   01 Jun 2027 12:05:33.556   01 Jun 2027 12:05:50.268            16.712              Murmansk1           522.250
        25   01 Jun 2027 12:35:40.540   01 Jun 2027 12:36:58.358            77.818            RioGallegos          2431.812
        26   01 Jun 2027 12:38:14.979   01 Jun 2027 12:38:21.757             6.778            RioGallegos           211.813
        27   01 Jun 2027 12:40:15.982   01 Jun 2027 12:40:34.468            18.486            RioGallegos           577.688
        28   01 Jun 2027 12:41:09.467   01 Jun 2027 12:41:36.668            27.201            RioGallegos           850.031
        29   01 Jun 2027 12:44:06.781   01 Jun 2027 12:44:53.679            46.898            RioGallegos          1465.562
        30   01 Jun 2027 13:10:00.883   01 Jun 2027 13:12:10.083           129.200                Sumatra          4037.500
        31   01 Jun 2027 13:13:02.475   01 Jun 2027 13:14:47.262           104.787                Sumatra          3274.594
        32   01 Jun 2027 13:25:49.541   01 Jun 2027 13:32:24.600           395.059                Irkutsk         12345.594
        33   01 Jun 2027 14:55:45.280   01 Jun 2027 14:59:16.757           211.477                  Delhi          6608.656
        34   01 Jun 2027 15:04:12.589   01 Jun 2027 15:06:05.757           113.168                Novosib          3536.500
        35   01 Jun 2027 15:07:06.983   01 Jun 2027 15:07:59.960            52.977                Novosib          1655.531
        36   01 Jun 2027 15:11:40.067   01 Jun 2027 15:11:49.235             9.168                Norilsk           286.500
        37   01 Jun 2027 15:12:02.059   01 Jun 2027 15:12:04.966             2.907                Norilsk            90.844
        38   01 Jun 2027 15:13:37.820   01 Jun 2027 15:15:20.981           103.161                Norilsk          3223.781
        39   01 Jun 2027 16:19:32.119   01 Jun 2027 16:20:06.191            34.072               CapeTown          1064.750
        40   01 Jun 2027 16:22:33.720   01 Jun 2027 16:22:52.918            19.198               CapeTown           599.937
        41   01 Jun 2027 16:23:15.421   01 Jun 2027 16:23:40.557            25.136               CapeTown           785.500
        42   01 Jun 2027 16:39:47.215   01 Jun 2027 16:40:18.765            31.550                 Moscow           985.938
        43   01 Jun 2027 16:41:36.177   01 Jun 2027 16:42:12.813            36.636              Murmansk1          1144.875
        44   01 Jun 2027 16:43:17.781   01 Jun 2027 16:43:44.582            26.801                 Moscow           837.531
        45   01 Jun 2027 16:45:42.394   01 Jun 2027 16:46:37.062            54.668                 Moscow          1708.375
        46   01 Jun 2027 16:48:49.449   01 Jun 2027 16:49:15.488            26.039              Murmansk2           813.719
        47   01 Jun 2027 16:50:57.949   01 Jun 2027 16:51:12.011            14.062              Murmansk1           439.438
        48   01 Jun 2027 16:51:52.717   01 Jun 2027 16:52:29.916            37.199              Murmansk1          1162.469
        49   01 Jun 2027 16:55:30.878   01 Jun 2027 16:56:35.320            64.442                Anadyr2          2013.812
        50   01 Jun 2027 16:57:24.883   01 Jun 2027 16:57:37.747            12.864                Anadyr2           402.000
        51   01 Jun 2027 16:58:25.802   01 Jun 2027 16:58:34.678             8.876                Anadyr1           277.375
        52   01 Jun 2027 16:59:19.192   01 Jun 2027 17:00:00.780            41.588                Anadyr1          1299.625
        53   01 Jun 2027 17:01:05.222   01 Jun 2027 17:01:39.911            34.689                Anadyr2          1084.031
        54   01 Jun 2027 17:56:03.561   01 Jun 2027 17:56:34.758            31.197               CapeTown           974.906
        55   01 Jun 2027 17:58:04.592   01 Jun 2027 17:58:53.830            49.238               CapeTown          1538.688
        56   01 Jun 2027 18:18:58.917   01 Jun 2027 18:22:28.495           209.578                 Moscow          6549.312
        57   01 Jun 2027 18:22:58.725   01 Jun 2027 18:23:15.044            16.319              Murmansk2           509.969
        58   01 Jun 2027 18:25:13.501   01 Jun 2027 18:26:23.482            69.981              Murmansk1          2186.906
        59   01 Jun 2027 18:35:39.486   01 Jun 2027 18:36:05.590            26.104               Magadan2           815.750
        60   01 Jun 2027 18:37:47.906   01 Jun 2027 18:37:50.413             2.507               Magadan1            78.344
        61   01 Jun 2027 18:38:19.335   01 Jun 2027 18:38:34.338            15.003               Magadan1           468.844
        62   01 Jun 2027 18:41:27.664   01 Jun 2027 18:42:00.114            32.450                Anadyr1          1014.063
        63   01 Jun 2027 19:27:46.586   01 Jun 2027 19:28:25.084            38.498               CapeTown          1203.063
        64   01 Jun 2027 19:30:43.080   01 Jun 2027 19:31:42.804            59.724               CapeTown          1866.375
        65   01 Jun 2027 20:06:41.254   01 Jun 2027 20:10:26.251           224.997                Anadyr1          7031.156
        66   01 Jun 2027 20:11:05.451   01 Jun 2027 20:12:22.687            77.236               Magadan2          2413.625
        67   01 Jun 2027 20:13:26.197   01 Jun 2027 20:13:54.823            28.626               Magadan2           894.563
        68   01 Jun 2027 20:18:07.628   01 Jun 2027 20:18:16.243             8.615               Magadan1           269.219
        69   01 Jun 2027 20:19:13.651   01 Jun 2027 20:19:37.745            24.094               Magadan1           752.938
        70   01 Jun 2027 21:42:35.793   01 Jun 2027 21:44:39.071           123.278                Anadyr2          3852.438
        71   01 Jun 2027 21:44:48.552   01 Jun 2027 21:46:17.349            88.797                Anadyr1          2774.906
        72   01 Jun 2027 21:46:31.955   01 Jun 2027 21:48:54.957           143.002                Norilsk          4468.812
        73   01 Jun 2027 21:49:12.068   01 Jun 2027 21:49:48.035            35.967               Magadan1          1123.969
        74   01 Jun 2027 21:49:48.035   01 Jun 2027 21:50:00.879            12.844               Magadan2           401.375
        75   01 Jun 2027 21:50:28.606   01 Jun 2027 21:50:46.017            17.411               Magadan1           544.094
        76   01 Jun 2027 21:51:08.710   01 Jun 2027 21:51:17.690             8.980               Magadan2           280.625
        77   01 Jun 2027 21:51:17.690   01 Jun 2027 21:51:24.932             7.242               Magadan1           226.312
        78   01 Jun 2027 21:51:46.323   01 Jun 2027 21:52:00.856            14.533               Magadan1           454.156
        79   01 Jun 2027 21:52:00.856   01 Jun 2027 21:52:04.061             3.205               Magadan2           100.156
        80   01 Jun 2027 21:52:06.908   01 Jun 2027 21:52:44.763            37.855               Magadan2          1182.969
        81   01 Jun 2027 21:53:16.576   01 Jun 2027 21:53:41.345            24.769                Irkutsk           774.031
        82   01 Jun 2027 22:36:55.278   01 Jun 2027 22:38:49.025           113.747            RioGallegos          3554.594
        83   01 Jun 2027 22:39:17.430   01 Jun 2027 22:40:12.470            55.040            RioGallegos          1720.000
        84   01 Jun 2027 22:47:37.888   01 Jun 2027 22:47:39.425             1.537            RioGallegos            48.031
        85   01 Jun 2027 23:18:10.029   01 Jun 2027 23:20:27.275           137.246                Anadyr2          4288.938
        86   01 Jun 2027 23:20:46.451   01 Jun 2027 23:22:06.115            79.664                Norilsk          2489.500
        87   01 Jun 2027 23:22:12.621   01 Jun 2027 23:22:48.086            35.465               Magadan1          1108.281
        88   01 Jun 2027 23:23:20.682   01 Jun 2027 23:23:46.031            25.349               Magadan1           792.156
        89   01 Jun 2027 23:24:22.132   01 Jun 2027 23:24:39.110            16.978               Magadan2           530.563
        90   01 Jun 2027 23:25:27.006   01 Jun 2027 23:25:57.794            30.788                Irkutsk           962.125
        91   01 Jun 2027 23:26:07.856   01 Jun 2027 23:28:08.855           120.999                Novosib          3781.219
        92   01 Jun 2027 23:38:15.619   01 Jun 2027 23:38:54.868            39.249                Sumatra          1226.531
        93   01 Jun 2027 23:41:10.763   01 Jun 2027 23:41:34.731            23.968                Sumatra           749.000
        94   01 Jun 2027 23:44:59.898   01 Jun 2027 23:45:06.384             6.486                Sumatra           202.688
        95   01 Jun 2027 23:46:02.495   01 Jun 2027 23:46:38.870            36.375                Sumatra          1136.719
        96   02 Jun 2027 00:12:19.153   02 Jun 2027 00:12:49.310            30.157            RioGallegos           942.406
        97   02 Jun 2027 00:14:25.560   02 Jun 2027 00:15:35.846            70.286            RioGallegos          2196.438
        98   02 Jun 2027 00:52:48.619   02 Jun 2027 00:53:12.270            23.651                Anadyr2           739.094
        99   02 Jun 2027 00:53:40.410   02 Jun 2027 00:54:25.606            45.196                Anadyr2          1412.375
       100   02 Jun 2027 00:54:25.606   02 Jun 2027 00:54:49.011            23.405                Anadyr1           731.406
       101   02 Jun 2027 00:55:14.351   02 Jun 2027 00:55:33.318            18.967                Anadyr1           592.719
       102   02 Jun 2027 00:56:23.590   02 Jun 2027 00:58:06.154           102.564                Norilsk          3205.125
       103   02 Jun 2027 00:59:58.324   02 Jun 2027 01:00:05.975             7.651               Magadan1           239.094
       104   02 Jun 2027 01:00:16.954   02 Jun 2027 01:02:16.393           119.439                Irkutsk          3732.469
       105   02 Jun 2027 01:03:21.035   02 Jun 2027 01:04:20.193            59.158                Irkutsk          1848.687
       106   02 Jun 2027 01:05:31.290   02 Jun 2027 01:06:04.319            33.029                Irkutsk          1032.156
       107   02 Jun 2027 01:08:00.506   02 Jun 2027 01:08:23.394            22.888                  Delhi           715.250
       108   02 Jun 2027 01:09:37.337   02 Jun 2027 01:10:05.438            28.101                  Delhi           878.156
       109   02 Jun 2027 01:16:32.433   02 Jun 2027 01:18:04.499            92.066                Sumatra          2877.063
       110   02 Jun 2027 01:20:54.197   02 Jun 2027 01:21:04.792            10.595                Sumatra           331.094
       111   02 Jun 2027 01:49:10.986   02 Jun 2027 01:49:27.358            16.372            RioGallegos           511.625
       112   02 Jun 2027 01:49:59.819   02 Jun 2027 01:50:26.346            26.527            RioGallegos           828.969
       113   02 Jun 2027 01:51:15.120   02 Jun 2027 01:51:53.661            38.541            RioGallegos          1204.406
       114   02 Jun 2027 01:52:56.604   02 Jun 2027 01:52:58.791             2.187            RioGallegos            68.344
       115   02 Jun 2027 02:26:17.284   02 Jun 2027 02:26:25.840             8.556                Anadyr2           267.375
       116   02 Jun 2027 02:27:35.741   02 Jun 2027 02:28:54.663            78.922                Anadyr2          2466.313
       117   02 Jun 2027 02:32:22.915   02 Jun 2027 02:33:27.137            64.222                Norilsk          2006.938
       118   02 Jun 2027 02:34:07.411   02 Jun 2027 02:34:23.410            15.999                Norilsk           499.969
       119   02 Jun 2027 02:34:41.362   02 Jun 2027 02:35:31.809            50.447              Murmansk2          1576.469
       120   02 Jun 2027 02:35:57.100   02 Jun 2027 02:36:13.788            16.688              Murmansk1           521.500
       121   02 Jun 2027 02:36:15.353   02 Jun 2027 02:37:03.624            48.271                Novosib          1508.469
       122   02 Jun 2027 02:37:10.637   02 Jun 2027 02:38:29.205            78.568                Irkutsk          2455.250
       123   02 Jun 2027 02:42:38.749   02 Jun 2027 02:43:08.603            29.854                Irkutsk           932.938
       124   02 Jun 2027 02:43:24.863   02 Jun 2027 02:44:22.955            58.092                Irkutsk          1815.375
       125   02 Jun 2027 04:17:22.085   02 Jun 2027 04:18:52.735            90.650                Norilsk          2832.812
       126   02 Jun 2027 04:19:16.666   02 Jun 2027 04:20:14.123            57.457                Norilsk          1795.531
       127   02 Jun 2027 04:20:34.056   02 Jun 2027 04:22:44.116           130.060              Murmansk2          4064.375
       128   02 Jun 2027 04:22:59.603   02 Jun 2027 04:26:24.901           205.298                 Moscow          6415.563
       129   02 Jun 2027 04:42:14.351   02 Jun 2027 04:44:22.006           127.655               CapeTown          3989.219
       130   02 Jun 2027 05:42:11.919   02 Jun 2027 05:42:30.126            18.207               Magadan1           568.969
       131   02 Jun 2027 05:43:31.677   02 Jun 2027 05:43:57.876            26.199                Anadyr1           818.719
       132   02 Jun 2027 05:44:48.608   02 Jun 2027 05:45:28.289            39.681                Anadyr1          1240.031
       133   02 Jun 2027 06:00:41.656   02 Jun 2027 06:01:17.939            36.283                 Moscow          1133.844
       134   02 Jun 2027 07:18:03.627   02 Jun 2027 07:20:02.190           118.563                Anadyr1          3705.094
       135   02 Jun 2027 07:20:04.864   02 Jun 2027 07:22:54.213           169.349               Magadan2          5292.156
       136   02 Jun 2027 08:53:36.506   02 Jun 2027 08:55:50.865           134.359               Magadan1          4198.719
       137   02 Jun 2027 08:55:58.902   02 Jun 2027 08:58:32.063           153.161                Anadyr1          4786.281
       138   02 Jun 2027 10:28:46.059   02 Jun 2027 10:29:14.014            27.955                Irkutsk           873.594
       139   02 Jun 2027 10:30:18.198   02 Jun 2027 10:30:39.754            21.556                Irkutsk           673.625
       140   02 Jun 2027 10:30:43.076   02 Jun 2027 10:31:36.704            53.628                Irkutsk          1675.875
       141   02 Jun 2027 10:31:58.445   02 Jun 2027 10:32:48.370            49.925               Magadan1          1560.156
       142   02 Jun 2027 10:32:48.370   02 Jun 2027 10:33:40.365            51.995               Magadan2          1624.844
       143   02 Jun 2027 10:33:50.613   02 Jun 2027 10:34:23.501            32.888                Irkutsk          1027.750
       144   02 Jun 2027 10:34:48.308   02 Jun 2027 10:34:54.867             6.559                Novosib           204.969
       145   02 Jun 2027 11:09:18.740   02 Jun 2027 11:10:06.669            47.929            RioGallegos          1497.781
       146   02 Jun 2027 11:17:24.355   02 Jun 2027 11:17:59.388            35.033            RioGallegos          1094.781
       147   02 Jun 2027 11:44:12.290   02 Jun 2027 11:44:47.946            35.656                Sumatra          1114.250
       148   02 Jun 2027 11:47:31.917   02 Jun 2027 11:47:32.851             0.934                Sumatra            29.187
       149   02 Jun 2027 11:48:58.983   02 Jun 2027 11:50:19.733            80.750                Sumatra          2523.438
       150   02 Jun 2027 12:11:35.206   02 Jun 2027 12:12:05.764            30.558                Novosib           954.937
       151   02 Jun 2027 12:14:59.692   02 Jun 2027 12:15:00.696             1.004                Norilsk            31.375
       152   02 Jun 2027 12:48:29.000   02 Jun 2027 12:49:03.375            34.375            RioGallegos          1074.219
       153   02 Jun 2027 12:50:09.991   02 Jun 2027 12:52:16.782           126.791            RioGallegos          3962.219
       154   02 Jun 2027 13:24:00.449   02 Jun 2027 13:24:49.535            49.086                Sumatra          1533.937
       155   02 Jun 2027 13:35:53.666   02 Jun 2027 13:36:36.751            43.085                Novosib          1346.406
       156   02 Jun 2027 13:37:36.463   02 Jun 2027 13:38:16.003            39.540                Novosib          1235.625
       157   02 Jun 2027 13:39:11.638   02 Jun 2027 13:40:38.416            86.778                Irkutsk          2711.813
       158   02 Jun 2027 13:43:06.702   02 Jun 2027 13:43:40.359            33.657                Irkutsk          1051.781
       159   02 Jun 2027 13:50:47.754   02 Jun 2027 13:51:32.817            45.063                Norilsk          1408.219
       160   02 Jun 2027 15:10:19.633   02 Jun 2027 15:11:39.063            79.430                  Delhi          2482.188
       161   02 Jun 2027 15:13:54.788   02 Jun 2027 15:14:53.667            58.879                 Moscow          1839.969
       162   02 Jun 2027 15:15:10.391   02 Jun 2027 15:15:31.555            21.164                 Moscow           661.375
       163   02 Jun 2027 15:16:10.139   02 Jun 2027 15:17:22.900            72.761              Murmansk1          2273.781
       164   02 Jun 2027 15:17:57.550   02 Jun 2027 15:20:27.356           149.806                Novosib          4681.438
       165   02 Jun 2027 15:24:25.470   02 Jun 2027 15:24:33.934             8.464                Norilsk           264.500
       166   02 Jun 2027 16:27:52.507   02 Jun 2027 16:28:44.895            52.388               CapeTown          1637.125
       167   02 Jun 2027 16:30:07.085   02 Jun 2027 16:30:36.176            29.091               CapeTown           909.094
       168   02 Jun 2027 16:32:08.340   02 Jun 2027 16:33:43.749            95.409               CapeTown          2981.531
       169   02 Jun 2027 16:51:53.361   02 Jun 2027 16:52:36.223            42.862                 Moscow          1339.437
       170   02 Jun 2027 16:55:30.666   02 Jun 2027 16:55:56.411            25.745              Murmansk2           804.531
       171   02 Jun 2027 16:58:29.073   02 Jun 2027 16:59:15.488            46.415              Murmansk1          1450.469
       172   02 Jun 2027 17:01:19.870   02 Jun 2027 17:01:50.880            31.010              Murmansk2           969.063
       173   02 Jun 2027 17:07:22.303   02 Jun 2027 17:08:11.551            49.248                Anadyr2          1539.000
       174   02 Jun 2027 17:08:34.727   02 Jun 2027 17:09:08.930            34.203                Anadyr1          1068.844
       175   02 Jun 2027 17:12:06.154   02 Jun 2027 17:12:19.216            13.062                Anadyr2           408.187
       176   02 Jun 2027 17:15:26.075   02 Jun 2027 17:15:54.781            28.706                Anadyr1           897.063
       177   02 Jun 2027 18:02:10.970   02 Jun 2027 18:04:27.872           136.902               CapeTown          4278.188
       178   02 Jun 2027 18:31:56.525   02 Jun 2027 18:35:17.218           200.693              Murmansk2          6271.656
       179   02 Jun 2027 18:37:13.822   02 Jun 2027 18:37:17.552             3.730              Murmansk2           116.562
       180   02 Jun 2027 18:46:36.802   02 Jun 2027 18:47:56.202            79.400               Magadan2          2481.250
       181   02 Jun 2027 18:49:35.412   02 Jun 2027 18:50:13.991            38.579               Magadan1          1205.594
       182   02 Jun 2027 19:40:35.676   02 Jun 2027 19:40:39.577             3.901               CapeTown           121.906
       183   02 Jun 2027 19:41:56.848   02 Jun 2027 19:42:15.858            19.010               CapeTown           594.062
       184   02 Jun 2027 19:42:22.122   02 Jun 2027 19:44:48.362           146.240               CapeTown          4570.000
       185   02 Jun 2027 20:18:43.009   02 Jun 2027 20:19:51.900            68.891                Anadyr1          2152.844
       186   02 Jun 2027 20:20:05.089   02 Jun 2027 20:22:03.798           118.709                Anadyr1          3709.656
       187   02 Jun 2027 20:22:05.003   02 Jun 2027 20:23:04.805            59.802               Magadan1          1868.813
       188   02 Jun 2027 21:54:36.342   02 Jun 2027 21:58:16.938           220.596                Anadyr1          6893.625
       189   02 Jun 2027 21:58:20.921   02 Jun 2027 22:00:24.791           123.870                Norilsk          3870.937
       190   02 Jun 2027 22:00:41.300   02 Jun 2027 22:02:09.670            88.370               Magadan2          2761.563
       191   02 Jun 2027 22:02:48.481   02 Jun 2027 22:04:00.077            71.596                Irkutsk          2237.375
       192   02 Jun 2027 22:05:03.061   02 Jun 2027 22:05:18.457            15.396                Irkutsk           481.125
       193   02 Jun 2027 22:48:47.192   02 Jun 2027 22:49:43.945            56.753            RioGallegos          1773.531
       194   02 Jun 2027 22:51:31.844   02 Jun 2027 22:51:46.997            15.153            RioGallegos           473.531
       195   02 Jun 2027 22:53:53.568   02 Jun 2027 22:54:52.887            59.319            RioGallegos          1853.719
       196   02 Jun 2027 22:58:16.695   02 Jun 2027 22:58:28.322            11.627            RioGallegos           363.344
       197   02 Jun 2027 23:30:05.838   02 Jun 2027 23:32:25.893           140.055                Anadyr2          4376.719
       198   02 Jun 2027 23:32:26.350   02 Jun 2027 23:33:53.063            86.713                Norilsk          2709.781
       199   02 Jun 2027 23:34:07.762   02 Jun 2027 23:34:23.199            15.437               Magadan2           482.406
       200   02 Jun 2027 23:35:19.748   02 Jun 2027 23:35:50.889            31.141               Magadan2           973.156
       201   02 Jun 2027 23:36:00.682   02 Jun 2027 23:36:24.885            24.203               Magadan2           756.344
       202   02 Jun 2027 23:36:59.912   02 Jun 2027 23:37:31.559            31.647                Irkutsk           988.969
       203   02 Jun 2027 23:37:40.423   02 Jun 2027 23:38:16.476            36.053                Novosib          1126.656
       204   02 Jun 2027 23:40:30.346   02 Jun 2027 23:40:52.010            21.664                Novosib           677.000
       205   02 Jun 2027 23:41:57.998   02 Jun 2027 23:42:38.245            40.247                Novosib          1257.719
       206   02 Jun 2027 23:50:10.404   02 Jun 2027 23:51:25.017            74.613                Sumatra          2331.656
       207   02 Jun 2027 23:58:56.252   02 Jun 2027 23:59:44.626            48.374                Sumatra          1511.688
       208   03 Jun 2027 00:33:58.977   03 Jun 2027 00:34:58.694            59.717            RioGallegos          1866.156
       209   03 Jun 2027 01:04:34.837   03 Jun 2027 01:05:05.691            30.854                Anadyr1           964.187
       210   03 Jun 2027 01:05:39.337   03 Jun 2027 01:06:18.429            39.092                Anadyr1          1221.625
       211   03 Jun 2027 01:06:48.852   03 Jun 2027 01:06:52.449             3.597                Anadyr2           112.406
       212   03 Jun 2027 01:07:18.724   03 Jun 2027 01:07:30.218            11.494                Anadyr2           359.188
       213   03 Jun 2027 01:08:25.900   03 Jun 2027 01:10:14.422           108.522                Norilsk          3391.312
       214   03 Jun 2027 01:11:19.621   03 Jun 2027 01:11:29.206             9.585               Magadan1           299.531
       215   03 Jun 2027 01:11:34.417   03 Jun 2027 01:12:00.959            26.542               Magadan1           829.437
       216   03 Jun 2027 01:12:19.130   03 Jun 2027 01:14:14.548           115.418                Novosib          3606.813
       217   03 Jun 2027 01:15:59.018   03 Jun 2027 01:16:11.352            12.334                Novosib           385.438
       218   03 Jun 2027 01:19:15.444   03 Jun 2027 01:19:57.074            41.630                Novosib          1300.938
       219   03 Jun 2027 01:21:31.864   03 Jun 2027 01:22:14.204            42.340                  Delhi          1323.125
       220   03 Jun 2027 01:30:06.702   03 Jun 2027 01:30:33.443            26.741                  Delhi           835.656
       221   03 Jun 2027 01:33:03.334   03 Jun 2027 01:33:10.820             7.486                Sumatra           233.938
       222   03 Jun 2027 02:01:00.932   03 Jun 2027 02:02:20.266            79.334            RioGallegos          2479.188
       223   03 Jun 2027 02:03:13.775   03 Jun 2027 02:03:21.167             7.392            RioGallegos           231.000
       224   03 Jun 2027 02:04:55.174   03 Jun 2027 02:05:17.532            22.358            RioGallegos           698.687
       225   03 Jun 2027 02:07:34.130   03 Jun 2027 02:08:09.698            35.568            RioGallegos          1111.500
       226   03 Jun 2027 02:39:56.827   03 Jun 2027 02:40:46.366            49.539                Anadyr2          1548.094
       227   03 Jun 2027 02:44:12.211   03 Jun 2027 02:45:15.404            63.193               Magadan2          1974.781
       228   03 Jun 2027 02:45:16.908   03 Jun 2027 02:45:44.785            27.877                Norilsk           871.156
       229   03 Jun 2027 02:46:40.362   03 Jun 2027 02:48:00.068            79.706              Murmansk1          2490.812
       230   03 Jun 2027 02:48:15.380   03 Jun 2027 02:48:51.702            36.322                Novosib          1135.062
       231   03 Jun 2027 02:49:11.456   03 Jun 2027 02:49:54.682            43.226                Irkutsk          1350.812
       232   03 Jun 2027 02:54:39.475   03 Jun 2027 02:54:43.801             4.326                Irkutsk           135.188
       233   03 Jun 2027 02:56:29.264   03 Jun 2027 02:56:31.438             2.174                Irkutsk            67.937
       234   03 Jun 2027 02:56:49.509   03 Jun 2027 02:57:27.253            37.744                  Delhi          1179.500
       235   03 Jun 2027 03:00:40.546   03 Jun 2027 03:01:14.020            33.474                  Delhi          1046.062
       236   03 Jun 2027 04:30:03.453   03 Jun 2027 04:30:17.959            14.506              Murmansk2           453.312
       237   03 Jun 2027 04:30:26.500   03 Jun 2027 04:31:18.344            51.844                Novosib          1620.125
       238   03 Jun 2027 04:31:20.048   03 Jun 2027 04:33:07.168           107.120                Novosib          3347.500
       239   03 Jun 2027 04:33:46.339   03 Jun 2027 04:36:46.011           179.672                 Moscow          5614.750
       240   03 Jun 2027 04:37:05.419   03 Jun 2027 04:38:34.428            89.009                 Moscow          2781.531
       241   03 Jun 2027 04:49:50.138   03 Jun 2027 04:52:05.780           135.642               CapeTown          4238.813
       242   03 Jun 2027 04:52:48.474   03 Jun 2027 04:53:24.342            35.868               CapeTown          1120.875
       243   03 Jun 2027 05:53:00.635   03 Jun 2027 05:54:12.697            72.062               Magadan2          2251.937
       244   03 Jun 2027 05:54:41.073   03 Jun 2027 05:54:51.657            10.584               Magadan2           330.750
       245   03 Jun 2027 05:54:51.657   03 Jun 2027 05:55:01.031             9.374               Magadan1           292.937
       246   03 Jun 2027 07:27:41.640   03 Jun 2027 07:28:43.114            61.474                Anadyr2          1921.063
       247   03 Jun 2027 07:28:59.056   03 Jun 2027 07:29:35.842            36.786               Magadan1          1149.563
       248   03 Jun 2027 07:30:07.633   03 Jun 2027 07:30:16.407             8.774                Anadyr2           274.188
       249   03 Jun 2027 07:30:16.407   03 Jun 2027 07:31:28.638            72.231                Anadyr1          2257.219
       250   03 Jun 2027 07:31:41.715   03 Jun 2027 07:31:50.450             8.735               Magadan1           272.969
       251   03 Jun 2027 07:32:32.675   03 Jun 2027 07:32:53.125            20.450                Anadyr1           639.063
       252   03 Jun 2027 07:32:53.125   03 Jun 2027 07:33:05.194            12.069                Anadyr2           377.156
       253   03 Jun 2027 07:38:25.167   03 Jun 2027 07:39:15.127            49.960                 Moscow          1561.250
       254   03 Jun 2027 09:02:57.747   03 Jun 2027 09:03:01.794             4.047               Magadan2           126.469
       255   03 Jun 2027 09:03:04.866   03 Jun 2027 09:03:10.711             5.845                Anadyr2           182.656
       256   03 Jun 2027 09:03:10.711   03 Jun 2027 09:03:25.248            14.537                Anadyr1           454.281
       257   03 Jun 2027 09:03:59.822   03 Jun 2027 09:05:24.308            84.486                Anadyr2          2640.188
       258   03 Jun 2027 09:05:43.667   03 Jun 2027 09:07:04.842            81.175               Magadan1          2536.719
       259   03 Jun 2027 09:07:42.074   03 Jun 2027 09:07:48.148             6.074                Anadyr1           189.813
       260   03 Jun 2027 09:07:50.058   03 Jun 2027 09:08:17.873            27.815               Magadan2           869.219
       261   03 Jun 2027 09:08:22.397   03 Jun 2027 09:08:54.009            31.612               Magadan2           987.875
       262   03 Jun 2027 09:09:03.270   03 Jun 2027 09:09:40.305            37.035               Magadan2          1157.344
       263   03 Jun 2027 09:11:32.468   03 Jun 2027 09:11:38.374             5.906                Norilsk           184.562
       264   03 Jun 2027 09:46:03.418   03 Jun 2027 09:46:30.281            26.863            RioGallegos           839.469
       265   03 Jun 2027 09:48:03.426   03 Jun 2027 09:48:25.745            22.319            RioGallegos           697.469
       266   03 Jun 2027 09:51:33.917   03 Jun 2027 09:52:18.592            44.675            RioGallegos          1396.094
       267   03 Jun 2027 10:28:48.916   03 Jun 2027 10:29:02.698            13.782                Sumatra           430.688
       268   03 Jun 2027 10:40:59.024   03 Jun 2027 10:41:19.147            20.123                Irkutsk           628.844
       269   03 Jun 2027 10:42:13.756   03 Jun 2027 10:42:45.430            31.674                Irkutsk           989.813
       270   03 Jun 2027 10:42:58.022   03 Jun 2027 10:43:11.380            13.358               Magadan1           417.437
       271   03 Jun 2027 10:43:29.577   03 Jun 2027 10:43:30.909             1.332                Irkutsk            41.625
       272   03 Jun 2027 10:44:18.888   03 Jun 2027 10:44:31.963            13.075                Irkutsk           408.594
       273   03 Jun 2027 10:44:38.501   03 Jun 2027 10:45:11.129            32.628                Novosib          1019.625
       274   03 Jun 2027 10:45:19.697   03 Jun 2027 10:45:45.260            25.563                Novosib           798.844
       275   03 Jun 2027 10:45:59.770   03 Jun 2027 10:46:38.320            38.550                Novosib          1204.688
       276   03 Jun 2027 11:21:28.211   03 Jun 2027 11:21:59.694            31.483            RioGallegos           983.844
       277   03 Jun 2027 11:22:37.473   03 Jun 2027 11:23:19.261            41.788            RioGallegos          1305.875
       278   03 Jun 2027 11:56:09.934   03 Jun 2027 11:56:52.342            42.408                Sumatra          1325.250
       279   03 Jun 2027 12:10:23.225   03 Jun 2027 12:11:44.637            81.412                Irkutsk          2544.125
       280   03 Jun 2027 12:15:01.166   03 Jun 2027 12:15:50.079            48.913                Irkutsk          1528.531
       281   03 Jun 2027 13:01:30.899   03 Jun 2027 13:04:16.507           165.608            RioGallegos          5175.250
       282   03 Jun 2027 13:42:39.471   03 Jun 2027 13:43:29.619            50.148                  Delhi          1567.125
       283   03 Jun 2027 13:48:15.185   03 Jun 2027 13:49:19.992            64.807                Novosib          2025.219
       284   03 Jun 2027 13:50:12.301   03 Jun 2027 13:52:28.322           136.021                Novosib          4250.656
       285   03 Jun 2027 14:01:25.666   03 Jun 2027 14:01:41.708            16.042                Norilsk           501.313
       286   03 Jun 2027 15:24:46.432   03 Jun 2027 15:28:04.378           197.946                 Moscow          6185.812
       287   03 Jun 2027 15:28:12.521   03 Jun 2027 15:29:28.325            75.804              Murmansk1          2368.875
       288   03 Jun 2027 15:31:16.908   03 Jun 2027 15:31:33.544            16.636              Murmansk1           519.875
       289   03 Jun 2027 15:32:09.375   03 Jun 2027 15:33:38.371            88.996                Norilsk          2781.125
       290   03 Jun 2027 15:35:26.839   03 Jun 2027 15:37:15.551           108.712                Norilsk          3397.250
       291   03 Jun 2027 15:37:41.344   03 Jun 2027 15:37:45.038             3.694                Norilsk           115.437
       292   03 Jun 2027 16:43:08.953   03 Jun 2027 16:43:49.648            40.695               CapeTown          1271.719
       293   03 Jun 2027 16:48:53.603   03 Jun 2027 16:49:04.088            10.485               CapeTown           327.656
       294   03 Jun 2027 17:02:05.805   03 Jun 2027 17:02:23.528            17.723                 Moscow           553.844
       295   03 Jun 2027 17:03:38.910   03 Jun 2027 17:04:33.512            54.602                 Moscow          1706.312
       296   03 Jun 2027 17:05:15.277   03 Jun 2027 17:05:53.786            38.509              Murmansk2          1203.406
       297   03 Jun 2027 17:07:58.489   03 Jun 2027 17:09:06.172            67.683              Murmansk1          2115.094
       298   03 Jun 2027 17:19:16.181   03 Jun 2027 17:20:34.647            78.466                Anadyr2          2452.062
       299   03 Jun 2027 17:21:44.955   03 Jun 2027 17:21:56.036            11.081                Anadyr1           346.281
       300   03 Jun 2027 17:23:40.271   03 Jun 2027 17:24:02.442            22.171                Anadyr1           692.844
       301   03 Jun 2027 17:27:53.834   03 Jun 2027 17:28:09.648            15.814                Anadyr2           494.188
       302   03 Jun 2027 18:14:15.746   03 Jun 2027 18:14:37.020            21.274               CapeTown           664.812
       303   03 Jun 2027 18:16:26.948   03 Jun 2027 18:17:17.383            50.435               CapeTown          1576.094
       304   03 Jun 2027 18:44:33.175   03 Jun 2027 18:45:25.244            52.069              Murmansk1          1627.156
       305   03 Jun 2027 18:45:29.281   03 Jun 2027 18:49:13.543           224.262              Murmansk2          7008.188
       306   03 Jun 2027 18:58:14.557   03 Jun 2027 18:59:35.451            80.894               Magadan2          2527.937
       307   03 Jun 2027 19:05:23.111   03 Jun 2027 19:05:36.964            13.853               Magadan2           432.906
       308   03 Jun 2027 20:30:44.743   03 Jun 2027 20:32:21.477            96.734                Anadyr2          3022.937
       309   03 Jun 2027 20:32:36.107   03 Jun 2027 20:34:35.613           119.506                Anadyr1          3734.563
       310   03 Jun 2027 20:35:12.249   03 Jun 2027 20:37:57.964           165.715               Magadan1          5178.594
       311   03 Jun 2027 20:40:40.766   03 Jun 2027 20:41:06.147            25.381               Magadan2           793.156
       312   03 Jun 2027 20:41:22.388   03 Jun 2027 20:41:33.025            10.637               Magadan2           332.406
       313   03 Jun 2027 20:41:56.446   03 Jun 2027 20:42:21.222            24.776               Magadan1           774.250
       314   03 Jun 2027 21:29:15.815   03 Jun 2027 21:29:37.702            21.887            RioGallegos           683.969
       315   03 Jun 2027 22:06:36.542   03 Jun 2027 22:08:42.053           125.511                Anadyr2          3922.219
       316   03 Jun 2027 22:08:47.985   03 Jun 2027 22:10:41.983           113.998                Norilsk          3562.437
       317   03 Jun 2027 22:10:49.933   03 Jun 2027 22:10:55.903             5.970                Norilsk           186.563
       318   03 Jun 2027 22:11:10.037   03 Jun 2027 22:11:32.789            22.752                Anadyr1           711.000
       319   03 Jun 2027 22:11:33.018   03 Jun 2027 22:12:48.083            75.065               Magadan2          2345.781
       320   03 Jun 2027 22:12:52.364   03 Jun 2027 22:13:03.069            10.705               Magadan1           334.531
       321   03 Jun 2027 22:13:16.949   03 Jun 2027 22:13:57.613            40.664                Norilsk          1270.750
       322   03 Jun 2027 22:14:09.229   03 Jun 2027 22:15:00.162            50.933                Irkutsk          1591.656
       323   03 Jun 2027 22:16:38.884   03 Jun 2027 22:17:01.945            23.061                Irkutsk           720.656
       324   03 Jun 2027 22:19:15.575   03 Jun 2027 22:19:45.824            30.249                Irkutsk           945.281
       325   03 Jun 2027 22:30:04.021   03 Jun 2027 22:31:28.726            84.705                Sumatra          2647.031
       326   03 Jun 2027 22:34:47.064   03 Jun 2027 22:35:59.652            72.588                Sumatra          2268.375
       327   03 Jun 2027 23:42:00.661   03 Jun 2027 23:42:30.118            29.457                Anadyr1           920.531
       328   03 Jun 2027 23:42:36.503   03 Jun 2027 23:44:23.349           106.846                Anadyr2          3338.937
       329   03 Jun 2027 23:45:03.821   03 Jun 2027 23:46:00.614            56.793               Magadan2          1774.781
       330   03 Jun 2027 23:46:00.614   03 Jun 2027 23:46:03.391             2.777               Magadan1            86.781
       331   03 Jun 2027 23:46:55.631   03 Jun 2027 23:47:19.013            23.382               Magadan2           730.687
       332   03 Jun 2027 23:47:53.431   03 Jun 2027 23:48:21.667            28.236               Magadan1           882.375
       333   03 Jun 2027 23:48:26.721   03 Jun 2027 23:49:32.814            66.093                Irkutsk          2065.406
       334   03 Jun 2027 23:49:55.382   03 Jun 2027 23:50:57.305            61.923                Novosib          1935.094
       335   03 Jun 2027 23:54:59.504   03 Jun 2027 23:55:07.994             8.490                Novosib           265.312
       336   03 Jun 2027 23:55:41.793   03 Jun 2027 23:56:03.471            21.678                Novosib           677.437
       337   04 Jun 2027 00:02:10.877   04 Jun 2027 00:02:25.653            14.776                Sumatra           461.750
       338   04 Jun 2027 00:04:22.250   04 Jun 2027 00:04:51.468            29.218                Sumatra           913.062
       339   04 Jun 2027 00:06:37.377   04 Jun 2027 00:08:04.781            87.404                Sumatra          2731.375
       340   04 Jun 2027 00:45:38.799   04 Jun 2027 00:46:03.261            24.462            RioGallegos           764.438
       341   04 Jun 2027 00:48:17.130   04 Jun 2027 00:48:20.856             3.726            RioGallegos           116.438
       342   04 Jun 2027 01:16:19.853   04 Jun 2027 01:16:58.193            38.340                Anadyr1          1198.125
       343   04 Jun 2027 01:17:38.744   04 Jun 2027 01:18:08.517            29.773                Anadyr1           930.406
       344   04 Jun 2027 01:18:30.292   04 Jun 2027 01:18:42.827            12.535                Anadyr1           391.719
       345   04 Jun 2027 01:18:42.827   04 Jun 2027 01:18:56.361            13.534                Anadyr2           422.937
       346   04 Jun 2027 01:19:19.879   04 Jun 2027 01:19:20.366             0.487                Anadyr1            15.219
       347   04 Jun 2027 01:20:28.177   04 Jun 2027 01:22:26.873           118.696                Norilsk          3709.250
       348   04 Jun 2027 01:23:04.201   04 Jun 2027 01:23:20.134            15.933               Magadan2           497.906
       349   04 Jun 2027 01:23:48.032   04 Jun 2027 01:24:27.956            39.924              Murmansk1          1247.625
       350   04 Jun 2027 01:24:30.282   04 Jun 2027 01:25:55.888            85.606              Murmansk2          2675.188
       351   04 Jun 2027 01:25:56.642   04 Jun 2027 01:26:20.231            23.589                Novosib           737.156
       352   04 Jun 2027 01:31:19.510   04 Jun 2027 01:31:24.772             5.262                Novosib           164.437
       353   04 Jun 2027 01:31:42.451   04 Jun 2027 01:32:30.415            47.964                  Delhi          1498.875
       354   04 Jun 2027 01:35:33.094   04 Jun 2027 01:37:47.097           134.003                  Delhi          4187.594
       355   04 Jun 2027 02:14:27.895   04 Jun 2027 02:14:36.216             8.321            RioGallegos           260.031
       356   04 Jun 2027 02:14:40.176   04 Jun 2027 02:15:26.291            46.115            RioGallegos          1441.094
       357   04 Jun 2027 02:49:39.571   04 Jun 2027 02:50:12.507            32.936                Anadyr1          1029.250
       358   04 Jun 2027 02:51:58.084   04 Jun 2027 02:52:38.529            40.445                Anadyr1          1263.906
       359   04 Jun 2027 02:55:52.575   04 Jun 2027 02:56:24.176            31.601               Magadan2           987.531
       360   04 Jun 2027 02:56:24.176   04 Jun 2027 02:56:44.427            20.251               Magadan1           632.844
       361   04 Jun 2027 02:57:06.749   04 Jun 2027 02:57:45.914            39.165                Norilsk          1223.906
       362   04 Jun 2027 02:58:40.103   04 Jun 2027 02:59:30.928            50.825              Murmansk2          1588.281
       363   04 Jun 2027 03:00:01.507   04 Jun 2027 03:00:16.947            15.440              Murmansk1           482.500
       364   04 Jun 2027 03:02:16.174   04 Jun 2027 03:02:22.639             6.465              Murmansk1           202.031
       365   04 Jun 2027 03:02:37.183   04 Jun 2027 03:03:10.915            33.732                Norilsk          1054.125
       366   04 Jun 2027 03:03:12.566   04 Jun 2027 03:03:38.637            26.071              Murmansk2           814.719
       367   04 Jun 2027 03:03:46.166   04 Jun 2027 03:03:58.911            12.745              Murmansk2           398.281
       368   04 Jun 2027 03:04:05.115   04 Jun 2027 03:04:11.737             6.622                Novosib           206.938
       369   04 Jun 2027 03:04:24.876   04 Jun 2027 03:05:14.934            50.058                Novosib          1564.313
       370   04 Jun 2027 03:05:29.961   04 Jun 2027 03:05:53.932            23.971                 Moscow           749.094
       371   04 Jun 2027 03:05:55.364   04 Jun 2027 03:07:57.860           122.496                Novosib          3828.000
       372   04 Jun 2027 03:07:59.713   04 Jun 2027 03:08:13.550            13.837                Irkutsk           432.406
       373   04 Jun 2027 03:08:14.932   04 Jun 2027 03:08:56.979            42.047                Norilsk          1313.969
       374   04 Jun 2027 03:10:32.213   04 Jun 2027 03:12:32.715           120.502                  Delhi          3765.687
       375   04 Jun 2027 04:42:08.712   04 Jun 2027 04:42:34.620            25.908                Novosib           809.625
       376   04 Jun 2027 04:44:09.487   04 Jun 2027 04:44:30.844            21.357                Novosib           667.406
       377   04 Jun 2027 04:44:51.251   04 Jun 2027 04:45:19.120            27.869                 Moscow           870.906
       378   04 Jun 2027 04:45:57.372   04 Jun 2027 04:48:25.137           147.765                 Moscow          4617.656
       379   04 Jun 2027 05:01:43.920   04 Jun 2027 05:04:47.368           183.448               CapeTown          5732.750
       380   04 Jun 2027 05:58:24.957   04 Jun 2027 06:00:38.487           133.530                Anadyr1          4172.813
       381   04 Jun 2027 06:00:49.235   04 Jun 2027 06:03:09.722           140.487                Anadyr2          4390.219
       382   04 Jun 2027 06:04:56.631   04 Jun 2027 06:06:53.544           116.913               Magadan1          3653.531
       383   04 Jun 2027 06:07:05.758   04 Jun 2027 06:07:35.239            29.481                Anadyr2           921.281
       384   04 Jun 2027 07:38:58.017   04 Jun 2027 07:39:20.340            22.323               Magadan2           697.594
       385   04 Jun 2027 07:39:43.053   04 Jun 2027 07:40:12.021            28.968                Anadyr2           905.250
       386   04 Jun 2027 07:40:16.979   04 Jun 2027 07:40:58.424            41.445                Anadyr1          1295.156
       387   04 Jun 2027 07:41:02.480   04 Jun 2027 07:41:07.815             5.335               Magadan2           166.719
       388   04 Jun 2027 07:41:15.777   04 Jun 2027 07:41:32.145            16.368                Anadyr1           511.500
       389   04 Jun 2027 07:41:43.764   04 Jun 2027 07:42:38.132            54.368               Magadan2          1699.000
       390   04 Jun 2027 07:42:51.769   04 Jun 2027 07:43:11.231            19.462               Magadan1           608.187
       391   04 Jun 2027 07:43:29.355   04 Jun 2027 07:44:49.210            79.855                Anadyr1          2495.469
       392   04 Jun 2027 09:16:17.993   04 Jun 2027 09:16:44.477            26.484               Magadan1           827.625
       393   04 Jun 2027 09:17:08.848   04 Jun 2027 09:17:45.646            36.798               Magadan1          1149.937
       394   04 Jun 2027 09:18:00.281   04 Jun 2027 09:18:05.658             5.377                Irkutsk           168.031
       395   04 Jun 2027 09:18:35.520   04 Jun 2027 09:19:10.181            34.661                Irkutsk          1083.156
       396   04 Jun 2027 09:20:08.212   04 Jun 2027 09:20:30.694            22.482                Anadyr1           702.562
       397   04 Jun 2027 09:20:42.844   04 Jun 2027 09:21:05.069            22.225               Magadan1           694.531
       398   04 Jun 2027 09:21:13.853   04 Jun 2027 09:22:05.455            51.602                Anadyr1          1612.563
       399   04 Jun 2027 09:22:23.443   04 Jun 2027 09:22:43.246            19.803               Magadan2           618.844
       400   04 Jun 2027 09:57:49.756   04 Jun 2027 09:58:10.651            20.895            RioGallegos           652.969
       401   04 Jun 2027 09:58:38.862   04 Jun 2027 09:59:06.724            27.862            RioGallegos           870.687
       402   04 Jun 2027 10:03:04.674   04 Jun 2027 10:03:20.892            16.218            RioGallegos           506.813
       403   04 Jun 2027 10:35:22.097   04 Jun 2027 10:37:02.713           100.616                Sumatra          3144.250
       404   04 Jun 2027 10:52:18.303   04 Jun 2027 10:54:04.291           105.988               Magadan2          3312.125
       405   04 Jun 2027 10:55:06.570   04 Jun 2027 10:55:25.561            18.991                Irkutsk           593.469
       406   04 Jun 2027 10:55:28.811   04 Jun 2027 10:56:01.126            32.315                Novosib          1009.844
       407   04 Jun 2027 10:56:04.741   04 Jun 2027 10:56:14.775            10.034                Novosib           313.562
       408   04 Jun 2027 10:56:27.710   04 Jun 2027 10:56:31.432             3.722                Irkutsk           116.313
       409   04 Jun 2027 10:56:42.535   04 Jun 2027 10:56:46.899             4.364               Magadan2           136.375
       410   04 Jun 2027 10:57:21.083   04 Jun 2027 10:57:42.648            21.565                Norilsk           673.906
       411   04 Jun 2027 10:57:44.354   04 Jun 2027 10:58:07.645            23.291                Irkutsk           727.844
       412   04 Jun 2027 10:58:17.439   04 Jun 2027 10:58:21.022             3.583                Novosib           111.969
       413   04 Jun 2027 10:58:37.199   04 Jun 2027 10:59:42.513            65.314                Novosib          2041.062
       414   04 Jun 2027 11:33:50.251   04 Jun 2027 11:34:40.822            50.571            RioGallegos          1580.344
       415   04 Jun 2027 12:11:18.282   04 Jun 2027 12:12:25.310            67.028                Sumatra          2094.625
       416   04 Jun 2027 12:22:44.999   04 Jun 2027 12:23:51.061            66.062                Irkutsk          2064.437
       417   04 Jun 2027 12:25:26.855   04 Jun 2027 12:25:43.958            17.103                Novosib           534.469
       418   04 Jun 2027 12:27:01.530   04 Jun 2027 12:28:04.235            62.705                Irkutsk          1959.531
       419   04 Jun 2027 13:14:59.759   04 Jun 2027 13:16:58.122           118.363            RioGallegos          3698.844
       420   04 Jun 2027 14:00:35.736   04 Jun 2027 14:02:30.227           114.491                  Delhi          3577.844
       421   04 Jun 2027 14:03:02.797   04 Jun 2027 14:05:27.178           144.381                Novosib          4511.906
       422   04 Jun 2027 14:06:00.683   04 Jun 2027 14:06:36.676            35.993                Norilsk          1124.781
       423   04 Jun 2027 14:07:10.640   04 Jun 2027 14:07:30.447            19.807                Norilsk           618.969
       424   04 Jun 2027 14:10:15.273   04 Jun 2027 14:10:39.402            24.129                Novosib           754.031
       425   04 Jun 2027 14:13:25.436   04 Jun 2027 14:13:44.168            18.732                Norilsk           585.375
       426   04 Jun 2027 14:14:13.977   04 Jun 2027 14:14:34.628            20.651                Norilsk           645.344
       427   04 Jun 2027 15:36:47.265   04 Jun 2027 15:39:32.871           165.606                 Moscow          5175.188
       428   04 Jun 2027 15:40:16.485   04 Jun 2027 15:41:26.367            69.882              Murmansk2          2183.813
       429   04 Jun 2027 15:44:54.810   04 Jun 2027 15:47:25.765           150.955                Norilsk          4717.344
       430   04 Jun 2027 15:47:38.156   04 Jun 2027 15:48:31.684            53.528                Norilsk          1672.750
       431   04 Jun 2027 16:55:31.043   04 Jun 2027 16:55:46.170            15.127               CapeTown           472.719
       432   04 Jun 2027 17:01:16.229   04 Jun 2027 17:01:36.044            19.815               CapeTown           619.219
       433   04 Jun 2027 17:14:35.540   04 Jun 2027 17:15:12.153            36.613                 Moscow          1144.156
       434   04 Jun 2027 17:17:33.931   04 Jun 2027 17:18:40.086            66.155              Murmansk2          2067.344
       435   04 Jun 2027 17:19:34.192   04 Jun 2027 17:20:02.139            27.947              Murmansk2           873.344
       436   04 Jun 2027 17:21:29.885   04 Jun 2027 17:22:06.789            36.904              Murmansk2          1153.250
       437   04 Jun 2027 17:26:59.268   04 Jun 2027 17:27:18.510            19.242              Murmansk2           601.312
       438   04 Jun 2027 17:31:11.832   04 Jun 2027 17:32:42.929            91.097                Anadyr1          2846.781
       439   04 Jun 2027 17:40:10.663   04 Jun 2027 17:40:10.982             0.319                Anadyr2             9.969
       440   04 Jun 2027 18:26:23.404   04 Jun 2027 18:28:17.619           114.215               CapeTown          3569.219
       441   04 Jun 2027 18:57:13.432   04 Jun 2027 18:58:36.537            83.105              Murmansk2          2597.031
       442   04 Jun 2027 18:58:42.119   04 Jun 2027 19:01:12.497           150.378              Murmansk1          4699.313
       443   04 Jun 2027 19:01:21.463   04 Jun 2027 19:01:36.813            15.350              Murmansk1           479.687
       444   04 Jun 2027 19:01:50.875   04 Jun 2027 19:02:46.956            56.081              Murmansk1          1752.531
       445   04 Jun 2027 19:09:59.110   04 Jun 2027 19:10:37.227            38.117               Magadan2          1191.156
       446   04 Jun 2027 19:10:37.227   04 Jun 2027 19:11:17.425            40.198               Magadan1          1256.187
       447   04 Jun 2027 20:42:46.426   04 Jun 2027 20:44:21.781            95.355                Anadyr2          2979.844
       448   04 Jun 2027 20:44:27.341   04 Jun 2027 20:46:33.277           125.936                Anadyr1          3935.500
       449   04 Jun 2027 20:47:12.803   04 Jun 2027 20:48:50.362            97.559               Magadan1          3048.719
       450   04 Jun 2027 20:49:48.266   04 Jun 2027 20:50:29.238            40.972               Magadan1          1280.375
       451   04 Jun 2027 20:51:08.611   04 Jun 2027 20:51:32.925            24.314               Magadan1           759.813
       452   04 Jun 2027 20:52:30.754   04 Jun 2027 20:52:30.995             0.241               Magadan1             7.531
       453   04 Jun 2027 20:53:16.292   04 Jun 2027 20:53:48.461            32.169                Anadyr2          1005.281
       454   04 Jun 2027 21:39:07.733   04 Jun 2027 21:41:30.487           142.754            RioGallegos          4461.063
       455   04 Jun 2027 21:43:53.054   04 Jun 2027 21:44:19.894            26.840            RioGallegos           838.750
       456   04 Jun 2027 22:18:36.330   04 Jun 2027 22:20:33.735           117.405                Anadyr2          3668.906
       457   04 Jun 2027 22:20:44.246   04 Jun 2027 22:22:36.885           112.639                Norilsk          3519.969
       458   04 Jun 2027 22:22:59.982   04 Jun 2027 22:23:03.495             3.513               Magadan1           109.781
       459   04 Jun 2027 22:23:10.714   04 Jun 2027 22:23:18.526             7.812               Magadan1           244.125
       460   04 Jun 2027 22:23:28.016   04 Jun 2027 22:24:12.678            44.662                Norilsk          1395.688
       461   04 Jun 2027 22:25:43.648   04 Jun 2027 22:26:14.483            30.835                Irkutsk           963.594
       462   04 Jun 2027 22:31:10.346   04 Jun 2027 22:32:13.065            62.719                Irkutsk          1959.969
       463   04 Jun 2027 22:40:49.345   04 Jun 2027 22:42:42.951           113.606                Sumatra          3550.188
       464   04 Jun 2027 23:53:54.415   04 Jun 2027 23:56:21.693           147.278                Anadyr1          4602.438
       465   04 Jun 2027 23:56:54.910   04 Jun 2027 23:56:56.998             2.088                Anadyr2            65.250
       466   04 Jun 2027 23:57:06.475   04 Jun 2027 23:58:11.761            65.286                Norilsk          2040.187
       467   04 Jun 2027 23:58:32.890   05 Jun 2027 00:00:02.233            89.343               Magadan2          2791.969
       468   05 Jun 2027 00:01:07.678   05 Jun 2027 00:02:04.310            56.632                Novosib          1769.750
       469   05 Jun 2027 00:05:58.186   05 Jun 2027 00:07:01.817            63.631                Novosib          1988.469
       470   05 Jun 2027 00:11:24.171   05 Jun 2027 00:12:55.428            91.257                  Delhi          2851.781
       471   05 Jun 2027 00:48:29.938   05 Jun 2027 00:49:40.524            70.586            RioGallegos          2205.813
       472   05 Jun 2027 00:57:23.044   05 Jun 2027 00:58:08.424            45.380            RioGallegos          1418.125
       473   05 Jun 2027 01:28:57.537   05 Jun 2027 01:29:54.453            56.916                Anadyr1          1778.625
       474   05 Jun 2027 01:30:14.178   05 Jun 2027 01:30:34.479            20.301                Anadyr2           634.406
       475   05 Jun 2027 01:30:56.274   05 Jun 2027 01:31:03.750             7.476                Anadyr1           233.625
       476   05 Jun 2027 01:32:30.406   05 Jun 2027 01:34:10.338            99.932                Norilsk          3122.875
       477   05 Jun 2027 01:34:24.157   05 Jun 2027 01:34:36.193            12.036               Magadan1           376.125
       478   05 Jun 2027 01:34:48.426   05 Jun 2027 01:34:58.962            10.536               Magadan2           329.250
       479   05 Jun 2027 01:35:27.788   05 Jun 2027 01:36:26.936            59.148              Murmansk1          1848.375
       480   05 Jun 2027 01:36:31.548   05 Jun 2027 01:37:31.625            60.077                Irkutsk          1877.406
       481   05 Jun 2027 01:37:36.071   05 Jun 2027 01:39:32.551           116.480                Novosib          3640.000
       482   05 Jun 2027 01:56:12.392   05 Jun 2027 01:56:26.198            13.806                  Delhi           431.438
