uniorb/output/strategy_4/Drop/Drop_KinoSat_110805.txt

KinoSat_110805
-------------------------
    Access    *     Start Time (UTCG)     *     Stop Time (UTCG)  *   Duration (s)        *       Station  *  Data (Mbytes)
         1   01 Jun 2027 03:35:49.668   01 Jun 2027 03:36:31.453            41.785                Anadyr2          1305.781
         2   01 Jun 2027 03:36:31.453   01 Jun 2027 03:36:34.744             3.291                Anadyr1           102.844
         3   01 Jun 2027 03:36:44.515   01 Jun 2027 03:38:03.974            79.459                Anadyr1          2483.094
         4   01 Jun 2027 03:38:03.974   01 Jun 2027 03:38:36.549            32.575                Anadyr2          1017.969
         5   01 Jun 2027 03:38:49.485   01 Jun 2027 03:39:21.527            32.042               Magadan1          1001.313
         6   01 Jun 2027 03:39:33.572   01 Jun 2027 03:39:51.131            17.559                Anadyr1           548.719
         7   01 Jun 2027 03:39:56.256   01 Jun 2027 03:40:48.867            52.611               Magadan2          1644.094
         8   01 Jun 2027 03:41:13.471   01 Jun 2027 03:41:28.664            15.193               Magadan1           474.781
         9   01 Jun 2027 03:41:43.973   01 Jun 2027 03:41:48.622             4.649                Anadyr1           145.281
        10   01 Jun 2027 05:13:20.536   01 Jun 2027 05:14:31.723            71.187                Irkutsk          2224.594
        11   01 Jun 2027 05:14:52.724   01 Jun 2027 05:16:03.803            71.079               Magadan1          2221.219
        12   01 Jun 2027 05:16:03.803   01 Jun 2027 05:16:19.398            15.595               Magadan2           487.344
        13   01 Jun 2027 05:16:30.320   01 Jun 2027 05:17:38.990            68.670                Anadyr1          2145.938
        14   01 Jun 2027 06:47:32.137   01 Jun 2027 06:48:12.711            40.574                Irkutsk          1267.938
        15   01 Jun 2027 06:48:14.768   01 Jun 2027 06:48:23.818             9.050                Novosib           282.813
        16   01 Jun 2027 06:48:26.148   01 Jun 2027 06:48:35.213             9.065               Magadan1           283.281
        17   01 Jun 2027 06:48:35.213   01 Jun 2027 06:48:58.403            23.190               Magadan2           724.688
        18   01 Jun 2027 06:49:12.117   01 Jun 2027 06:49:36.121            24.004               Magadan2           750.125
        19   01 Jun 2027 06:49:38.368   01 Jun 2027 06:51:38.676           120.308               Magadan2          3759.625
        20   01 Jun 2027 06:51:38.676   01 Jun 2027 06:52:19.681            41.005               Magadan1          1281.406
        21   01 Jun 2027 06:52:31.023   01 Jun 2027 06:53:32.272            61.249                Irkutsk          1914.031
        22   01 Jun 2027 06:53:37.933   01 Jun 2027 06:53:52.999            15.066                Novosib           470.812
        23   01 Jun 2027 06:57:42.069   01 Jun 2027 06:58:09.929            27.860              Murmansk1           870.625
        24   01 Jun 2027 07:28:15.144   01 Jun 2027 07:30:02.259           107.115            RioGallegos          3347.344
        25   01 Jun 2027 08:03:22.131   01 Jun 2027 08:04:39.339            77.208                Sumatra          2412.750
        26   01 Jun 2027 08:06:07.677   01 Jun 2027 08:07:06.725            59.048                Sumatra          1845.250
        27   01 Jun 2027 08:15:09.606   01 Jun 2027 08:16:32.996            83.390                  Delhi          2605.938
        28   01 Jun 2027 08:25:03.276   01 Jun 2027 08:25:28.873            25.597                Irkutsk           799.906
        29   01 Jun 2027 08:25:50.364   01 Jun 2027 08:26:40.023            49.659                Irkutsk          1551.844
        30   01 Jun 2027 08:26:51.315   01 Jun 2027 08:27:41.231            49.916                Novosib          1559.875
        31   01 Jun 2027 08:27:48.854   01 Jun 2027 08:29:26.889            98.035                Irkutsk          3063.594
        32   01 Jun 2027 08:29:32.957   01 Jun 2027 08:29:34.957             2.000              Murmansk1            62.500
        33   01 Jun 2027 08:29:46.039   01 Jun 2027 08:29:57.779            11.740                Novosib           366.875
        34   01 Jun 2027 08:30:04.991   01 Jun 2027 08:30:57.359            52.368              Murmansk1          1636.500
        35   01 Jun 2027 09:06:45.796   01 Jun 2027 09:06:57.685            11.889            RioGallegos           371.531
        36   01 Jun 2027 09:07:31.419   01 Jun 2027 09:07:31.790             0.371            RioGallegos            11.594
        37   01 Jun 2027 09:08:43.771   01 Jun 2027 09:09:19.572            35.801            RioGallegos          1118.781
        38   01 Jun 2027 09:41:04.718   01 Jun 2027 09:42:55.088           110.370                Sumatra          3449.063
        39   01 Jun 2027 09:47:21.103   01 Jun 2027 09:47:24.539             3.436                  Delhi           107.375
        40   01 Jun 2027 09:50:33.272   01 Jun 2027 09:50:56.502            23.230                  Delhi           725.937
        41   01 Jun 2027 09:59:29.328   01 Jun 2027 10:00:51.908            82.580                 Moscow          2580.625
        42   01 Jun 2027 10:03:38.247   01 Jun 2027 10:04:38.777            60.530                Novosib          1891.563
        43   01 Jun 2027 10:04:45.779   01 Jun 2027 10:05:07.521            21.742                Norilsk           679.438
        44   01 Jun 2027 10:05:54.094   01 Jun 2027 10:06:47.120            53.026              Murmansk2          1657.062
        45   01 Jun 2027 11:26:52.481   01 Jun 2027 11:30:22.512           210.031                  Delhi          6563.469
        46   01 Jun 2027 11:36:40.669   01 Jun 2027 11:36:55.780            15.111                Novosib           472.219
        47   01 Jun 2027 11:37:26.442   01 Jun 2027 11:42:28.776           302.334              Murmansk2          9447.937
        48   01 Jun 2027 11:42:30.331   01 Jun 2027 11:43:04.678            34.347                Norilsk          1073.344
        49   01 Jun 2027 11:43:25.345   01 Jun 2027 11:43:51.810            26.465                 Moscow           827.031
        50   01 Jun 2027 11:44:30.550   01 Jun 2027 11:44:38.124             7.574                 Moscow           236.687
        51   01 Jun 2027 11:45:06.310   01 Jun 2027 11:45:27.298            20.988              Murmansk2           655.875
        52   01 Jun 2027 11:45:49.290   01 Jun 2027 11:45:58.049             8.759              Murmansk2           273.719
        53   01 Jun 2027 12:47:36.372   01 Jun 2027 12:50:12.123           155.751               CapeTown          4867.219
        54   01 Jun 2027 12:51:24.572   01 Jun 2027 12:51:46.105            21.533               CapeTown           672.906
        55   01 Jun 2027 12:53:23.030   01 Jun 2027 12:55:08.505           105.475               CapeTown          3296.094
        56   01 Jun 2027 13:11:47.258   01 Jun 2027 13:14:41.875           174.617              Murmansk1          5456.781
        57   01 Jun 2027 13:26:35.360   01 Jun 2027 13:30:22.183           226.823                Anadyr1          7088.219
        58   01 Jun 2027 13:30:24.390   01 Jun 2027 13:33:29.037           184.647                Anadyr2          5770.219
        59   01 Jun 2027 14:50:28.121   01 Jun 2027 14:51:57.594            89.473              Murmansk2          2796.031
        60   01 Jun 2027 14:54:09.294   01 Jun 2027 14:55:02.627            53.333              Murmansk1          1666.656
        61   01 Jun 2027 15:01:51.102   01 Jun 2027 15:04:26.058           154.956                Anadyr2          4842.375
        62   01 Jun 2027 15:04:38.409   01 Jun 2027 15:05:05.210            26.801                Anadyr2           837.531
        63   01 Jun 2027 15:06:17.956   01 Jun 2027 15:09:41.233           203.277               Magadan1          6352.406
        64   01 Jun 2027 15:09:41.233   01 Jun 2027 15:10:50.430            69.197               Magadan2          2162.406
        65   01 Jun 2027 16:37:43.205   01 Jun 2027 16:39:23.653           100.448                Anadyr2          3139.000
        66   01 Jun 2027 16:40:12.057   01 Jun 2027 16:42:57.351           165.294               Magadan1          5165.438
        67   01 Jun 2027 16:45:16.137   01 Jun 2027 16:46:34.608            78.471               Magadan2          2452.219
        68   01 Jun 2027 18:13:36.814   01 Jun 2027 18:15:10.452            93.638                Anadyr2          2926.187
        69   01 Jun 2027 18:15:20.989   01 Jun 2027 18:17:00.882            99.893                Anadyr1          3121.656
        70   01 Jun 2027 18:17:25.888   01 Jun 2027 18:19:14.058           108.170               Magadan2          3380.313
        71   01 Jun 2027 18:19:14.058   01 Jun 2027 18:19:17.472             3.414               Magadan1           106.688
        72   01 Jun 2027 18:19:36.067   01 Jun 2027 18:19:55.865            19.798                Norilsk           618.687
        73   01 Jun 2027 18:21:03.226   01 Jun 2027 18:22:12.347            69.121               Magadan2          2160.031
        74   01 Jun 2027 18:23:18.543   01 Jun 2027 18:25:21.945           123.402                Irkutsk          3856.312
        75   01 Jun 2027 19:07:58.102   01 Jun 2027 19:10:41.826           163.724            RioGallegos          5116.375
        76   01 Jun 2027 19:17:54.382   01 Jun 2027 19:19:04.184            69.802            RioGallegos          2181.313
        77   01 Jun 2027 19:51:28.762   01 Jun 2027 19:53:09.801           101.039                Norilsk          3157.469
        78   01 Jun 2027 19:55:35.429   01 Jun 2027 19:55:40.094             4.665                Irkutsk           145.781
        79   01 Jun 2027 19:55:57.744   01 Jun 2027 19:56:46.691            48.947                Irkutsk          1529.594
        80   01 Jun 2027 19:57:11.962   01 Jun 2027 20:03:04.959           352.997                Novosib         11031.156
        81   01 Jun 2027 20:10:29.021   01 Jun 2027 20:11:29.139            60.118                Sumatra          1878.688
        82   01 Jun 2027 21:28:02.823   01 Jun 2027 21:28:35.319            32.496               Magadan2          1015.500
        83   01 Jun 2027 21:28:50.266   01 Jun 2027 21:28:55.123             4.857                Norilsk           151.781
        84   01 Jun 2027 21:29:42.773   01 Jun 2027 21:29:48.660             5.887                Norilsk           183.969
        85   01 Jun 2027 21:30:18.455   01 Jun 2027 21:30:36.621            18.166                Norilsk           567.688
        86   01 Jun 2027 21:31:18.585   01 Jun 2027 21:31:38.316            19.731                Irkutsk           616.594
        87   01 Jun 2027 21:31:48.802   01 Jun 2027 21:33:26.442            97.640                Novosib          3051.250
        88   01 Jun 2027 21:35:45.692   01 Jun 2027 21:37:13.562            87.870                Novosib          2745.937
        89   01 Jun 2027 21:39:02.512   01 Jun 2027 21:41:08.284           125.772                  Delhi          3930.375
        90   01 Jun 2027 21:42:30.459   01 Jun 2027 21:43:22.942            52.483                  Delhi          1640.094
        91   01 Jun 2027 22:59:25.066   01 Jun 2027 22:59:37.089            12.023                Anadyr1           375.719
        92   01 Jun 2027 22:59:50.386   01 Jun 2027 23:00:01.595            11.209                Anadyr1           350.281
        93   01 Jun 2027 23:03:21.536   01 Jun 2027 23:03:31.660            10.124               Magadan1           316.375
        94   01 Jun 2027 23:03:59.183   01 Jun 2027 23:04:55.484            56.301               Magadan2          1759.406
        95   01 Jun 2027 23:04:55.484   01 Jun 2027 23:05:21.423            25.939               Magadan1           810.594
        96   01 Jun 2027 23:05:45.474   01 Jun 2027 23:10:34.549           289.075              Murmansk1          9033.594
        97   01 Jun 2027 23:11:45.162   01 Jun 2027 23:14:49.857           184.695                 Moscow          5771.719
        98   02 Jun 2027 00:35:37.192   02 Jun 2027 00:36:48.868            71.676               Magadan1          2239.875
        99   02 Jun 2027 00:38:11.577   02 Jun 2027 00:39:20.984            69.407               Magadan1          2168.969
       100   02 Jun 2027 00:41:32.969   02 Jun 2027 00:43:05.714            92.745              Murmansk1          2898.281
       101   02 Jun 2027 00:43:38.040   02 Jun 2027 00:43:58.793            20.753              Murmansk2           648.531
       102   02 Jun 2027 00:44:24.015   02 Jun 2027 00:44:53.118            29.103              Murmansk2           909.469
       103   02 Jun 2027 00:45:05.739   02 Jun 2027 00:46:52.401           106.662                 Moscow          3333.188
       104   02 Jun 2027 00:54:24.663   02 Jun 2027 00:56:17.642           112.979                 Moscow          3530.594
       105   02 Jun 2027 01:11:42.914   02 Jun 2027 01:12:15.721            32.807               CapeTown          1025.219
       106   02 Jun 2027 02:05:52.082   02 Jun 2027 02:06:23.495            31.413                Anadyr1           981.656
       107   02 Jun 2027 02:07:35.188   02 Jun 2027 02:08:01.813            26.625               Magadan1           832.031
       108   02 Jun 2027 02:08:11.469   02 Jun 2027 02:09:40.729            89.260               Magadan2          2789.375
       109   02 Jun 2027 02:13:42.477   02 Jun 2027 02:13:48.871             6.394               Magadan2           199.812
       110   02 Jun 2027 02:14:36.309   02 Jun 2027 02:14:47.722            11.413                Norilsk           356.656
       111   02 Jun 2027 02:16:33.405   02 Jun 2027 02:16:56.835            23.430                Norilsk           732.187
       112   02 Jun 2027 02:17:31.094   02 Jun 2027 02:18:19.109            48.015              Murmansk1          1500.469
       113   02 Jun 2027 02:18:25.059   02 Jun 2027 02:18:28.968             3.909              Murmansk2           122.156
       114   02 Jun 2027 02:18:51.124   02 Jun 2027 02:19:01.005             9.881              Murmansk2           308.781
       115   02 Jun 2027 02:20:08.115   02 Jun 2027 02:20:42.389            34.274              Murmansk2          1071.062
       116   02 Jun 2027 02:20:46.559   02 Jun 2027 02:21:03.412            16.853                 Moscow           526.656
       117   02 Jun 2027 02:21:23.179   02 Jun 2027 02:21:50.200            27.021                 Moscow           844.406
       118   02 Jun 2027 02:24:41.467   02 Jun 2027 02:25:05.697            24.230                 Moscow           757.188
       119   02 Jun 2027 02:27:03.850   02 Jun 2027 02:27:14.309            10.459                 Moscow           326.844
       120   02 Jun 2027 02:29:25.932   02 Jun 2027 02:29:50.814            24.882                 Moscow           777.563
       121   02 Jun 2027 02:32:05.008   02 Jun 2027 02:32:48.509            43.501                 Moscow          1359.406
       122   02 Jun 2027 02:50:51.049   02 Jun 2027 02:51:26.147            35.098               CapeTown          1096.812
       123   02 Jun 2027 02:55:38.739   02 Jun 2027 02:55:45.300             6.561               CapeTown           205.031
       124   02 Jun 2027 02:56:15.581   02 Jun 2027 02:56:26.034            10.453               CapeTown           326.656
       125   02 Jun 2027 03:46:11.512   02 Jun 2027 03:49:12.120           180.608                Anadyr1          5644.000
       126   02 Jun 2027 03:49:28.118   02 Jun 2027 03:50:56.964            88.846               Magadan1          2776.438
       127   02 Jun 2027 03:51:16.415   02 Jun 2027 03:51:24.382             7.967               Magadan1           248.969
       128   02 Jun 2027 03:51:49.571   02 Jun 2027 03:54:12.343           142.772                Anadyr1          4461.625
       129   02 Jun 2027 04:36:20.643   02 Jun 2027 04:36:35.577            14.934            RioGallegos           466.688
       130   02 Jun 2027 05:23:22.226   02 Jun 2027 05:23:48.397            26.171                Irkutsk           817.844
       131   02 Jun 2027 05:24:39.574   02 Jun 2027 05:25:45.015            65.441                Irkutsk          2045.031
       132   02 Jun 2027 05:26:00.654   02 Jun 2027 05:26:18.295            17.641                Anadyr1           551.281
       133   02 Jun 2027 05:26:18.295   02 Jun 2027 05:26:39.730            21.435                Anadyr2           669.844
       134   02 Jun 2027 05:26:53.033   02 Jun 2027 05:28:47.947           114.914               Magadan1          3591.062
       135   02 Jun 2027 05:28:47.947   02 Jun 2027 05:29:30.161            42.214               Magadan2          1319.188
       136   02 Jun 2027 07:01:41.713   02 Jun 2027 07:03:18.405            96.692               Magadan1          3021.625
       137   02 Jun 2027 07:03:41.482   02 Jun 2027 07:04:38.404            56.922               Magadan2          1778.813
       138   02 Jun 2027 07:04:44.772   02 Jun 2027 07:05:25.482            40.710                Novosib          1272.188
       139   02 Jun 2027 07:05:30.477   02 Jun 2027 07:05:36.320             5.843                Irkutsk           182.594
       140   02 Jun 2027 07:06:01.155   02 Jun 2027 07:06:49.487            48.332                Novosib          1510.375
       141   02 Jun 2027 08:38:56.505   02 Jun 2027 08:39:10.384            13.879                Irkutsk           433.719
       142   02 Jun 2027 08:39:15.083   02 Jun 2027 08:39:48.796            33.713                Irkutsk          1053.531
       143   02 Jun 2027 08:40:21.274   02 Jun 2027 08:40:22.529             1.255                Norilsk            39.219
       144   02 Jun 2027 08:40:36.751   02 Jun 2027 08:41:56.736            79.985                Novosib          2499.531
       145   02 Jun 2027 08:41:56.792   02 Jun 2027 08:43:06.255            69.463                Novosib          2170.719
       146   02 Jun 2027 09:22:19.667   02 Jun 2027 09:22:33.678            14.011            RioGallegos           437.844
       147   02 Jun 2027 09:22:50.771   02 Jun 2027 09:23:20.518            29.747            RioGallegos           929.594
       148   02 Jun 2027 09:54:18.653   02 Jun 2027 09:55:31.598            72.945                Sumatra          2279.531
       149   02 Jun 2027 10:14:12.084   02 Jun 2027 10:14:38.931            26.847                Novosib           838.969
       150   02 Jun 2027 10:15:56.101   02 Jun 2027 10:16:25.366            29.265                Novosib           914.531
       151   02 Jun 2027 10:16:35.702   02 Jun 2027 10:16:36.438             0.736                Novosib            23.000
       152   02 Jun 2027 10:16:40.964   02 Jun 2027 10:16:47.940             6.976                Novosib           218.000
       153   02 Jun 2027 10:17:08.611   02 Jun 2027 10:17:26.574            17.963                Norilsk           561.344
       154   02 Jun 2027 11:49:28.109   02 Jun 2027 11:50:17.812            49.703              Murmansk2          1553.219
       155   02 Jun 2027 11:50:22.009   02 Jun 2027 11:50:33.458            11.449              Murmansk2           357.781
       156   02 Jun 2027 11:51:25.567   02 Jun 2027 11:51:30.240             4.673              Murmansk2           146.031
       157   02 Jun 2027 11:53:57.036   02 Jun 2027 11:54:00.377             3.341                 Moscow           104.406
       158   02 Jun 2027 11:54:38.195   02 Jun 2027 11:54:53.864            15.669                Norilsk           489.656
       159   02 Jun 2027 13:20:44.068   02 Jun 2027 13:21:44.679            60.611                 Moscow          1894.094
       160   02 Jun 2027 13:22:28.290   02 Jun 2027 13:23:13.874            45.584                 Moscow          1424.500
       161   02 Jun 2027 13:24:01.627   02 Jun 2027 13:26:30.337           148.710              Murmansk2          4647.188
       162   02 Jun 2027 13:26:31.567   02 Jun 2027 13:26:48.183            16.616              Murmansk1           519.250
       163   02 Jun 2027 13:27:27.705   02 Jun 2027 13:28:10.710            43.005              Murmansk2          1343.906
       164   02 Jun 2027 13:28:10.710   02 Jun 2027 13:29:01.950            51.240              Murmansk1          1601.250
       165   02 Jun 2027 13:36:05.319   02 Jun 2027 13:36:07.245             1.926              Murmansk2            60.187
       166   02 Jun 2027 13:38:26.251   02 Jun 2027 13:42:00.883           214.632                Anadyr1          6707.250
       167   02 Jun 2027 13:43:55.550   02 Jun 2027 13:45:30.292            94.742                Anadyr2          2960.688
       168   02 Jun 2027 15:03:01.503   02 Jun 2027 15:04:19.751            78.248              Murmansk2          2445.250
       169   02 Jun 2027 15:05:49.484   02 Jun 2027 15:06:10.452            20.968              Murmansk2           655.250
       170   02 Jun 2027 15:09:40.297   02 Jun 2027 15:09:47.757             7.460              Murmansk2           233.125
       171   02 Jun 2027 15:11:37.087   02 Jun 2027 15:11:52.697            15.610              Murmansk1           487.813
       172   02 Jun 2027 15:13:51.132   02 Jun 2027 15:15:37.075           105.943                Anadyr2          3310.719
       173   02 Jun 2027 15:16:01.359   02 Jun 2027 15:16:21.422            20.063                Anadyr2           626.969
       174   02 Jun 2027 15:17:06.540   02 Jun 2027 15:17:53.079            46.539                Anadyr2          1454.344
       175   02 Jun 2027 15:18:56.905   02 Jun 2027 15:21:59.840           182.935               Magadan1          5716.719
       176   02 Jun 2027 15:22:16.293   02 Jun 2027 15:23:44.261            87.968               Magadan1          2749.000
       177   02 Jun 2027 16:49:44.582   02 Jun 2027 16:50:08.240            23.658                Anadyr2           739.313
       178   02 Jun 2027 16:50:24.104   02 Jun 2027 16:50:54.305            30.201                Anadyr2           943.781
       179   02 Jun 2027 16:52:09.507   02 Jun 2027 16:54:10.539           121.032               Magadan2          3782.250
       180   02 Jun 2027 16:55:09.480   02 Jun 2027 16:55:18.836             9.356               Magadan1           292.375
       181   02 Jun 2027 16:56:49.332   02 Jun 2027 16:58:16.021            86.689               Magadan2          2709.031
       182   02 Jun 2027 18:25:36.986   02 Jun 2027 18:29:32.299           235.313                Anadyr1          7353.531
       183   02 Jun 2027 18:29:42.231   02 Jun 2027 18:29:53.605            11.374                Anadyr1           355.437
       184   02 Jun 2027 18:30:07.620   02 Jun 2027 18:31:52.992           105.372                Norilsk          3292.875
       185   02 Jun 2027 18:33:18.757   02 Jun 2027 18:33:53.512            34.755                Norilsk          1086.094
       186   02 Jun 2027 18:34:20.241   02 Jun 2027 18:36:35.797           135.556                Irkutsk          4236.125
       187   02 Jun 2027 18:37:38.853   02 Jun 2027 18:39:15.269            96.416                Irkutsk          3013.000
       188   02 Jun 2027 20:03:29.590   02 Jun 2027 20:05:07.478            97.888                Norilsk          3059.000
       189   02 Jun 2027 20:06:43.158   02 Jun 2027 20:07:14.178            31.020               Magadan2           969.375
       190   02 Jun 2027 20:07:31.307   02 Jun 2027 20:09:31.442           120.135                Irkutsk          3754.219
       191   02 Jun 2027 20:10:14.973   02 Jun 2027 20:13:17.603           182.630                Novosib          5707.188
       192   02 Jun 2027 20:15:09.425   02 Jun 2027 20:15:32.138            22.713                Novosib           709.781
       193   02 Jun 2027 20:21:12.000   02 Jun 2027 20:22:59.242           107.242                Sumatra          3351.312
       194   02 Jun 2027 21:40:45.186   02 Jun 2027 21:40:56.821            11.635                Norilsk           363.594
       195   02 Jun 2027 21:42:26.754   02 Jun 2027 21:42:47.225            20.471                Norilsk           639.719
       196   02 Jun 2027 21:43:21.265   02 Jun 2027 21:45:24.597           123.332                Novosib          3854.125
       197   02 Jun 2027 21:46:09.055   02 Jun 2027 21:46:14.711             5.656                Novosib           176.750
       198   02 Jun 2027 21:48:23.365   02 Jun 2027 21:49:09.771            46.406                Novosib          1450.188
       199   02 Jun 2027 21:50:51.178   02 Jun 2027 21:53:28.715           157.537                  Delhi          4923.031
       200   02 Jun 2027 21:56:39.066   02 Jun 2027 21:56:52.542            13.476                  Delhi           421.125
       201   02 Jun 2027 23:15:06.117   02 Jun 2027 23:15:43.468            37.351               Magadan2          1167.219
       202   02 Jun 2027 23:16:06.515   02 Jun 2027 23:16:52.887            46.372               Magadan1          1449.125
       203   02 Jun 2027 23:17:43.989   02 Jun 2027 23:19:40.234           116.245              Murmansk1          3632.656
       204   02 Jun 2027 23:19:42.532   02 Jun 2027 23:23:00.451           197.919              Murmansk2          6184.969
       205   02 Jun 2027 23:23:47.562   02 Jun 2027 23:25:31.360           103.798                 Moscow          3243.687
       206   02 Jun 2027 23:50:06.196   02 Jun 2027 23:51:08.158            61.962               CapeTown          1936.312
       207   02 Jun 2027 23:52:44.883   02 Jun 2027 23:53:52.607            67.724               CapeTown          2116.375
       208   03 Jun 2027 00:48:26.920   03 Jun 2027 00:48:49.125            22.205               Magadan2           693.906
       209   03 Jun 2027 00:50:49.537   03 Jun 2027 00:52:08.958            79.421               Magadan2          2481.906
       210   03 Jun 2027 00:53:34.507   03 Jun 2027 00:55:01.293            86.786              Murmansk2          2712.063
       211   03 Jun 2027 00:55:31.162   03 Jun 2027 00:55:48.180            17.018              Murmansk2           531.813
       212   03 Jun 2027 00:56:51.105   03 Jun 2027 00:58:44.582           113.477                 Moscow          3546.156
       213   03 Jun 2027 01:22:30.145   03 Jun 2027 01:22:36.719             6.574               CapeTown           205.437
       214   03 Jun 2027 01:25:53.049   03 Jun 2027 01:26:10.482            17.433               CapeTown           544.781
       215   03 Jun 2027 01:28:56.966   03 Jun 2027 01:29:54.584            57.618               CapeTown          1800.562
       216   03 Jun 2027 02:17:25.119   03 Jun 2027 02:17:35.041             9.922                Anadyr1           310.062
       217   03 Jun 2027 02:17:44.218   03 Jun 2027 02:18:23.974            39.756                Anadyr1          1242.375
       218   03 Jun 2027 02:19:13.078   03 Jun 2027 02:20:17.146            64.068               Magadan2          2002.125
       219   03 Jun 2027 02:20:22.511   03 Jun 2027 02:20:30.355             7.844               Magadan2           245.125
       220   03 Jun 2027 02:21:36.347   03 Jun 2027 02:22:40.488            64.141               Magadan2          2004.406
       221   03 Jun 2027 02:29:32.479   03 Jun 2027 02:30:51.158            78.679              Murmansk2          2458.719
       222   03 Jun 2027 02:32:41.496   03 Jun 2027 02:33:30.540            49.044              Murmansk1          1532.625
       223   03 Jun 2027 02:35:16.958   03 Jun 2027 02:35:26.587             9.629                 Moscow           300.906
       224   03 Jun 2027 02:36:51.033   03 Jun 2027 02:37:05.239            14.206                 Moscow           443.937
       225   03 Jun 2027 02:39:02.335   03 Jun 2027 02:39:12.569            10.234                 Moscow           319.813
       226   03 Jun 2027 02:39:47.103   03 Jun 2027 02:39:57.046             9.943                 Moscow           310.719
       227   03 Jun 2027 02:41:36.804   03 Jun 2027 02:41:41.539             4.735                 Moscow           147.969
       228   03 Jun 2027 02:43:12.527   03 Jun 2027 02:44:11.250            58.723                 Moscow          1835.094
       229   03 Jun 2027 03:06:50.611   03 Jun 2027 03:07:03.175            12.564               CapeTown           392.625
       230   03 Jun 2027 03:57:44.397   03 Jun 2027 03:58:20.902            36.505               Magadan2          1140.781
       231   03 Jun 2027 03:58:20.902   03 Jun 2027 03:58:30.682             9.780               Magadan1           305.625
       232   03 Jun 2027 03:58:54.466   03 Jun 2027 04:00:54.146           119.680               Magadan1          3740.000
       233   03 Jun 2027 04:00:54.146   03 Jun 2027 04:03:35.751           161.605               Magadan2          5050.156
       234   03 Jun 2027 04:03:54.064   03 Jun 2027 04:05:17.150            83.086                Anadyr2          2596.438
       235   03 Jun 2027 04:05:51.437   03 Jun 2027 04:06:12.046            20.609                Anadyr1           644.031
       236   03 Jun 2027 04:45:52.288   03 Jun 2027 04:47:24.818            92.530            RioGallegos          2891.563
       237   03 Jun 2027 05:35:47.562   03 Jun 2027 05:37:37.047           109.485               Magadan1          3421.406
       238   03 Jun 2027 05:37:46.129   03 Jun 2027 05:37:48.250             2.121               Magadan2            66.281
       239   03 Jun 2027 05:37:54.421   03 Jun 2027 05:41:18.826           204.405                Anadyr1          6387.656
       240   03 Jun 2027 05:41:19.463   03 Jun 2027 05:41:48.316            28.853                Novosib           901.656
       241   03 Jun 2027 07:11:55.454   03 Jun 2027 07:12:28.414            32.960               Magadan1          1030.000
       242   03 Jun 2027 07:12:40.716   03 Jun 2027 07:13:02.567            21.851               Magadan2           682.844
       243   03 Jun 2027 07:13:02.567   03 Jun 2027 07:13:10.642             8.075               Magadan1           252.344
       244   03 Jun 2027 07:13:38.154   03 Jun 2027 07:13:45.087             6.933               Magadan1           216.656
       245   03 Jun 2027 07:14:08.739   03 Jun 2027 07:14:18.236             9.497                Novosib           296.781
       246   03 Jun 2027 07:14:42.697   03 Jun 2027 07:15:01.058            18.361                Irkutsk           573.781
       247   03 Jun 2027 07:15:32.068   03 Jun 2027 07:15:44.129            12.061               Magadan1           376.906
       248   03 Jun 2027 07:16:12.479   03 Jun 2027 07:16:16.291             3.812               Magadan1           119.125
       249   03 Jun 2027 07:16:29.382   03 Jun 2027 07:17:08.803            39.421                Irkutsk          1231.906
       250   03 Jun 2027 07:17:39.591   03 Jun 2027 07:17:39.611             0.020                Irkutsk             0.625
       251   03 Jun 2027 07:18:03.428   03 Jun 2027 07:18:30.715            27.287              Murmansk2           852.719
       252   03 Jun 2027 07:57:48.461   03 Jun 2027 07:58:17.007            28.546            RioGallegos           892.062
       253   03 Jun 2027 08:27:11.455   03 Jun 2027 08:27:31.310            19.855                Sumatra           620.469
       254   03 Jun 2027 08:28:16.711   03 Jun 2027 08:29:55.566            98.855                Sumatra          3089.219
       255   03 Jun 2027 08:49:27.620   03 Jun 2027 08:50:00.105            32.485                Irkutsk          1015.156
       256   03 Jun 2027 08:50:42.470   03 Jun 2027 08:50:50.785             8.315                Irkutsk           259.844
       257   03 Jun 2027 08:51:13.265   03 Jun 2027 08:51:17.243             3.978                Irkutsk           124.313
       258   03 Jun 2027 08:51:51.971   03 Jun 2027 08:51:56.582             4.611                Irkutsk           144.094
       259   03 Jun 2027 08:52:22.705   03 Jun 2027 08:52:54.549            31.844                Norilsk           995.125
       260   03 Jun 2027 08:53:54.771   03 Jun 2027 08:54:02.925             8.154                Novosib           254.812
       261   03 Jun 2027 09:32:37.361   03 Jun 2027 09:33:44.879            67.518            RioGallegos          2109.938
       262   03 Jun 2027 10:11:29.794   03 Jun 2027 10:12:59.400            89.606                  Delhi          2800.187
       263   03 Jun 2027 10:16:07.822   03 Jun 2027 10:16:35.036            27.214                  Delhi           850.438
       264   03 Jun 2027 10:25:30.502   03 Jun 2027 10:25:36.935             6.433                Novosib           201.031
       265   03 Jun 2027 10:28:08.412   03 Jun 2027 10:28:08.691             0.279                Novosib             8.719
       266   03 Jun 2027 10:28:17.018   03 Jun 2027 10:28:32.296            15.278                Norilsk           477.438
       267   03 Jun 2027 10:28:41.506   03 Jun 2027 10:28:44.621             3.115                Norilsk            97.344
       268   03 Jun 2027 10:29:04.595   03 Jun 2027 10:29:09.380             4.785                Norilsk           149.531
       269   03 Jun 2027 10:29:12.786   03 Jun 2027 10:29:27.887            15.101                Novosib           471.906
       270   03 Jun 2027 11:59:25.159   03 Jun 2027 12:00:05.677            40.518                 Moscow          1266.187
       271   03 Jun 2027 12:03:15.346   03 Jun 2027 12:04:17.334            61.988                Norilsk          1937.125
       272   03 Jun 2027 12:06:18.075   03 Jun 2027 12:07:01.814            43.739                Norilsk          1366.844
       273   03 Jun 2027 12:07:28.577   03 Jun 2027 12:08:07.922            39.345                Norilsk          1229.531
       274   03 Jun 2027 12:08:22.200   03 Jun 2027 12:09:03.577            41.377                Norilsk          1293.031
       275   03 Jun 2027 13:33:08.890   03 Jun 2027 13:33:24.093            15.203                 Moscow           475.094
       276   03 Jun 2027 13:34:32.141   03 Jun 2027 13:34:38.882             6.741                 Moscow           210.656
       277   03 Jun 2027 13:34:51.302   03 Jun 2027 13:35:09.126            17.824                 Moscow           557.000
       278   03 Jun 2027 13:36:30.863   03 Jun 2027 13:37:52.320            81.457                 Moscow          2545.531
       279   03 Jun 2027 13:41:26.224   03 Jun 2027 13:41:36.699            10.475              Murmansk2           327.344
       280   03 Jun 2027 13:41:52.744   03 Jun 2027 13:42:25.929            33.185              Murmansk2          1037.031
       281   03 Jun 2027 13:43:56.164   03 Jun 2027 13:44:03.443             7.279              Murmansk1           227.469
       282   03 Jun 2027 13:44:37.209   03 Jun 2027 13:45:36.842            59.633              Murmansk1          1863.531
       283   03 Jun 2027 13:50:19.632   03 Jun 2027 13:53:03.811           164.179                Anadyr2          5130.594
       284   03 Jun 2027 13:55:09.778   03 Jun 2027 13:56:05.584            55.806                Anadyr2          1743.938
       285   03 Jun 2027 14:54:57.118   03 Jun 2027 14:55:27.171            30.053               CapeTown           939.156
       286   03 Jun 2027 15:15:38.112   03 Jun 2027 15:17:13.358            95.246              Murmansk1          2976.438
       287   03 Jun 2027 15:20:47.893   03 Jun 2027 15:20:49.016             1.123              Murmansk1            35.094
       288   03 Jun 2027 15:20:57.811   03 Jun 2027 15:21:41.587            43.776              Murmansk2          1368.000
       289   03 Jun 2027 15:25:51.521   03 Jun 2027 15:26:27.355            35.834                Anadyr1          1119.813
       290   03 Jun 2027 15:26:55.265   03 Jun 2027 15:27:31.013            35.748                Anadyr2          1117.125
       291   03 Jun 2027 15:28:03.999   03 Jun 2027 15:28:19.952            15.953                Anadyr1           498.531
       292   03 Jun 2027 15:28:39.104   03 Jun 2027 15:28:48.752             9.648                Anadyr1           301.500
       293   03 Jun 2027 15:29:07.835   03 Jun 2027 15:29:44.302            36.467                Anadyr1          1139.594
       294   03 Jun 2027 15:30:58.493   03 Jun 2027 15:32:57.889           119.396               Magadan1          3731.125
       295   03 Jun 2027 15:32:57.889   03 Jun 2027 15:35:46.634           168.745               Magadan2          5273.281
       296   03 Jun 2027 17:01:45.944   03 Jun 2027 17:02:20.783            34.839                Anadyr2          1088.719
       297   03 Jun 2027 17:02:55.736   03 Jun 2027 17:03:07.024            11.288                Anadyr2           352.750
       298   03 Jun 2027 17:03:17.615   03 Jun 2027 17:03:40.798            23.183                Anadyr1           724.469
       299   03 Jun 2027 17:04:07.834   03 Jun 2027 17:04:54.135            46.301               Magadan1          1446.906
       300   03 Jun 2027 17:05:30.722   03 Jun 2027 17:06:14.741            44.019               Magadan1          1375.594
       301   03 Jun 2027 17:06:45.571   03 Jun 2027 17:07:02.711            17.140               Magadan1           535.625
       302   03 Jun 2027 17:11:26.121   03 Jun 2027 17:11:40.712            14.591               Magadan1           455.969
       303   03 Jun 2027 17:11:46.006   03 Jun 2027 17:11:52.902             6.896               Magadan1           215.500
       304   03 Jun 2027 17:11:55.998   03 Jun 2027 17:13:41.544           105.546               Magadan1          3298.313
       305   03 Jun 2027 18:37:36.798   03 Jun 2027 18:39:12.816            96.018                Anadyr2          3000.562
       306   03 Jun 2027 18:39:22.548   03 Jun 2027 18:41:03.935           101.387                Anadyr1          3168.344
       307   03 Jun 2027 18:41:08.575   03 Jun 2027 18:42:34.356            85.781               Magadan1          2680.656
       308   03 Jun 2027 18:42:45.178   03 Jun 2027 18:43:51.300            66.122                Norilsk          2066.312
       309   03 Jun 2027 18:45:12.703   03 Jun 2027 18:48:21.796           189.093                Irkutsk          5909.156
       310   03 Jun 2027 18:49:17.915   03 Jun 2027 18:49:51.127            33.212                Irkutsk          1037.875
       311   03 Jun 2027 18:51:16.587   03 Jun 2027 18:52:10.493            53.906                Irkutsk          1684.562
       312   03 Jun 2027 19:01:02.793   03 Jun 2027 19:02:34.058            91.265                Sumatra          2852.031
       313   03 Jun 2027 19:03:33.716   03 Jun 2027 19:05:52.001           138.285                Sumatra          4321.406
       314   03 Jun 2027 20:20:48.760   03 Jun 2027 20:22:18.101            89.341                Novosib          2791.906
       315   03 Jun 2027 20:25:08.829   03 Jun 2027 20:25:51.876            43.047                Novosib          1345.219
       316   03 Jun 2027 20:27:11.362   03 Jun 2027 20:27:58.564            47.202                Novosib          1475.063
       317   03 Jun 2027 20:41:26.961   03 Jun 2027 20:41:46.454            19.493                Sumatra           609.156
       318   03 Jun 2027 20:42:19.917   03 Jun 2027 20:42:29.270             9.353                Sumatra           292.281
       319   03 Jun 2027 20:44:19.151   03 Jun 2027 20:44:56.465            37.314                Sumatra          1166.062
       320   03 Jun 2027 21:52:04.731   03 Jun 2027 21:52:59.232            54.501               Magadan1          1703.156
       321   03 Jun 2027 21:54:56.178   03 Jun 2027 21:58:31.906           215.728              Murmansk2          6741.500
       322   03 Jun 2027 22:02:43.988   03 Jun 2027 22:04:09.215            85.227                  Delhi          2663.344
       323   03 Jun 2027 22:12:15.408   03 Jun 2027 22:12:48.885            33.477                  Delhi          1046.156
       324   03 Jun 2027 23:26:46.370   03 Jun 2027 23:28:09.168            82.798               Magadan2          2587.438
       325   03 Jun 2027 23:28:15.551   03 Jun 2027 23:28:56.065            40.514                Norilsk          1266.062
       326   03 Jun 2027 23:29:43.268   03 Jun 2027 23:31:32.797           109.529              Murmansk2          3422.781
       327   03 Jun 2027 23:32:30.503   03 Jun 2027 23:34:27.660           117.157              Murmansk1          3661.156
       328   03 Jun 2027 23:34:33.360   03 Jun 2027 23:37:07.811           154.451                 Moscow          4826.594
       329   03 Jun 2027 23:39:27.702   03 Jun 2027 23:40:43.853            76.151                 Moscow          2379.719
       330   04 Jun 2027 00:00:42.998   04 Jun 2027 00:02:32.136           109.138               CapeTown          3410.562
       331   04 Jun 2027 00:07:34.547   04 Jun 2027 00:07:40.290             5.743               CapeTown           179.469
       332   04 Jun 2027 01:05:36.135   04 Jun 2027 01:07:58.385           142.250              Murmansk2          4445.312
       333   04 Jun 2027 01:11:04.431   04 Jun 2027 01:11:06.300             1.869              Murmansk2            58.406
       334   04 Jun 2027 01:11:13.526   04 Jun 2027 01:11:55.282            41.756                 Moscow          1304.875
       335   04 Jun 2027 01:16:33.867   04 Jun 2027 01:17:03.876            30.009                 Moscow           937.781
       336   04 Jun 2027 01:32:45.067   04 Jun 2027 01:33:32.641            47.574               CapeTown          1486.688
       337   04 Jun 2027 01:37:03.141   04 Jun 2027 01:37:19.309            16.168               CapeTown           505.250
       338   04 Jun 2027 01:39:11.296   04 Jun 2027 01:40:00.582            49.286               CapeTown          1540.187
       339   04 Jun 2027 02:29:26.341   04 Jun 2027 02:30:40.605            74.264                Anadyr1          2320.750
       340   04 Jun 2027 02:30:52.772   04 Jun 2027 02:31:50.459            57.687               Magadan2          1802.719
       341   04 Jun 2027 02:32:19.875   04 Jun 2027 02:32:27.950             8.075               Magadan2           252.344
       342   04 Jun 2027 02:32:36.483   04 Jun 2027 02:33:04.572            28.089               Magadan2           877.781
       343   04 Jun 2027 02:35:14.963   04 Jun 2027 02:35:31.972            17.009               Magadan1           531.531
       344   04 Jun 2027 02:38:31.526   04 Jun 2027 02:38:47.313            15.787                Norilsk           493.344
       345   04 Jun 2027 02:41:33.710   04 Jun 2027 02:41:53.857            20.147              Murmansk2           629.594
       346   04 Jun 2027 02:42:07.195   04 Jun 2027 02:43:04.525            57.330              Murmansk1          1791.562
       347   04 Jun 2027 02:44:40.177   04 Jun 2027 02:45:17.667            37.490              Murmansk1          1171.562
       348   04 Jun 2027 02:45:17.667   04 Jun 2027 02:45:26.947             9.280              Murmansk2           290.000
       349   04 Jun 2027 02:46:28.796   04 Jun 2027 02:46:56.015            27.219                 Moscow           850.594
       350   04 Jun 2027 02:49:02.331   04 Jun 2027 02:49:16.300            13.969                 Moscow           436.531
       351   04 Jun 2027 02:52:08.742   04 Jun 2027 02:52:14.677             5.935                 Moscow           185.469
       352   04 Jun 2027 02:53:11.259   04 Jun 2027 02:53:51.581            40.322                 Moscow          1260.063
       353   04 Jun 2027 03:11:12.295   04 Jun 2027 03:11:30.524            18.229               CapeTown           569.656
       354   04 Jun 2027 03:12:10.445   04 Jun 2027 03:13:14.798            64.353               CapeTown          2011.031
       355   04 Jun 2027 04:11:53.586   04 Jun 2027 04:13:53.596           120.010               Magadan2          3750.313
       356   04 Jun 2027 04:13:54.501   04 Jun 2027 04:14:36.716            42.215                Anadyr2          1319.219
       357   04 Jun 2027 04:14:39.380   04 Jun 2027 04:15:55.443            76.063                Anadyr1          2376.969
       358   04 Jun 2027 04:56:31.241   04 Jun 2027 04:57:28.502            57.261            RioGallegos          1789.406
       359   04 Jun 2027 04:58:28.528   04 Jun 2027 04:58:53.891            25.363            RioGallegos           792.594
       360   04 Jun 2027 05:48:04.054   04 Jun 2027 05:48:39.660            35.606                Irkutsk          1112.687
       361   04 Jun 2027 05:49:02.768   04 Jun 2027 05:51:58.252           175.484                Irkutsk          5483.875
       362   04 Jun 2027 05:52:10.041   04 Jun 2027 05:53:01.786            51.745                Anadyr2          1617.031
       363   04 Jun 2027 05:53:28.295   04 Jun 2027 05:53:43.335            15.040               Magadan2           470.000
       364   04 Jun 2027 07:23:32.252   04 Jun 2027 07:23:58.366            26.114               Magadan2           816.062
       365   04 Jun 2027 07:24:09.377   04 Jun 2027 07:24:35.233            25.856               Magadan2           808.000
       366   04 Jun 2027 07:24:50.576   04 Jun 2027 07:25:33.526            42.950               Magadan2          1342.188
       367   04 Jun 2027 07:25:33.526   04 Jun 2027 07:25:48.446            14.920               Magadan1           466.250
       368   04 Jun 2027 07:25:53.536   04 Jun 2027 07:26:26.632            33.096                Irkutsk          1034.250
       369   04 Jun 2027 07:27:13.275   04 Jun 2027 07:27:17.995             4.720               Magadan1           147.500
       370   04 Jun 2027 07:28:05.232   04 Jun 2027 07:28:26.882            21.650                Irkutsk           676.563
       371   04 Jun 2027 07:28:50.307   04 Jun 2027 07:29:42.139            51.832                Irkutsk          1619.750
       372   04 Jun 2027 08:08:23.110   04 Jun 2027 08:09:07.337            44.227            RioGallegos          1382.094
       373   04 Jun 2027 08:39:14.556   04 Jun 2027 08:40:23.682            69.126                Sumatra          2160.188
       374   04 Jun 2027 09:01:09.189   04 Jun 2027 09:01:10.916             1.727                Irkutsk            53.969
       375   04 Jun 2027 09:02:10.925   04 Jun 2027 09:02:36.486            25.561                Novosib           798.781
       376   04 Jun 2027 09:03:15.369   04 Jun 2027 09:03:20.624             5.255                Irkutsk           164.219
       377   04 Jun 2027 09:03:24.672   04 Jun 2027 09:03:42.727            18.055                Irkutsk           564.219
       378   04 Jun 2027 09:03:58.490   04 Jun 2027 09:05:05.273            66.783                Irkutsk          2086.969
       379   04 Jun 2027 09:05:50.820   04 Jun 2027 09:05:51.712             0.892                Novosib            27.875
       380   04 Jun 2027 09:46:09.365   04 Jun 2027 09:46:49.656            40.291            RioGallegos          1259.094
       381   04 Jun 2027 09:47:45.945   04 Jun 2027 09:48:17.305            31.360            RioGallegos           980.000
       382   04 Jun 2027 10:23:42.689   04 Jun 2027 10:25:08.376            85.687                  Delhi          2677.719
       383   04 Jun 2027 10:37:35.394   04 Jun 2027 10:37:54.080            18.686              Murmansk1           583.937
       384   04 Jun 2027 10:38:50.269   04 Jun 2027 10:39:25.170            34.901                Novosib          1090.656
       385   04 Jun 2027 10:39:43.196   04 Jun 2027 10:40:40.006            56.810                Novosib          1775.312
       386   04 Jun 2027 10:40:43.620   04 Jun 2027 10:41:38.689            55.069                Novosib          1720.906
       387   04 Jun 2027 12:11:45.495   04 Jun 2027 12:12:04.866            19.371              Murmansk2           605.344
       388   04 Jun 2027 12:13:31.339   04 Jun 2027 12:14:19.295            47.956              Murmansk2          1498.625
       389   04 Jun 2027 12:16:01.056   04 Jun 2027 12:18:18.852           137.796                Norilsk          4306.125
       390   04 Jun 2027 13:27:20.927   04 Jun 2027 13:28:28.551            67.624               CapeTown          2113.250
       391   04 Jun 2027 13:29:48.398   04 Jun 2027 13:30:34.111            45.713               CapeTown          1428.531
       392   04 Jun 2027 13:32:59.195   04 Jun 2027 13:33:17.340            18.145               CapeTown           567.031
       393   04 Jun 2027 13:48:36.445   04 Jun 2027 13:49:04.852            28.407              Murmansk1           887.719
       394   04 Jun 2027 13:49:38.880   04 Jun 2027 13:50:33.537            54.657              Murmansk1          1708.031
       395   04 Jun 2027 13:52:05.032   04 Jun 2027 13:52:14.151             9.119              Murmansk1           284.969
       396   04 Jun 2027 13:52:51.970   04 Jun 2027 13:53:21.685            29.715              Murmansk2           928.594
       397   04 Jun 2027 13:54:43.549   04 Jun 2027 13:55:12.941            29.392              Murmansk1           918.500
       398   04 Jun 2027 13:57:16.967   04 Jun 2027 13:57:45.564            28.597              Murmansk2           893.656
       399   04 Jun 2027 13:58:06.785   04 Jun 2027 13:58:27.239            20.454              Murmansk2           639.187
       400   04 Jun 2027 14:02:14.805   04 Jun 2027 14:04:37.664           142.859                Anadyr2          4464.344
       401   04 Jun 2027 14:06:34.984   04 Jun 2027 14:06:57.072            22.088                Anadyr1           690.250
       402   04 Jun 2027 14:07:49.667   04 Jun 2027 14:07:59.655             9.988                Anadyr1           312.125
       403   04 Jun 2027 14:08:03.470   04 Jun 2027 14:08:18.933            15.463                Anadyr2           483.219
       404   04 Jun 2027 14:09:32.435   04 Jun 2027 14:10:39.962            67.527                Anadyr2          2110.219
       405   04 Jun 2027 15:28:18.409   04 Jun 2027 15:29:52.813            94.404              Murmansk2          2950.125
       406   04 Jun 2027 15:32:11.145   04 Jun 2027 15:32:14.426             3.281              Murmansk1           102.531
       407   04 Jun 2027 15:33:59.628   04 Jun 2027 15:34:32.304            32.676              Murmansk2          1021.125
       408   04 Jun 2027 15:37:52.193   04 Jun 2027 15:39:29.684            97.491                Anadyr1          3046.594
       409   04 Jun 2027 15:40:04.714   04 Jun 2027 15:40:15.671            10.957                Anadyr2           342.406
       410   04 Jun 2027 15:40:52.068   04 Jun 2027 15:41:03.715            11.647                Anadyr2           363.969
       411   04 Jun 2027 15:41:15.106   04 Jun 2027 15:45:36.383           261.277               Magadan2          8164.906
       412   04 Jun 2027 17:13:47.246   04 Jun 2027 17:14:31.020            43.774                Anadyr2          1367.938
       413   04 Jun 2027 17:14:46.607   04 Jun 2027 17:15:12.970            26.363                Anadyr1           823.844
       414   04 Jun 2027 17:16:06.892   04 Jun 2027 17:16:40.953            34.061               Magadan2          1064.406
       415   04 Jun 2027 17:16:40.953   04 Jun 2027 17:17:56.540            75.587               Magadan1          2362.094
       416   04 Jun 2027 17:20:10.758   04 Jun 2027 17:20:14.483             3.725               Magadan1           116.406
       417   04 Jun 2027 17:23:19.496   04 Jun 2027 17:23:46.256            26.760               Magadan2           836.250
       418   04 Jun 2027 17:23:55.303   04 Jun 2027 17:23:58.599             3.296               Magadan2           103.000
       419   04 Jun 2027 17:24:01.417   04 Jun 2027 17:25:41.104            99.687               Magadan2          3115.219
       420   04 Jun 2027 18:10:11.978   04 Jun 2027 18:12:46.660           154.682            RioGallegos          4833.813
       421   04 Jun 2027 18:51:48.446   04 Jun 2027 18:53:02.746            74.300                Norilsk          2321.875
       422   04 Jun 2027 18:53:18.169   04 Jun 2027 18:54:31.894            73.725                Norilsk          2303.906
       423   04 Jun 2027 18:56:45.367   04 Jun 2027 18:57:39.032            53.665                Norilsk          1677.031
       424   04 Jun 2027 18:57:53.319   04 Jun 2027 19:00:11.264           137.945                Irkutsk          4310.781
       425   04 Jun 2027 19:01:20.332   04 Jun 2027 19:01:59.773            39.441                Irkutsk          1232.531
       426   04 Jun 2027 19:03:18.712   04 Jun 2027 19:03:26.677             7.965                Irkutsk           248.906
       427   04 Jun 2027 19:11:49.480   04 Jun 2027 19:14:08.528           139.048                Sumatra          4345.250
       428   04 Jun 2027 19:15:32.075   04 Jun 2027 19:16:02.270            30.195                Sumatra           943.594
       429   04 Jun 2027 19:17:47.224   04 Jun 2027 19:18:38.241            51.017                Sumatra          1594.281
       430   04 Jun 2027 19:18:43.849   04 Jun 2027 19:20:11.986            88.137                Sumatra          2754.281
       431   04 Jun 2027 20:34:21.699   04 Jun 2027 20:34:41.255            19.556                Novosib           611.125
       432   04 Jun 2027 20:35:50.510   04 Jun 2027 20:35:52.957             2.447                Novosib            76.469
       433   04 Jun 2027 20:37:57.920   04 Jun 2027 20:39:13.574            75.654                Novosib          2364.188
       434   04 Jun 2027 20:42:25.771   04 Jun 2027 20:45:13.605           167.834                  Delhi          5244.813
       435   04 Jun 2027 22:06:33.846   04 Jun 2027 22:10:14.009           220.163              Murmansk1          6880.094
       436   04 Jun 2027 22:11:27.430   04 Jun 2027 22:11:36.809             9.379              Murmansk2           293.094
       437   04 Jun 2027 22:14:40.459   04 Jun 2027 22:15:00.781            20.322                  Delhi           635.062
       438   04 Jun 2027 22:17:50.430   04 Jun 2027 22:18:01.587            11.157                  Delhi           348.656
       439   04 Jun 2027 22:20:07.292   04 Jun 2027 22:20:24.760            17.468                  Delhi           545.875
       440   04 Jun 2027 22:21:57.601   04 Jun 2027 22:23:01.819            64.218                  Delhi          2006.812
       441   04 Jun 2027 23:37:14.731   04 Jun 2027 23:37:16.729             1.998                Anadyr2            62.437
       442   04 Jun 2027 23:37:29.641   04 Jun 2027 23:38:15.197            45.556                Anadyr1          1423.625
       443   04 Jun 2027 23:38:22.609   04 Jun 2027 23:39:38.997            76.388               Magadan2          2387.125
       444   04 Jun 2027 23:40:11.739   04 Jun 2027 23:40:15.035             3.296               Magadan1           103.000
       445   04 Jun 2027 23:40:29.099   04 Jun 2027 23:40:51.697            22.598               Magadan1           706.187
       446   04 Jun 2027 23:41:03.246   04 Jun 2027 23:41:17.398            14.152               Magadan2           442.250
       447   04 Jun 2027 23:41:43.142   04 Jun 2027 23:44:30.001           166.859              Murmansk1          5214.344
       448   04 Jun 2027 23:45:32.443   04 Jun 2027 23:47:23.936           111.493                 Moscow          3484.156
       449   04 Jun 2027 23:47:55.671   04 Jun 2027 23:48:12.617            16.946                 Moscow           529.562
       450   04 Jun 2027 23:48:30.785   04 Jun 2027 23:49:00.194            29.409                 Moscow           919.031
       451   05 Jun 2027 00:11:44.666   05 Jun 2027 00:14:03.552           138.886               CapeTown          4340.188
       452   05 Jun 2027 00:17:20.527   05 Jun 2027 00:19:24.101           123.574               CapeTown          3861.688
       453   05 Jun 2027 01:18:50.830   05 Jun 2027 01:19:51.471            60.641              Murmansk2          1895.031
       454   05 Jun 2027 01:20:06.283   05 Jun 2027 01:20:50.013            43.730                Novosib          1366.563
       455   05 Jun 2027 01:24:34.932   05 Jun 2027 01:24:42.222             7.290                 Moscow           227.813
       456   05 Jun 2027 01:26:06.457   05 Jun 2027 01:26:24.527            18.070                 Moscow           564.687
       457   05 Jun 2027 01:29:10.790   05 Jun 2027 01:29:12.723             1.933                 Moscow            60.406
       458   05 Jun 2027 01:29:54.296   05 Jun 2027 01:30:26.445            32.149                 Moscow          1004.656
       459   05 Jun 2027 01:44:43.792   05 Jun 2027 01:44:44.083             0.291               CapeTown             9.094
       460   05 Jun 2027 01:46:02.492   05 Jun 2027 01:47:11.876            69.384               CapeTown          2168.250
       461   05 Jun 2027 01:54:08.283   05 Jun 2027 01:54:20.870            12.587               CapeTown           393.344
       462   05 Jun 2027 02:41:29.511   05 Jun 2027 02:42:25.911            56.400                Anadyr2          1762.500
       463   05 Jun 2027 02:42:34.332   05 Jun 2027 02:44:22.605           108.273               Magadan2          3383.531
       464   05 Jun 2027 02:44:22.605   05 Jun 2027 02:44:27.915             5.310               Magadan1           165.937
       465   05 Jun 2027 02:44:32.187   05 Jun 2027 02:44:53.568            21.381               Magadan1           668.156
       466   05 Jun 2027 02:48:37.474   05 Jun 2027 02:48:56.005            18.531               Magadan2           579.094
       467   05 Jun 2027 02:49:43.616   05 Jun 2027 02:49:46.583             2.967               Magadan1            92.719
       468   05 Jun 2027 02:50:39.418   05 Jun 2027 02:51:17.908            38.490                Norilsk          1202.813
       469   05 Jun 2027 02:53:34.770   05 Jun 2027 02:54:34.755            59.985              Murmansk1          1874.531
       470   05 Jun 2027 02:56:19.468   05 Jun 2027 02:56:51.569            32.101              Murmansk2          1003.156
       471   05 Jun 2027 02:56:51.569   05 Jun 2027 02:56:55.320             3.751              Murmansk1           117.219
       472   05 Jun 2027 02:56:58.805   05 Jun 2027 02:57:37.138            38.333                 Moscow          1197.906
       473   05 Jun 2027 04:25:02.811   05 Jun 2027 04:27:28.979           146.168               Magadan2          4567.750
       474   05 Jun 2027 05:07:51.531   05 Jun 2027 05:09:05.648            74.117            RioGallegos          2316.156
       475   05 Jun 2027 05:59:28.840   05 Jun 2027 06:00:10.366            41.526                Irkutsk          1297.687
       476   05 Jun 2027 06:00:43.157   05 Jun 2027 06:03:14.538           151.381               Magadan1          4730.656
       477   05 Jun 2027 06:03:33.260   05 Jun 2027 06:03:34.256             0.996               Magadan1            31.125
       478   05 Jun 2027 06:03:34.602   05 Jun 2027 06:04:13.985            39.383                Irkutsk          1230.719
       479   05 Jun 2027 06:04:38.326   05 Jun 2027 06:05:22.810            44.484                Irkutsk          1390.125
       480   05 Jun 2027 06:05:30.715   05 Jun 2027 06:05:39.823             9.108               Magadan1           284.625
       481   05 Jun 2027 06:05:52.381   05 Jun 2027 06:06:20.988            28.607                Novosib           893.969
       482   05 Jun 2027 07:40:21.173   05 Jun 2027 07:40:23.019             1.846                Irkutsk            57.687
