uniorb/output/strategy_4/Drop/Drop_KinoSat_111006.txt

KinoSat_111006
-------------------------
    Access    *     Start Time (UTCG)     *     Stop Time (UTCG)  *   Duration (s)        *       Station  *  Data (Mbytes)
         1   01 Jun 2027 03:18:32.992   01 Jun 2027 03:19:49.921            76.929               Magadan2          2404.031
         2   01 Jun 2027 03:21:47.344   01 Jun 2027 03:22:38.003            50.659                Anadyr2          1583.094
         3   01 Jun 2027 04:53:08.487   01 Jun 2027 04:56:21.434           192.947                Anadyr2          6029.594
         4   01 Jun 2027 04:56:34.675   01 Jun 2027 04:56:44.653             9.978                Anadyr2           311.812
         5   01 Jun 2027 04:56:44.653   01 Jun 2027 04:58:15.451            90.798                Anadyr1          2837.438
         6   01 Jun 2027 04:58:38.923   01 Jun 2027 04:58:41.223             2.300                Anadyr2            71.875
         7   01 Jun 2027 04:58:57.034   01 Jun 2027 04:59:13.177            16.143                Anadyr2           504.469
         8   01 Jun 2027 06:28:58.284   01 Jun 2027 06:30:43.963           105.679                Irkutsk          3302.469
         9   01 Jun 2027 06:30:51.988   01 Jun 2027 06:33:30.428           158.440               Magadan1          4951.250
        10   01 Jun 2027 06:33:30.428   01 Jun 2027 06:34:20.227            49.799               Magadan2          1556.219
        11   01 Jun 2027 06:34:22.763   01 Jun 2027 06:34:51.227            28.464                Anadyr1           889.500
        12   01 Jun 2027 06:35:14.215   01 Jun 2027 06:37:23.940           129.725              Murmansk2          4053.906
        13   01 Jun 2027 06:37:23.940   01 Jun 2027 06:38:38.341            74.401              Murmansk1          2325.031
        14   01 Jun 2027 07:11:22.868   01 Jun 2027 07:13:22.067           119.199            RioGallegos          3724.969
        15   01 Jun 2027 08:06:16.758   01 Jun 2027 08:07:55.694            98.936               Magadan2          3091.750
        16   01 Jun 2027 08:08:07.692   01 Jun 2027 08:08:58.276            50.584                Novosib          1580.750
        17   01 Jun 2027 08:09:05.572   01 Jun 2027 08:09:54.802            49.230               Magadan2          1538.437
        18   01 Jun 2027 08:09:57.053   01 Jun 2027 08:10:57.601            60.548              Murmansk1          1892.125
        19   01 Jun 2027 08:11:30.379   01 Jun 2027 08:13:57.513           147.134                Norilsk          4597.938
        20   01 Jun 2027 08:14:10.016   01 Jun 2027 08:15:22.278            72.262              Murmansk1          2258.187
        21   01 Jun 2027 08:16:05.492   01 Jun 2027 08:16:22.947            17.455              Murmansk1           545.469
        22   01 Jun 2027 08:18:41.159   01 Jun 2027 08:19:22.389            41.230              Murmansk1          1288.437
        23   01 Jun 2027 08:47:43.009   01 Jun 2027 08:48:24.258            41.249            RioGallegos          1289.031
        24   01 Jun 2027 08:49:44.513   01 Jun 2027 08:50:46.645            62.132            RioGallegos          1941.625
        25   01 Jun 2027 09:21:25.390   01 Jun 2027 09:22:03.986            38.596                Sumatra          1206.125
        26   01 Jun 2027 09:23:50.166   01 Jun 2027 09:24:23.798            33.632                Sumatra          1051.000
        27   01 Jun 2027 09:31:52.424   01 Jun 2027 09:32:22.771            30.347                  Delhi           948.344
        28   01 Jun 2027 09:33:04.789   01 Jun 2027 09:33:51.033            46.244                  Delhi          1445.125
        29   01 Jun 2027 09:43:46.533   01 Jun 2027 09:44:51.587            65.054                Novosib          2032.937
        30   01 Jun 2027 09:45:03.162   01 Jun 2027 09:45:52.876            49.714                Irkutsk          1553.562
        31   01 Jun 2027 09:46:18.538   01 Jun 2027 09:49:46.139           207.601              Murmansk1          6487.531
        32   01 Jun 2027 09:50:13.626   01 Jun 2027 09:50:31.445            17.819              Murmansk1           556.844
        33   01 Jun 2027 09:51:14.757   01 Jun 2027 09:51:55.303            40.546              Murmansk1          1267.063
        34   01 Jun 2027 09:52:48.355   01 Jun 2027 09:52:57.906             9.551              Murmansk2           298.469
        35   01 Jun 2027 10:27:10.970   01 Jun 2027 10:27:50.403            39.433            RioGallegos          1232.281
        36   01 Jun 2027 10:28:29.694   01 Jun 2027 10:29:23.556            53.862            RioGallegos          1683.187
        37   01 Jun 2027 11:02:22.190   01 Jun 2027 11:02:25.776             3.586                Sumatra           112.063
        38   01 Jun 2027 11:05:40.630   01 Jun 2027 11:05:59.153            18.523                  Delhi           578.844
        39   01 Jun 2027 11:07:51.597   01 Jun 2027 11:08:45.765            54.168                  Delhi          1692.750
        40   01 Jun 2027 11:14:13.838   01 Jun 2027 11:15:10.345            56.507                  Delhi          1765.844
        41   01 Jun 2027 11:21:33.208   01 Jun 2027 11:22:23.627            50.419                Novosib          1575.594
        42   01 Jun 2027 11:22:37.847   01 Jun 2027 11:23:11.574            33.727                Norilsk          1053.969
        43   01 Jun 2027 11:23:15.127   01 Jun 2027 11:25:12.729           117.602                 Moscow          3675.063
        44   01 Jun 2027 12:50:01.938   01 Jun 2027 12:51:42.882           100.944                 Moscow          3154.500
        45   01 Jun 2027 12:52:29.955   01 Jun 2027 12:54:03.751            93.796                 Moscow          2931.125
        46   01 Jun 2027 12:54:12.062   01 Jun 2027 12:57:06.040           173.978              Murmansk2          5436.812
        47   01 Jun 2027 12:57:14.726   01 Jun 2027 12:58:36.601            81.875                Norilsk          2558.594
        48   01 Jun 2027 12:59:02.138   01 Jun 2027 12:59:12.931            10.793                Norilsk           337.281
        49   01 Jun 2027 12:59:49.616   01 Jun 2027 13:00:44.960            55.344                Norilsk          1729.500
        50   01 Jun 2027 14:04:47.337   01 Jun 2027 14:06:12.046            84.709               CapeTown          2647.156
        51   01 Jun 2027 14:07:09.970   01 Jun 2027 14:07:53.919            43.949               CapeTown          1373.406
        52   01 Jun 2027 14:09:20.734   01 Jun 2027 14:10:52.454            91.720               CapeTown          2866.250
        53   01 Jun 2027 14:11:37.126   01 Jun 2027 14:11:38.206             1.080               CapeTown            33.750
        54   01 Jun 2027 14:30:26.102   01 Jun 2027 14:31:28.781            62.679              Murmansk1          1958.719
        55   01 Jun 2027 14:32:25.987   01 Jun 2027 14:33:27.475            61.488              Murmansk2          1921.500
        56   01 Jun 2027 14:38:27.269   01 Jun 2027 14:38:43.713            16.444              Murmansk1           513.875
        57   01 Jun 2027 14:39:16.895   01 Jun 2027 14:40:06.111            49.216              Murmansk1          1538.000
        58   01 Jun 2027 14:44:34.906   01 Jun 2027 14:47:30.513           175.607                Anadyr2          5487.719
        59   01 Jun 2027 15:42:34.672   01 Jun 2027 15:42:54.606            19.934               CapeTown           622.937
        60   01 Jun 2027 15:49:28.142   01 Jun 2027 15:49:34.090             5.948               CapeTown           185.875
        61   01 Jun 2027 15:50:59.332   01 Jun 2027 15:51:35.961            36.629               CapeTown          1144.656
        62   01 Jun 2027 16:09:39.247   01 Jun 2027 16:11:55.414           136.167              Murmansk2          4255.219
        63   01 Jun 2027 16:20:04.994   01 Jun 2027 16:22:02.746           117.752                Anadyr2          3679.750
        64   01 Jun 2027 16:23:24.498   01 Jun 2027 16:24:02.944            38.446                Anadyr1          1201.438
        65   01 Jun 2027 16:24:05.765   01 Jun 2027 16:26:56.554           170.789               Magadan2          5337.156
        66   01 Jun 2027 16:27:33.096   01 Jun 2027 16:28:34.322            61.226               Magadan1          1913.313
        67   01 Jun 2027 17:55:59.304   01 Jun 2027 17:59:15.116           195.812                Anadyr1          6119.125
        68   01 Jun 2027 17:59:25.619   01 Jun 2027 18:02:13.554           167.935               Magadan1          5247.969
        69   01 Jun 2027 19:31:50.856   01 Jun 2027 19:33:45.388           114.532                Anadyr1          3579.125
        70   01 Jun 2027 19:33:48.700   01 Jun 2027 19:35:44.245           115.545                Anadyr2          3610.781
        71   01 Jun 2027 19:36:02.417   01 Jun 2027 19:39:17.149           194.732               Magadan2          6085.375
        72   01 Jun 2027 19:39:36.746   01 Jun 2027 19:42:31.840           175.094                Irkutsk          5471.688
        73   01 Jun 2027 19:44:38.354   01 Jun 2027 19:44:44.285             5.931                Irkutsk           185.344
        74   01 Jun 2027 19:45:00.912   01 Jun 2027 19:46:25.180            84.268                Irkutsk          2633.375
        75   01 Jun 2027 19:55:50.999   01 Jun 2027 19:56:56.163            65.164                Sumatra          2036.375
        76   01 Jun 2027 19:59:51.216   01 Jun 2027 20:00:46.263            55.047                Sumatra          1720.219
        77   01 Jun 2027 21:09:43.844   01 Jun 2027 21:11:37.844           114.000                Norilsk          3562.500
        78   01 Jun 2027 21:13:02.312   01 Jun 2027 21:13:35.134            32.822               Magadan2          1025.687
        79   01 Jun 2027 21:13:42.984   01 Jun 2027 21:15:19.531            96.547                Irkutsk          3017.094
        80   01 Jun 2027 21:16:05.912   01 Jun 2027 21:18:05.891           119.979                Novosib          3749.344
        81   01 Jun 2027 21:27:25.367   01 Jun 2027 21:28:00.461            35.094                Sumatra          1096.687
        82   01 Jun 2027 21:36:09.435   01 Jun 2027 21:36:13.824             4.389                Sumatra           137.156
        83   01 Jun 2027 22:41:37.674   01 Jun 2027 22:43:36.379           118.705                Anadyr1          3709.531
        84   01 Jun 2027 22:43:46.345   01 Jun 2027 22:44:09.403            23.058                Anadyr2           720.563
        85   01 Jun 2027 22:44:18.820   01 Jun 2027 22:44:28.806             9.986                Anadyr2           312.063
        86   01 Jun 2027 22:45:43.098   01 Jun 2027 22:45:56.128            13.030                Norilsk           407.187
        87   01 Jun 2027 22:46:19.004   01 Jun 2027 22:48:08.658           109.654               Magadan1          3426.688
        88   01 Jun 2027 22:49:19.769   01 Jun 2027 22:52:21.520           181.751              Murmansk1          5679.719
        89   01 Jun 2027 22:56:59.597   01 Jun 2027 22:58:35.564            95.967                  Delhi          2998.969
        90   01 Jun 2027 23:07:04.703   01 Jun 2027 23:07:08.130             3.427                  Delhi           107.094
        91   01 Jun 2027 23:42:54.412   01 Jun 2027 23:43:08.288            13.876            RioGallegos           433.625
        92   01 Jun 2027 23:45:20.225   01 Jun 2027 23:45:51.181            30.956            RioGallegos           967.375
        93   02 Jun 2027 00:14:58.973   02 Jun 2027 00:15:14.518            15.545                Anadyr2           485.781
        94   02 Jun 2027 00:15:30.017   02 Jun 2027 00:16:19.668            49.651                Anadyr1          1551.594
        95   02 Jun 2027 00:16:55.078   02 Jun 2027 00:17:29.304            34.226                Anadyr1          1069.562
        96   02 Jun 2027 00:17:47.482   02 Jun 2027 00:18:05.895            18.413                Anadyr1           575.406
        97   02 Jun 2027 00:21:00.678   02 Jun 2027 00:21:11.081            10.403                Anadyr1           325.094
        98   02 Jun 2027 00:21:32.575   02 Jun 2027 00:23:56.061           143.486               Magadan2          4483.937
        99   02 Jun 2027 00:23:56.869   02 Jun 2027 00:26:33.225           156.356              Murmansk2          4886.125
       100   02 Jun 2027 00:28:01.580   02 Jun 2027 00:28:49.125            47.545                 Moscow          1485.781
       101   02 Jun 2027 00:29:02.089   02 Jun 2027 00:29:17.352            15.263              Murmansk2           476.969
       102   02 Jun 2027 00:32:53.331   02 Jun 2027 00:33:11.788            18.457                 Moscow           576.781
       103   02 Jun 2027 00:33:57.687   02 Jun 2027 00:34:18.597            20.910                 Moscow           653.438
       104   02 Jun 2027 00:39:55.797   02 Jun 2027 00:40:07.158            11.361                  Delhi           355.031
       105   02 Jun 2027 00:55:20.240   02 Jun 2027 00:56:55.182            94.942               CapeTown          2966.938
       106   02 Jun 2027 01:00:18.399   02 Jun 2027 01:01:07.127            48.728               CapeTown          1522.750
       107   02 Jun 2027 01:51:14.170   02 Jun 2027 01:51:37.922            23.752                Anadyr1           742.250
       108   02 Jun 2027 01:52:58.364   02 Jun 2027 01:54:10.109            71.745               Magadan1          2242.031
       109   02 Jun 2027 01:54:10.109   02 Jun 2027 01:54:18.961             8.852               Magadan2           276.625
       110   02 Jun 2027 01:54:29.790   02 Jun 2027 01:55:21.202            51.412               Magadan2          1606.625
       111   02 Jun 2027 01:59:49.258   02 Jun 2027 02:00:07.107            17.849              Murmansk2           557.781
       112   02 Jun 2027 02:00:08.280   02 Jun 2027 02:01:18.489            70.209              Murmansk1          2194.031
       113   02 Jun 2027 02:01:33.952   02 Jun 2027 02:01:38.655             4.703              Murmansk1           146.969
       114   02 Jun 2027 02:02:06.755   02 Jun 2027 02:02:44.102            37.347                Novosib          1167.094
       115   02 Jun 2027 02:05:58.432   02 Jun 2027 02:06:05.406             6.974              Murmansk2           217.938
       116   02 Jun 2027 02:06:51.882   02 Jun 2027 02:07:31.799            39.917                Novosib          1247.406
       117   02 Jun 2027 02:11:38.239   02 Jun 2027 02:12:12.743            34.504                 Moscow          1078.250
       118   02 Jun 2027 02:30:07.056   02 Jun 2027 02:30:30.056            23.000               CapeTown           718.750
       119   02 Jun 2027 02:32:57.670   02 Jun 2027 02:33:01.239             3.569               CapeTown           111.531
       120   02 Jun 2027 02:34:05.461   02 Jun 2027 02:35:30.083            84.622               CapeTown          2644.438
       121   02 Jun 2027 03:29:57.860   02 Jun 2027 03:31:33.310            95.450               Magadan1          2982.813
       122   02 Jun 2027 03:31:37.288   02 Jun 2027 03:32:41.332            64.044                Anadyr1          2001.375
       123   02 Jun 2027 03:32:48.932   02 Jun 2027 03:33:39.289            50.357               Magadan1          1573.656
       124   02 Jun 2027 03:33:45.337   02 Jun 2027 03:34:39.091            53.754                Anadyr1          1679.812
       125   02 Jun 2027 03:35:06.281   02 Jun 2027 03:35:17.927            11.646               Magadan2           363.937
       126   02 Jun 2027 03:35:40.113   02 Jun 2027 03:36:08.687            28.574               Magadan2           892.937
       127   02 Jun 2027 05:06:17.787   02 Jun 2027 05:06:37.077            19.290               Magadan1           602.812
       128   02 Jun 2027 05:06:37.077   02 Jun 2027 05:07:00.999            23.922               Magadan2           747.562
       129   02 Jun 2027 05:07:00.999   02 Jun 2027 05:08:02.206            61.207               Magadan1          1912.719
       130   02 Jun 2027 05:08:05.258   02 Jun 2027 05:08:17.158            11.900               Magadan2           371.875
       131   02 Jun 2027 05:08:32.356   02 Jun 2027 05:08:35.219             2.863                Anadyr2            89.469
       132   02 Jun 2027 05:08:52.417   02 Jun 2027 05:12:08.944           196.527               Magadan2          6141.469
       133   02 Jun 2027 05:12:08.944   02 Jun 2027 05:12:13.283             4.339               Magadan1           135.594
       134   02 Jun 2027 06:41:14.936   02 Jun 2027 06:42:02.068            47.132                Irkutsk          1472.875
       135   02 Jun 2027 06:42:26.145   02 Jun 2027 06:44:11.152           105.007               Magadan2          3281.469
       136   02 Jun 2027 06:44:19.133   02 Jun 2027 06:44:38.820            19.687                Irkutsk           615.219
       137   02 Jun 2027 06:44:51.434   02 Jun 2027 06:47:22.577           151.143                Anadyr1          4723.219
       138   02 Jun 2027 06:47:29.495   02 Jun 2027 06:48:14.527            45.032                Novosib          1407.250
       139   02 Jun 2027 08:19:16.046   02 Jun 2027 08:20:19.741            63.695               Magadan1          1990.469
       140   02 Jun 2027 08:20:28.624   02 Jun 2027 08:20:43.150            14.526               Magadan2           453.937
       141   02 Jun 2027 08:21:16.985   02 Jun 2027 08:22:09.506            52.521               Magadan1          1641.281
       142   02 Jun 2027 08:22:19.246   02 Jun 2027 08:23:55.164            95.918                Irkutsk          2997.438
       143   02 Jun 2027 09:54:36.676   02 Jun 2027 09:55:36.737            60.061                Irkutsk          1876.906
       144   02 Jun 2027 09:56:38.022   02 Jun 2027 09:57:08.893            30.871                Irkutsk           964.719
       145   02 Jun 2027 09:57:54.332   02 Jun 2027 09:58:05.533            11.201                Novosib           350.031
       146   02 Jun 2027 09:58:06.749   02 Jun 2027 09:58:18.277            11.528                Novosib           360.250
       147   02 Jun 2027 09:58:23.081   02 Jun 2027 09:59:16.127            53.046                Novosib          1657.688
       148   02 Jun 2027 09:59:44.592   02 Jun 2027 10:00:21.881            37.289                Novosib          1165.281
       149   02 Jun 2027 10:39:47.104   02 Jun 2027 10:40:27.508            40.404            RioGallegos          1262.625
       150   02 Jun 2027 11:17:51.637   02 Jun 2027 11:18:17.288            25.651                  Delhi           801.594
       151   02 Jun 2027 11:18:22.791   02 Jun 2027 11:18:56.310            33.519                  Delhi          1047.469
       152   02 Jun 2027 11:22:35.978   02 Jun 2027 11:22:50.673            14.695                  Delhi           459.219
       153   02 Jun 2027 11:33:14.575   02 Jun 2027 11:33:37.659            23.084                Novosib           721.375
       154   02 Jun 2027 11:33:46.709   02 Jun 2027 11:34:55.200            68.491                Norilsk          2140.344
       155   02 Jun 2027 11:35:03.701   02 Jun 2027 11:35:12.248             8.547                Norilsk           267.094
       156   02 Jun 2027 11:35:21.602   02 Jun 2027 11:35:56.967            35.365                Norilsk          1105.156
       157   02 Jun 2027 13:02:01.780   02 Jun 2027 13:05:20.738           198.958                 Moscow          6217.437
       158   02 Jun 2027 13:05:30.316   02 Jun 2027 13:08:49.821           199.505              Murmansk1          6234.531
       159   02 Jun 2027 14:16:24.006   02 Jun 2027 14:19:44.487           200.481               CapeTown          6265.031
       160   02 Jun 2027 14:21:38.220   02 Jun 2027 14:22:15.364            37.144               CapeTown          1160.750
       161   02 Jun 2027 14:42:43.920   02 Jun 2027 14:44:45.046           121.126              Murmansk2          3785.188
       162   02 Jun 2027 14:56:29.654   02 Jun 2027 14:59:06.464           156.810                Anadyr1          4900.312
       163   02 Jun 2027 15:51:35.522   02 Jun 2027 15:51:59.134            23.612               CapeTown           737.875
       164   02 Jun 2027 15:56:04.212   02 Jun 2027 15:56:17.725            13.513               CapeTown           422.281
       165   02 Jun 2027 15:59:25.108   02 Jun 2027 15:59:47.057            21.949               CapeTown           685.906
       166   02 Jun 2027 16:01:37.689   02 Jun 2027 16:01:47.623             9.934               CapeTown           310.437
       167   02 Jun 2027 16:22:18.304   02 Jun 2027 16:24:07.359           109.055              Murmansk1          3407.969
       168   02 Jun 2027 16:24:37.544   02 Jun 2027 16:25:39.554            62.010              Murmansk1          1937.813
       169   02 Jun 2027 16:32:05.652   02 Jun 2027 16:32:53.581            47.929                Anadyr1          1497.781
       170   02 Jun 2027 16:33:08.961   02 Jun 2027 16:33:57.947            48.986                Anadyr2          1530.813
       171   02 Jun 2027 16:35:13.589   02 Jun 2027 16:35:48.350            34.761                Anadyr2          1086.281
       172   02 Jun 2027 16:35:56.874   02 Jun 2027 16:39:19.850           202.976               Magadan2          6343.000
       173   02 Jun 2027 18:08:00.699   02 Jun 2027 18:11:02.324           181.625                Anadyr1          5675.781
       174   02 Jun 2027 18:11:45.165   02 Jun 2027 18:12:27.887            42.722               Magadan2          1335.063
       175   02 Jun 2027 18:13:09.346   02 Jun 2027 18:13:44.931            35.585               Magadan2          1112.031
       176   02 Jun 2027 18:13:56.864   02 Jun 2027 18:16:04.477           127.613               Magadan2          3987.906
       177   02 Jun 2027 19:04:46.490   02 Jun 2027 19:07:00.207           133.717            RioGallegos          4178.656
       178   02 Jun 2027 19:43:50.467   02 Jun 2027 19:44:05.217            14.750                Anadyr2           460.937
       179   02 Jun 2027 19:45:44.340   02 Jun 2027 19:45:46.384             2.044                Anadyr1            63.875
       180   02 Jun 2027 19:46:02.900   02 Jun 2027 19:49:53.005           230.105                Norilsk          7190.781
       181   02 Jun 2027 19:51:07.411   02 Jun 2027 19:54:19.430           192.019                Irkutsk          6000.594
       182   02 Jun 2027 19:56:39.223   02 Jun 2027 19:57:00.110            20.887                Irkutsk           652.719
       183   02 Jun 2027 20:06:23.255   02 Jun 2027 20:08:25.143           121.888                Sumatra          3809.000
       184   02 Jun 2027 20:09:48.783   02 Jun 2027 20:11:41.258           112.475                Sumatra          3514.844
       185   02 Jun 2027 21:25:41.169   02 Jun 2027 21:27:17.475            96.306                Irkutsk          3009.562
       186   02 Jun 2027 21:27:19.611   02 Jun 2027 21:28:12.213            52.602                Novosib          1643.812
       187   02 Jun 2027 21:37:19.402   02 Jun 2027 21:38:23.802            64.400                  Delhi          2012.500
       188   02 Jun 2027 21:39:57.751   02 Jun 2027 21:40:48.659            50.908                  Delhi          1590.875
       189   02 Jun 2027 22:55:29.604   02 Jun 2027 22:55:32.900             3.296                Anadyr2           103.000
       190   02 Jun 2027 22:57:45.039   02 Jun 2027 22:57:49.221             4.182                Norilsk           130.687
       191   02 Jun 2027 22:58:19.223   02 Jun 2027 22:59:09.299            50.076               Magadan1          1564.875
       192   02 Jun 2027 23:00:15.644   02 Jun 2027 23:01:25.537            69.893               Magadan2          2184.156
       193   02 Jun 2027 23:01:32.960   02 Jun 2027 23:03:08.807            95.847              Murmansk1          2995.219
       194   02 Jun 2027 23:03:08.807   02 Jun 2027 23:04:28.443            79.636              Murmansk2          2488.625
       195   02 Jun 2027 23:08:54.998   02 Jun 2027 23:09:21.973            26.975                  Delhi           842.969
       196   02 Jun 2027 23:12:02.315   02 Jun 2027 23:12:29.563            27.248                  Delhi           851.500
       197   02 Jun 2027 23:12:54.971   02 Jun 2027 23:13:02.419             7.448                  Delhi           232.750
       198   02 Jun 2027 23:16:57.868   02 Jun 2027 23:17:56.254            58.386                  Delhi          1824.563
       199   03 Jun 2027 00:26:40.438   03 Jun 2027 00:26:56.818            16.380                Anadyr2           511.875
       200   03 Jun 2027 00:27:14.008   03 Jun 2027 00:27:26.900            12.892                Anadyr1           402.875
       201   03 Jun 2027 00:27:40.628   03 Jun 2027 00:28:17.193            36.565                Anadyr1          1142.656
       202   03 Jun 2027 00:28:29.984   03 Jun 2027 00:28:56.393            26.409                Anadyr1           825.281
       203   03 Jun 2027 00:29:14.339   03 Jun 2027 00:29:28.520            14.181                Anadyr1           443.156
       204   03 Jun 2027 00:32:45.623   03 Jun 2027 00:34:53.109           127.486               Magadan1          3983.938
       205   03 Jun 2027 00:34:58.769   03 Jun 2027 00:35:24.930            26.161               Magadan1           817.531
       206   03 Jun 2027 00:35:56.647   03 Jun 2027 00:39:01.764           185.117              Murmansk1          5784.906
       207   03 Jun 2027 00:40:02.481   03 Jun 2027 00:40:25.060            22.579                 Moscow           705.594
       208   03 Jun 2027 00:41:22.808   03 Jun 2027 00:41:48.804            25.996                 Moscow           812.375
       209   03 Jun 2027 00:45:19.188   03 Jun 2027 00:45:39.935            20.747                 Moscow           648.344
       210   03 Jun 2027 01:06:15.770   03 Jun 2027 01:08:22.312           126.542               CapeTown          3954.437
       211   03 Jun 2027 02:00:26.643   03 Jun 2027 02:00:40.937            14.294                Anadyr2           446.687
       212   03 Jun 2027 02:01:34.412   03 Jun 2027 02:02:14.004            39.592                Anadyr2          1237.250
       213   03 Jun 2027 02:04:27.499   03 Jun 2027 02:06:09.935           102.436               Magadan1          3201.125
       214   03 Jun 2027 02:09:19.163   03 Jun 2027 02:09:29.291            10.128                Norilsk           316.500
       215   03 Jun 2027 02:11:09.113   03 Jun 2027 02:11:10.603             1.490                Norilsk            46.563
       216   03 Jun 2027 02:11:33.211   03 Jun 2027 02:11:36.528             3.317                Norilsk           103.656
       217   03 Jun 2027 02:11:50.997   03 Jun 2027 02:13:33.660           102.663              Murmansk1          3208.219
       218   03 Jun 2027 02:14:17.006   03 Jun 2027 02:14:56.277            39.271                Novosib          1227.219
       219   03 Jun 2027 02:15:35.075   03 Jun 2027 02:15:38.473             3.398                Novosib           106.188
       220   03 Jun 2027 02:18:20.902   03 Jun 2027 02:19:03.677            42.775                 Moscow          1336.719
       221   03 Jun 2027 02:38:57.489   03 Jun 2027 02:40:07.306            69.817               CapeTown          2181.781
       222   03 Jun 2027 02:47:47.212   03 Jun 2027 02:48:16.396            29.184               CapeTown           912.000
       223   03 Jun 2027 03:41:58.715   03 Jun 2027 03:45:40.054           221.339               Magadan1          6916.844
       224   03 Jun 2027 03:45:40.054   03 Jun 2027 03:48:12.048           151.994               Magadan2          4749.813
       225   03 Jun 2027 05:20:25.404   03 Jun 2027 05:20:35.417            10.013                Anadyr2           312.906
       226   03 Jun 2027 05:20:55.038   03 Jun 2027 05:22:12.521            77.483               Magadan1          2421.344
       227   03 Jun 2027 05:22:12.521   03 Jun 2027 05:22:20.322             7.801               Magadan2           243.781
       228   03 Jun 2027 05:22:26.871   03 Jun 2027 05:24:24.411           117.540                Anadyr1          3673.125
       229   03 Jun 2027 06:53:32.463   03 Jun 2027 06:53:45.401            12.938               Magadan2           404.313
       230   03 Jun 2027 06:53:53.927   03 Jun 2027 06:54:06.734            12.807               Magadan1           400.219
       231   03 Jun 2027 06:54:06.734   03 Jun 2027 06:54:28.189            21.455               Magadan2           670.469
       232   03 Jun 2027 06:54:31.308   03 Jun 2027 06:56:10.323            99.015               Magadan2          3094.219
       233   03 Jun 2027 06:56:28.802   03 Jun 2027 06:56:31.229             2.427               Magadan2            75.844
       234   03 Jun 2027 06:56:50.022   03 Jun 2027 06:57:39.231            49.209               Magadan2          1537.781
       235   03 Jun 2027 06:57:39.231   03 Jun 2027 06:58:13.701            34.470               Magadan1          1077.188
       236   03 Jun 2027 06:58:14.909   03 Jun 2027 06:58:26.845            11.936               Magadan1           373.000
       237   03 Jun 2027 06:58:49.925   03 Jun 2027 06:59:07.777            17.852                Novosib           557.875
       238   03 Jun 2027 06:59:27.106   03 Jun 2027 06:59:55.131            28.025               Magadan2           875.781
       239   03 Jun 2027 07:38:26.199   03 Jun 2027 07:38:37.330            11.131            RioGallegos           347.844
       240   03 Jun 2027 08:11:53.249   03 Jun 2027 08:12:15.183            21.934                Sumatra           685.438
       241   03 Jun 2027 08:20:00.634   03 Jun 2027 08:20:13.310            12.676                Sumatra           396.125
       242   03 Jun 2027 08:33:18.321   03 Jun 2027 08:33:22.800             4.479                Norilsk           139.969
       243   03 Jun 2027 08:33:40.738   03 Jun 2027 08:33:55.127            14.389                Irkutsk           449.656
       244   03 Jun 2027 08:34:00.037   03 Jun 2027 08:34:17.056            17.019                Norilsk           531.844
       245   03 Jun 2027 08:34:46.343   03 Jun 2027 08:35:05.646            19.303                Irkutsk           603.219
       246   03 Jun 2027 08:35:13.690   03 Jun 2027 08:35:52.162            38.472                Irkutsk          1202.250
       247   03 Jun 2027 09:11:08.456   03 Jun 2027 09:11:47.936            39.480            RioGallegos          1233.750
       248   03 Jun 2027 09:45:33.783   03 Jun 2027 09:46:20.714            46.931                Sumatra          1466.594
       249   03 Jun 2027 09:49:44.928   03 Jun 2027 09:50:09.327            24.399                Sumatra           762.469
       250   03 Jun 2027 10:01:19.602   03 Jun 2027 10:01:26.631             7.029                  Delhi           219.656
       251   03 Jun 2027 10:05:49.987   03 Jun 2027 10:06:08.160            18.173                  Delhi           567.906
       252   03 Jun 2027 10:06:39.027   03 Jun 2027 10:06:55.428            16.401                Irkutsk           512.531
       253   03 Jun 2027 10:07:26.949   03 Jun 2027 10:07:46.511            19.562                Novosib           611.312
       254   03 Jun 2027 10:08:59.110   03 Jun 2027 10:09:20.011            20.901                Irkutsk           653.156
       255   03 Jun 2027 10:09:25.704   03 Jun 2027 10:09:26.141             0.437                Novosib            13.656
       256   03 Jun 2027 10:09:36.836   03 Jun 2027 10:09:42.938             6.102                Norilsk           190.687
       257   03 Jun 2027 10:09:56.007   03 Jun 2027 10:10:16.724            20.717                Irkutsk           647.406
       258   03 Jun 2027 10:10:29.786   03 Jun 2027 10:11:11.180            41.394                Novosib          1293.563
       259   03 Jun 2027 10:11:17.351   03 Jun 2027 10:11:31.692            14.341                Norilsk           448.156
       260   03 Jun 2027 10:11:35.663   03 Jun 2027 10:11:41.450             5.787                Novosib           180.844
       261   03 Jun 2027 11:30:08.895   03 Jun 2027 11:32:26.139           137.244                  Delhi          4288.875
       262   03 Jun 2027 11:35:20.028   03 Jun 2027 11:35:26.202             6.174                  Delhi           192.937
       263   03 Jun 2027 11:44:02.564   03 Jun 2027 11:44:13.702            11.138                Novosib           348.063
       264   03 Jun 2027 11:45:10.655   03 Jun 2027 11:45:41.626            30.971                Novosib           967.844
       265   03 Jun 2027 11:45:49.273   03 Jun 2027 11:46:23.738            34.465                Norilsk          1077.031
       266   03 Jun 2027 11:47:30.657   03 Jun 2027 11:48:19.342            48.685                Novosib          1521.406
       267   03 Jun 2027 13:14:04.517   03 Jun 2027 13:15:07.140            62.623                 Moscow          1956.969
       268   03 Jun 2027 13:16:56.866   03 Jun 2027 13:18:22.653            85.787                 Moscow          2680.844
       269   03 Jun 2027 13:18:54.920   03 Jun 2027 13:20:42.923           108.003              Murmansk2          3375.094
       270   03 Jun 2027 13:22:48.215   03 Jun 2027 13:24:40.823           112.608                Norilsk          3519.000
       271   03 Jun 2027 14:28:07.024   03 Jun 2027 14:30:25.747           138.723               CapeTown          4335.094
       272   03 Jun 2027 14:31:38.565   03 Jun 2027 14:32:19.604            41.039               CapeTown          1282.469
       273   03 Jun 2027 14:38:35.661   03 Jun 2027 14:39:47.735            72.074               CapeTown          2252.313
       274   03 Jun 2027 14:55:03.876   03 Jun 2027 14:55:49.116            45.240              Murmansk2          1413.750
       275   03 Jun 2027 14:59:10.378   03 Jun 2027 15:00:04.527            54.149              Murmansk2          1692.156
       276   03 Jun 2027 15:08:25.865   03 Jun 2027 15:10:51.017           145.152                Anadyr1          4536.000
       277   03 Jun 2027 15:13:53.859   03 Jun 2027 15:14:28.023            34.164                Anadyr1          1067.625
       278   03 Jun 2027 16:09:36.260   03 Jun 2027 16:10:47.940            71.680               CapeTown          2240.000
       279   03 Jun 2027 16:35:01.484   03 Jun 2027 16:36:39.018            97.534              Murmansk2          3047.937
       280   03 Jun 2027 16:36:39.018   03 Jun 2027 16:37:27.742            48.724              Murmansk1          1522.625
       281   03 Jun 2027 16:38:45.011   03 Jun 2027 16:40:12.321            87.310              Murmansk2          2728.437
       282   03 Jun 2027 16:44:06.558   03 Jun 2027 16:45:05.850            59.292                Anadyr2          1852.875
       283   03 Jun 2027 16:47:07.562   03 Jun 2027 16:49:50.312           162.750               Magadan2          5085.937
       284   03 Jun 2027 16:50:33.243   03 Jun 2027 16:51:24.595            51.352               Magadan2          1604.750
       285   03 Jun 2027 18:20:02.013   03 Jun 2027 18:22:33.870           151.857                Anadyr1          4745.531
       286   03 Jun 2027 18:23:35.538   03 Jun 2027 18:23:42.238             6.700                Anadyr1           209.375
       287   03 Jun 2027 18:23:54.550   03 Jun 2027 18:25:21.511            86.961               Magadan2          2717.531
       288   03 Jun 2027 18:25:38.245   03 Jun 2027 18:26:00.089            21.844               Magadan2           682.625
       289   03 Jun 2027 18:27:57.401   03 Jun 2027 18:28:37.830            40.429               Magadan2          1263.406
       290   03 Jun 2027 18:29:36.029   03 Jun 2027 18:30:21.365            45.336               Magadan1          1416.750
       291   03 Jun 2027 19:15:52.566   03 Jun 2027 19:18:42.283           169.717            RioGallegos          5303.656
       292   03 Jun 2027 19:22:13.743   03 Jun 2027 19:22:27.548            13.805            RioGallegos           431.406
       293   03 Jun 2027 19:55:49.627   03 Jun 2027 19:56:17.355            27.728                Anadyr2           866.500
       294   03 Jun 2027 19:57:59.758   03 Jun 2027 20:00:29.846           150.088                Norilsk          4690.250
       295   03 Jun 2027 20:02:46.870   03 Jun 2027 20:06:10.091           203.221                Irkutsk          6350.656
       296   03 Jun 2027 20:09:20.554   03 Jun 2027 20:09:56.137            35.583                Irkutsk          1111.969
       297   03 Jun 2027 20:17:28.399   03 Jun 2027 20:17:57.793            29.394                Sumatra           918.562
       298   03 Jun 2027 20:19:01.754   03 Jun 2027 20:20:02.924            61.170                Sumatra          1911.562
       299   03 Jun 2027 20:21:11.186   03 Jun 2027 20:21:33.326            22.140                Sumatra           691.875
       300   03 Jun 2027 20:22:13.618   03 Jun 2027 20:23:37.098            83.480                Sumatra          2608.750
       301   03 Jun 2027 21:33:46.838   03 Jun 2027 21:34:17.245            30.407                Norilsk           950.219
       302   03 Jun 2027 21:37:40.448   03 Jun 2027 21:39:09.447            88.999                Irkutsk          2781.219
       303   03 Jun 2027 21:39:26.114   03 Jun 2027 21:40:48.502            82.388                Novosib          2574.625
       304   03 Jun 2027 21:47:44.515   03 Jun 2027 21:49:56.209           131.694                  Delhi          4115.438
       305   03 Jun 2027 23:09:21.587   03 Jun 2027 23:10:18.888            57.301                Anadyr1          1790.656
       306   03 Jun 2027 23:10:20.143   03 Jun 2027 23:11:36.041            75.898               Magadan1          2371.813
       307   03 Jun 2027 23:12:37.413   03 Jun 2027 23:14:41.359           123.946              Murmansk1          3873.313
       308   03 Jun 2027 23:15:36.227   03 Jun 2027 23:16:22.777            46.550              Murmansk2          1454.688
       309   03 Jun 2027 23:18:08.041   03 Jun 2027 23:18:28.577            20.536              Murmansk2           641.750
       310   03 Jun 2027 23:21:35.311   03 Jun 2027 23:22:59.400            84.089                  Delhi          2627.781
       311   03 Jun 2027 23:30:47.351   03 Jun 2027 23:32:35.743           108.392                  Delhi          3387.250
       312   04 Jun 2027 00:38:22.401   04 Jun 2027 00:38:45.872            23.471                Anadyr1           733.469
       313   04 Jun 2027 00:40:57.734   04 Jun 2027 00:41:30.139            32.405                Anadyr1          1012.656
       314   04 Jun 2027 00:44:19.471   04 Jun 2027 00:46:26.498           127.027               Magadan2          3969.594
       315   04 Jun 2027 00:46:41.487   04 Jun 2027 00:46:44.284             2.797               Magadan2            87.406
       316   04 Jun 2027 00:47:56.928   04 Jun 2027 00:50:36.530           159.602              Murmansk1          4987.562
       317   04 Jun 2027 00:51:40.007   04 Jun 2027 00:51:45.618             5.611                 Moscow           175.344
       318   04 Jun 2027 00:52:37.221   04 Jun 2027 00:52:54.908            17.687                 Moscow           552.719
       319   04 Jun 2027 00:54:15.007   04 Jun 2027 00:54:55.249            40.242              Murmansk2          1257.562
       320   04 Jun 2027 00:57:45.196   04 Jun 2027 00:58:20.367            35.171                 Moscow          1099.094
       321   04 Jun 2027 01:17:26.959   04 Jun 2027 01:18:33.516            66.557               CapeTown          2079.906
       322   04 Jun 2027 02:12:17.188   04 Jun 2027 02:13:19.114            61.926                Anadyr1          1935.187
       323   04 Jun 2027 02:13:35.785   04 Jun 2027 02:14:15.627            39.842                Anadyr2          1245.062
       324   04 Jun 2027 02:15:57.608   04 Jun 2027 02:17:15.040            77.432               Magadan2          2419.750
       325   04 Jun 2027 02:21:06.714   04 Jun 2027 02:21:21.792            15.078               Magadan2           471.187
       326   04 Jun 2027 02:21:25.259   04 Jun 2027 02:21:49.454            24.195                Norilsk           756.094
       327   04 Jun 2027 02:23:52.765   04 Jun 2027 02:24:54.377            61.612              Murmansk1          1925.375
       328   04 Jun 2027 02:25:33.007   04 Jun 2027 02:26:29.101            56.094              Murmansk2          1752.937
       329   04 Jun 2027 02:27:05.457   04 Jun 2027 02:27:12.346             6.889                 Moscow           215.281
       330   04 Jun 2027 02:28:24.618   04 Jun 2027 02:29:03.498            38.880                 Moscow          1215.000
       331   04 Jun 2027 02:37:05.500   04 Jun 2027 02:37:15.113             9.613                 Moscow           300.406
       332   04 Jun 2027 02:37:39.879   04 Jun 2027 02:37:49.469             9.590                 Moscow           299.688
       333   04 Jun 2027 02:50:59.631   04 Jun 2027 02:51:50.651            51.020               CapeTown          1594.375
       334   04 Jun 2027 02:55:27.458   04 Jun 2027 02:55:47.089            19.631               CapeTown           613.469
       335   04 Jun 2027 02:56:19.385   04 Jun 2027 02:56:33.144            13.759               CapeTown           429.969
       336   04 Jun 2027 03:53:33.977   04 Jun 2027 03:55:01.401            87.424                Anadyr2          2732.000
       337   04 Jun 2027 03:55:06.799   04 Jun 2027 03:55:17.338            10.539                Anadyr2           329.344
       338   04 Jun 2027 03:55:17.338   04 Jun 2027 03:56:44.296            86.958                Anadyr1          2717.437
       339   04 Jun 2027 03:57:26.243   04 Jun 2027 03:57:38.311            12.068                Anadyr1           377.125
       340   04 Jun 2027 03:57:40.402   04 Jun 2027 03:57:59.160            18.758               Magadan1           586.188
       341   04 Jun 2027 03:58:13.869   04 Jun 2027 03:58:30.759            16.890               Magadan2           527.813
       342   04 Jun 2027 05:32:08.937   04 Jun 2027 05:32:49.132            40.195                Irkutsk          1256.094
       343   04 Jun 2027 05:33:17.847   04 Jun 2027 05:33:25.469             7.622                Irkutsk           238.188
       344   04 Jun 2027 05:34:37.823   04 Jun 2027 05:35:56.337            78.514               Magadan1          2453.563
       345   04 Jun 2027 07:05:59.194   04 Jun 2027 07:06:05.366             6.172               Magadan2           192.875
       346   04 Jun 2027 07:06:29.968   04 Jun 2027 07:06:34.664             4.696               Magadan2           146.750
       347   04 Jun 2027 07:07:01.350   04 Jun 2027 07:08:08.751            67.401               Magadan1          2106.281
       348   04 Jun 2027 07:08:32.722   04 Jun 2027 07:09:04.940            32.218               Magadan1          1006.813
       349   04 Jun 2027 07:09:21.443   04 Jun 2027 07:10:14.599            53.156               Magadan1          1661.125
       350   04 Jun 2027 07:10:30.118   04 Jun 2027 07:10:41.548            11.430               Magadan2           357.187
       351   04 Jun 2027 07:10:51.182   04 Jun 2027 07:11:00.598             9.416                Norilsk           294.250
       352   04 Jun 2027 07:11:09.957   04 Jun 2027 07:11:50.847            40.890               Magadan2          1277.812
       353   04 Jun 2027 07:50:01.065   04 Jun 2027 07:50:24.749            23.684            RioGallegos           740.125
       354   04 Jun 2027 08:23:07.458   04 Jun 2027 08:24:26.275            78.817                Sumatra          2463.031
       355   04 Jun 2027 08:45:40.617   04 Jun 2027 08:45:47.861             7.244                Novosib           226.375
       356   04 Jun 2027 08:45:58.260   04 Jun 2027 08:46:01.934             3.674                Norilsk           114.813
       357   04 Jun 2027 08:46:12.076   04 Jun 2027 08:47:19.363            67.287                Norilsk          2102.719
       358   04 Jun 2027 08:47:24.272   04 Jun 2027 08:47:41.949            17.677                Norilsk           552.406
       359   04 Jun 2027 09:23:28.723   04 Jun 2027 09:24:27.452            58.729            RioGallegos          1835.281
       360   04 Jun 2027 09:30:13.334   04 Jun 2027 09:30:46.559            33.225            RioGallegos          1038.281
       361   04 Jun 2027 09:57:46.963   04 Jun 2027 09:59:28.159           101.196                Sumatra          3162.375
       362   04 Jun 2027 10:21:15.871   04 Jun 2027 10:21:16.997             1.126                Novosib            35.187
       363   04 Jun 2027 10:21:32.789   04 Jun 2027 10:21:48.396            15.607                Novosib           487.719
       364   04 Jun 2027 10:21:50.450   04 Jun 2027 10:21:59.905             9.455                Norilsk           295.469
       365   04 Jun 2027 10:22:15.581   04 Jun 2027 10:23:09.344            53.763                Norilsk          1680.094
       366   04 Jun 2027 11:42:33.347   04 Jun 2027 11:44:17.411           104.064                  Delhi          3252.000
       367   04 Jun 2027 11:46:44.152   04 Jun 2027 11:47:02.328            18.176                  Delhi           568.000
       368   04 Jun 2027 11:57:53.318   04 Jun 2027 11:59:08.035            74.717                Norilsk          2334.906
       369   04 Jun 2027 11:59:22.599   04 Jun 2027 11:59:36.246            13.647                Novosib           426.469
       370   04 Jun 2027 11:59:38.621   04 Jun 2027 11:59:53.797            15.176                Norilsk           474.250
       371   04 Jun 2027 12:01:12.344   04 Jun 2027 12:01:49.623            37.279                Norilsk          1164.969
       372   04 Jun 2027 12:04:37.216   04 Jun 2027 12:04:49.792            12.576                Norilsk           393.000
       373   04 Jun 2027 13:26:10.249   04 Jun 2027 13:29:36.755           206.506                 Moscow          6453.312
       374   04 Jun 2027 13:29:41.815   04 Jun 2027 13:31:38.538           116.723              Murmansk1          3647.594
       375   04 Jun 2027 13:31:38.538   04 Jun 2027 13:31:51.418            12.880              Murmansk2           402.500
       376   04 Jun 2027 13:32:38.696   04 Jun 2027 13:32:53.251            14.555              Murmansk2           454.844
       377   04 Jun 2027 13:33:38.326   04 Jun 2027 13:33:51.204            12.878              Murmansk1           402.438
       378   04 Jun 2027 13:33:51.204   04 Jun 2027 13:34:03.287            12.083              Murmansk2           377.594
       379   04 Jun 2027 13:35:33.650   04 Jun 2027 13:35:48.594            14.944              Murmansk1           467.000
       380   04 Jun 2027 13:36:16.196   04 Jun 2027 13:36:36.539            20.343                Norilsk           635.719
       381   04 Jun 2027 13:37:38.930   04 Jun 2027 13:38:49.686            70.756                Norilsk          2211.125
       382   04 Jun 2027 13:46:20.783   04 Jun 2027 13:47:08.464            47.681                Anadyr1          1490.031
       383   04 Jun 2027 13:47:59.045   04 Jun 2027 13:49:35.012            95.967                Anadyr2          2998.969
       384   04 Jun 2027 14:42:37.276   04 Jun 2027 14:43:26.011            48.735               CapeTown          1522.969
       385   04 Jun 2027 14:50:42.399   04 Jun 2027 14:51:01.846            19.447               CapeTown           607.719
       386   04 Jun 2027 15:07:26.070   04 Jun 2027 15:07:46.185            20.115              Murmansk2           628.594
       387   04 Jun 2027 15:08:03.250   04 Jun 2027 15:08:50.050            46.800              Murmansk1          1462.500
       388   04 Jun 2027 15:11:02.431   04 Jun 2027 15:11:20.363            17.932              Murmansk2           560.375
       389   04 Jun 2027 15:13:41.688   04 Jun 2027 15:14:25.434            43.746              Murmansk2          1367.063
       390   04 Jun 2027 15:20:23.205   04 Jun 2027 15:22:40.297           137.092                Anadyr1          4284.125
       391   04 Jun 2027 15:26:02.534   04 Jun 2027 15:26:20.250            17.716                Anadyr1           553.625
       392   04 Jun 2027 15:26:29.012   04 Jun 2027 15:27:08.928            39.916                Anadyr1          1247.375
       393   04 Jun 2027 16:26:01.723   04 Jun 2027 16:26:19.375            17.652               CapeTown           551.625
       394   04 Jun 2027 16:47:49.834   04 Jun 2027 16:50:12.833           142.999              Murmansk1          4468.719
       395   04 Jun 2027 16:51:13.405   04 Jun 2027 16:51:52.369            38.964              Murmansk1          1217.625
       396   04 Jun 2027 16:56:07.661   04 Jun 2027 16:57:01.942            54.281                Anadyr2          1696.281
       397   04 Jun 2027 16:57:20.635   04 Jun 2027 16:57:48.796            28.161                Anadyr1           880.031
       398   04 Jun 2027 16:58:58.060   04 Jun 2027 17:01:04.657           126.597               Magadan2          3956.156
       399   04 Jun 2027 17:01:33.110   04 Jun 2027 17:03:20.634           107.524               Magadan1          3360.125
       400   04 Jun 2027 18:32:03.217   04 Jun 2027 18:34:59.836           176.619                Anadyr2          5519.344
       401   04 Jun 2027 18:35:31.869   04 Jun 2027 18:36:15.664            43.795               Magadan2          1368.594
       402   04 Jun 2027 18:37:16.498   04 Jun 2027 18:38:27.523            71.025               Magadan2          2219.531
       403   04 Jun 2027 18:40:36.495   04 Jun 2027 18:40:51.487            14.992               Magadan2           468.500
       404   04 Jun 2027 19:27:20.413   04 Jun 2027 19:30:28.936           188.523            RioGallegos          5891.344
       405   04 Jun 2027 19:32:46.587   04 Jun 2027 19:33:22.888            36.301            RioGallegos          1134.406
       406   04 Jun 2027 19:34:07.904   04 Jun 2027 19:34:13.850             5.946            RioGallegos           185.812
       407   04 Jun 2027 20:07:48.266   04 Jun 2027 20:08:17.328            29.062                Anadyr2           908.188
       408   04 Jun 2027 20:09:57.905   04 Jun 2027 20:13:52.720           234.815                Norilsk          7337.969
       409   04 Jun 2027 20:15:06.114   04 Jun 2027 20:15:38.604            32.490                Irkutsk          1015.312
       410   04 Jun 2027 20:15:54.015   04 Jun 2027 20:16:24.715            30.700                Irkutsk           959.375
       411   04 Jun 2027 20:17:12.871   04 Jun 2027 20:18:14.842            61.971                Irkutsk          1936.594
       412   04 Jun 2027 20:28:49.672   04 Jun 2027 20:30:34.255           104.583                Sumatra          3268.219
       413   04 Jun 2027 20:33:36.625   04 Jun 2027 20:34:30.549            53.924                Sumatra          1685.125
       414   04 Jun 2027 21:46:58.236   04 Jun 2027 21:47:35.057            36.821               Magadan1          1150.656
       415   04 Jun 2027 21:48:25.229   04 Jun 2027 21:48:56.392            31.163               Magadan1           973.844
       416   04 Jun 2027 21:49:29.914   04 Jun 2027 21:49:46.593            16.679               Magadan2           521.219
       417   04 Jun 2027 21:49:51.953   04 Jun 2027 21:50:26.409            34.456               Magadan1          1076.750
       418   04 Jun 2027 21:50:30.047   04 Jun 2027 21:51:00.770            30.723                Irkutsk           960.094
       419   04 Jun 2027 21:51:10.558   04 Jun 2027 21:51:32.148            21.590                Novosib           674.687
       420   04 Jun 2027 21:53:44.015   04 Jun 2027 21:54:05.538            21.523                Novosib           672.594
       421   04 Jun 2027 21:57:31.769   04 Jun 2027 21:59:36.764           124.995                Novosib          3906.094
       422   04 Jun 2027 21:59:39.129   04 Jun 2027 22:01:36.248           117.119                  Delhi          3659.969
       423   04 Jun 2027 23:21:22.801   04 Jun 2027 23:21:34.873            12.072                Anadyr1           377.250
       424   04 Jun 2027 23:21:48.701   04 Jun 2027 23:22:18.544            29.843                Norilsk           932.594
       425   04 Jun 2027 23:22:21.952   04 Jun 2027 23:22:52.491            30.539               Magadan1           954.344
       426   04 Jun 2027 23:22:52.491   04 Jun 2027 23:23:24.052            31.561               Magadan2           986.281
       427   04 Jun 2027 23:24:27.902   04 Jun 2027 23:26:56.723           148.821              Murmansk1          4650.656
       428   04 Jun 2027 23:26:56.723   04 Jun 2027 23:28:11.104            74.381              Murmansk2          2324.406
       429   04 Jun 2027 23:30:08.897   04 Jun 2027 23:30:58.730            49.833              Murmansk1          1557.281
       430   04 Jun 2027 23:42:34.601   04 Jun 2027 23:43:07.400            32.799                  Delhi          1024.969
       431   05 Jun 2027 00:50:05.005   05 Jun 2027 00:50:33.607            28.602                Anadyr2           893.812
       432   05 Jun 2027 00:50:55.619   05 Jun 2027 00:51:22.764            27.145                Anadyr2           848.281
       433   05 Jun 2027 00:52:08.745   05 Jun 2027 00:52:51.219            42.474                Anadyr2          1327.312
       434   05 Jun 2027 00:52:59.056   05 Jun 2027 00:53:23.034            23.978                Anadyr2           749.312
       435   05 Jun 2027 00:55:50.635   05 Jun 2027 00:57:39.678           109.043               Magadan2          3407.594
       436   05 Jun 2027 00:57:39.678   05 Jun 2027 00:57:54.248            14.570               Magadan1           455.312
       437   05 Jun 2027 00:59:57.609   05 Jun 2027 01:01:08.929            71.320              Murmansk2          2228.750
       438   05 Jun 2027 01:01:10.731   05 Jun 2027 01:02:37.106            86.375              Murmansk1          2699.219
       439   05 Jun 2027 01:03:22.155   05 Jun 2027 01:03:51.756            29.601                Novosib           925.031
       440   05 Jun 2027 01:09:30.374   05 Jun 2027 01:09:51.023            20.649                 Moscow           645.281
       441   05 Jun 2027 01:12:31.897   05 Jun 2027 01:12:44.171            12.274                  Delhi           383.562
       442   05 Jun 2027 01:14:44.261   05 Jun 2027 01:14:52.291             8.030                 Moscow           250.938
       443   05 Jun 2027 01:28:48.467   05 Jun 2027 01:29:48.223            59.756               CapeTown          1867.375
       444   05 Jun 2027 01:32:53.954   05 Jun 2027 01:34:00.997            67.043               CapeTown          2095.094
       445   05 Jun 2027 02:24:09.248   05 Jun 2027 02:24:29.005            19.757                Anadyr1           617.406
       446   05 Jun 2027 02:25:18.247   05 Jun 2027 02:26:35.158            76.911                Anadyr2          2403.469
       447   05 Jun 2027 02:27:28.889   05 Jun 2027 02:28:24.616            55.727               Magadan1          1741.469
       448   05 Jun 2027 02:32:37.720   05 Jun 2027 02:32:52.419            14.699               Magadan2           459.344
       449   05 Jun 2027 02:33:12.918   05 Jun 2027 02:33:21.814             8.896                Norilsk           278.000
       450   05 Jun 2027 02:34:54.476   05 Jun 2027 02:35:14.208            19.732                Norilsk           616.625
       451   05 Jun 2027 02:35:54.531   05 Jun 2027 02:37:31.946            97.415              Murmansk2          3044.219
       452   05 Jun 2027 02:38:16.309   05 Jun 2027 02:38:20.200             3.891              Murmansk1           121.594
       453   05 Jun 2027 02:38:44.611   05 Jun 2027 02:39:10.845            26.234                Novosib           819.813
       454   05 Jun 2027 02:39:29.056   05 Jun 2027 02:39:53.062            24.006                Novosib           750.187
       455   05 Jun 2027 02:43:54.076   05 Jun 2027 02:43:58.702             4.626                 Moscow           144.562
       456   05 Jun 2027 02:44:28.736   05 Jun 2027 02:44:50.266            21.530                 Moscow           672.812
       457   05 Jun 2027 02:48:05.596   05 Jun 2027 02:48:30.053            24.457                 Moscow           764.281
       458   05 Jun 2027 02:51:30.340   05 Jun 2027 02:51:42.966            12.626                 Moscow           394.563
       459   05 Jun 2027 03:06:08.773   05 Jun 2027 03:06:58.948            50.175               CapeTown          1567.969
       460   05 Jun 2027 03:12:37.926   05 Jun 2027 03:12:51.121            13.195               CapeTown           412.344
       461   05 Jun 2027 04:06:22.582   05 Jun 2027 04:11:57.146           334.564               Magadan1         10455.125
       462   05 Jun 2027 04:11:57.146   05 Jun 2027 04:12:12.187            15.041               Magadan2           470.031
       463   05 Jun 2027 05:44:23.148   05 Jun 2027 05:46:25.407           122.259               Magadan2          3820.594
       464   05 Jun 2027 05:46:35.887   05 Jun 2027 05:48:12.080            96.193               Magadan1          3006.031
       465   05 Jun 2027 07:20:06.304   05 Jun 2027 07:20:17.441            11.137               Magadan2           348.031
       466   05 Jun 2027 07:20:36.543   05 Jun 2027 07:21:03.484            26.941               Magadan2           841.906
       467   05 Jun 2027 07:21:51.968   05 Jun 2027 07:21:57.748             5.780                Irkutsk           180.625
       468   05 Jun 2027 07:22:00.212   05 Jun 2027 07:22:05.010             4.798                Norilsk           149.938
       469   05 Jun 2027 07:22:15.056   05 Jun 2027 07:23:12.522            57.466               Magadan1          1795.812
       470   05 Jun 2027 07:23:21.815   05 Jun 2027 07:23:40.903            19.088              Murmansk2           596.500
       471   05 Jun 2027 07:23:58.061   05 Jun 2027 07:24:52.698            54.637              Murmansk2          1707.406
       472   05 Jun 2027 08:05:56.070   05 Jun 2027 08:06:07.270            11.200            RioGallegos           350.000
       473   05 Jun 2027 08:34:34.529   05 Jun 2027 08:35:11.986            37.457                Sumatra          1170.531
       474   05 Jun 2027 08:40:12.325   05 Jun 2027 08:41:16.354            64.029                Sumatra          2000.906
       475   05 Jun 2027 08:57:53.388   05 Jun 2027 08:58:07.058            13.670                Irkutsk           427.187
       476   05 Jun 2027 08:58:44.905   05 Jun 2027 08:58:59.926            15.021                Irkutsk           469.406
       477   05 Jun 2027 08:59:01.705   05 Jun 2027 08:59:36.257            34.552                Irkutsk          1079.750
       478   05 Jun 2027 09:00:52.088   05 Jun 2027 09:01:02.803            10.715                Norilsk           334.844
       479   05 Jun 2027 09:35:53.822   05 Jun 2027 09:36:34.846            41.024            RioGallegos          1282.000
       480   05 Jun 2027 09:37:55.906   05 Jun 2027 09:38:32.640            36.734            RioGallegos          1147.938
       481   05 Jun 2027 10:10:07.204   05 Jun 2027 10:11:22.575            75.371                Sumatra          2355.344
       482   05 Jun 2027 10:18:06.392   05 Jun 2027 10:18:19.196            12.804                  Delhi           400.125
