uniorb/output/strategy_4/Drop/Drop_KinoSat_110508.txt

KinoSat_110508
-------------------------
    Access    *     Start Time (UTCG)     *     Stop Time (UTCG)  *   Duration (s)        *       Station  *  Data (Mbytes)
         1   01 Jun 2027 03:20:51.089   01 Jun 2027 03:21:24.768            33.679               Magadan2          4209.875
         2   01 Jun 2027 03:21:28.767   01 Jun 2027 03:22:01.289            32.522               Magadan2          4065.250
         3   01 Jun 2027 03:22:22.246   01 Jun 2027 03:22:41.546            19.300               Magadan1          2412.500
         4   01 Jun 2027 03:22:51.670   01 Jun 2027 03:23:07.097            15.427               Magadan1          1928.375
         5   01 Jun 2027 03:23:07.097   01 Jun 2027 03:23:39.214            32.117               Magadan2          4014.625
         6   01 Jun 2027 03:24:34.543   01 Jun 2027 03:24:47.173            12.630                Anadyr1          1578.750
         7   01 Jun 2027 03:25:19.721   01 Jun 2027 03:25:47.414            27.693                Anadyr2          3461.625
         8   01 Jun 2027 04:56:51.152   01 Jun 2027 04:57:23.975            32.823                Novosib          4102.875
         9   01 Jun 2027 04:57:39.308   01 Jun 2027 04:58:13.594            34.286                Norilsk          4285.750
        10   01 Jun 2027 04:58:17.098   01 Jun 2027 04:59:30.560            73.462               Magadan2          9182.750
        11   01 Jun 2027 04:59:57.179   01 Jun 2027 05:00:29.483            32.304                Norilsk          4038.000
        12   01 Jun 2027 05:00:41.838   01 Jun 2027 05:01:39.642            57.804                Irkutsk          7225.500
        13   01 Jun 2027 05:02:32.928   01 Jun 2027 05:02:36.806             3.878                Norilsk           484.750
        14   01 Jun 2027 05:05:01.159   01 Jun 2027 05:05:16.895            15.736                Norilsk          1967.000
        15   01 Jun 2027 05:36:24.942   01 Jun 2027 05:37:06.418            41.476            RioGallegos          5184.500
        16   01 Jun 2027 06:11:48.967   01 Jun 2027 06:13:32.568           103.601                Sumatra         12950.125
        17   01 Jun 2027 06:26:17.439   01 Jun 2027 06:27:06.892            49.453                  Delhi          6181.625
        18   01 Jun 2027 06:33:15.819   01 Jun 2027 06:33:54.507            38.688                Norilsk          4836.000
        19   01 Jun 2027 06:34:01.864   01 Jun 2027 06:34:28.541            26.677                Norilsk          3334.625
        20   01 Jun 2027 06:34:41.643   01 Jun 2027 06:34:58.947            17.304              Murmansk2          2163.000
        21   01 Jun 2027 06:35:13.935   01 Jun 2027 06:36:25.716            71.781                Irkutsk          8972.625
        22   01 Jun 2027 06:36:34.229   01 Jun 2027 06:36:58.104            23.875                Norilsk          2984.375
        23   01 Jun 2027 06:37:23.940   01 Jun 2027 06:38:38.341            74.401              Murmansk2          9300.125
        24   01 Jun 2027 06:38:47.278   01 Jun 2027 06:39:15.868            28.590                Norilsk          3573.750
        25   01 Jun 2027 07:49:07.572   01 Jun 2027 07:49:12.549             4.977                Sumatra           622.125
        26   01 Jun 2027 07:50:50.322   01 Jun 2027 07:51:15.862            25.540                Sumatra          3192.500
        27   01 Jun 2027 07:55:37.086   01 Jun 2027 07:56:14.820            37.734                  Delhi          4716.750
        28   01 Jun 2027 07:57:31.770   01 Jun 2027 07:58:02.068            30.298                  Delhi          3787.250
        29   01 Jun 2027 07:58:41.776   01 Jun 2027 07:58:50.359             8.583                  Delhi          1072.875
        30   01 Jun 2027 08:11:33.323   01 Jun 2027 08:13:16.020           102.697                 Moscow         12837.125
        31   01 Jun 2027 08:13:47.763   01 Jun 2027 08:14:49.117            61.354                Novosib          7669.250
        32   01 Jun 2027 09:47:45.778   01 Jun 2027 09:48:15.834            30.056                 Moscow          3757.000
        33   01 Jun 2027 09:48:33.629   01 Jun 2027 09:49:29.644            56.015                Novosib          7001.875
        34   01 Jun 2027 09:49:32.953   01 Jun 2027 09:49:47.699            14.746                Norilsk          1843.250
        35   01 Jun 2027 09:50:00.511   01 Jun 2027 09:54:33.634           273.123                Norilsk         34140.375
        36   01 Jun 2027 09:54:36.941   01 Jun 2027 09:56:18.550           101.609              Murmansk2         12701.125
        37   01 Jun 2027 10:56:58.762   01 Jun 2027 10:58:54.912           116.150               CapeTown         14518.750
        38   01 Jun 2027 11:00:57.331   01 Jun 2027 11:01:53.475            56.144               CapeTown          7018.000
        39   01 Jun 2027 11:16:18.777   01 Jun 2027 11:18:26.605           127.828                 Moscow         15978.500
        40   01 Jun 2027 11:35:00.965   01 Jun 2027 11:41:51.283           410.318                Anadyr2         51289.750
        41   01 Jun 2027 14:48:28.061   01 Jun 2027 14:50:37.507           129.446               Magadan2         16180.750
        42   01 Jun 2027 14:53:50.298   01 Jun 2027 14:53:57.940             7.642               Magadan2           955.250
        43   01 Jun 2027 14:57:23.080   01 Jun 2027 14:57:45.665            22.585               Magadan1          2823.125
        44   01 Jun 2027 17:19:50.836   01 Jun 2027 17:22:24.132           153.296            RioGallegos         19162.000
        45   01 Jun 2027 18:06:11.687   01 Jun 2027 18:10:30.186           258.499                Novosib         32312.375
        46   01 Jun 2027 18:12:47.728   01 Jun 2027 18:13:23.338            35.610                Irkutsk          4451.250
        47   01 Jun 2027 19:52:01.235   01 Jun 2027 19:53:59.649           118.414                  Delhi         14801.750
        48   01 Jun 2027 21:15:16.829   01 Jun 2027 21:19:28.180           251.351              Murmansk2         31418.875
        49   01 Jun 2027 21:19:55.863   01 Jun 2027 21:22:17.885           142.022                 Moscow         17752.750
        50   01 Jun 2027 21:24:27.840   01 Jun 2027 21:25:06.929            39.089                 Moscow          4886.125
        51   02 Jun 2027 05:10:15.823   02 Jun 2027 05:11:00.354            44.531                Irkutsk          5566.375
        52   02 Jun 2027 05:12:08.944   02 Jun 2027 05:13:06.085            57.141               Magadan2          7142.625
        53   02 Jun 2027 05:13:22.958   02 Jun 2027 05:13:44.425            21.467                Irkutsk          2683.375
        54   02 Jun 2027 05:13:53.799   02 Jun 2027 05:17:30.856           217.057                Norilsk         27132.125
        55   02 Jun 2027 05:17:35.124   02 Jun 2027 05:18:40.770            65.646              Murmansk1          8205.750
        56   02 Jun 2027 05:19:34.608   02 Jun 2027 05:19:41.143             6.535              Murmansk2           816.875
        57   02 Jun 2027 05:20:07.401   02 Jun 2027 05:22:23.075           135.674              Murmansk2         16959.250
        58   02 Jun 2027 05:49:34.291   02 Jun 2027 05:49:34.378             0.087            RioGallegos            10.875
        59   02 Jun 2027 05:50:46.662   02 Jun 2027 05:51:43.720            57.058            RioGallegos          7132.250
        60   02 Jun 2027 05:53:14.340   02 Jun 2027 05:53:29.447            15.107            RioGallegos          1888.375
        61   02 Jun 2027 05:56:05.285   02 Jun 2027 05:56:54.273            48.988            RioGallegos          6123.500
        62   02 Jun 2027 06:23:34.511   02 Jun 2027 06:23:46.108            11.597                Sumatra          1449.625
        63   02 Jun 2027 06:25:10.416   02 Jun 2027 06:26:19.647            69.231                Sumatra          8653.875
        64   02 Jun 2027 06:29:37.936   02 Jun 2027 06:30:39.004            61.068                Sumatra          7633.500
        65   02 Jun 2027 06:37:07.158   02 Jun 2027 06:37:41.760            34.602                Irkutsk          4325.250
        66   02 Jun 2027 06:49:25.645   02 Jun 2027 06:57:05.650           460.005              Murmansk1         57500.625
        67   02 Jun 2027 07:26:57.331   02 Jun 2027 07:36:02.322           544.991            RioGallegos         68123.875
        68   02 Jun 2027 08:01:15.833   02 Jun 2027 08:09:20.215           484.382                Sumatra         60547.750
        69   02 Jun 2027 08:25:12.569   02 Jun 2027 08:26:57.971           105.402              Murmansk1         13175.250
        70   02 Jun 2027 08:27:05.856   02 Jun 2027 08:28:27.940            82.084                Norilsk         10260.500
        71   02 Jun 2027 08:28:31.853   02 Jun 2027 08:30:34.628           122.775              Murmansk1         15346.875
        72   02 Jun 2027 08:30:34.628   02 Jun 2027 08:31:10.594            35.966              Murmansk2          4495.750
        73   02 Jun 2027 08:31:22.411   02 Jun 2027 08:31:46.919            24.508              Murmansk2          3063.500
        74   02 Jun 2027 08:31:58.649   02 Jun 2027 08:32:30.317            31.668              Murmansk1          3958.500
        75   02 Jun 2027 09:47:03.163   02 Jun 2027 09:53:07.277           364.114                  Delhi         45514.250
        76   02 Jun 2027 10:01:05.942   02 Jun 2027 10:01:35.144            29.202                 Moscow          3650.250
        77   02 Jun 2027 10:02:29.968   02 Jun 2027 10:08:19.825           349.857              Murmansk2         43732.125
        78   02 Jun 2027 11:07:49.646   02 Jun 2027 11:15:19.417           449.771               CapeTown         56221.375
        79   02 Jun 2027 11:28:35.387   02 Jun 2027 11:34:31.967           356.580                 Moscow         44572.500
        80   02 Jun 2027 11:34:42.066   02 Jun 2027 11:42:23.103           461.037              Murmansk2         57629.625
        81   02 Jun 2027 11:43:10.561   02 Jun 2027 11:43:49.293            38.732              Murmansk2          4841.500
        82   02 Jun 2027 11:46:48.012   02 Jun 2027 11:50:52.487           244.475                Anadyr1         30559.375
        83   02 Jun 2027 13:26:31.556   02 Jun 2027 13:31:00.597           269.041               Magadan1         33630.125
        84   02 Jun 2027 16:43:35.196   02 Jun 2027 16:45:29.113           113.917                Irkutsk         14239.625
        85   02 Jun 2027 18:17:25.089   02 Jun 2027 18:23:50.363           385.274                Novosib         48159.250
        86   02 Jun 2027 20:05:04.255   02 Jun 2027 20:05:22.309            18.054                  Delhi          2256.750
        87   02 Jun 2027 21:26:59.666   02 Jun 2027 21:27:44.749            45.083              Murmansk1          5635.375
        88   02 Jun 2027 21:28:40.034   02 Jun 2027 21:31:21.132           161.098              Murmansk2         20137.250
        89   02 Jun 2027 21:31:55.127   02 Jun 2027 21:38:08.897           373.770                 Moscow         46721.250
        90   03 Jun 2027 03:48:12.048   03 Jun 2027 03:49:59.493           107.445               Magadan2         13430.625
        91   03 Jun 2027 03:50:00.506   03 Jun 2027 03:50:48.585            48.079                Norilsk          6009.875
        92   03 Jun 2027 05:25:49.663   03 Jun 2027 05:34:12.704           503.041              Murmansk2         62880.125
        93   03 Jun 2027 06:00:32.955   03 Jun 2027 06:03:43.528           190.573            RioGallegos         23821.625
        94   03 Jun 2027 06:04:33.266   03 Jun 2027 06:04:45.109            11.843            RioGallegos          1480.375
        95   03 Jun 2027 06:05:25.120   03 Jun 2027 06:07:42.587           137.467            RioGallegos         17183.375
        96   03 Jun 2027 06:35:26.187   03 Jun 2027 06:36:21.188            55.001                Sumatra          6875.125
        97   03 Jun 2027 06:38:29.322   03 Jun 2027 06:40:08.169            98.847                Sumatra         12355.875
        98   03 Jun 2027 06:43:07.319   03 Jun 2027 06:44:58.183           110.864                Sumatra         13858.000
        99   03 Jun 2027 06:49:20.405   03 Jun 2027 06:52:40.554           200.149                Irkutsk         25018.625
       100   03 Jun 2027 06:53:14.191   03 Jun 2027 06:53:43.525            29.334                Novosib          3666.750
       101   03 Jun 2027 06:53:55.723   03 Jun 2027 06:54:08.462            12.739                Irkutsk          1592.375
       102   03 Jun 2027 06:55:15.854   03 Jun 2027 06:55:34.517            18.663                Irkutsk          2332.875
       103   03 Jun 2027 07:01:33.790   03 Jun 2027 07:06:45.653           311.863                Norilsk         38982.875
       104   03 Jun 2027 07:06:57.308   03 Jun 2027 07:08:05.058            67.750              Murmansk2          8468.750
       105   03 Jun 2027 07:08:05.058   03 Jun 2027 07:09:01.031            55.973              Murmansk1          6996.625
       106   03 Jun 2027 07:39:45.946   03 Jun 2027 07:47:41.405           475.459            RioGallegos         59432.375
       107   03 Jun 2027 08:14:28.903   03 Jun 2027 08:20:00.634           331.731                Sumatra         41466.375
       108   03 Jun 2027 08:27:15.172   03 Jun 2027 08:27:39.347            24.175                Novosib          3021.875
       109   03 Jun 2027 08:29:28.806   03 Jun 2027 08:30:20.995            52.189                Novosib          6523.625
       110   03 Jun 2027 08:30:32.788   03 Jun 2027 08:33:40.738           187.950                Irkutsk         23493.750
       111   03 Jun 2027 08:37:17.858   03 Jun 2027 08:39:00.106           102.248                Novosib         12781.000
       112   03 Jun 2027 08:39:04.889   03 Jun 2027 08:42:45.353           220.464                Norilsk         27558.000
       113   03 Jun 2027 08:43:59.831   03 Jun 2027 08:44:29.850            30.019              Murmansk1          3752.375
       114   03 Jun 2027 10:13:18.125   03 Jun 2027 10:13:30.359            12.234                Norilsk          1529.250
       115   03 Jun 2027 10:13:50.136   03 Jun 2027 10:18:29.312           279.176                Norilsk         34897.000
       116   03 Jun 2027 10:18:53.256   03 Jun 2027 10:20:21.236            87.980              Murmansk1         10997.500
       117   03 Jun 2027 11:19:07.479   03 Jun 2027 11:28:16.045           548.566               CapeTown         68570.750
       118   03 Jun 2027 11:40:55.852   03 Jun 2027 11:50:49.761           593.909                 Moscow         74238.625
       119   03 Jun 2027 11:50:50.058   03 Jun 2027 11:56:19.260           329.202              Murmansk1         41150.250
       120   03 Jun 2027 11:58:38.779   03 Jun 2027 12:07:15.977           517.198                Anadyr1         64649.750
       121   03 Jun 2027 12:07:18.806   03 Jun 2027 12:07:20.751             1.945                Anadyr2           243.125
       122   03 Jun 2027 12:53:24.727   03 Jun 2027 12:56:28.506           183.779               CapeTown         22972.375
       123   03 Jun 2027 13:37:54.336   03 Jun 2027 13:39:10.384            76.048               Magadan2          9506.000
       124   03 Jun 2027 13:39:10.384   03 Jun 2027 13:41:15.390           125.006               Magadan1         15625.750
       125   03 Jun 2027 16:54:06.039   03 Jun 2027 16:59:31.606           325.567                Irkutsk         40695.875
       126   03 Jun 2027 18:28:56.850   03 Jun 2027 18:36:44.625           467.775                Novosib         58471.875
       127   03 Jun 2027 21:38:23.778   03 Jun 2027 21:39:40.029            76.251              Murmansk1          9531.375
       128   03 Jun 2027 21:41:23.493   03 Jun 2027 21:43:43.525           140.032              Murmansk1         17504.000
       129   03 Jun 2027 21:43:51.597   03 Jun 2027 21:47:24.443           212.846                 Moscow         26605.750
       130   03 Jun 2027 22:10:19.973   03 Jun 2027 22:11:22.578            62.605               CapeTown          7825.625
       131   03 Jun 2027 22:11:39.467   03 Jun 2027 22:12:30.810            51.343               CapeTown          4953.376
       132   04 Jun 2027 04:00:38.520   04 Jun 2027 04:01:22.482            43.962                Anadyr1          5495.250
       133   04 Jun 2027 04:01:59.163   04 Jun 2027 04:07:11.179           312.016                Norilsk         39002.000
       134   04 Jun 2027 04:07:28.159   04 Jun 2027 04:07:48.582            20.423              Murmansk2          2552.875
       135   04 Jun 2027 05:16:15.547   04 Jun 2027 05:17:07.302            51.755                Sumatra          6469.375
       136   04 Jun 2027 05:18:45.043   04 Jun 2027 05:20:20.267            95.224                Sumatra         11903.000
       137   04 Jun 2027 05:37:58.068   04 Jun 2027 05:39:07.603            69.535                Novosib          8691.875
       138   04 Jun 2027 05:39:08.189   04 Jun 2027 05:42:51.089           222.900                Norilsk         27862.500
       139   04 Jun 2027 05:42:53.717   04 Jun 2027 05:46:03.002           189.285              Murmansk2         23660.625
       140   04 Jun 2027 06:12:42.234   04 Jun 2027 06:15:42.252           180.018            RioGallegos         22502.250
       141   04 Jun 2027 06:16:19.422   04 Jun 2027 06:17:34.313            74.891            RioGallegos          9361.375
       142   04 Jun 2027 06:20:57.682   04 Jun 2027 06:21:54.892            57.210            RioGallegos          7151.250
       143   04 Jun 2027 06:47:23.562   04 Jun 2027 06:49:12.379           108.817                Sumatra         13602.125
       144   04 Jun 2027 06:54:29.612   04 Jun 2027 06:55:26.967            57.355                Sumatra          7169.375
       145   04 Jun 2027 06:56:44.084   04 Jun 2027 06:57:00.008            15.924                Sumatra          1990.500
       146   04 Jun 2027 06:57:38.038   04 Jun 2027 07:00:28.143           170.105                  Delhi         21263.125
       147   04 Jun 2027 07:01:37.609   04 Jun 2027 07:07:25.555           347.946                Irkutsk         43493.250
       148   04 Jun 2027 07:13:13.631   04 Jun 2027 07:13:51.284            37.653                Novosib          4706.625
       149   04 Jun 2027 07:14:13.092   04 Jun 2027 07:18:47.465           274.373                Norilsk         34296.625
       150   04 Jun 2027 07:19:42.954   04 Jun 2027 07:20:57.074            74.120              Murmansk1          9265.000
       151   04 Jun 2027 07:52:48.371   04 Jun 2027 07:59:07.145           378.774            RioGallegos         47346.750
       152   04 Jun 2027 08:33:07.508   04 Jun 2027 08:34:42.768            95.260                  Delhi         11907.500
       153   04 Jun 2027 08:39:29.811   04 Jun 2027 08:39:44.352            14.541                Novosib          1817.625
       154   04 Jun 2027 08:41:24.611   04 Jun 2027 08:44:43.422           198.811                Novosib         24851.375
       155   04 Jun 2027 08:44:49.936   04 Jun 2027 08:45:47.228            57.292                Norilsk          7161.500
       156   04 Jun 2027 08:49:24.461   04 Jun 2027 08:50:54.702            90.241                Novosib         11280.125
       157   04 Jun 2027 08:51:10.446   04 Jun 2027 08:54:45.853           215.407              Murmansk1         26925.875
       158   04 Jun 2027 10:25:18.351   04 Jun 2027 10:30:24.982           306.631                Norilsk         38328.875
       159   04 Jun 2027 10:30:36.290   04 Jun 2027 10:32:22.752           106.462              Murmansk2         13307.750
       160   04 Jun 2027 11:30:38.116   04 Jun 2027 11:39:55.122           557.006               CapeTown         69625.750
       161   04 Jun 2027 11:53:20.560   04 Jun 2027 12:03:18.252           597.692                 Moscow         74711.500
       162   04 Jun 2027 12:03:18.809   04 Jun 2027 12:08:20.533           301.724              Murmansk1         37715.500
       163   04 Jun 2027 12:10:32.053   04 Jun 2027 12:19:18.823           526.770                Anadyr1         65846.250
       164   04 Jun 2027 13:05:29.031   04 Jun 2027 13:06:42.551            73.520               CapeTown          9190.000
       165   04 Jun 2027 13:49:31.162   04 Jun 2027 13:53:51.151           259.989               Magadan2         32498.625
       166   04 Jun 2027 13:55:44.186   04 Jun 2027 13:56:15.945            31.759               Magadan2          3969.875
       167   04 Jun 2027 17:05:25.696   04 Jun 2027 17:12:42.098           436.402                Irkutsk         54550.250
       168   04 Jun 2027 17:21:16.727   04 Jun 2027 17:24:20.104           183.377                Sumatra         22922.125
       169   04 Jun 2027 17:26:39.542   04 Jun 2027 17:27:15.491            35.949                Sumatra          4493.625
       170   04 Jun 2027 18:41:38.992   04 Jun 2027 18:43:53.653           134.661                Novosib         16832.625
       171   04 Jun 2027 18:45:59.322   04 Jun 2027 18:47:11.736            72.414                Novosib          9051.750
       172   04 Jun 2027 21:49:55.547   04 Jun 2027 21:51:15.516            79.969              Murmansk2          9996.125
       173   04 Jun 2027 21:53:56.291   04 Jun 2027 21:55:39.050           102.759                 Moscow         12844.875
       174   04 Jun 2027 21:56:25.748   04 Jun 2027 21:57:54.489            88.741                 Moscow         11092.625
       175   04 Jun 2027 21:59:49.988   04 Jun 2027 22:00:44.185            54.197                 Moscow          6774.625
       176   04 Jun 2027 22:20:56.222   04 Jun 2027 22:22:50.156           113.934               CapeTown         11317.001
       177   05 Jun 2027 04:12:44.384   05 Jun 2027 04:13:15.337            30.953                Novosib          3869.125
       178   05 Jun 2027 04:13:57.531   05 Jun 2027 04:14:19.140            21.609                Novosib          2701.125
       179   05 Jun 2027 04:14:35.844   05 Jun 2027 04:19:02.194           266.350                Norilsk         33293.750
       180   05 Jun 2027 05:26:35.282   05 Jun 2027 05:28:11.970            96.688                Sumatra         12086.000
       181   05 Jun 2027 05:50:00.878   05 Jun 2027 05:57:54.019           473.141              Murmansk2         59142.625
       182   05 Jun 2027 06:24:55.292   05 Jun 2027 06:28:40.369           225.077            RioGallegos         28134.625
       183   05 Jun 2027 06:29:42.212   05 Jun 2027 06:30:41.274            59.062            RioGallegos          7382.750
       184   05 Jun 2027 06:31:45.487   05 Jun 2027 06:32:57.992            72.505            RioGallegos          9063.125
       185   05 Jun 2027 06:33:59.906   05 Jun 2027 06:34:21.036            21.130            RioGallegos          2641.250
       186   05 Jun 2027 06:59:26.516   05 Jun 2027 07:02:38.975           192.459                Sumatra         24057.375
       187   05 Jun 2027 07:06:05.907   05 Jun 2027 07:07:10.720            64.813                Sumatra          8101.625
       188   05 Jun 2027 07:08:33.384   05 Jun 2027 07:09:07.532            34.148                Sumatra          4268.500
       189   05 Jun 2027 07:11:04.108   05 Jun 2027 07:13:02.399           118.291                  Delhi         14786.375
       190   05 Jun 2027 07:13:59.142   05 Jun 2027 07:19:19.655           320.513                Irkutsk         40064.125
       191   05 Jun 2027 07:24:34.502   05 Jun 2027 07:24:46.729            12.227                Novosib          1528.375
       192   05 Jun 2027 07:25:45.713   05 Jun 2027 07:28:01.280           135.567                 Moscow         16945.875
       193   05 Jun 2027 07:28:18.888   05 Jun 2027 07:29:55.730            96.842                Norilsk         12105.250
       194   05 Jun 2027 07:30:37.855   05 Jun 2027 07:32:53.732           135.877              Murmansk1         16984.625
       195   05 Jun 2027 08:06:19.576   05 Jun 2027 08:10:07.238           227.662            RioGallegos         28457.750
       196   05 Jun 2027 08:43:54.466   05 Jun 2027 08:50:03.868           369.402                  Delhi         46175.250
       197   05 Jun 2027 08:52:00.238   05 Jun 2027 08:52:22.479            22.241                  Delhi          2780.125
       198   05 Jun 2027 08:53:18.867   05 Jun 2027 08:56:13.901           175.034                Novosib         21879.250
       199   05 Jun 2027 09:01:26.569   05 Jun 2027 09:02:47.456            80.887                Novosib         10110.875
       200   05 Jun 2027 09:02:48.412   05 Jun 2027 09:06:28.167           219.755                Norilsk         27469.375
       201   05 Jun 2027 09:06:33.132   05 Jun 2027 09:08:29.928           116.796              Murmansk2         14599.500
       202   05 Jun 2027 10:28:00.569   05 Jun 2027 10:28:42.848            42.279                 Moscow          5284.875
       203   05 Jun 2027 10:32:28.776   05 Jun 2027 10:33:16.094            47.318              Murmansk1          5914.750
       204   05 Jun 2027 10:36:37.740   05 Jun 2027 10:44:24.345           466.605              Murmansk1         58325.625
       205   05 Jun 2027 11:42:16.818   05 Jun 2027 11:53:06.375           649.557               CapeTown         81194.625
       206   05 Jun 2027 12:05:50.071   05 Jun 2027 12:05:58.388             8.317                 Moscow          1039.625
       207   05 Jun 2027 12:06:14.020   05 Jun 2027 12:15:52.154           578.134                 Moscow         72266.750
       208   05 Jun 2027 12:15:57.110   05 Jun 2027 12:20:21.605           264.495              Murmansk2         33061.875
       209   05 Jun 2027 12:22:27.145   05 Jun 2027 12:24:22.916           115.771                Anadyr1         14471.375
       210   05 Jun 2027 12:29:15.243   05 Jun 2027 12:29:42.170            26.927                Anadyr1          3365.875
       211   05 Jun 2027 12:31:18.770   05 Jun 2027 12:31:19.198             0.428                Anadyr1            53.500
       212   05 Jun 2027 14:01:14.986   05 Jun 2027 14:04:40.031           205.045               Magadan1         25630.625
       213   05 Jun 2027 14:06:21.926   05 Jun 2027 14:07:52.576            90.650               Magadan1         11331.250
       214   05 Jun 2027 16:30:25.660   05 Jun 2027 16:33:11.247           165.587            RioGallegos         20698.375
       215   05 Jun 2027 16:35:15.239   05 Jun 2027 16:35:29.934            14.695            RioGallegos          1836.875
       216   05 Jun 2027 17:16:59.360   05 Jun 2027 17:20:39.368           220.008                Irkutsk         27501.000
       217   05 Jun 2027 17:22:05.943   05 Jun 2027 17:23:18.396            72.453                Irkutsk          9056.625
       218   05 Jun 2027 17:32:02.739   05 Jun 2027 17:34:31.475           148.736                Sumatra         18592.000
       219   05 Jun 2027 17:36:22.213   05 Jun 2027 17:36:44.340            22.127                Sumatra          2765.875
       220   05 Jun 2027 17:38:21.796   05 Jun 2027 17:40:23.104           121.308                Sumatra         15163.500
       221   05 Jun 2027 18:55:54.765   05 Jun 2027 18:56:22.733            27.968                Novosib          3496.000
       222   05 Jun 2027 19:02:40.191   05 Jun 2027 19:04:24.612           104.421                  Delhi         13052.625
       223   05 Jun 2027 20:27:58.265   05 Jun 2027 20:29:16.405            78.140              Murmansk2          9767.500
       224   05 Jun 2027 22:03:51.009   05 Jun 2027 22:06:24.847           153.838              Murmansk1         19229.750
       225   05 Jun 2027 22:06:38.493   05 Jun 2027 22:07:11.193            32.700              Murmansk1          4087.500
       226   05 Jun 2027 22:31:57.634   05 Jun 2027 22:33:29.758            92.124               CapeTown          1542.500
       227   06 Jun 2027 04:25:57.696   06 Jun 2027 04:31:07.435           309.739                Norilsk         38717.375
       228   06 Jun 2027 04:31:31.687   06 Jun 2027 04:34:04.203           152.516              Murmansk2         19064.500
       229   06 Jun 2027 05:37:36.048   06 Jun 2027 05:40:23.287           167.239                Sumatra         20904.875
       230   06 Jun 2027 06:01:40.332   06 Jun 2027 06:06:27.514           287.182                Norilsk         35897.750
       231   06 Jun 2027 06:06:43.466   06 Jun 2027 06:09:45.767           182.301              Murmansk2         22787.625
       232   06 Jun 2027 06:37:12.415   06 Jun 2027 06:40:42.641           210.226            RioGallegos         26278.250
       233   06 Jun 2027 06:41:48.997   06 Jun 2027 06:42:56.405            67.408            RioGallegos          8426.000
       234   06 Jun 2027 06:47:00.327   06 Jun 2027 06:47:03.811             3.484            RioGallegos           435.500
       235   06 Jun 2027 07:11:35.231   06 Jun 2027 07:14:24.035           168.804                Sumatra         21100.500
       236   06 Jun 2027 07:16:38.370   06 Jun 2027 07:17:30.323            51.953                Sumatra          6494.125
       237   06 Jun 2027 07:24:16.418   06 Jun 2027 07:25:38.987            82.569                  Delhi         10321.125
       238   06 Jun 2027 07:26:25.526   06 Jun 2027 07:32:54.240           388.714                Irkutsk         48589.250
       239   06 Jun 2027 07:37:43.616   06 Jun 2027 07:40:13.076           149.460                 Moscow         18682.500
       240   06 Jun 2027 07:40:22.759   06 Jun 2027 07:42:41.515           138.756              Murmansk2         17344.500
       241   06 Jun 2027 07:43:11.091   06 Jun 2027 07:43:45.036            33.945              Murmansk2          4243.125
       242   06 Jun 2027 07:44:09.125   06 Jun 2027 07:44:50.971            41.846              Murmansk2          5230.750
       243   06 Jun 2027 08:56:13.679   06 Jun 2027 09:00:51.922           278.243                  Delhi         34780.375
       244   06 Jun 2027 09:01:29.317   06 Jun 2027 09:03:01.734            92.417                  Delhi         11552.125
       245   06 Jun 2027 09:04:26.053   06 Jun 2027 09:08:44.387           258.334                Novosib         32291.750
       246   06 Jun 2027 09:13:14.997   06 Jun 2027 09:14:37.855            82.858                Novosib         10357.250
       247   06 Jun 2027 09:14:46.585   06 Jun 2027 09:16:45.742           119.157              Murmansk1         14894.625
       248   06 Jun 2027 09:16:57.049   06 Jun 2027 09:17:31.298            34.249              Murmansk2          4281.125
       249   06 Jun 2027 09:18:01.836   06 Jun 2027 09:18:48.653            46.817                Norilsk          5852.125
       250   06 Jun 2027 09:19:01.625   06 Jun 2027 09:20:30.401            88.776              Murmansk2         11097.000
       251   06 Jun 2027 10:43:35.289   06 Jun 2027 10:44:25.859            50.570              Murmansk1          6321.250
       252   06 Jun 2027 10:45:14.419   06 Jun 2027 10:45:56.941            42.522              Murmansk2          5315.250
       253   06 Jun 2027 10:48:20.529   06 Jun 2027 10:51:58.845           218.316                 Moscow         27289.500
       254   06 Jun 2027 10:52:00.533   06 Jun 2027 10:54:59.003           178.470              Murmansk2         22308.750
       255   06 Jun 2027 10:55:53.923   06 Jun 2027 10:56:01.891             7.968              Murmansk2           996.000
       256   06 Jun 2027 11:55:44.669   06 Jun 2027 12:05:35.234           590.565               CapeTown         73820.625
       257   06 Jun 2027 12:18:25.180   06 Jun 2027 12:22:18.773           233.593                 Moscow         29199.125
       258   06 Jun 2027 12:34:23.590   06 Jun 2027 12:35:01.652            38.062                Anadyr2          4757.750
       259   06 Jun 2027 12:42:19.459   06 Jun 2027 12:43:15.783            56.324                Anadyr1          7040.500
       260   06 Jun 2027 14:13:03.146   06 Jun 2027 14:16:40.684           217.538               Magadan2         27192.250
       261   06 Jun 2027 14:18:48.379   06 Jun 2027 14:19:58.297            69.918               Magadan2          8739.750
       262   06 Jun 2027 16:41:40.458   06 Jun 2027 16:44:58.027           197.569            RioGallegos         24696.125
       263   06 Jun 2027 17:30:46.165   06 Jun 2027 17:34:56.851           250.686                Irkutsk         31335.750
       264   06 Jun 2027 17:43:13.662   06 Jun 2027 17:47:57.869           284.207                Sumatra         35525.875
       265   06 Jun 2027 17:50:46.218   06 Jun 2027 17:51:27.050            40.832                Sumatra          5104.000
       266   06 Jun 2027 19:13:25.246   06 Jun 2027 19:16:04.945           159.699                  Delhi         19962.375
       267   06 Jun 2027 19:17:47.363   06 Jun 2027 19:18:14.969            27.606                  Delhi          3450.750
       268   06 Jun 2027 20:39:55.523   06 Jun 2027 20:40:15.889            20.366              Murmansk1          2545.750
       269   06 Jun 2027 20:41:27.916   06 Jun 2027 20:41:57.322            29.406              Murmansk1          3675.750
       270   06 Jun 2027 22:16:50.380   06 Jun 2027 22:19:10.068           139.688              Murmansk2         17461.000
       271   06 Jun 2027 22:48:19.869   06 Jun 2027 22:50:11.448           111.579               CapeTown          7134.251
       272   07 Jun 2027 04:36:48.776   07 Jun 2027 04:36:59.398            10.622               Magadan1          1327.750
       273   07 Jun 2027 04:38:05.682   07 Jun 2027 04:41:52.462           226.780              Murmansk2         28347.500
       274   07 Jun 2027 05:51:07.377   07 Jun 2027 05:52:11.707            64.330                Sumatra          8041.250
       275   07 Jun 2027 06:13:50.533   07 Jun 2027 06:18:54.040           303.507                Norilsk         37938.375
       276   07 Jun 2027 06:19:09.271   07 Jun 2027 06:21:38.270           148.999              Murmansk2         18624.875
       277   07 Jun 2027 06:49:34.002   07 Jun 2027 06:55:59.855           385.853            RioGallegos         48231.625
       278   07 Jun 2027 07:23:50.274   07 Jun 2027 07:30:25.942           395.668                Sumatra         49458.500
       279   07 Jun 2027 07:38:34.474   07 Jun 2027 07:39:43.949            69.475                Novosib          8684.375
       280   07 Jun 2027 07:39:46.088   07 Jun 2027 07:43:53.854           247.766                Irkutsk         30970.750
       281   07 Jun 2027 07:49:13.046   07 Jun 2027 07:53:35.873           262.827              Murmansk1         32853.375
       282   07 Jun 2027 07:54:12.567   07 Jun 2027 07:54:53.101            40.534                Norilsk          5066.750
       283   07 Jun 2027 07:56:11.014   07 Jun 2027 07:56:48.752            37.738              Murmansk1          4717.250
       284   07 Jun 2027 09:08:40.464   07 Jun 2027 09:16:33.548           473.084                  Delhi         59135.500
       285   07 Jun 2027 09:17:02.445   07 Jun 2027 09:19:58.933           176.488                Novosib         22061.000
       286   07 Jun 2027 09:20:14.960   07 Jun 2027 09:20:49.263            34.303                Novosib          4287.875
       287   07 Jun 2027 09:25:33.359   07 Jun 2027 09:26:25.125            51.766                Novosib          6470.750
       288   07 Jun 2027 09:26:34.090   07 Jun 2027 09:29:28.807           174.717              Murmansk1         21839.625
       289   07 Jun 2027 09:29:28.807   07 Jun 2027 09:30:07.589            38.782              Murmansk2          4847.750
       290   07 Jun 2027 09:30:13.838   07 Jun 2027 09:30:49.069            35.231                Norilsk          4403.875
       291   07 Jun 2027 09:32:05.797   07 Jun 2027 09:32:31.124            25.327              Murmansk2          3165.875
       292   07 Jun 2027 10:55:42.309   07 Jun 2027 10:57:45.139           122.830              Murmansk2         15353.750
       293   07 Jun 2027 10:58:11.201   07 Jun 2027 10:58:27.589            16.388              Murmansk2          2048.500
       294   07 Jun 2027 10:58:51.782   07 Jun 2027 10:59:18.309            26.527              Murmansk2          3315.875
       295   07 Jun 2027 10:59:42.576   07 Jun 2027 11:01:03.251            80.675              Murmansk2         10084.375
       296   07 Jun 2027 11:01:07.480   07 Jun 2027 11:01:43.910            36.430              Murmansk2          4553.750
       297   07 Jun 2027 11:02:04.309   07 Jun 2027 11:05:50.267           225.958                Norilsk         28244.750
       298   07 Jun 2027 11:12:06.134   07 Jun 2027 11:15:25.114           198.980                Anadyr1         24872.500
       299   07 Jun 2027 12:07:57.935   07 Jun 2027 12:09:26.431            88.496               CapeTown         11062.000
       300   07 Jun 2027 12:31:07.128   07 Jun 2027 12:32:26.043            78.915                 Moscow          9864.375
       301   07 Jun 2027 12:47:39.761   07 Jun 2027 12:48:47.643            67.882                Anadyr1          8485.250
       302   07 Jun 2027 14:24:54.291   07 Jun 2027 14:29:04.777           250.486               Magadan2         31310.750
       303   07 Jun 2027 14:30:57.849   07 Jun 2027 14:32:01.458            63.609               Magadan1          7951.125
       304   07 Jun 2027 16:53:11.713   07 Jun 2027 16:56:48.080           216.367            RioGallegos         27045.875
       305   07 Jun 2027 16:58:13.446   07 Jun 2027 17:00:15.698           122.252            RioGallegos         15281.500
       306   07 Jun 2027 17:38:13.654   07 Jun 2027 17:38:46.690            33.036                Norilsk          4129.500
       307   07 Jun 2027 17:44:04.270   07 Jun 2027 17:44:27.369            23.099                Irkutsk          2887.375
       308   07 Jun 2027 17:46:52.735   07 Jun 2027 17:47:16.415            23.680                Irkutsk          2960.000
       309   07 Jun 2027 17:58:27.467   07 Jun 2027 18:01:48.185           200.718                Sumatra         25089.750
       310   07 Jun 2027 19:24:39.942   07 Jun 2027 19:27:50.910           190.968                  Delhi         23871.000
       311   07 Jun 2027 20:50:24.785   07 Jun 2027 20:50:35.127            10.342              Murmansk1          1292.750
       312   07 Jun 2027 20:51:51.101   07 Jun 2027 20:54:19.679           148.578              Murmansk2         18572.250
       313   07 Jun 2027 22:59:18.066   07 Jun 2027 23:01:38.030           139.964               CapeTown         17495.500
       314   08 Jun 2027 04:49:52.654   08 Jun 2027 04:50:54.078            61.424                Novosib          7678.000
       315   08 Jun 2027 04:53:23.351   08 Jun 2027 04:54:00.743            37.392              Murmansk1          4674.000
       316   08 Jun 2027 04:57:24.671   08 Jun 2027 04:57:40.082            15.411              Murmansk1          1926.375
       317   08 Jun 2027 04:57:44.290   08 Jun 2027 04:59:00.097            75.807              Murmansk1          9475.875
       318   08 Jun 2027 06:01:54.617   08 Jun 2027 06:04:06.020           131.403                Sumatra         16425.375
       319   08 Jun 2027 06:13:06.170   08 Jun 2027 06:15:18.118           131.948                Irkutsk         16493.500
       320   08 Jun 2027 06:15:18.677   08 Jun 2027 06:15:47.184            28.507                Novosib          3563.375
       321   08 Jun 2027 06:17:29.994   08 Jun 2027 06:17:48.366            18.372                Novosib          2296.500
       322   08 Jun 2027 06:25:49.738   08 Jun 2027 06:30:55.408           305.670                Norilsk         38208.750
       323   08 Jun 2027 06:31:04.666   08 Jun 2027 06:33:31.521           146.855              Murmansk1         18356.875
       324   08 Jun 2027 07:02:00.591   08 Jun 2027 07:08:53.931           413.340            RioGallegos         51667.500
       325   08 Jun 2027 07:11:09.721   08 Jun 2027 07:11:28.602            18.881            RioGallegos          2360.125
       326   08 Jun 2027 07:36:12.776   08 Jun 2027 07:44:07.471           474.695                Sumatra         59336.875
       327   08 Jun 2027 07:50:41.706   08 Jun 2027 07:51:36.243            54.537                Novosib          6817.125
       328   08 Jun 2027 07:51:55.434   08 Jun 2027 07:57:05.750           310.316                Irkutsk         38789.500
       329   08 Jun 2027 08:01:30.578   08 Jun 2027 08:05:45.788           255.210                Norilsk         31901.250
       330   08 Jun 2027 08:06:04.158   08 Jun 2027 08:06:54.952            50.794                Norilsk          6349.250
       331   08 Jun 2027 08:08:11.575   08 Jun 2027 08:08:47.031            35.456              Murmansk1          4432.000
       332   08 Jun 2027 09:21:16.762   08 Jun 2027 09:31:00.310           583.548                  Delhi         72943.500
       333   08 Jun 2027 09:31:20.135   08 Jun 2027 09:33:24.901           124.766                Novosib         15595.750
       334   08 Jun 2027 09:37:46.496   08 Jun 2027 09:42:48.980           302.484                Norilsk         37810.500
       335   08 Jun 2027 11:07:51.067   08 Jun 2027 11:10:04.713           133.646              Murmansk2         16705.750
       336   08 Jun 2027 11:10:04.713   08 Jun 2027 11:11:15.517            70.804              Murmansk1          8850.500
       337   08 Jun 2027 11:11:45.445   08 Jun 2027 11:12:20.593            35.148              Murmansk1          4393.500
       338   08 Jun 2027 11:12:29.586   08 Jun 2027 11:12:46.750            17.164              Murmansk1          2145.500
       339   08 Jun 2027 11:13:07.619   08 Jun 2027 11:13:38.615            30.996              Murmansk1          3874.500
       340   08 Jun 2027 11:14:57.750   08 Jun 2027 11:17:33.884           156.134              Murmansk1         19516.750
       341   08 Jun 2027 11:18:59.551   08 Jun 2027 11:19:34.847            35.296              Murmansk2          4412.000
       342   08 Jun 2027 11:23:34.418   08 Jun 2027 11:24:53.239            78.821                Anadyr1          9852.625
       343   08 Jun 2027 11:24:53.239   08 Jun 2027 11:27:17.143           143.904                Anadyr2         17988.000
       344   08 Jun 2027 12:19:40.969   08 Jun 2027 12:22:08.074           147.105               CapeTown         18388.125
       345   08 Jun 2027 12:43:58.156   08 Jun 2027 12:45:46.904           108.748                 Moscow         13593.500
       346   08 Jun 2027 14:36:47.622   08 Jun 2027 14:40:43.085           235.463               Magadan1         29432.875
       347   08 Jun 2027 14:41:24.137   08 Jun 2027 14:43:30.061           125.924               Magadan1         15740.500
       348   08 Jun 2027 17:06:41.878   08 Jun 2027 17:11:13.427           271.549            RioGallegos         33943.625
       349   08 Jun 2027 17:50:03.477   08 Jun 2027 17:52:14.316           130.839                Norilsk         16354.875
       350   08 Jun 2027 18:11:47.120   08 Jun 2027 18:12:49.389            62.269                Sumatra          7783.625
       351   08 Jun 2027 19:38:29.899   08 Jun 2027 19:41:41.656           191.757                  Delhi         23969.625
       352   08 Jun 2027 21:03:10.235   08 Jun 2027 21:06:21.090           190.855              Murmansk1         23856.875
       353   08 Jun 2027 21:09:40.424   08 Jun 2027 21:10:45.725            65.301                 Moscow          8162.625
       354   08 Jun 2027 23:11:59.490   08 Jun 2027 23:12:47.090            47.600               CapeTown          5950.000
       355   09 Jun 2027 05:01:57.794   09 Jun 2027 05:03:02.414            64.620                Novosib          8077.500
       356   09 Jun 2027 05:03:24.748   09 Jun 2027 05:07:56.675           271.927              Murmansk1         33990.875
       357   09 Jun 2027 05:09:17.381   09 Jun 2027 05:10:33.682            76.301              Murmansk1          9537.625
       358   09 Jun 2027 06:13:47.016   09 Jun 2027 06:16:05.940           138.924                Sumatra         17365.500
       359   09 Jun 2027 06:25:12.304   09 Jun 2027 06:27:16.294           123.990                Irkutsk         15498.750
       360   09 Jun 2027 06:29:13.061   09 Jun 2027 06:30:28.586            75.525                Irkutsk          9440.625
       361   09 Jun 2027 06:31:05.303   09 Jun 2027 06:32:56.112           110.809                Novosib         13851.125
       362   09 Jun 2027 06:37:41.576   09 Jun 2027 06:43:55.791           374.215              Murmansk1         46776.875
       363   09 Jun 2027 06:43:55.791   09 Jun 2027 06:43:58.523             2.732              Murmansk2           341.500
       364   09 Jun 2027 06:44:18.217   09 Jun 2027 06:45:25.503            67.286              Murmansk1          8410.750
       365   09 Jun 2027 07:17:55.240   09 Jun 2027 07:22:06.046           250.806            RioGallegos         31350.750
       366   09 Jun 2027 07:49:23.582   09 Jun 2027 07:58:25.925           542.343                Sumatra         67792.875
       367   09 Jun 2027 08:04:23.671   09 Jun 2027 08:08:57.395           273.724                Irkutsk         34215.500
       368   09 Jun 2027 08:13:22.463   09 Jun 2027 08:15:04.505           102.042                Novosib         12755.250
       369   09 Jun 2027 08:15:22.759   09 Jun 2027 08:15:35.024            12.265                Norilsk          1533.125
       370   09 Jun 2027 08:15:36.921   09 Jun 2027 08:18:07.738           150.817              Murmansk1         18852.125
       371   09 Jun 2027 08:18:30.233   09 Jun 2027 08:18:56.743            26.510                Norilsk          3313.750
       372   09 Jun 2027 09:34:06.357   09 Jun 2027 09:42:21.127           494.770                  Delhi         61846.250
       373   09 Jun 2027 09:42:39.394   09 Jun 2027 09:45:08.413           149.019                Novosib         18627.375
       374   09 Jun 2027 09:50:16.710   09 Jun 2027 09:54:02.259           225.549                Norilsk         28193.625
       375   09 Jun 2027 09:54:07.381   09 Jun 2027 09:54:35.482            28.101              Murmansk1          3512.625
       376   09 Jun 2027 09:56:09.150   09 Jun 2027 09:56:33.182            24.032              Murmansk2          3004.000
       377   09 Jun 2027 11:20:01.615   09 Jun 2027 11:26:56.679           415.064              Murmansk2         51883.000
       378   09 Jun 2027 11:29:07.654   09 Jun 2027 11:30:08.844            61.190              Murmansk1          7648.750
       379   09 Jun 2027 11:30:24.379   09 Jun 2027 11:30:46.442            22.063              Murmansk1          2757.875
       380   09 Jun 2027 11:32:04.059   09 Jun 2027 11:32:30.922            26.863              Murmansk1          3357.875
       381   09 Jun 2027 11:35:15.405   09 Jun 2027 11:37:02.475           107.070                Anadyr1         13383.750
       382   09 Jun 2027 11:38:52.613   09 Jun 2027 11:41:14.559           141.946                Anadyr2         17743.250
       383   09 Jun 2027 12:29:38.933   09 Jun 2027 12:29:45.481             6.548               CapeTown           818.500
       384   09 Jun 2027 12:31:14.453   09 Jun 2027 12:31:55.182            40.729               CapeTown          5091.125
       385   09 Jun 2027 12:32:46.820   09 Jun 2027 12:34:13.652            86.832               CapeTown         10854.000
       386   09 Jun 2027 12:39:06.032   09 Jun 2027 12:39:12.321             6.289               CapeTown           786.125
       387   09 Jun 2027 12:57:03.134   09 Jun 2027 12:58:48.499           105.365                 Moscow         13170.625
       388   09 Jun 2027 14:48:42.629   09 Jun 2027 14:52:44.743           242.114               Magadan2         30264.250
       389   09 Jun 2027 17:20:06.340   09 Jun 2027 17:22:38.431           152.091            RioGallegos         19011.375
       390   09 Jun 2027 18:03:47.202   09 Jun 2027 18:04:16.242            29.040                Norilsk          3630.000
       391   09 Jun 2027 18:06:25.546   09 Jun 2027 18:10:45.984           260.438                Novosib         32554.750
       392   09 Jun 2027 19:52:16.847   09 Jun 2027 19:54:13.737           116.890                  Delhi         14611.250
       393   09 Jun 2027 21:15:33.406   09 Jun 2027 21:19:42.736           249.330              Murmansk2         31166.250
       394   09 Jun 2027 21:20:10.860   09 Jun 2027 21:22:32.378           141.518                 Moscow         17689.750
       395   09 Jun 2027 21:24:42.835   09 Jun 2027 21:25:22.392            39.557                 Moscow          4944.625
       396   10 Jun 2027 05:14:03.470   10 Jun 2027 05:15:09.781            66.311                Novosib          8288.875
       397   10 Jun 2027 05:15:12.829   10 Jun 2027 05:18:36.839           204.010                Norilsk         25501.250
       398   10 Jun 2027 05:18:55.265   10 Jun 2027 05:22:37.567           222.302              Murmansk1         27787.750
       399   10 Jun 2027 05:48:41.908   10 Jun 2027 05:50:11.129            89.221            RioGallegos         11152.625
       400   10 Jun 2027 05:51:01.243   10 Jun 2027 05:51:58.341            57.098            RioGallegos          7137.250
       401   10 Jun 2027 05:52:43.222   10 Jun 2027 05:53:28.817            45.595            RioGallegos          5699.375
       402   10 Jun 2027 06:23:48.990   10 Jun 2027 06:24:01.241            12.251                Sumatra          1531.375
       403   10 Jun 2027 06:25:24.754   10 Jun 2027 06:28:11.477           166.723                Sumatra         20840.375
       404   10 Jun 2027 06:35:36.625   10 Jun 2027 06:36:18.080            41.455                  Delhi          5181.875
       405   10 Jun 2027 06:37:21.912   10 Jun 2027 06:40:50.384           208.472                Irkutsk         26059.000
       406   10 Jun 2027 06:41:16.642   10 Jun 2027 06:42:17.248            60.606                Irkutsk          7575.750
       407   10 Jun 2027 06:43:00.862   10 Jun 2027 06:43:17.657            16.795                Irkutsk          2099.375
       408   10 Jun 2027 06:49:40.075   10 Jun 2027 06:51:08.303            88.228                 Moscow         11028.500
       409   10 Jun 2027 06:51:22.044   10 Jun 2027 06:54:21.718           179.674              Murmansk1         22459.250
       410   10 Jun 2027 06:54:21.718   10 Jun 2027 06:57:20.211           178.493              Murmansk2         22311.625
       411   10 Jun 2027 07:27:12.473   10 Jun 2027 07:36:19.223           546.750            RioGallegos         68343.750
       412   10 Jun 2027 08:01:31.127   10 Jun 2027 08:09:34.087           482.960                Sumatra         60370.000
       413   10 Jun 2027 08:17:23.849   10 Jun 2027 08:21:49.340           265.491                Irkutsk         33186.375
       414   10 Jun 2027 08:25:27.833   10 Jun 2027 08:25:53.251            25.418              Murmansk2          3177.250
       415   10 Jun 2027 08:25:54.700   10 Jun 2027 08:28:42.787           168.087                Norilsk         21010.875
       416   10 Jun 2027 08:28:46.976   10 Jun 2027 08:30:51.700           124.724              Murmansk2         15590.500
       417   10 Jun 2027 08:32:13.373   10 Jun 2027 08:32:44.928            31.555              Murmansk1          3944.375
       418   10 Jun 2027 09:47:18.880   10 Jun 2027 09:53:20.953           362.073                  Delhi         45259.125
       419   10 Jun 2027 10:01:20.917   10 Jun 2027 10:01:50.065            29.148                 Moscow          3643.500
       420   10 Jun 2027 10:02:37.475   10 Jun 2027 10:05:11.874           154.399              Murmansk2         19299.875
       421   10 Jun 2027 10:05:11.874   10 Jun 2027 10:08:34.459           202.585              Murmansk1         25323.125
       422   10 Jun 2027 11:08:03.655   10 Jun 2027 11:12:26.327           262.672               CapeTown         32834.000
       423   10 Jun 2027 11:13:06.558   10 Jun 2027 11:14:54.345           107.787               CapeTown         13473.375
       424   10 Jun 2027 11:28:50.225   10 Jun 2027 11:34:47.041           356.816                 Moscow         44602.000
       425   10 Jun 2027 11:34:56.700   10 Jun 2027 11:38:56.025           239.325              Murmansk2         29915.625
       426   10 Jun 2027 11:38:56.025   10 Jun 2027 11:41:56.038           180.013              Murmansk1         22501.625
       427   10 Jun 2027 11:42:39.823   10 Jun 2027 11:43:25.305            45.482              Murmansk1          5685.250
       428   10 Jun 2027 11:47:02.506   10 Jun 2027 11:50:39.615           217.109                Anadyr2         27138.625
       429   10 Jun 2027 12:41:37.772   10 Jun 2027 12:43:29.437           111.665               CapeTown         13958.125
       430   10 Jun 2027 12:44:04.367   10 Jun 2027 12:44:51.336            46.969               CapeTown          5871.125
       431   10 Jun 2027 12:47:30.473   10 Jun 2027 12:48:55.797            85.324               CapeTown         10665.500
       432   10 Jun 2027 12:51:35.455   10 Jun 2027 12:51:55.275            19.820               CapeTown          2477.500
       433   10 Jun 2027 13:10:40.223   10 Jun 2027 13:10:58.040            17.817                 Moscow          2227.125
       434   10 Jun 2027 13:26:45.588   10 Jun 2027 13:29:50.846           185.258               Magadan1         23157.250
       435   10 Jun 2027 16:43:47.546   10 Jun 2027 16:45:46.421           118.875                Irkutsk         14859.375
       436   10 Jun 2027 18:17:39.300   10 Jun 2027 18:24:05.775           386.475                Novosib         48309.375
       437   10 Jun 2027 20:05:19.554   10 Jun 2027 20:05:36.566            17.012                  Delhi          2126.500
       438   10 Jun 2027 21:27:15.254   10 Jun 2027 21:27:59.180            43.926              Murmansk2          5490.750
       439   10 Jun 2027 21:28:55.241   10 Jun 2027 21:31:35.722           160.481              Murmansk1         20060.125
       440   10 Jun 2027 21:32:10.063   10 Jun 2027 21:38:24.163           374.100                 Moscow         46762.500
       441   11 Jun 2027 03:48:25.831   11 Jun 2027 03:50:14.093           108.262               Magadan1         13532.750
       442   11 Jun 2027 03:50:15.125   11 Jun 2027 03:53:00.365           165.240                Norilsk         20655.000
       443   11 Jun 2027 05:25:36.383   11 Jun 2027 05:26:03.101            26.718                Irkutsk          3339.750
       444   11 Jun 2027 05:26:04.284   11 Jun 2027 05:34:27.204           502.920              Murmansk1         62865.000
       445   11 Jun 2027 06:00:47.662   11 Jun 2027 06:02:23.654            95.992            RioGallegos         11999.000
       446   11 Jun 2027 06:02:50.259   11 Jun 2027 06:03:58.135            67.876            RioGallegos          8484.500
       447   11 Jun 2027 06:04:59.510   11 Jun 2027 06:05:40.353            40.843            RioGallegos          5105.375
       448   11 Jun 2027 06:05:58.169   11 Jun 2027 06:06:03.401             5.232            RioGallegos           654.000
       449   11 Jun 2027 06:06:18.025   11 Jun 2027 06:07:57.109            99.084            RioGallegos         12385.500
       450   11 Jun 2027 06:35:40.739   11 Jun 2027 06:36:36.494            55.755                Sumatra          6969.375
       451   11 Jun 2027 06:38:44.019   11 Jun 2027 06:40:22.991            98.972                Sumatra         12371.500
       452   11 Jun 2027 06:46:37.148   11 Jun 2027 06:48:31.090           113.942                  Delhi         14242.750
       453   11 Jun 2027 06:49:35.205   11 Jun 2027 06:54:09.548           274.343                Irkutsk         34292.875
       454   11 Jun 2027 07:01:44.660   11 Jun 2027 07:03:41.508           116.848                 Moscow         14606.000
       455   11 Jun 2027 07:03:42.530   11 Jun 2027 07:09:15.600           333.070              Murmansk1         41633.750
       456   11 Jun 2027 07:40:01.221   11 Jun 2027 07:47:55.681           474.460            RioGallegos         59307.500
       457   11 Jun 2027 08:14:44.703   11 Jun 2027 08:20:13.979           329.276                Sumatra         41159.500
       458   11 Jun 2027 08:29:43.382   11 Jun 2027 08:30:36.599            53.217                Novosib          6652.125
       459   11 Jun 2027 08:30:48.718   11 Jun 2027 08:33:57.069           188.351                Irkutsk         23543.875
       460   11 Jun 2027 08:37:33.202   11 Jun 2027 08:39:14.664           101.462                Novosib         12682.750
       461   11 Jun 2027 08:39:20.848   11 Jun 2027 08:42:59.984           219.136                Norilsk         27392.000
       462   11 Jun 2027 08:44:14.558   11 Jun 2027 08:44:44.465            29.907              Murmansk1          3738.375
       463   11 Jun 2027 10:13:45.549   11 Jun 2027 10:14:06.463            20.914                Norilsk          2614.250
       464   11 Jun 2027 10:14:11.924   11 Jun 2027 10:14:28.793            16.869                Norilsk          2108.625
       465   11 Jun 2027 10:14:35.942   11 Jun 2027 10:20:35.871           359.929              Murmansk2         44991.125
       466   11 Jun 2027 11:19:21.686   11 Jun 2027 11:28:31.235           549.549               CapeTown         68693.625
       467   11 Jun 2027 11:41:10.740   11 Jun 2027 11:51:04.692           593.952                 Moscow         74244.000
       468   11 Jun 2027 11:51:06.877   11 Jun 2027 11:56:33.890           327.013              Murmansk2         40876.625
       469   11 Jun 2027 11:58:53.309   11 Jun 2027 12:07:33.509           520.200                Anadyr2         65025.000
       470   11 Jun 2027 12:53:39.379   11 Jun 2027 12:55:10.677            91.298               CapeTown         11412.250
       471   11 Jun 2027 13:38:08.624   11 Jun 2027 13:43:48.046           339.422               Magadan2         42427.750
       472   11 Jun 2027 16:54:20.043   11 Jun 2027 16:59:22.346           302.303                Irkutsk         37787.875
       473   11 Jun 2027 18:29:11.198   11 Jun 2027 18:35:21.884           370.686                Novosib         46335.750
       474   11 Jun 2027 21:38:35.234   11 Jun 2027 21:39:41.219            65.985              Murmansk2          8248.125
       475   11 Jun 2027 21:41:38.642   11 Jun 2027 21:43:30.978           112.336              Murmansk1         14042.000
       476   11 Jun 2027 21:43:39.623   11 Jun 2027 21:47:39.432           239.809                 Moscow         29976.125
       477   11 Jun 2027 22:10:33.296   11 Jun 2027 22:11:36.763            63.467               CapeTown          7933.375
       478   11 Jun 2027 22:12:45.646   11 Jun 2027 22:14:44.111           118.465               CapeTown          9693.502
       479   12 Jun 2027 04:00:53.746   12 Jun 2027 04:01:38.448            44.702                Anadyr2          5587.750
       480   12 Jun 2027 04:02:03.223   12 Jun 2027 04:07:25.770           322.547                Norilsk         40318.375
       481   12 Jun 2027 04:07:44.228   12 Jun 2027 04:08:01.064            16.836              Murmansk2          2104.500
       482   12 Jun 2027 05:16:28.379   12 Jun 2027 05:17:21.562            53.183                Sumatra          6647.875
