uniorb/output/strategy_4/Drop/Drop_KinoSat_110108.txt

KinoSat_110108
-------------------------
    Access    *     Start Time (UTCG)     *     Stop Time (UTCG)  *   Duration (s)        *       Station  *  Data (Mbytes)
         1   01 Jun 2027 03:39:57.736   01 Jun 2027 03:41:25.341            87.605                Irkutsk         10950.625
         2   01 Jun 2027 03:42:23.669   01 Jun 2027 03:42:56.816            33.147              Murmansk1          4143.375
         3   01 Jun 2027 03:42:59.399   01 Jun 2027 03:43:28.368            28.969                Novosib          3621.125
         4   01 Jun 2027 03:43:49.619   01 Jun 2027 03:45:59.288           129.669                Norilsk         16208.625
         5   01 Jun 2027 04:22:21.053   01 Jun 2027 04:23:17.898            56.845            RioGallegos          7105.625
         6   01 Jun 2027 04:54:47.662   01 Jun 2027 04:56:38.620           110.958                Sumatra         13869.750
         7   01 Jun 2027 05:08:56.955   01 Jun 2027 05:09:25.057            28.102                  Delhi          3512.750
         8   01 Jun 2027 05:18:02.939   01 Jun 2027 05:18:19.524            16.585                Irkutsk          2073.125
         9   01 Jun 2027 05:18:28.314   01 Jun 2027 05:19:33.625            65.311                Novosib          8163.875
        10   01 Jun 2027 05:20:00.592   01 Jun 2027 05:20:09.635             9.043              Murmansk2          1130.375
        11   01 Jun 2027 05:20:35.854   01 Jun 2027 05:21:32.171            56.317                Norilsk          7039.625
        12   01 Jun 2027 06:39:47.453   01 Jun 2027 06:43:19.087           211.634                  Delhi         26454.250
        13   01 Jun 2027 06:54:27.682   01 Jun 2027 06:55:10.553            42.871                Novosib          5358.875
        14   01 Jun 2027 06:55:19.550   01 Jun 2027 06:56:21.743            62.193              Murmansk1          7774.125
        15   01 Jun 2027 09:39:15.242   01 Jun 2027 09:40:03.232            47.990               CapeTown          5998.750
        16   01 Jun 2027 10:26:29.093   01 Jun 2027 10:26:35.046             5.953                Anadyr1           744.125
        17   01 Jun 2027 12:01:45.907   01 Jun 2027 12:02:42.610            56.703               Magadan2          7087.875
        18   01 Jun 2027 12:04:50.963   01 Jun 2027 12:05:01.008            10.045               Magadan1          1255.625
        19   01 Jun 2027 13:31:01.049   01 Jun 2027 13:31:18.638            17.589               Magadan1          2198.625
        20   01 Jun 2027 13:32:41.401   01 Jun 2027 13:34:17.486            96.085               Magadan2         12010.625
        21   01 Jun 2027 13:35:49.491   01 Jun 2027 13:36:08.445            18.954               Magadan2          2369.250
        22   01 Jun 2027 13:38:56.218   01 Jun 2027 13:40:36.288           100.070               Magadan2         12508.750
        23   01 Jun 2027 15:12:27.680   01 Jun 2027 15:15:47.277           199.597                Irkutsk         24949.625
        24   01 Jun 2027 15:26:42.519   01 Jun 2027 15:31:57.124           314.605                Sumatra         39325.625
        25   01 Jun 2027 16:54:57.825   01 Jun 2027 17:03:01.891           484.066                  Delhi         42569.000
        26   02 Jun 2027 05:07:16.902   02 Jun 2027 05:09:07.795           110.893                Sumatra         13861.625
        27   02 Jun 2027 05:14:35.512   02 Jun 2027 05:17:36.754           181.242                  Delhi         22655.250
        28   02 Jun 2027 05:32:24.842   02 Jun 2027 05:33:39.431            74.589                Norilsk          9323.625
        29   02 Jun 2027 05:33:39.593   02 Jun 2027 05:35:18.695            99.102                 Moscow         12387.750
        30   02 Jun 2027 05:35:35.980   02 Jun 2027 05:37:38.109           122.129              Murmansk2         15266.125
        31   02 Jun 2027 05:38:03.537   02 Jun 2027 05:38:23.042            19.505              Murmansk1          2438.125
        32   02 Jun 2027 05:38:31.173   02 Jun 2027 05:38:53.081            21.908              Murmansk2          2738.500
        33   02 Jun 2027 05:39:02.274   02 Jun 2027 05:39:27.860            25.586              Murmansk1          3198.250
        34   02 Jun 2027 06:52:32.869   02 Jun 2027 06:55:35.760           182.891                  Delhi         22861.375
        35   02 Jun 2027 06:59:58.230   02 Jun 2027 07:01:01.537            63.307                  Delhi          7913.375
        36   02 Jun 2027 07:01:05.060   02 Jun 2027 07:02:27.309            82.249                Novosib         10281.125
        37   02 Jun 2027 07:08:00.999   02 Jun 2027 07:08:38.241            37.242                 Moscow          4655.250
        38   02 Jun 2027 07:08:53.311   02 Jun 2027 07:12:46.289           232.978                Norilsk         29122.250
        39   02 Jun 2027 08:16:23.781   02 Jun 2027 08:20:16.418           232.637               CapeTown         29079.625
        40   02 Jun 2027 08:35:11.497   02 Jun 2027 08:36:59.817           108.320                 Moscow         13540.000
        41   02 Jun 2027 08:37:20.993   02 Jun 2027 08:39:32.665           131.672                 Moscow         16459.000
        42   02 Jun 2027 08:42:04.456   02 Jun 2027 08:43:47.118           102.662              Murmansk1         12832.750
        43   02 Jun 2027 08:46:19.786   02 Jun 2027 08:47:48.182            88.396              Murmansk1         11049.500
        44   02 Jun 2027 08:47:48.182   02 Jun 2027 08:48:24.254            36.072              Murmansk2          4509.000
        45   02 Jun 2027 08:54:01.110   02 Jun 2027 08:55:58.902           117.792                Anadyr1         14724.000
        46   02 Jun 2027 12:04:50.202   02 Jun 2027 12:07:08.827           138.625                Anadyr1         17328.125
        47   02 Jun 2027 12:07:25.550   02 Jun 2027 12:11:44.731           259.181               Magadan2         32397.625
        48   02 Jun 2027 14:38:12.695   02 Jun 2027 14:38:19.200             6.505            RioGallegos           813.125
        49   02 Jun 2027 15:23:46.095   02 Jun 2027 15:24:28.666            42.571                Irkutsk          5321.375
        50   02 Jun 2027 15:27:22.653   02 Jun 2027 15:28:17.081            54.428                Irkutsk          6803.500
        51   02 Jun 2027 15:32:16.146   02 Jun 2027 15:34:23.043           126.897                Irkutsk         15862.125
        52   02 Jun 2027 15:36:41.454   02 Jun 2027 15:39:04.473           143.019                Sumatra         17877.375
        53   02 Jun 2027 15:42:08.863   02 Jun 2027 15:43:00.589            51.726                Sumatra          6465.750
        54   02 Jun 2027 17:03:45.928   02 Jun 2027 17:06:30.914           164.986                Novosib         20623.250
        55   02 Jun 2027 17:06:33.097   02 Jun 2027 17:15:52.873           559.776                  Delhi         69972.000
        56   02 Jun 2027 20:20:51.203   02 Jun 2027 20:21:36.520            45.317                 Moscow          2372.250
        57   03 Jun 2027 05:19:58.677   03 Jun 2027 05:21:18.353            79.676                Sumatra          9959.500
        58   03 Jun 2027 05:26:30.360   03 Jun 2027 05:27:04.137            33.777                  Delhi          4222.125
        59   03 Jun 2027 05:34:04.012   03 Jun 2027 05:36:04.549           120.537                  Delhi         15067.125
        60   03 Jun 2027 05:44:23.803   03 Jun 2027 05:44:49.450            25.647              Murmansk1          3205.875
        61   03 Jun 2027 05:44:55.985   03 Jun 2027 05:46:20.669            84.684                Norilsk         10585.500
        62   03 Jun 2027 05:46:24.649   03 Jun 2027 05:47:25.734            61.085                 Moscow          7635.625
        63   03 Jun 2027 05:47:38.178   03 Jun 2027 05:49:51.989           133.811              Murmansk1         16726.375
        64   03 Jun 2027 07:11:05.372   03 Jun 2027 07:13:09.610           124.238                 Moscow         15529.750
        65   03 Jun 2027 07:15:04.408   03 Jun 2027 07:15:32.487            28.079                Novosib          3509.875
        66   03 Jun 2027 07:19:57.549   03 Jun 2027 07:20:01.848             4.299                Novosib           537.375
        67   03 Jun 2027 07:20:04.801   03 Jun 2027 07:20:31.801            27.000              Murmansk1          3375.000
        68   03 Jun 2027 07:21:15.026   03 Jun 2027 07:25:29.615           254.589                Norilsk         31823.625
        69   03 Jun 2027 07:25:50.581   03 Jun 2027 07:27:16.063            85.482              Murmansk1         10685.250
        70   03 Jun 2027 08:27:00.201   03 Jun 2027 08:33:57.614           417.413               CapeTown         52176.625
        71   03 Jun 2027 08:50:52.317   03 Jun 2027 08:51:54.559            62.242              Murmansk2          7780.250
        72   03 Jun 2027 08:54:04.273   03 Jun 2027 08:54:58.778            54.505              Murmansk1          6813.125
        73   03 Jun 2027 08:58:32.955   03 Jun 2027 09:00:37.706           124.751              Murmansk1         15593.875
        74   03 Jun 2027 09:05:47.004   03 Jun 2027 09:13:24.260           457.256                Anadyr2         57157.000
        75   03 Jun 2027 10:29:56.979   03 Jun 2027 10:31:46.643           109.664              Murmansk1         13708.000
        76   03 Jun 2027 10:45:41.571   03 Jun 2027 10:47:57.685           136.114               Magadan2         17014.250
        77   03 Jun 2027 12:19:21.621   03 Jun 2027 12:21:10.128           108.507               Magadan2         13563.375
        78   03 Jun 2027 12:24:25.372   03 Jun 2027 12:24:27.448             2.076               Magadan2           259.500
        79   03 Jun 2027 12:25:14.414   03 Jun 2027 12:28:53.815           219.401               Magadan1         27425.125
        80   03 Jun 2027 13:57:27.416   03 Jun 2027 13:58:22.856            55.440               Magadan1          6930.000
        81   03 Jun 2027 14:50:29.380   03 Jun 2027 14:51:31.823            62.443            RioGallegos          7805.375
        82   03 Jun 2027 15:34:45.557   03 Jun 2027 15:36:53.088           127.531                Irkutsk         15941.375
        83   03 Jun 2027 15:42:09.602   03 Jun 2027 15:44:16.317           126.715                Irkutsk         15839.375
        84   03 Jun 2027 15:48:28.561   03 Jun 2027 15:51:19.078           170.517                Sumatra         21314.625
        85   03 Jun 2027 17:10:32.743   03 Jun 2027 17:13:04.300           151.557                Novosib         18944.625
        86   03 Jun 2027 17:18:15.224   03 Jun 2027 17:24:25.212           369.988                  Delhi         46248.500
        87   03 Jun 2027 20:24:01.598   03 Jun 2027 20:26:47.658           166.060                 Moscow         20757.500
        88   03 Jun 2027 22:24:44.865   03 Jun 2027 22:26:20.464            95.599               CapeTown          4053.000
        89   04 Jun 2027 05:38:30.502   04 Jun 2027 05:40:22.957           112.455                  Delhi         14056.875
        90   04 Jun 2027 05:56:23.538   04 Jun 2027 05:57:10.620            47.082              Murmansk2          5885.250
        91   04 Jun 2027 05:57:10.620   04 Jun 2027 05:58:21.864            71.244              Murmansk1          8905.500
        92   04 Jun 2027 05:58:27.712   04 Jun 2027 05:59:32.055            64.343                 Moscow          8042.875
        93   04 Jun 2027 05:59:59.876   04 Jun 2027 06:00:56.947            57.071              Murmansk1          7133.875
        94   04 Jun 2027 07:19:31.126   04 Jun 2027 07:20:31.928            60.802                  Delhi          7600.250
        95   04 Jun 2027 07:22:32.834   04 Jun 2027 07:22:43.284            10.450                  Delhi          1306.250
        96   04 Jun 2027 07:22:59.762   04 Jun 2027 07:23:27.901            28.139                 Moscow          3517.375
        97   04 Jun 2027 07:31:57.457   04 Jun 2027 07:32:18.664            21.207              Murmansk2          2650.875
        98   04 Jun 2027 07:33:21.875   04 Jun 2027 07:37:27.335           245.460                Norilsk         30682.500
        99   04 Jun 2027 07:37:41.636   04 Jun 2027 07:39:17.511            95.875              Murmansk2         11984.375
       100   04 Jun 2027 08:38:13.261   04 Jun 2027 08:46:59.758           526.497               CapeTown         65812.125
       101   04 Jun 2027 09:02:07.856   04 Jun 2027 09:08:24.609           376.753                 Moscow         47094.125
       102   04 Jun 2027 09:08:32.029   04 Jun 2027 09:08:51.223            19.194              Murmansk2          2399.250
       103   04 Jun 2027 09:10:33.947   04 Jun 2027 09:11:53.064            79.117              Murmansk2          9889.625
       104   04 Jun 2027 09:12:07.872   04 Jun 2027 09:12:41.493            33.621              Murmansk2          4202.625
       105   04 Jun 2027 09:17:37.065   04 Jun 2027 09:23:14.037           336.972                Anadyr2         42121.500
       106   04 Jun 2027 09:24:53.569   04 Jun 2027 09:26:07.382            73.813                Anadyr1          9226.625
       107   04 Jun 2027 10:56:58.063   04 Jun 2027 11:02:31.269           333.206               Magadan2         41650.750
       108   04 Jun 2027 12:28:52.984   04 Jun 2027 12:28:53.632             0.648                Anadyr1            81.000
       109   04 Jun 2027 12:31:18.827   04 Jun 2027 12:32:23.806            64.979               Magadan1          8122.375
       110   04 Jun 2027 12:33:31.746   04 Jun 2027 12:36:20.065           168.319               Magadan1         21039.875
       111   04 Jun 2027 12:39:53.059   04 Jun 2027 12:40:09.937            16.878               Magadan2          2109.750
       112   04 Jun 2027 12:40:26.948   04 Jun 2027 12:41:44.390            77.442               Magadan2          9680.250
       113   04 Jun 2027 14:13:47.290   04 Jun 2027 14:14:14.417            27.127               Magadan2          3390.875
       114   04 Jun 2027 14:59:10.170   04 Jun 2027 15:00:36.422            86.252            RioGallegos         10781.500
       115   04 Jun 2027 15:03:27.595   04 Jun 2027 15:04:28.437            60.842            RioGallegos          7605.250
       116   04 Jun 2027 15:07:18.915   04 Jun 2027 15:08:29.409            70.494            RioGallegos          8811.750
       117   04 Jun 2027 15:55:23.623   04 Jun 2027 15:56:12.972            49.349                Irkutsk          6168.625
       118   04 Jun 2027 16:00:21.683   04 Jun 2027 16:04:20.869           239.186                Sumatra         29898.250
       119   04 Jun 2027 16:09:52.358   04 Jun 2027 16:09:54.759             2.401                Sumatra           300.125
       120   04 Jun 2027 17:22:43.313   04 Jun 2027 17:23:29.570            46.257                Novosib          5782.125
       121   04 Jun 2027 17:25:19.828   04 Jun 2027 17:27:30.120           130.292                Novosib         16286.500
       122   04 Jun 2027 17:30:02.627   04 Jun 2027 17:32:32.516           149.889                  Delhi         18736.125
       123   04 Jun 2027 17:35:40.793   04 Jun 2027 17:39:30.224           229.431                  Delhi         28678.875
       124   04 Jun 2027 20:36:00.108   04 Jun 2027 20:36:48.129            48.021                 Moscow          6002.625
       125   04 Jun 2027 20:38:21.993   04 Jun 2027 20:39:00.404            38.411                 Moscow          4801.375
       126   04 Jun 2027 22:11:57.952   04 Jun 2027 22:12:48.490            50.538                 Moscow          5746.125
       127   05 Jun 2027 05:47:37.891   05 Jun 2027 05:48:01.718            23.827                Sumatra          2978.375
       128   05 Jun 2027 05:50:36.050   05 Jun 2027 05:52:50.974           134.924                  Delhi         16865.500
       129   05 Jun 2027 05:53:40.610   05 Jun 2027 05:55:24.755           104.145                  Delhi         13018.125
       130   05 Jun 2027 06:08:24.953   05 Jun 2027 06:08:36.688            11.735                 Moscow          1466.875
       131   05 Jun 2027 06:08:39.639   05 Jun 2027 06:10:49.674           130.035              Murmansk2         16254.375
       132   05 Jun 2027 06:11:25.771   05 Jun 2027 06:13:45.195           139.424              Murmansk2         17428.000
       133   05 Jun 2027 07:34:56.898   05 Jun 2027 07:35:16.540            19.642                 Moscow          2455.250
       134   05 Jun 2027 07:44:53.387   05 Jun 2027 07:49:23.607           270.220                Norilsk         33777.500
       135   05 Jun 2027 07:49:33.425   05 Jun 2027 07:51:19.063           105.638              Murmansk1         13204.750
       136   05 Jun 2027 08:49:41.263   05 Jun 2027 08:58:56.818           555.555               CapeTown         69444.375
       137   05 Jun 2027 09:12:10.261   05 Jun 2027 09:16:31.644           261.383                 Moscow         32672.875
       138   05 Jun 2027 09:17:04.540   05 Jun 2027 09:21:35.697           271.157              Murmansk2         33894.625
       139   05 Jun 2027 09:21:35.697   05 Jun 2027 09:22:09.225            33.528              Murmansk1          4191.000
       140   05 Jun 2027 09:22:35.115   05 Jun 2027 09:24:38.776           123.661              Murmansk2         15457.625
       141   05 Jun 2027 09:25:00.901   05 Jun 2027 09:25:10.573             9.672              Murmansk1          1209.000
       142   05 Jun 2027 09:29:29.874   05 Jun 2027 09:34:51.595           321.721                Anadyr2         40215.125
       143   05 Jun 2027 09:36:48.140   05 Jun 2027 09:38:45.353           117.213                Anadyr1         14651.625
       144   05 Jun 2027 11:08:32.443   05 Jun 2027 11:09:00.307            27.864               Magadan2          3483.000
       145   05 Jun 2027 12:40:54.380   05 Jun 2027 12:41:31.063            36.683                Anadyr1          4585.375
       146   05 Jun 2027 12:42:28.018   05 Jun 2027 12:43:10.593            42.575                Anadyr1          5321.875
       147   05 Jun 2027 12:43:16.954   05 Jun 2027 12:44:06.887            49.933               Magadan2          6241.625
       148   05 Jun 2027 12:45:49.928   05 Jun 2027 12:47:54.920           124.992               Magadan2         15624.000
       149   05 Jun 2027 12:47:54.920   05 Jun 2027 12:48:14.530            19.610               Magadan1          2451.250
       150   05 Jun 2027 12:49:30.210   05 Jun 2027 12:50:19.656            49.446               Magadan2          6180.750
       151   05 Jun 2027 14:19:06.778   05 Jun 2027 14:19:09.168             2.390               Magadan1           298.750
       152   05 Jun 2027 14:20:03.223   05 Jun 2027 14:20:06.634             3.411               Magadan1           426.375
       153   05 Jun 2027 14:23:21.821   05 Jun 2027 14:23:50.295            28.474               Magadan2          3559.250
       154   05 Jun 2027 14:27:09.524   05 Jun 2027 14:28:42.924            93.400               Magadan2         11675.000
       155   05 Jun 2027 15:10:53.708   05 Jun 2027 15:13:24.359           150.651            RioGallegos         18831.375
       156   05 Jun 2027 15:58:37.957   05 Jun 2027 15:59:52.454            74.497                Irkutsk          9312.125
       157   05 Jun 2027 16:01:28.510   05 Jun 2027 16:03:41.105           132.595                Irkutsk         16574.375
       158   05 Jun 2027 16:12:20.458   05 Jun 2027 16:15:01.228           160.770                Sumatra         20096.250
       159   05 Jun 2027 17:37:10.204   05 Jun 2027 17:37:31.874            21.670                Novosib          2708.750
       160   05 Jun 2027 17:41:31.111   05 Jun 2027 17:44:03.242           152.131                Novosib         19016.375
       161   05 Jun 2027 17:44:48.105   05 Jun 2027 17:45:46.082            57.977                  Delhi          7247.125
       162   05 Jun 2027 19:18:44.570   05 Jun 2027 19:20:05.118            80.548                  Delhi         10068.500
       163   05 Jun 2027 20:44:44.420   05 Jun 2027 20:44:45.336             0.916              Murmansk1           114.500
       164   05 Jun 2027 20:47:59.493   05 Jun 2027 20:48:36.258            36.765                 Moscow          4595.625
       165   05 Jun 2027 20:48:56.612   05 Jun 2027 20:51:09.830           133.218                 Moscow         16652.250
       166   05 Jun 2027 21:15:30.502   05 Jun 2027 21:17:23.961           113.459               CapeTown         14182.375
       167   06 Jun 2027 03:08:51.894   06 Jun 2027 03:12:27.963           216.069              Murmansk2         27008.625
       168   06 Jun 2027 04:18:21.943   06 Jun 2027 04:20:33.091           131.148                Sumatra         16393.500
       169   06 Jun 2027 04:25:59.450   06 Jun 2027 04:28:01.765           122.315                Sumatra         15289.375
       170   06 Jun 2027 04:43:34.317   06 Jun 2027 04:44:01.927            27.610                Norilsk          3451.250
       171   06 Jun 2027 04:44:49.125   06 Jun 2027 04:50:17.990           328.865              Murmansk2         41108.125
       172   06 Jun 2027 06:02:47.294   06 Jun 2027 06:07:19.034           271.740                  Delhi         33967.500
       173   06 Jun 2027 06:10:44.963   06 Jun 2027 06:14:30.598           225.635                Novosib         28204.375
       174   06 Jun 2027 06:14:30.982   06 Jun 2027 06:16:00.168            89.186                 Moscow         11148.250
       175   06 Jun 2027 06:20:38.282   06 Jun 2027 06:22:06.588            88.306              Murmansk2         11038.250
       176   06 Jun 2027 06:22:07.521   06 Jun 2027 06:23:42.902            95.381                 Moscow         11922.625
       177   06 Jun 2027 06:23:45.678   06 Jun 2027 06:25:33.262           107.584              Murmansk2         13448.000
       178   06 Jun 2027 07:46:56.849   06 Jun 2027 07:48:07.162            70.313                 Moscow          8789.125
       179   06 Jun 2027 07:50:03.366   06 Jun 2027 07:50:15.802            12.436                 Moscow          1554.500
       180   06 Jun 2027 07:51:25.960   06 Jun 2027 07:52:59.740            93.780                 Moscow         11722.500
       181   06 Jun 2027 07:55:32.763   06 Jun 2027 07:59:51.092           258.329                 Moscow         32291.125
       182   06 Jun 2027 08:00:05.230   06 Jun 2027 08:03:20.703           195.473              Murmansk2         24434.125
       183   06 Jun 2027 09:01:18.224   06 Jun 2027 09:07:55.073           396.849               CapeTown         49606.125
       184   06 Jun 2027 09:27:21.742   06 Jun 2027 09:27:52.686            30.944                 Moscow          3868.000
       185   06 Jun 2027 09:29:39.995   06 Jun 2027 09:32:43.018           183.023              Murmansk1         22877.875
       186   06 Jun 2027 09:41:24.639   06 Jun 2027 09:46:36.862           312.223                Anadyr2         39027.875
       187   06 Jun 2027 09:48:40.500   06 Jun 2027 09:50:56.022           135.522                Anadyr1         16940.250
       188   06 Jun 2027 11:10:34.471   06 Jun 2027 11:11:09.125            34.654              Murmansk2          4331.750
       189   06 Jun 2027 11:11:12.031   06 Jun 2027 11:11:27.207            15.176              Murmansk2          1897.000
       190   06 Jun 2027 11:12:19.092   06 Jun 2027 11:12:38.646            19.554              Murmansk2          2444.250
       191   06 Jun 2027 11:17:00.744   06 Jun 2027 11:17:14.006            13.262                Anadyr1          1657.750
       192   06 Jun 2027 11:20:14.934   06 Jun 2027 11:22:20.562           125.628               Magadan1         15703.500
       193   06 Jun 2027 12:55:15.846   06 Jun 2027 12:55:54.568            38.722               Magadan1          4840.250
       194   06 Jun 2027 12:57:38.008   06 Jun 2027 13:00:10.440           152.432               Magadan2         19054.000
       195   06 Jun 2027 13:01:55.973   06 Jun 2027 13:05:21.120           205.147               Magadan1         25643.375
       196   06 Jun 2027 14:51:38.395   06 Jun 2027 14:52:21.663            43.268                Sumatra          5408.500
       197   06 Jun 2027 15:22:48.837   06 Jun 2027 15:24:35.392           106.555            RioGallegos         13319.375
       198   06 Jun 2027 16:12:29.692   06 Jun 2027 16:13:40.293            70.601                Irkutsk          8825.125
       199   06 Jun 2027 16:17:39.087   06 Jun 2027 16:17:54.030            14.943                Irkutsk          1867.875
       200   06 Jun 2027 16:24:24.843   06 Jun 2027 16:26:09.610           104.767                Sumatra         13095.875
       201   06 Jun 2027 16:27:26.940   06 Jun 2027 16:29:18.014           111.074                Sumatra         13884.250
       202   06 Jun 2027 17:47:03.420   06 Jun 2027 17:47:33.297            29.877                Novosib          3734.625
       203   06 Jun 2027 17:50:23.045   06 Jun 2027 17:51:21.477            58.432                Novosib          7304.000
       204   06 Jun 2027 17:53:49.891   06 Jun 2027 17:56:23.262           153.371                  Delhi         19171.375
       205   06 Jun 2027 19:31:16.712   06 Jun 2027 19:31:28.980            12.268                  Delhi          1533.500
       206   06 Jun 2027 20:58:55.894   06 Jun 2027 20:59:44.239            48.345              Murmansk2          6043.125
       207   06 Jun 2027 20:59:59.646   06 Jun 2027 21:00:27.302            27.656                 Moscow          3457.000
       208   06 Jun 2027 21:01:29.542   06 Jun 2027 21:01:47.042            17.500              Murmansk2          2187.500
       209   06 Jun 2027 21:03:16.106   06 Jun 2027 21:04:03.814            47.708                 Moscow          5963.500
       210   06 Jun 2027 21:04:38.694   06 Jun 2027 21:04:50.229            11.535                 Moscow          1441.875
       211   06 Jun 2027 21:26:23.646   06 Jun 2027 21:29:05.365           161.719               CapeTown         20214.875
       212   07 Jun 2027 02:57:13.573   07 Jun 2027 02:58:53.216            99.643                Sumatra         12455.375
       213   07 Jun 2027 03:20:39.228   07 Jun 2027 03:22:30.957           111.729              Murmansk2         13966.125
       214   07 Jun 2027 04:30:29.206   07 Jun 2027 04:31:49.749            80.543                Sumatra         10067.875
       215   07 Jun 2027 04:33:23.297   07 Jun 2027 04:35:13.529           110.232                Sumatra         13779.000
       216   07 Jun 2027 04:55:14.022   07 Jun 2027 04:55:32.261            18.239              Murmansk2          2279.875
       217   07 Jun 2027 04:56:37.019   07 Jun 2027 04:57:17.466            40.447              Murmansk1          5055.875
       218   07 Jun 2027 04:57:34.330   07 Jun 2027 04:59:27.360           113.030                Norilsk         14128.750
       219   07 Jun 2027 04:59:50.812   07 Jun 2027 05:00:07.319            16.507                Norilsk          2063.375
       220   07 Jun 2027 05:00:26.406   07 Jun 2027 05:02:20.644           114.238              Murmansk1         14279.750
       221   07 Jun 2027 06:15:04.814   07 Jun 2027 06:17:25.600           140.786                  Delhi         17598.250
       222   07 Jun 2027 06:23:14.251   07 Jun 2027 06:26:46.637           212.386                Novosib         26548.250
       223   07 Jun 2027 06:26:58.998   07 Jun 2027 06:27:37.073            38.075                 Moscow          4759.375
       224   07 Jun 2027 06:32:23.857   07 Jun 2027 06:35:47.534           203.677                 Moscow         25459.625
       225   07 Jun 2027 06:35:50.346   07 Jun 2027 06:37:45.558           115.212                Norilsk         14401.500
       226   07 Jun 2027 06:38:06.245   07 Jun 2027 06:38:47.721            41.476              Murmansk1          5184.500
       227   07 Jun 2027 06:39:03.530   07 Jun 2027 06:39:26.958            23.428              Murmansk1          2928.500
       228   07 Jun 2027 08:02:16.726   07 Jun 2027 08:05:06.023           169.297                 Moscow         21162.125
       229   07 Jun 2027 08:07:39.841   07 Jun 2027 08:08:53.806            73.965              Murmansk1          9245.625
       230   07 Jun 2027 08:08:53.806   07 Jun 2027 08:11:52.560           178.754              Murmansk2         22344.250
       231   07 Jun 2027 08:11:52.560   07 Jun 2027 08:12:41.983            49.423              Murmansk1          6177.875
       232   07 Jun 2027 08:12:54.120   07 Jun 2027 08:13:08.771            14.651                Norilsk          1831.375
       233   07 Jun 2027 08:13:19.263   07 Jun 2027 08:14:09.224            49.961              Murmansk1          6245.125
       234   07 Jun 2027 08:15:21.081   07 Jun 2027 08:15:22.401             1.320              Murmansk1           165.000
       235   07 Jun 2027 09:17:18.502   07 Jun 2027 09:19:05.838           107.336               CapeTown         13417.000
       236   07 Jun 2027 09:39:59.870   07 Jun 2027 09:42:30.011           150.141              Murmansk1         18767.625
       237   07 Jun 2027 09:42:30.011   07 Jun 2027 09:43:05.374            35.363              Murmansk2          4420.375
       238   07 Jun 2027 09:43:16.210   07 Jun 2027 09:44:11.615            55.405              Murmansk2          6925.625
       239   07 Jun 2027 09:53:20.851   07 Jun 2027 09:55:02.316           101.465                Anadyr1         12683.125
       240   07 Jun 2027 09:56:42.383   07 Jun 2027 09:58:26.521           104.138                Anadyr1         13017.250
       241   07 Jun 2027 09:58:36.800   07 Jun 2027 10:02:53.153           256.353                Anadyr2         32044.125
       242   07 Jun 2027 11:29:01.618   07 Jun 2027 11:29:11.396             9.778                Anadyr1          1222.250
       243   07 Jun 2027 11:30:16.296   07 Jun 2027 11:30:31.183            14.887                Anadyr1          1860.875
       244   07 Jun 2027 11:32:02.243   07 Jun 2027 11:38:19.726           377.483               Magadan1         47185.375
       245   07 Jun 2027 13:07:15.390   07 Jun 2027 13:12:07.498           292.108               Magadan1         36513.500
       246   07 Jun 2027 15:02:43.503   07 Jun 2027 15:05:34.695           171.192                Sumatra         21399.000
       247   07 Jun 2027 15:11:12.685   07 Jun 2027 15:11:24.479            11.794                Sumatra          1474.250
       248   07 Jun 2027 15:44:50.563   07 Jun 2027 15:45:22.121            31.558            RioGallegos          3944.750
       249   07 Jun 2027 16:25:48.474   07 Jun 2027 16:27:29.839           101.365                Irkutsk         12670.625
       250   07 Jun 2027 16:36:35.099   07 Jun 2027 16:37:17.493            42.394                Sumatra          5299.250
       251   07 Jun 2027 16:37:50.192   07 Jun 2027 16:39:35.789           105.597                  Delhi         13199.625
       252   07 Jun 2027 17:58:29.013   07 Jun 2027 18:00:05.824            96.811                Novosib         12101.375
       253   07 Jun 2027 18:01:46.278   07 Jun 2027 18:02:06.718            20.440                Novosib          2555.000
       254   07 Jun 2027 18:05:48.861   07 Jun 2027 18:07:35.270           106.409                  Delhi         13301.125
       255   07 Jun 2027 18:09:01.549   07 Jun 2027 18:10:52.134           110.585                  Delhi         13823.125
       256   07 Jun 2027 19:40:06.123   07 Jun 2027 19:42:03.176           117.053                 Moscow         14631.625
       257   07 Jun 2027 21:12:00.480   07 Jun 2027 21:13:58.669           118.189                 Moscow         14773.625
       258   07 Jun 2027 21:39:06.195   07 Jun 2027 21:40:52.139           105.944               CapeTown         13243.000
       259   08 Jun 2027 03:08:05.807   08 Jun 2027 03:12:38.033           272.226                Sumatra         15668.625
       260   08 Jun 2027 03:32:38.574   08 Jun 2027 03:33:00.875            22.301              Murmansk1          2787.625
       261   08 Jun 2027 04:42:42.624   08 Jun 2027 04:43:18.449            35.825                Sumatra          4478.125
       262   08 Jun 2027 04:44:40.648   08 Jun 2027 04:47:07.832           147.184                Sumatra         18398.000
       263   08 Jun 2027 05:07:18.220   08 Jun 2027 05:07:28.356            10.136                 Moscow          1267.000
       264   08 Jun 2027 05:08:04.795   08 Jun 2027 05:09:19.580            74.785              Murmansk1          9348.125
       265   08 Jun 2027 05:09:33.057   08 Jun 2027 05:11:16.911           103.854                 Moscow         12981.750
       266   08 Jun 2027 05:12:16.887   08 Jun 2027 05:14:09.325           112.438              Murmansk2         14054.750
       267   08 Jun 2027 06:29:11.566   08 Jun 2027 06:29:38.325            26.759                  Delhi          3344.875
       268   08 Jun 2027 06:35:49.089   08 Jun 2027 06:39:06.488           197.399                Novosib         24674.875
       269   08 Jun 2027 06:44:45.885   08 Jun 2027 06:44:51.196             5.311              Murmansk2           663.875
       270   08 Jun 2027 06:44:51.196   08 Jun 2027 06:46:05.517            74.321              Murmansk1          9290.125
       271   08 Jun 2027 06:46:05.802   08 Jun 2027 06:49:46.172           220.370                Norilsk         27546.250
       272   08 Jun 2027 08:11:05.537   08 Jun 2027 08:11:40.691            35.154                 Moscow          4394.250
       273   08 Jun 2027 08:14:11.710   08 Jun 2027 08:18:42.712           271.002                 Moscow         33875.250
       274   08 Jun 2027 08:19:00.222   08 Jun 2027 08:20:46.940           106.718                 Moscow         13339.750
       275   08 Jun 2027 08:22:46.013   08 Jun 2027 08:25:13.294           147.281              Murmansk2         18410.125
       276   08 Jun 2027 08:31:14.007   08 Jun 2027 08:34:33.609           199.602                Anadyr2         24950.250
       277   08 Jun 2027 09:30:18.493   08 Jun 2027 09:30:32.605            14.112               CapeTown          1764.000
       278   08 Jun 2027 10:05:18.187   08 Jun 2027 10:06:27.662            69.475                Anadyr1          8684.375
       279   08 Jun 2027 10:09:24.947   08 Jun 2027 10:10:19.038            54.091                Anadyr2          6761.375
       280   08 Jun 2027 10:11:51.682   08 Jun 2027 10:16:15.388           263.706                Anadyr1         32963.250
       281   08 Jun 2027 11:43:52.806   08 Jun 2027 11:50:22.155           389.349               Magadan2         48668.625
       282   08 Jun 2027 13:19:15.483   08 Jun 2027 13:19:38.460            22.977               Magadan1          2872.125
       283   08 Jun 2027 13:20:27.581   08 Jun 2027 13:22:18.527           110.946               Magadan2         13868.250
       284   08 Jun 2027 15:13:43.223   08 Jun 2027 15:21:41.926           478.703                Sumatra         59837.875
       285   08 Jun 2027 16:38:51.106   08 Jun 2027 16:41:21.127           150.021                Novosib         18752.625
       286   08 Jun 2027 16:48:37.380   08 Jun 2027 16:52:37.971           240.591                  Delhi         30073.875
       287   08 Jun 2027 18:25:35.080   08 Jun 2027 18:26:25.430            50.350                  Delhi          6293.750
       288   08 Jun 2027 19:51:37.783   08 Jun 2027 19:53:01.358            83.575                 Moscow         10446.875
       289   08 Jun 2027 21:27:19.728   08 Jun 2027 21:28:47.875            88.147                 Moscow         11018.375
       290   08 Jun 2027 21:36:12.803   08 Jun 2027 21:36:52.486            39.683                 Moscow          4960.375
       291   08 Jun 2027 21:48:02.303   08 Jun 2027 21:49:01.740            59.437               CapeTown          7429.625
       292   08 Jun 2027 21:51:03.502   08 Jun 2027 21:52:44.003           100.501               CapeTown         11563.125
       293   09 Jun 2027 04:56:53.148   09 Jun 2027 04:59:09.831           136.683                Sumatra         17085.375
       294   09 Jun 2027 05:20:38.442   09 Jun 2027 05:23:25.912           167.470                 Moscow         20933.750
       295   09 Jun 2027 05:24:08.090   09 Jun 2027 05:24:29.478            21.388              Murmansk1          2673.500
       296   09 Jun 2027 05:24:51.906   09 Jun 2027 05:25:41.388            49.482              Murmansk2          6185.250
       297   09 Jun 2027 06:42:08.011   09 Jun 2027 06:43:34.138            86.127                  Delhi         10765.875
       298   09 Jun 2027 06:48:31.467   09 Jun 2027 06:49:21.580            50.113                 Moscow          6264.125
       299   09 Jun 2027 06:49:43.893   09 Jun 2027 06:50:50.346            66.453                Novosib          8306.625
       300   09 Jun 2027 06:51:08.727   09 Jun 2027 06:52:14.892            66.165                 Moscow          8270.625
       301   09 Jun 2027 06:56:31.140   09 Jun 2027 06:56:36.337             5.197              Murmansk2           649.625
       302   09 Jun 2027 06:56:36.337   09 Jun 2027 06:57:06.592            30.255              Murmansk1          3781.875
       303   09 Jun 2027 06:57:06.592   09 Jun 2027 07:01:40.860           274.268              Murmansk2         34283.500
       304   09 Jun 2027 07:01:40.860   09 Jun 2027 07:02:25.255            44.395              Murmansk1          5549.375
       305   09 Jun 2027 08:26:15.172   09 Jun 2027 08:27:45.038            89.866                 Moscow         11233.250
       306   09 Jun 2027 08:28:03.412   09 Jun 2027 08:28:27.404            23.992              Murmansk1          2999.000
       307   09 Jun 2027 08:29:47.683   09 Jun 2027 08:31:13.418            85.735              Murmansk1         10716.875
       308   09 Jun 2027 08:31:14.612   09 Jun 2027 08:32:36.386            81.774                 Moscow         10221.750
       309   09 Jun 2027 08:34:46.281   09 Jun 2027 08:36:36.852           110.571              Murmansk1         13821.375
       310   09 Jun 2027 08:42:36.746   09 Jun 2027 08:47:51.501           314.755                Anadyr2         39344.375
       311   09 Jun 2027 10:17:16.404   09 Jun 2027 10:18:45.858            89.454                Anadyr1         11181.750
       312   09 Jun 2027 10:22:02.456   09 Jun 2027 10:22:13.584            11.128                Anadyr1          1391.000
       313   09 Jun 2027 10:24:49.537   09 Jun 2027 10:26:49.997           120.460                Anadyr2         15057.500
       314   09 Jun 2027 11:55:45.722   09 Jun 2027 11:56:30.868            45.146               Magadan1          5643.250
       315   09 Jun 2027 12:05:06.033   09 Jun 2027 12:06:29.223            83.190               Magadan2         10398.750
       316   09 Jun 2027 13:31:16.045   09 Jun 2027 13:31:33.278            17.233               Magadan1          2154.125
       317   09 Jun 2027 13:32:56.496   09 Jun 2027 13:33:30.176            33.680               Magadan2          4210.000
       318   09 Jun 2027 13:34:32.579   09 Jun 2027 13:36:23.601           111.022               Magadan1         13877.750
       319   09 Jun 2027 13:42:51.141   09 Jun 2027 13:44:10.385            79.244               Magadan1          9905.500
       320   09 Jun 2027 15:14:42.754   09 Jun 2027 15:16:12.929            90.175                Irkutsk         11271.875
       321   09 Jun 2027 15:25:15.611   09 Jun 2027 15:26:58.043           102.432                Sumatra         12804.000
       322   09 Jun 2027 15:29:10.440   09 Jun 2027 15:32:10.782           180.342                Sumatra         22542.750
       323   09 Jun 2027 16:48:40.354   09 Jun 2027 16:49:53.264            72.910                Irkutsk          9113.750
       324   09 Jun 2027 16:51:39.910   09 Jun 2027 16:52:12.463            32.553                Novosib          4069.125
       325   09 Jun 2027 16:55:12.190   09 Jun 2027 17:03:13.601           481.411                  Delhi         60176.375
       326   09 Jun 2027 20:05:33.522   09 Jun 2027 20:08:02.594           149.072                 Moscow         18634.000
       327   09 Jun 2027 21:42:51.601   09 Jun 2027 21:42:54.165             2.564              Murmansk2           320.500
       328   09 Jun 2027 21:45:40.423   09 Jun 2027 21:45:44.477             4.054                 Moscow           506.750
       329   09 Jun 2027 21:48:30.931   09 Jun 2027 21:48:47.812            16.881                 Moscow          2110.125
       330   09 Jun 2027 22:00:38.745   09 Jun 2027 22:02:47.175           128.430               CapeTown         15141.000
       331   10 Jun 2027 05:08:26.939   10 Jun 2027 05:09:22.697            55.758                Sumatra          6969.750
       332   10 Jun 2027 05:19:59.891   10 Jun 2027 05:20:29.961            30.070                  Delhi          3758.750
       333   10 Jun 2027 05:22:02.517   10 Jun 2027 05:24:20.386           137.869                  Delhi         17233.625
       334   10 Jun 2027 05:32:44.131   10 Jun 2027 05:35:33.808           169.677                 Moscow         21209.625
       335   10 Jun 2027 05:36:00.031   10 Jun 2027 05:37:45.161           105.130              Murmansk2         13141.250
       336   10 Jun 2027 05:37:48.455   10 Jun 2027 05:37:53.381             4.926                Norilsk           615.750
       337   10 Jun 2027 07:01:10.954   10 Jun 2027 07:01:29.900            18.946                 Moscow          2368.250
       338   10 Jun 2027 07:01:49.154   10 Jun 2027 07:02:25.586            36.432                Novosib          4554.000
       339   10 Jun 2027 07:03:11.119   10 Jun 2027 07:04:13.684            62.565                 Moscow          7820.625
       340   10 Jun 2027 07:08:15.188   10 Jun 2027 07:08:56.080            40.892                 Moscow          5111.500
       341   10 Jun 2027 07:09:07.975   10 Jun 2027 07:09:16.014             8.039                Norilsk          1004.875
       342   10 Jun 2027 07:09:49.863   10 Jun 2027 07:13:07.963           198.100              Murmansk1         24762.500
       343   10 Jun 2027 08:16:36.051   10 Jun 2027 08:20:34.490           238.439               CapeTown         29804.875
       344   10 Jun 2027 08:35:26.771   10 Jun 2027 08:35:58.800            32.029                 Moscow          4003.625
       345   10 Jun 2027 08:37:18.345   10 Jun 2027 08:39:47.556           149.211                 Moscow         18651.375
       346   10 Jun 2027 08:40:34.353   10 Jun 2027 08:40:51.309            16.956              Murmansk1          2119.500
       347   10 Jun 2027 08:42:19.071   10 Jun 2027 08:43:44.492            85.421              Murmansk2         10677.625
       348   10 Jun 2027 08:46:34.641   10 Jun 2027 08:48:02.904            88.263              Murmansk1         11032.875
       349   10 Jun 2027 08:48:02.904   10 Jun 2027 08:48:39.494            36.590              Murmansk2          4573.750
       350   10 Jun 2027 08:54:15.697   10 Jun 2027 09:00:50.653           394.956                Anadyr1         49369.500
       351   10 Jun 2027 12:05:05.212   10 Jun 2027 12:05:08.082             2.870                Anadyr2           358.750
       352   10 Jun 2027 12:07:40.423   10 Jun 2027 12:12:00.318           259.895               Magadan2         32486.875
       353   10 Jun 2027 12:16:26.018   10 Jun 2027 12:17:11.715            45.697               Magadan1          5712.125
       354   10 Jun 2027 13:43:17.015   10 Jun 2027 13:43:29.461            12.446               Magadan1          1555.750
       355   10 Jun 2027 13:46:36.460   10 Jun 2027 13:48:03.746            87.286               Magadan1         10910.750
       356   10 Jun 2027 14:38:18.456   10 Jun 2027 14:38:42.994            24.538            RioGallegos          3067.250
       357   10 Jun 2027 15:24:44.218   10 Jun 2027 15:27:20.073           155.855                Irkutsk         19481.875
       358   10 Jun 2027 15:27:49.186   10 Jun 2027 15:28:31.583            42.397                Irkutsk          5299.625
       359   10 Jun 2027 15:32:19.691   10 Jun 2027 15:32:36.027            16.336                Irkutsk          2042.000
       360   10 Jun 2027 15:39:19.828   10 Jun 2027 15:43:14.615           234.787                Sumatra         29348.375
       361   10 Jun 2027 17:04:00.562   10 Jun 2027 17:08:22.751           262.189                Novosib         32773.625
       362   10 Jun 2027 17:09:18.795   10 Jun 2027 17:13:32.241           253.446                  Delhi         31680.750
       363   10 Jun 2027 20:12:19.017   10 Jun 2027 20:13:40.414            81.397                 Moscow         10174.625
       364   10 Jun 2027 20:18:18.330   10 Jun 2027 20:21:06.721           168.391                 Moscow         21048.875
       365   10 Jun 2027 22:14:58.474   10 Jun 2027 22:16:42.608           104.134               CapeTown          2013.125
       366   11 Jun 2027 05:20:14.725   11 Jun 2027 05:21:33.168            78.443                Sumatra          9805.375
       367   11 Jun 2027 05:26:45.292   11 Jun 2027 05:27:38.822            53.530                  Delhi          6691.250
       368   11 Jun 2027 05:34:19.074   11 Jun 2027 05:36:19.565           120.491                  Delhi         15061.375
       369   11 Jun 2027 05:44:42.025   11 Jun 2027 05:45:04.361            22.336              Murmansk1          2792.000
       370   11 Jun 2027 05:45:10.641   11 Jun 2027 05:46:35.466            84.825                Norilsk         10603.125
       371   11 Jun 2027 05:46:41.486   11 Jun 2027 05:47:40.839            59.353                 Moscow          7419.125
       372   11 Jun 2027 05:47:52.728   11 Jun 2027 05:48:43.756            51.028              Murmansk2          6378.500
       373   11 Jun 2027 05:49:50.192   11 Jun 2027 05:49:55.174             4.982                Norilsk           622.750
       374   11 Jun 2027 07:11:20.212   11 Jun 2027 07:12:18.492            58.280                 Moscow          7285.000
       375   11 Jun 2027 07:15:18.947   11 Jun 2027 07:15:46.639            27.692                Novosib          3461.500
       376   11 Jun 2027 07:20:04.354   11 Jun 2027 07:20:44.454            40.100                Norilsk          5012.500
       377   11 Jun 2027 07:21:31.760   11 Jun 2027 07:25:44.590           252.830                Norilsk         31603.750
       378   11 Jun 2027 07:26:05.273   11 Jun 2027 07:27:31.075            85.802              Murmansk1         10725.250
       379   11 Jun 2027 08:27:13.941   11 Jun 2027 08:34:14.168           420.227               CapeTown         52528.375
       380   11 Jun 2027 08:51:07.565   11 Jun 2027 08:52:11.474            63.909              Murmansk2          7988.625
       381   11 Jun 2027 08:53:50.138   11 Jun 2027 08:55:08.396            78.258              Murmansk2          9782.250
       382   11 Jun 2027 08:55:08.396   11 Jun 2027 08:57:11.231           122.835              Murmansk1         15354.375
       383   11 Jun 2027 08:58:47.609   11 Jun 2027 09:00:52.985           125.376              Murmansk2         15672.000
       384   11 Jun 2027 09:06:01.710   11 Jun 2027 09:13:40.231           458.521                Anadyr1         57315.125
       385   11 Jun 2027 10:30:11.614   11 Jun 2027 10:31:42.390            90.776              Murmansk2         11347.000
       386   11 Jun 2027 10:45:55.202   11 Jun 2027 10:48:18.025           142.823               Magadan2         17852.875
       387   11 Jun 2027 12:19:36.523   11 Jun 2027 12:21:02.567            86.044               Magadan1         10755.500
       388   11 Jun 2027 12:24:40.846   11 Jun 2027 12:27:10.649           149.803               Magadan1         18725.375
       389   11 Jun 2027 12:27:10.649   11 Jun 2027 12:29:08.736           118.087               Magadan2         14760.875
       390   11 Jun 2027 14:50:45.353   11 Jun 2027 14:51:58.100            72.747            RioGallegos          9093.375
       391   11 Jun 2027 15:35:00.419   11 Jun 2027 15:37:17.451           137.032                Irkutsk         17129.000
       392   11 Jun 2027 15:40:16.119   11 Jun 2027 15:42:25.594           129.475                Irkutsk         16184.375
       393   11 Jun 2027 15:48:43.338   11 Jun 2027 15:51:34.292           170.954                Sumatra         21369.250
       394   11 Jun 2027 17:10:47.659   11 Jun 2027 17:13:19.646           151.987                Novosib         18998.375
       395   11 Jun 2027 17:18:29.885   11 Jun 2027 17:24:39.299           369.414                  Delhi         46176.750
       396   11 Jun 2027 20:24:16.533   11 Jun 2027 20:25:18.482            61.949                 Moscow          7743.625
       397   11 Jun 2027 20:27:02.946   11 Jun 2027 20:29:16.844           133.898                 Moscow         16737.250
       398   11 Jun 2027 22:25:00.474   11 Jun 2027 22:25:32.086            31.612               CapeTown          1433.625
       399   12 Jun 2027 05:38:45.545   12 Jun 2027 05:40:47.912           122.367                  Delhi         15295.875
       400   12 Jun 2027 05:46:31.160   12 Jun 2027 05:48:24.119           112.959                  Delhi         14119.875
       401   12 Jun 2027 05:56:31.228   12 Jun 2027 05:58:12.978           101.750                Novosib         12718.750
       402   12 Jun 2027 05:58:24.433   12 Jun 2027 05:58:59.550            35.117              Murmansk2          4389.625
       403   12 Jun 2027 05:59:37.992   12 Jun 2027 05:59:47.149             9.157                 Moscow          1144.625
       404   12 Jun 2027 06:00:14.615   12 Jun 2027 06:01:13.932            59.317              Murmansk1          7414.625
       405   12 Jun 2027 07:22:54.625   12 Jun 2027 07:22:54.645             0.020                  Delhi             2.500
       406   12 Jun 2027 07:23:14.659   12 Jun 2027 07:23:42.246            27.587                 Moscow          3448.375
       407   12 Jun 2027 07:32:18.507   12 Jun 2027 07:32:33.176            14.669              Murmansk1          1833.625
       408   12 Jun 2027 07:33:36.884   12 Jun 2027 07:37:42.287           245.403                Norilsk         30675.375
       409   12 Jun 2027 07:37:56.339   12 Jun 2027 07:39:32.527            96.188              Murmansk1         12023.500
       410   12 Jun 2027 08:38:27.434   12 Jun 2027 08:47:15.833           528.399               CapeTown         66049.875
       411   12 Jun 2027 09:02:22.589   12 Jun 2027 09:04:19.482           116.893                 Moscow         14611.625
       412   12 Jun 2027 09:04:26.116   12 Jun 2027 09:04:38.971            12.855              Murmansk1          1606.875
       413   12 Jun 2027 09:05:51.579   12 Jun 2027 09:08:46.562           174.983              Murmansk2         21872.875
       414   12 Jun 2027 09:10:48.599   12 Jun 2027 09:12:56.289           127.690              Murmansk2         15961.250
       415   12 Jun 2027 09:15:27.326   12 Jun 2027 09:15:30.724             3.398              Murmansk2           424.750
       416   12 Jun 2027 09:17:51.847   12 Jun 2027 09:26:23.229           511.382                Anadyr2         63922.750
       417   12 Jun 2027 10:53:14.772   12 Jun 2027 10:53:37.435            22.663                Anadyr1          2832.875
       418   12 Jun 2027 10:55:41.916   12 Jun 2027 10:58:04.919           143.003                Anadyr2         17875.375
       419   12 Jun 2027 11:00:30.404   12 Jun 2027 11:03:09.023           158.619               Magadan1         19827.375
       420   12 Jun 2027 12:29:07.998   12 Jun 2027 12:29:08.341             0.343                Anadyr2            42.875
       421   12 Jun 2027 12:29:48.535   12 Jun 2027 12:30:13.365            24.830                Anadyr2          3103.750
       422   12 Jun 2027 12:31:33.753   12 Jun 2027 12:32:38.217            64.464               Magadan2          8058.000
       423   12 Jun 2027 12:33:47.150   12 Jun 2027 12:36:34.771           167.621               Magadan2         20952.625
       424   12 Jun 2027 12:40:08.521   12 Jun 2027 12:41:06.710            58.189               Magadan1          7273.625
       425   12 Jun 2027 14:07:37.602   12 Jun 2027 14:08:31.057            53.455               Magadan2          6681.875
       426   12 Jun 2027 14:59:21.851   12 Jun 2027 15:00:51.981            90.130            RioGallegos         11266.250
       427   12 Jun 2027 15:03:43.302   12 Jun 2027 15:04:42.918            59.616            RioGallegos          7452.000
       428   12 Jun 2027 15:46:55.922   12 Jun 2027 15:48:34.396            98.474                Irkutsk         12309.250
       429   12 Jun 2027 15:52:04.526   12 Jun 2027 15:52:59.303            54.777                Irkutsk          6847.125
       430   12 Jun 2027 15:55:39.227   12 Jun 2027 15:56:27.893            48.666                Irkutsk          6083.250
       431   12 Jun 2027 16:00:36.582   12 Jun 2027 16:04:34.084           237.502                Sumatra         29687.750
       432   12 Jun 2027 16:10:08.457   12 Jun 2027 16:10:09.752             1.295                Sumatra           161.875
       433   12 Jun 2027 17:23:04.383   12 Jun 2027 17:23:44.025            39.642                Novosib          4955.250
       434   12 Jun 2027 17:29:22.533   12 Jun 2027 17:32:18.810           176.277                Novosib         22034.625
       435   12 Jun 2027 17:32:47.893   12 Jun 2027 17:36:03.702           195.809                  Delhi         24476.125
       436   12 Jun 2027 20:36:15.065   12 Jun 2027 20:38:37.842           142.777                 Moscow         17847.125
       437   12 Jun 2027 22:13:39.360   12 Jun 2027 22:14:22.427            43.067              Murmansk1          5383.375
       438   12 Jun 2027 22:20:04.702   12 Jun 2027 22:21:42.195            97.493                 Moscow          4548.875
       439   13 Jun 2027 04:33:08.957   13 Jun 2027 04:33:16.059             7.102              Murmansk1           887.750
       440   13 Jun 2027 05:48:11.087   13 Jun 2027 05:48:36.391            25.304                Sumatra          3163.000
       441   13 Jun 2027 05:50:51.209   13 Jun 2027 05:53:06.020           134.811                  Delhi         16851.375
       442   13 Jun 2027 05:53:55.518   13 Jun 2027 05:55:39.438           103.920                  Delhi         12990.000
       443   13 Jun 2027 06:08:39.573   13 Jun 2027 06:11:52.838           193.265                 Moscow         24158.125
       444   13 Jun 2027 06:12:01.745   13 Jun 2027 06:13:59.734           117.989              Murmansk2         14748.625
       445   13 Jun 2027 07:45:10.181   13 Jun 2027 07:49:38.527           268.346                Norilsk         33543.250
       446   13 Jun 2027 07:49:48.141   13 Jun 2027 07:51:34.082           105.941              Murmansk1         13242.625
       447   13 Jun 2027 08:49:55.673   13 Jun 2027 08:59:11.355           555.682               CapeTown         69460.250
       448   13 Jun 2027 09:12:25.779   13 Jun 2027 09:15:32.591           186.812                 Moscow         23351.500
       449   13 Jun 2027 09:15:37.308   13 Jun 2027 09:15:56.613            19.305              Murmansk2          2413.125
       450   13 Jun 2027 09:16:44.322   13 Jun 2027 09:19:19.374           155.052                 Moscow         19381.500
       451   13 Jun 2027 09:19:21.997   13 Jun 2027 09:21:52.767           150.770              Murmansk2         18846.250
       452   13 Jun 2027 09:22:25.466   13 Jun 2027 09:22:49.770            24.304              Murmansk1          3038.000
       453   13 Jun 2027 09:22:49.770   13 Jun 2027 09:24:18.802            89.032              Murmansk2         11129.000
       454   13 Jun 2027 09:24:53.581   13 Jun 2027 09:25:25.938            32.357              Murmansk2          4044.625
       455   13 Jun 2027 09:29:44.709   13 Jun 2027 09:37:51.292           486.583                Anadyr2         60822.875
       456   13 Jun 2027 11:13:53.285   13 Jun 2027 11:14:50.091            56.806                Anadyr1          7100.750
       457   13 Jun 2027 12:42:42.965   13 Jun 2027 12:44:07.330            84.365                Anadyr2         10545.625
       458   13 Jun 2027 12:44:07.903   13 Jun 2027 12:46:05.262           117.359               Magadan2         14669.875
       459   13 Jun 2027 12:48:04.600   13 Jun 2027 12:48:29.266            24.666               Magadan1          3083.250
       460   13 Jun 2027 12:49:45.514   13 Jun 2027 12:52:56.080           190.566               Magadan2         23820.750
       461   13 Jun 2027 15:11:08.563   13 Jun 2027 15:13:38.111           149.548            RioGallegos         18693.500
       462   13 Jun 2027 15:18:22.968   13 Jun 2027 15:20:39.073           136.105            RioGallegos         17013.125
       463   13 Jun 2027 16:12:35.476   13 Jun 2027 16:15:15.058           159.582                Sumatra         19947.750
       464   13 Jun 2027 16:20:06.110   13 Jun 2027 16:22:13.113           127.003                Sumatra         15875.375
       465   13 Jun 2027 17:37:25.930   13 Jun 2027 17:39:39.838           133.908                Novosib         16738.500
       466   13 Jun 2027 17:42:09.222   13 Jun 2027 17:45:03.348           174.126                  Delhi         21765.750
       467   13 Jun 2027 19:19:00.139   13 Jun 2027 19:20:19.225            79.086                  Delhi          9885.750
       468   13 Jun 2027 20:44:59.433   13 Jun 2027 20:45:00.041             0.608              Murmansk2            76.000
       469   13 Jun 2027 20:45:41.293   13 Jun 2027 20:45:51.456            10.163              Murmansk2          1270.375
       470   13 Jun 2027 20:48:14.469   13 Jun 2027 20:48:50.818            36.349                 Moscow          4543.625
       471   13 Jun 2027 20:51:24.979   13 Jun 2027 20:51:56.074            31.095                 Moscow          3886.875
       472   13 Jun 2027 21:15:43.049   13 Jun 2027 21:17:38.420           115.371               CapeTown          9946.750
