uniorb/output/strategy_4/Drop/Drop_KinoSat_110910.txt

KinoSat_110910
-------------------------
    Access    *     Start Time (UTCG)     *     Stop Time (UTCG)  *   Duration (s)        *       Station  *  Data (Mbytes)
         1   01 Jun 2027 04:20:10.865   01 Jun 2027 04:22:07.181           116.316                Anadyr2          3634.875
         2   01 Jun 2027 04:22:07.181   01 Jun 2027 04:22:16.414             9.233                Anadyr1           288.531
         3   01 Jun 2027 04:22:20.927   01 Jun 2027 04:22:43.954            23.027                Anadyr1           719.594
         4   01 Jun 2027 04:23:08.229   01 Jun 2027 04:24:28.411            80.182               Magadan1          2505.688
         5   01 Jun 2027 04:24:28.411   01 Jun 2027 04:25:09.504            41.093               Magadan2          1284.156
         6   01 Jun 2027 04:25:27.317   01 Jun 2027 04:25:38.608            11.291               Magadan2           352.844
         7   01 Jun 2027 05:54:27.596   01 Jun 2027 05:54:55.793            28.197                Anadyr1           881.156
         8   01 Jun 2027 05:55:15.658   01 Jun 2027 05:56:28.503            72.845                Anadyr1          2276.406
         9   01 Jun 2027 05:56:28.503   01 Jun 2027 05:56:59.516            31.013                Anadyr2           969.156
        10   01 Jun 2027 05:57:38.171   01 Jun 2027 05:59:35.708           117.537               Magadan2          3673.031
        11   01 Jun 2027 05:59:37.124   01 Jun 2027 06:00:30.055            52.931                Novosib          1654.094
        12   01 Jun 2027 06:01:00.087   01 Jun 2027 06:03:05.936           125.849                Norilsk          3932.781
        13   01 Jun 2027 06:03:55.751   01 Jun 2027 06:04:00.113             4.362                Norilsk           136.312
        14   01 Jun 2027 06:04:12.839   01 Jun 2027 06:05:14.808            61.969              Murmansk1          1936.531
        15   01 Jun 2027 06:37:09.118   01 Jun 2027 06:39:14.630           125.512            RioGallegos          3922.250
        16   01 Jun 2027 07:32:21.491   01 Jun 2027 07:33:20.169            58.678                Irkutsk          1833.688
        17   01 Jun 2027 07:33:42.946   01 Jun 2027 07:36:26.853           163.907               Magadan1          5122.094
        18   01 Jun 2027 07:36:44.941   01 Jun 2027 07:39:02.878           137.937              Murmansk2          4310.531
        19   01 Jun 2027 07:39:02.878   01 Jun 2027 07:39:58.051            55.173              Murmansk1          1724.156
        20   01 Jun 2027 07:41:21.775   01 Jun 2027 07:41:35.720            13.945                Norilsk           435.781
        21   01 Jun 2027 07:41:35.807   01 Jun 2027 07:42:18.725            42.918              Murmansk1          1341.187
        22   01 Jun 2027 08:12:13.705   01 Jun 2027 08:13:58.860           105.155            RioGallegos          3286.094
        23   01 Jun 2027 08:15:22.735   01 Jun 2027 08:15:54.272            31.537            RioGallegos           985.531
        24   01 Jun 2027 08:47:04.541   01 Jun 2027 08:49:10.466           125.925                Sumatra          3935.156
        25   01 Jun 2027 08:50:09.771   01 Jun 2027 08:50:17.449             7.678                Sumatra           239.937
        26   01 Jun 2027 08:57:53.092   01 Jun 2027 08:58:17.795            24.703                  Delhi           771.969
        27   01 Jun 2027 08:59:51.671   01 Jun 2027 09:00:15.108            23.437                  Delhi           732.406
        28   01 Jun 2027 09:09:09.246   01 Jun 2027 09:09:52.551            43.305                Irkutsk          1353.281
        29   01 Jun 2027 09:10:32.004   01 Jun 2027 09:10:51.149            19.145                Irkutsk           598.281
        30   01 Jun 2027 09:10:56.335   01 Jun 2027 09:11:44.515            48.180                Novosib          1505.625
        31   01 Jun 2027 09:11:50.389   01 Jun 2027 09:12:30.644            40.255                Norilsk          1257.969
        32   01 Jun 2027 09:12:33.140   01 Jun 2027 09:13:35.991            62.851                Novosib          1964.094
        33   01 Jun 2027 09:14:01.898   01 Jun 2027 09:14:37.529            35.631                 Moscow          1113.469
        34   01 Jun 2027 09:51:35.484   01 Jun 2027 09:51:45.424             9.940            RioGallegos           310.625
        35   01 Jun 2027 10:26:28.670   01 Jun 2027 10:26:43.745            15.075                Sumatra           471.094
        36   01 Jun 2027 10:29:41.361   01 Jun 2027 10:29:59.904            18.543                Sumatra           579.469
        37   01 Jun 2027 10:31:14.971   01 Jun 2027 10:31:37.671            22.700                  Delhi           709.375
        38   01 Jun 2027 10:33:25.233   01 Jun 2027 10:34:24.791            59.558                  Delhi          1861.187
        39   01 Jun 2027 10:35:47.066   01 Jun 2027 10:35:54.456             7.390                  Delhi           230.938
        40   01 Jun 2027 10:46:52.940   01 Jun 2027 10:47:58.794            65.854                Novosib          2057.937
        41   01 Jun 2027 10:48:47.110   01 Jun 2027 10:50:25.687            98.577                Novosib          3080.531
        42   01 Jun 2027 10:50:35.956   01 Jun 2027 10:50:46.370            10.414              Murmansk2           325.438
        43   01 Jun 2027 10:52:13.094   01 Jun 2027 10:52:36.375            23.281                Norilsk           727.531
        44   01 Jun 2027 12:15:40.778   01 Jun 2027 12:16:47.281            66.503                 Moscow          2078.219
        45   01 Jun 2027 12:17:32.244   01 Jun 2027 12:19:44.724           132.480                 Moscow          4140.000
        46   01 Jun 2027 12:19:54.947   01 Jun 2027 12:22:59.838           184.891              Murmansk1          5777.844
        47   01 Jun 2027 12:23:07.127   01 Jun 2027 12:23:50.018            42.891              Murmansk2          1340.344
        48   01 Jun 2027 12:24:22.934   01 Jun 2027 12:26:08.636           105.702                Norilsk          3303.187
        49   01 Jun 2027 13:30:40.144   01 Jun 2027 13:33:41.606           181.462               CapeTown          5670.687
        50   01 Jun 2027 13:52:39.395   01 Jun 2027 13:53:20.713            41.318                 Moscow          1291.188
        51   01 Jun 2027 13:55:55.678   01 Jun 2027 13:58:50.766           175.088              Murmansk2          5471.500
        52   01 Jun 2027 14:10:16.202   01 Jun 2027 14:13:29.648           193.446                Anadyr2          6045.187
        53   01 Jun 2027 15:05:04.667   01 Jun 2027 15:07:05.104           120.437               CapeTown          3763.656
        54   01 Jun 2027 15:34:58.827   01 Jun 2027 15:36:17.209            78.382              Murmansk1          2449.438
        55   01 Jun 2027 15:37:17.651   01 Jun 2027 15:37:58.732            41.081              Murmansk2          1283.781
        56   01 Jun 2027 15:45:42.550   01 Jun 2027 15:47:33.419           110.869                Anadyr2          3464.656
        57   01 Jun 2027 15:47:39.947   01 Jun 2027 15:48:13.069            33.122                Anadyr1          1035.063
        58   01 Jun 2027 15:48:34.745   01 Jun 2027 15:48:38.544             3.799                Anadyr1           118.719
        59   01 Jun 2027 15:49:27.841   01 Jun 2027 15:53:27.228           239.387               Magadan1          7480.844
        60   01 Jun 2027 15:54:55.005   01 Jun 2027 15:55:04.400             9.395               Magadan1           293.594
        61   01 Jun 2027 15:55:20.454   01 Jun 2027 15:56:05.293            44.839               Magadan1          1401.219
        62   01 Jun 2027 17:21:36.271   01 Jun 2027 17:24:07.730           151.459                Anadyr1          4733.094
        63   01 Jun 2027 17:24:28.083   01 Jun 2027 17:26:08.176           100.093               Magadan1          3127.906
        64   01 Jun 2027 17:26:11.128   01 Jun 2027 17:28:18.520           127.392               Magadan2          3981.000
        65   01 Jun 2027 18:57:28.496   01 Jun 2027 19:01:11.433           222.937                Anadyr2          6966.781
        66   01 Jun 2027 19:01:36.961   01 Jun 2027 19:03:38.242           121.281                Norilsk          3790.031
        67   01 Jun 2027 19:05:35.269   01 Jun 2027 19:08:20.709           165.440                Irkutsk          5170.000
        68   01 Jun 2027 19:10:25.694   01 Jun 2027 19:10:40.555            14.861                Irkutsk           464.406
        69   01 Jun 2027 19:11:23.390   01 Jun 2027 19:11:26.782             3.392                Irkutsk           106.000
        70   01 Jun 2027 19:22:58.412   01 Jun 2027 19:24:58.115           119.703                Sumatra          3740.719
        71   01 Jun 2027 20:35:53.056   01 Jun 2027 20:36:01.633             8.577               Magadan2           268.031
        72   01 Jun 2027 20:36:07.036   01 Jun 2027 20:36:34.637            27.601               Magadan1           862.531
        73   01 Jun 2027 20:36:44.327   01 Jun 2027 20:37:13.645            29.318               Magadan1           916.188
        74   01 Jun 2027 20:38:59.126   01 Jun 2027 20:40:21.868            82.742                Norilsk          2585.687
        75   01 Jun 2027 20:40:31.445   01 Jun 2027 20:43:52.364           200.919                Novosib          6278.719
        76   01 Jun 2027 20:46:54.363   01 Jun 2027 20:47:11.245            16.882                Novosib           527.562
        77   01 Jun 2027 20:53:45.214   01 Jun 2027 20:54:21.227            36.013                Sumatra          1125.406
        78   01 Jun 2027 21:00:58.760   01 Jun 2027 21:01:34.925            36.165                Sumatra          1130.156
        79   01 Jun 2027 22:08:27.106   01 Jun 2027 22:08:56.095            28.989                Anadyr1           905.906
        80   01 Jun 2027 22:11:55.953   01 Jun 2027 22:13:03.180            67.227               Magadan2          2100.844
        81   01 Jun 2027 22:15:12.419   01 Jun 2027 22:17:04.040           111.621                Novosib          3488.156
        82   01 Jun 2027 22:20:55.414   01 Jun 2027 22:22:31.013            95.599                Novosib          2987.469
        83   01 Jun 2027 22:22:41.068   01 Jun 2027 22:24:05.134            84.066                  Delhi          2627.063
        84   01 Jun 2027 22:25:22.977   01 Jun 2027 22:26:02.978            40.001                  Delhi          1250.031
        85   01 Jun 2027 22:30:19.108   01 Jun 2027 22:32:10.078           110.970                  Delhi          3467.812
        86   01 Jun 2027 23:46:55.006   01 Jun 2027 23:47:16.986            21.980               Magadan2           686.875
        87   01 Jun 2027 23:47:16.986   01 Jun 2027 23:48:31.298            74.312               Magadan1          2322.250
        88   01 Jun 2027 23:49:35.101   01 Jun 2027 23:51:36.928           121.827              Murmansk1          3807.094
        89   01 Jun 2027 23:51:36.928   01 Jun 2027 23:51:51.063            14.135              Murmansk2           441.719
        90   01 Jun 2027 23:52:26.738   01 Jun 2027 23:53:36.049            69.311              Murmansk2          2165.969
        91   01 Jun 2027 23:53:47.214   01 Jun 2027 23:55:05.174            77.960                 Moscow          2436.250
        92   02 Jun 2027 00:00:06.586   02 Jun 2027 00:00:09.818             3.232                 Moscow           101.000
        93   02 Jun 2027 00:21:40.516   02 Jun 2027 00:22:52.549            72.033               CapeTown          2251.031
        94   02 Jun 2027 00:24:05.756   02 Jun 2027 00:25:34.075            88.319               CapeTown          2759.969
        95   02 Jun 2027 01:18:51.595   02 Jun 2027 01:19:57.555            65.960               Magadan2          2061.250
        96   02 Jun 2027 01:22:38.975   02 Jun 2027 01:23:01.407            22.432               Magadan2           701.000
        97   02 Jun 2027 01:25:26.169   02 Jun 2027 01:27:07.884           101.715              Murmansk2          3178.594
        98   02 Jun 2027 01:27:39.610   02 Jun 2027 01:27:54.983            15.373                Novosib           480.406
        99   02 Jun 2027 01:27:59.368   02 Jun 2027 01:28:19.217            19.849                Novosib           620.281
       100   02 Jun 2027 01:28:35.329   02 Jun 2027 01:28:44.055             8.726              Murmansk2           272.687
       101   02 Jun 2027 01:30:31.660   02 Jun 2027 01:31:07.608            35.948                 Moscow          1123.375
       102   02 Jun 2027 01:35:11.193   02 Jun 2027 01:35:42.385            31.192                 Moscow           974.750
       103   02 Jun 2027 01:40:13.544   02 Jun 2027 01:40:33.592            20.048                 Moscow           626.500
       104   02 Jun 2027 01:52:41.319   02 Jun 2027 01:54:07.104            85.785               CapeTown          2680.781
       105   02 Jun 2027 02:49:16.646   02 Jun 2027 02:50:14.456            57.810                Anadyr1          1806.563
       106   02 Jun 2027 02:50:14.456   02 Jun 2027 02:51:16.807            62.351                Anadyr2          1948.469
       107   02 Jun 2027 02:51:34.346   02 Jun 2027 02:52:05.818            31.472               Magadan2           983.500
       108   02 Jun 2027 02:53:23.714   02 Jun 2027 02:53:54.480            30.766               Magadan2           961.438
       109   02 Jun 2027 02:54:04.278   02 Jun 2027 02:54:35.048            30.770               Magadan2           961.563
       110   02 Jun 2027 02:58:26.068   02 Jun 2027 02:58:57.600            31.532                Norilsk           985.375
       111   02 Jun 2027 04:30:33.722   02 Jun 2027 04:31:18.827            45.105                Anadyr1          1409.531
       112   02 Jun 2027 04:31:42.601   02 Jun 2027 04:35:15.359           212.758               Magadan1          6648.687
       113   02 Jun 2027 06:06:43.960   02 Jun 2027 06:07:48.734            64.774               Magadan1          2024.187
       114   02 Jun 2027 06:08:06.398   02 Jun 2027 06:08:24.658            18.260                Irkutsk           570.625
       115   02 Jun 2027 06:08:58.792   02 Jun 2027 06:09:39.978            41.186               Magadan2          1287.062
       116   02 Jun 2027 06:09:44.312   02 Jun 2027 06:10:45.351            61.039               Magadan1          1907.469
       117   02 Jun 2027 06:11:17.407   02 Jun 2027 06:12:54.504            97.097                Norilsk          3034.281
       118   02 Jun 2027 06:12:58.034   02 Jun 2027 06:13:16.918            18.884                Novosib           590.125
       119   02 Jun 2027 07:44:20.905   02 Jun 2027 07:44:56.366            35.461               Magadan1          1108.156
       120   02 Jun 2027 07:44:56.366   02 Jun 2027 07:45:46.366            50.000               Magadan2          1562.500
       121   02 Jun 2027 07:45:47.764   02 Jun 2027 07:46:30.649            42.885               Magadan2          1340.156
       122   02 Jun 2027 07:47:20.341   02 Jun 2027 07:48:03.261            42.920               Magadan2          1341.250
       123   02 Jun 2027 07:49:01.315   02 Jun 2027 07:49:31.530            30.215                Irkutsk           944.219
       124   02 Jun 2027 07:51:40.671   02 Jun 2027 07:51:56.148            15.477                Norilsk           483.656
       125   02 Jun 2027 08:24:23.730   02 Jun 2027 08:29:14.783           291.053            RioGallegos          9095.406
       126   02 Jun 2027 08:59:03.040   02 Jun 2027 09:01:44.641           161.601                Sumatra          5050.031
       127   02 Jun 2027 09:02:12.620   02 Jun 2027 09:02:58.186            45.566                Sumatra          1423.937
       128   02 Jun 2027 09:20:40.238   02 Jun 2027 09:20:45.790             5.552                Novosib           173.500
       129   02 Jun 2027 09:21:23.943   02 Jun 2027 09:21:38.928            14.985                Irkutsk           468.281
       130   02 Jun 2027 09:22:33.515   02 Jun 2027 09:22:43.176             9.661                Irkutsk           301.906
       131   02 Jun 2027 09:22:48.523   02 Jun 2027 09:22:58.616            10.093                Irkutsk           315.406
       132   02 Jun 2027 09:23:12.680   02 Jun 2027 09:23:19.701             7.021                Irkutsk           219.406
       133   02 Jun 2027 09:23:43.490   02 Jun 2027 09:23:55.729            12.239                Irkutsk           382.469
       134   02 Jun 2027 09:24:12.022   02 Jun 2027 09:24:38.625            26.603                Novosib           831.344
       135   02 Jun 2027 09:25:34.164   02 Jun 2027 09:25:59.104            24.940                Novosib           779.375
       136   02 Jun 2027 10:04:41.510   02 Jun 2027 10:05:16.304            34.794            RioGallegos          1087.313
       137   02 Jun 2027 10:06:56.797   02 Jun 2027 10:07:55.203            58.406            RioGallegos          1825.188
       138   02 Jun 2027 10:43:33.900   02 Jun 2027 10:44:30.362            56.462                  Delhi          1764.438
       139   02 Jun 2027 10:58:31.048   02 Jun 2027 10:58:46.423            15.375                Norilsk           480.469
       140   02 Jun 2027 10:58:49.287   02 Jun 2027 10:58:57.748             8.461                Novosib           264.406
       141   02 Jun 2027 10:59:49.268   02 Jun 2027 10:59:51.918             2.650                Novosib            82.813
       142   02 Jun 2027 11:00:17.686   02 Jun 2027 11:00:26.329             8.643                Norilsk           270.094
       143   02 Jun 2027 11:00:27.691   02 Jun 2027 11:00:51.706            24.015                Norilsk           750.469
       144   02 Jun 2027 11:00:54.976   02 Jun 2027 11:01:14.783            19.807                Norilsk           618.969
       145   02 Jun 2027 12:27:39.177   02 Jun 2027 12:28:34.861            55.684                 Moscow          1740.125
       146   02 Jun 2027 12:29:30.421   02 Jun 2027 12:31:51.377           140.956                 Moscow          4404.875
       147   02 Jun 2027 12:31:59.249   02 Jun 2027 12:33:08.636            69.387              Murmansk1          2168.344
       148   02 Jun 2027 12:33:15.479   02 Jun 2027 12:33:40.261            24.782              Murmansk1           774.438
       149   02 Jun 2027 12:34:26.666   02 Jun 2027 12:34:54.795            28.129              Murmansk2           879.031
       150   02 Jun 2027 12:36:43.738   02 Jun 2027 12:38:17.222            93.484                Norilsk          2921.375
       151   02 Jun 2027 13:42:12.644   02 Jun 2027 13:43:41.254            88.610               CapeTown          2769.063
       152   02 Jun 2027 13:44:12.397   02 Jun 2027 13:45:18.243            65.846               CapeTown          2057.688
       153   02 Jun 2027 13:47:09.645   02 Jun 2027 13:48:02.332            52.687               CapeTown          1646.469
       154   02 Jun 2027 14:08:12.422   02 Jun 2027 14:09:00.612            48.190              Murmansk1          1505.938
       155   02 Jun 2027 14:09:01.584   02 Jun 2027 14:09:22.584            21.000              Murmansk2           656.250
       156   02 Jun 2027 14:09:46.105   02 Jun 2027 14:10:16.242            30.137              Murmansk2           941.781
       157   02 Jun 2027 14:16:07.653   02 Jun 2027 14:16:30.876            23.223              Murmansk1           725.719
       158   02 Jun 2027 14:22:09.978   02 Jun 2027 14:24:52.118           162.140                Anadyr1          5066.875
       159   02 Jun 2027 14:26:00.369   02 Jun 2027 14:26:26.716            26.347                Anadyr2           823.344
       160   02 Jun 2027 14:27:10.888   02 Jun 2027 14:27:24.888            14.000                Anadyr2           437.500
       161   02 Jun 2027 14:27:37.491   02 Jun 2027 14:28:37.842            60.351                Anadyr2          1885.969
       162   02 Jun 2027 15:47:36.044   02 Jun 2027 15:48:19.172            43.128              Murmansk1          1347.750
       163   02 Jun 2027 15:48:19.172   02 Jun 2027 15:49:53.875            94.703              Murmansk2          2959.469
       164   02 Jun 2027 15:57:43.027   02 Jun 2027 15:58:27.329            44.302                Anadyr1          1384.438
       165   02 Jun 2027 15:59:29.447   02 Jun 2027 15:59:34.104             4.657                Anadyr2           145.531
       166   02 Jun 2027 16:00:09.554   02 Jun 2027 16:00:33.981            24.427                Anadyr2           763.344
       167   02 Jun 2027 16:00:55.772   02 Jun 2027 16:01:48.203            52.431                Anadyr1          1638.469
       168   02 Jun 2027 16:01:55.460   02 Jun 2027 16:04:34.584           159.124               Magadan1          4972.625
       169   02 Jun 2027 16:04:49.959   02 Jun 2027 16:05:34.976            45.017               Magadan2          1406.781
       170   02 Jun 2027 16:06:57.238   02 Jun 2027 16:07:34.775            37.537               Magadan2          1173.031
       171   02 Jun 2027 17:33:37.650   02 Jun 2027 17:34:47.514            69.864                Anadyr2          2183.250
       172   02 Jun 2027 17:35:53.467   02 Jun 2027 17:36:13.511            20.044                Anadyr2           626.375
       173   02 Jun 2027 17:36:24.990   02 Jun 2027 17:37:45.273            80.283               Magadan1          2508.844
       174   02 Jun 2027 17:37:45.273   02 Jun 2027 17:38:01.132            15.859               Magadan2           495.594
       175   02 Jun 2027 17:39:50.141   02 Jun 2027 17:40:01.344            11.203               Magadan2           350.094
       176   02 Jun 2027 17:43:03.322   02 Jun 2027 17:43:06.338             3.016               Magadan2            94.250
       177   02 Jun 2027 17:43:11.814   02 Jun 2027 17:43:17.826             6.012               Magadan2           187.875
       178   02 Jun 2027 17:43:20.451   02 Jun 2027 17:43:32.275            11.824               Magadan2           369.500
       179   02 Jun 2027 17:43:32.275   02 Jun 2027 17:43:44.246            11.971               Magadan1           374.094
       180   02 Jun 2027 18:31:20.672   02 Jun 2027 18:32:58.392            97.720            RioGallegos          3053.750
       181   02 Jun 2027 19:09:28.276   02 Jun 2027 19:11:14.798           106.522                Anadyr1          3328.813
       182   02 Jun 2027 19:11:19.159   02 Jun 2027 19:12:14.460            55.301                Anadyr2          1728.156
       183   02 Jun 2027 19:12:28.078   02 Jun 2027 19:13:35.218            67.140               Magadan2          2098.125
       184   02 Jun 2027 19:13:38.410   02 Jun 2027 19:15:36.613           118.203                Norilsk          3693.844
       185   02 Jun 2027 19:16:58.725   02 Jun 2027 19:20:06.850           188.125                Irkutsk          5878.906
       186   02 Jun 2027 19:21:20.371   02 Jun 2027 19:22:31.578            71.207                Irkutsk          2225.219
       187   02 Jun 2027 19:23:42.317   02 Jun 2027 19:23:50.149             7.832                Irkutsk           244.750
       188   02 Jun 2027 19:32:38.791   02 Jun 2027 19:34:18.680            99.889                Sumatra          3121.531
       189   02 Jun 2027 19:37:32.072   02 Jun 2027 19:38:49.852            77.780                Sumatra          2430.625
       190   02 Jun 2027 20:52:13.136   02 Jun 2027 20:53:45.349            92.213                Novosib          2881.656
       191   02 Jun 2027 20:54:58.822   02 Jun 2027 20:55:44.295            45.473                Novosib          1421.031
       192   02 Jun 2027 20:58:22.947   02 Jun 2027 20:59:04.596            41.649                Novosib          1301.531
       193   02 Jun 2027 21:05:04.387   02 Jun 2027 21:05:09.714             5.327                Sumatra           166.469
       194   02 Jun 2027 21:09:41.373   02 Jun 2027 21:10:45.473            64.100                Sumatra          2003.125
       195   02 Jun 2027 22:23:56.522   02 Jun 2027 22:25:11.445            74.923               Magadan1          2341.344
       196   02 Jun 2027 22:26:42.117   02 Jun 2027 22:30:04.912           202.795              Murmansk2          6337.344
       197   02 Jun 2027 22:30:24.105   02 Jun 2027 22:30:36.321            12.216              Murmansk1           381.750
       198   02 Jun 2027 22:34:34.567   02 Jun 2027 22:35:41.884            67.317                  Delhi          2103.656
       199   02 Jun 2027 22:42:45.066   02 Jun 2027 22:44:06.479            81.413                  Delhi          2544.156
       200   02 Jun 2027 23:52:27.266   02 Jun 2027 23:52:28.474             1.208                Anadyr1            37.750
       201   02 Jun 2027 23:58:34.526   02 Jun 2027 23:59:51.978            77.452               Magadan2          2420.375
       202   03 Jun 2027 00:00:03.798   03 Jun 2027 00:00:30.771            26.973               Magadan1           842.906
       203   03 Jun 2027 00:00:47.861   03 Jun 2027 00:01:00.826            12.965                Norilsk           405.156
       204   03 Jun 2027 00:01:34.531   03 Jun 2027 00:06:33.737           299.206              Murmansk2          9350.188
       205   03 Jun 2027 00:07:08.375   03 Jun 2027 00:07:21.560            13.185                 Moscow           412.031
       206   03 Jun 2027 00:09:24.269   03 Jun 2027 00:09:47.388            23.119                 Moscow           722.469
       207   03 Jun 2027 00:32:23.274   03 Jun 2027 00:34:16.748           113.474               CapeTown          3546.062
       208   03 Jun 2027 00:34:49.885   03 Jun 2027 00:35:06.162            16.277               CapeTown           508.656
       209   03 Jun 2027 00:35:45.474   03 Jun 2027 00:37:17.440            91.966               CapeTown          2873.937
       210   03 Jun 2027 01:31:14.319   03 Jun 2027 01:31:39.337            25.018               Magadan1           781.813
       211   03 Jun 2027 01:34:06.599   03 Jun 2027 01:35:10.490            63.891               Magadan2          1996.594
       212   03 Jun 2027 01:37:27.838   03 Jun 2027 01:37:30.679             2.841              Murmansk1            88.781
       213   03 Jun 2027 01:38:24.489   03 Jun 2027 01:39:07.887            43.398              Murmansk2          1356.187
       214   03 Jun 2027 01:39:30.554   03 Jun 2027 01:39:42.483            11.929              Murmansk1           372.781
       215   03 Jun 2027 01:39:49.018   03 Jun 2027 01:40:14.204            25.186                Novosib           787.062
       216   03 Jun 2027 01:42:24.084   03 Jun 2027 01:42:25.240             1.156                 Moscow            36.125
       217   03 Jun 2027 01:42:52.651   03 Jun 2027 01:43:38.329            45.678                 Moscow          1427.438
       218   03 Jun 2027 01:48:26.586   03 Jun 2027 01:48:35.022             8.436                 Moscow           263.625
       219   03 Jun 2027 01:48:54.265   03 Jun 2027 01:48:59.980             5.715                 Moscow           178.594
       220   03 Jun 2027 01:49:15.142   03 Jun 2027 01:49:41.217            26.075                 Moscow           814.844
       221   03 Jun 2027 02:04:35.964   03 Jun 2027 02:05:11.839            35.875               CapeTown          1121.094
       222   03 Jun 2027 02:11:45.951   03 Jun 2027 02:12:40.369            54.418               CapeTown          1700.563
       223   03 Jun 2027 03:01:18.210   03 Jun 2027 03:02:41.423            83.213                Anadyr2          2600.406
       224   03 Jun 2027 03:03:46.500   03 Jun 2027 03:03:58.853            12.353               Magadan1           386.031
       225   03 Jun 2027 03:07:18.248   03 Jun 2027 03:07:41.913            23.665               Magadan1           739.531
       226   03 Jun 2027 03:07:49.329   03 Jun 2027 03:09:32.351           103.022               Magadan1          3219.438
       227   03 Jun 2027 03:09:53.296   03 Jun 2027 03:10:55.365            62.069                Anadyr2          1939.656
       228   03 Jun 2027 04:46:32.508   03 Jun 2027 04:47:46.340            73.832               Magadan1          2307.250
       229   03 Jun 2027 04:48:01.453   03 Jun 2027 04:48:24.871            23.418                Anadyr1           731.812
       230   03 Jun 2027 04:48:55.684   03 Jun 2027 04:49:16.146            20.462                Anadyr1           639.438
       231   03 Jun 2027 04:49:38.245   03 Jun 2027 04:50:02.609            24.364                Anadyr1           761.375
       232   03 Jun 2027 06:19:01.221   03 Jun 2027 06:19:18.444            17.223               Magadan1           538.219
       233   03 Jun 2027 06:19:38.027   03 Jun 2027 06:20:32.043            54.016                Anadyr2          1688.000
       234   03 Jun 2027 06:20:59.713   03 Jun 2027 06:21:31.469            31.756                Anadyr2           992.375
       235   03 Jun 2027 06:21:31.469   03 Jun 2027 06:22:15.241            43.772                Anadyr1          1367.875
       236   03 Jun 2027 06:22:20.925   03 Jun 2027 06:23:07.055            46.130                Anadyr1          1441.562
       237   03 Jun 2027 06:23:09.910   03 Jun 2027 06:23:22.173            12.263                Anadyr1           383.219
       238   03 Jun 2027 06:23:22.173   03 Jun 2027 06:24:20.573            58.400                Anadyr2          1825.000
       239   03 Jun 2027 06:25:04.644   03 Jun 2027 06:25:32.610            27.966               Magadan1           873.938
       240   03 Jun 2027 07:55:03.032   03 Jun 2027 07:55:39.721            36.689               Magadan1          1146.531
       241   03 Jun 2027 07:56:43.274   03 Jun 2027 07:57:49.763            66.489               Magadan2          2077.781
       242   03 Jun 2027 07:58:17.799   03 Jun 2027 07:59:01.199            43.400                Irkutsk          1356.250
       243   03 Jun 2027 07:59:16.760   03 Jun 2027 07:59:24.940             8.180               Magadan1           255.625
       244   03 Jun 2027 08:01:59.458   03 Jun 2027 08:02:02.199             2.741              Murmansk2            85.656
       245   03 Jun 2027 08:36:37.589   03 Jun 2027 08:37:21.368            43.779            RioGallegos          1368.094
       246   03 Jun 2027 08:39:18.622   03 Jun 2027 08:39:48.798            30.176            RioGallegos           943.000
       247   03 Jun 2027 09:11:07.145   03 Jun 2027 09:11:54.875            47.730                Sumatra          1491.562
       248   03 Jun 2027 09:15:24.737   03 Jun 2027 09:15:53.742            29.005                Sumatra           906.406
       249   03 Jun 2027 09:31:36.043   03 Jun 2027 09:31:36.726             0.683                Novosib            21.344
       250   03 Jun 2027 09:32:48.555   03 Jun 2027 09:32:53.133             4.578                Norilsk           143.062
       251   03 Jun 2027 09:33:24.331   03 Jun 2027 09:33:59.369            35.038                Irkutsk          1094.938
       252   03 Jun 2027 09:34:27.974   03 Jun 2027 09:34:33.267             5.293                Novosib           165.406
       253   03 Jun 2027 09:35:21.449   03 Jun 2027 09:35:39.065            17.616                Irkutsk           550.500
       254   03 Jun 2027 09:35:40.781   03 Jun 2027 09:35:44.189             3.408                Novosib           106.500
       255   03 Jun 2027 09:35:46.909   03 Jun 2027 09:36:03.714            16.805                Irkutsk           525.156
       256   03 Jun 2027 09:36:43.575   03 Jun 2027 09:37:31.265            47.690                Novosib          1490.312
       257   03 Jun 2027 10:18:56.720   03 Jun 2027 10:19:38.352            41.632            RioGallegos          1301.000
       258   03 Jun 2027 10:55:37.020   03 Jun 2027 10:55:51.439            14.419                  Delhi           450.594
       259   03 Jun 2027 10:55:52.834   03 Jun 2027 10:57:06.159            73.325                  Delhi          2291.406
       260   03 Jun 2027 11:09:34.385   03 Jun 2027 11:09:59.306            24.921                Novosib           778.781
       261   03 Jun 2027 11:11:11.498   03 Jun 2027 11:11:38.550            27.052                Novosib           845.375
       262   03 Jun 2027 11:12:28.372   03 Jun 2027 11:12:34.045             5.673                Norilsk           177.281
       263   03 Jun 2027 11:12:49.237   03 Jun 2027 11:12:53.206             3.969                Novosib           124.031
       264   03 Jun 2027 11:13:45.654   03 Jun 2027 11:14:23.443            37.789                Novosib          1180.906
       265   03 Jun 2027 12:39:40.425   03 Jun 2027 12:40:39.814            59.389                 Moscow          1855.906
       266   03 Jun 2027 12:42:58.952   03 Jun 2027 12:44:01.192            62.240                 Moscow          1945.000
       267   03 Jun 2027 12:44:03.599   03 Jun 2027 12:46:24.442           140.843              Murmansk1          4401.344
       268   03 Jun 2027 12:47:13.018   03 Jun 2027 12:47:35.121            22.103              Murmansk2           690.719
       269   03 Jun 2027 12:48:45.821   03 Jun 2027 12:49:25.771            39.950                Norilsk          1248.437
       270   03 Jun 2027 13:53:52.666   03 Jun 2027 13:57:23.483           210.817               CapeTown          6588.031
       271   03 Jun 2027 13:58:12.642   03 Jun 2027 13:58:54.818            42.176               CapeTown          1318.000
       272   03 Jun 2027 14:20:31.257   03 Jun 2027 14:21:10.743            39.486              Murmansk2          1233.938
       273   03 Jun 2027 14:21:13.802   03 Jun 2027 14:22:17.725            63.923              Murmansk1          1997.594
       274   03 Jun 2027 14:24:25.264   03 Jun 2027 14:25:06.104            40.840              Murmansk2          1276.250
       275   03 Jun 2027 14:34:05.446   03 Jun 2027 14:35:51.952           106.506                Anadyr1          3328.312
       276   03 Jun 2027 14:35:51.952   03 Jun 2027 14:36:46.004            54.052                Anadyr2          1689.125
       277   03 Jun 2027 14:42:04.735   03 Jun 2027 14:43:01.016            56.281                Anadyr2          1758.781
       278   03 Jun 2027 16:00:17.044   03 Jun 2027 16:01:09.724            52.680              Murmansk1          1646.250
       279   03 Jun 2027 16:01:42.117   03 Jun 2027 16:02:50.815            68.698              Murmansk1          2146.812
       280   03 Jun 2027 16:03:50.052   03 Jun 2027 16:04:06.857            16.805              Murmansk1           525.156
       281   03 Jun 2027 16:09:43.772   03 Jun 2027 16:10:16.147            32.375                Anadyr1          1011.719
       282   03 Jun 2027 16:11:25.919   03 Jun 2027 16:11:30.705             4.786                Anadyr2           149.562
       283   03 Jun 2027 16:11:43.803   03 Jun 2027 16:12:45.371            61.568                Anadyr1          1924.000
       284   03 Jun 2027 16:12:51.414   03 Jun 2027 16:17:22.807           271.393               Magadan2          8481.031
       285   03 Jun 2027 16:18:59.622   03 Jun 2027 16:19:09.827            10.205               Magadan2           318.906
       286   03 Jun 2027 17:45:38.972   03 Jun 2027 17:47:20.733           101.761                Anadyr1          3180.031
       287   03 Jun 2027 17:47:25.090   03 Jun 2027 17:47:50.870            25.780                Anadyr2           805.625
       288   03 Jun 2027 17:47:58.229   03 Jun 2027 17:49:48.573           110.344               Magadan2          3448.250
       289   03 Jun 2027 17:51:15.214   03 Jun 2027 17:51:42.256            27.042               Magadan1           845.063
       290   03 Jun 2027 18:41:53.520   03 Jun 2027 18:44:31.554           158.034            RioGallegos          4938.562
       291   03 Jun 2027 19:21:27.636   03 Jun 2027 19:23:03.649            96.013                Anadyr2          3000.406
       292   03 Jun 2027 19:23:39.101   03 Jun 2027 19:25:39.686           120.585                Norilsk          3768.281
       293   03 Jun 2027 19:25:49.655   03 Jun 2027 19:26:26.191            36.536                Norilsk          1141.750
       294   03 Jun 2027 19:27:06.205   03 Jun 2027 19:27:35.856            29.651                Norilsk           926.594
       295   03 Jun 2027 19:29:44.205   03 Jun 2027 19:31:56.429           132.224                Irkutsk          4132.000
       296   03 Jun 2027 19:32:32.816   03 Jun 2027 19:33:06.759            33.943                Irkutsk          1060.719
       297   03 Jun 2027 19:33:30.043   03 Jun 2027 19:34:38.359            68.316                Irkutsk          2134.875
       298   03 Jun 2027 19:43:31.211   03 Jun 2027 19:45:53.401           142.190                Sumatra          4443.438
       299   03 Jun 2027 19:48:55.162   03 Jun 2027 19:49:26.591            31.429                Sumatra           982.156
       300   03 Jun 2027 19:50:20.456   03 Jun 2027 19:52:08.719           108.263                Sumatra          3383.219
       301   03 Jun 2027 21:04:42.944   03 Jun 2027 21:05:38.312            55.368                Novosib          1730.250
       302   03 Jun 2027 21:14:00.449   03 Jun 2027 21:16:45.209           164.760                  Delhi          5148.750
       303   03 Jun 2027 22:35:56.202   03 Jun 2027 22:37:07.641            71.439               Magadan1          2232.469
       304   03 Jun 2027 22:38:22.205   03 Jun 2027 22:42:38.472           256.267              Murmansk1          8008.344
       305   03 Jun 2027 22:43:07.416   03 Jun 2027 22:43:38.517            31.101              Murmansk1           971.906
       306   03 Jun 2027 22:54:37.969   03 Jun 2027 22:54:43.276             5.307                  Delhi           165.844
       307   04 Jun 2027 00:04:08.956   04 Jun 2027 00:04:19.626            10.670                Anadyr2           333.438
       308   04 Jun 2027 00:05:00.209   04 Jun 2027 00:06:36.111            95.902                Anadyr2          2996.938
       309   04 Jun 2027 00:10:10.111   04 Jun 2027 00:10:53.785            43.674               Magadan2          1364.812
       310   04 Jun 2027 00:10:53.785   04 Jun 2027 00:11:22.269            28.484               Magadan1           890.125
       311   04 Jun 2027 00:11:37.743   04 Jun 2027 00:12:18.241            40.498               Magadan1          1265.563
       312   04 Jun 2027 00:13:34.526   04 Jun 2027 00:18:05.350           270.824              Murmansk2          8463.250
       313   04 Jun 2027 00:25:13.597   04 Jun 2027 00:26:15.039            61.442                 Moscow          1920.063
       314   04 Jun 2027 00:44:40.201   04 Jun 2027 00:44:53.439            13.238               CapeTown           413.687
       315   04 Jun 2027 00:45:02.272   04 Jun 2027 00:45:11.254             8.982               CapeTown           280.688
       316   04 Jun 2027 00:45:38.582   04 Jun 2027 00:45:48.353             9.771               CapeTown           305.344
       317   04 Jun 2027 00:46:51.144   04 Jun 2027 00:47:25.144            34.000               CapeTown          1062.500
       318   04 Jun 2027 00:48:35.855   04 Jun 2027 00:49:06.043            30.188               CapeTown           943.375
       319   04 Jun 2027 00:50:54.870   04 Jun 2027 00:51:09.225            14.355               CapeTown           448.594
       320   04 Jun 2027 01:41:49.981   04 Jun 2027 01:43:29.146            99.165               Magadan1          3098.906
       321   04 Jun 2027 01:49:08.986   04 Jun 2027 01:49:16.286             7.300                Norilsk           228.125
       322   04 Jun 2027 01:49:29.560   04 Jun 2027 01:51:10.221           100.661              Murmansk1          3145.656
       323   04 Jun 2027 01:51:32.882   04 Jun 2027 01:51:55.530            22.648              Murmansk2           707.750
       324   04 Jun 2027 01:52:42.599   04 Jun 2027 01:54:16.135            93.536                 Moscow          2923.000
       325   04 Jun 2027 02:01:27.644   04 Jun 2027 02:01:57.808            30.164                 Moscow           942.625
       326   04 Jun 2027 02:19:49.115   04 Jun 2027 02:21:03.478            74.363               CapeTown          2323.844
       327   04 Jun 2027 03:16:19.037   04 Jun 2027 03:16:51.557            32.520               Magadan2          1016.250
       328   04 Jun 2027 03:19:17.010   04 Jun 2027 03:21:26.239           129.229               Magadan2          4038.406
       329   04 Jun 2027 03:21:44.467   04 Jun 2027 03:22:54.978            70.511               Magadan2          2203.469
       330   04 Jun 2027 03:22:54.978   04 Jun 2027 03:23:32.947            37.969               Magadan1          1186.531
       331   04 Jun 2027 03:23:40.028   04 Jun 2027 03:24:40.659            60.631                Anadyr1          1894.719
       332   04 Jun 2027 03:24:52.267   04 Jun 2027 03:26:11.407            79.140                Anadyr1          2473.125
       333   04 Jun 2027 06:31:07.535   04 Jun 2027 06:31:11.721             4.186               Magadan2           130.812
       334   04 Jun 2027 06:31:17.113   04 Jun 2027 06:31:34.632            17.519               Magadan2           547.469
       335   04 Jun 2027 06:31:45.165   04 Jun 2027 06:31:52.866             7.701               Magadan1           240.656
       336   04 Jun 2027 06:32:02.667   04 Jun 2027 06:32:22.939            20.272               Magadan1           633.500
       337   04 Jun 2027 06:32:22.939   04 Jun 2027 06:33:42.687            79.748               Magadan2          2492.125
       338   04 Jun 2027 06:33:55.391   04 Jun 2027 06:34:12.869            17.478               Magadan1           546.188
       339   04 Jun 2027 06:34:12.869   04 Jun 2027 06:34:31.509            18.640               Magadan2           582.500
       340   04 Jun 2027 06:35:03.365   04 Jun 2027 06:35:40.138            36.773               Magadan2          1149.156
       341   04 Jun 2027 06:35:40.138   04 Jun 2027 06:35:54.798            14.660               Magadan1           458.125
       342   04 Jun 2027 06:36:05.296   04 Jun 2027 06:36:30.098            24.802               Magadan1           775.062
       343   04 Jun 2027 06:37:18.488   04 Jun 2027 06:37:30.685            12.197               Magadan2           381.156
       344   04 Jun 2027 06:43:00.905   04 Jun 2027 06:43:08.065             7.160              Murmansk1           223.750
       345   04 Jun 2027 08:09:24.684   04 Jun 2027 08:09:33.767             9.083                Irkutsk           283.844
       346   04 Jun 2027 08:09:57.340   04 Jun 2027 08:10:17.330            19.990                Irkutsk           624.688
       347   04 Jun 2027 08:11:08.679   04 Jun 2027 08:11:11.580             2.901                Irkutsk            90.656
       348   04 Jun 2027 08:12:02.702   04 Jun 2027 08:12:30.997            28.295                Irkutsk           884.219
       349   04 Jun 2027 08:13:23.694   04 Jun 2027 08:13:26.090             2.396              Murmansk1            74.875
       350   04 Jun 2027 08:13:50.049   04 Jun 2027 08:13:59.160             9.111              Murmansk1           284.719
       351   04 Jun 2027 08:19:54.766   04 Jun 2027 08:20:20.369            25.603              Murmansk2           800.094
       352   04 Jun 2027 08:48:55.589   04 Jun 2027 08:49:10.295            14.706            RioGallegos           459.563
       353   04 Jun 2027 08:49:47.684   04 Jun 2027 08:49:53.454             5.770            RioGallegos           180.313
       354   04 Jun 2027 08:51:14.462   04 Jun 2027 08:52:11.461            56.999            RioGallegos          1781.219
       355   04 Jun 2027 09:23:17.101   04 Jun 2027 09:25:04.899           107.798                Sumatra          3368.688
       356   04 Jun 2027 09:44:06.210   04 Jun 2027 09:44:13.927             7.717                Irkutsk           241.156
       357   04 Jun 2027 09:45:30.448   04 Jun 2027 09:46:21.392            50.944                Irkutsk          1592.000
       358   04 Jun 2027 09:47:04.470   04 Jun 2027 09:47:04.608             0.138                Novosib             4.313
       359   04 Jun 2027 09:47:16.886   04 Jun 2027 09:47:31.950            15.064                Novosib           470.750
       360   04 Jun 2027 09:47:48.391   04 Jun 2027 09:48:01.582            13.191                Novosib           412.219
       361   04 Jun 2027 09:48:11.038   04 Jun 2027 09:48:14.379             3.341                Irkutsk           104.406
       362   04 Jun 2027 09:48:15.285   04 Jun 2027 09:48:52.525            37.240                Irkutsk          1163.750
       363   04 Jun 2027 09:49:27.103   04 Jun 2027 09:49:39.809            12.706                Novosib           397.063
       364   04 Jun 2027 11:07:57.653   04 Jun 2027 11:10:02.549           124.896                  Delhi          3903.000
       365   04 Jun 2027 11:12:11.902   04 Jun 2027 11:12:59.275            47.373                  Delhi          1480.406
       366   04 Jun 2027 11:23:17.755   04 Jun 2027 11:23:38.403            20.648                Novosib           645.250
       367   04 Jun 2027 11:24:30.472   04 Jun 2027 11:24:52.540            22.068                Norilsk           689.625
       368   04 Jun 2027 12:51:57.794   04 Jun 2027 12:52:44.263            46.469                 Moscow          1452.156
       369   04 Jun 2027 12:53:23.374   04 Jun 2027 12:53:36.101            12.727                 Moscow           397.719
       370   04 Jun 2027 12:54:02.875   04 Jun 2027 12:54:15.297            12.422                 Moscow           388.187
       371   04 Jun 2027 12:55:15.929   04 Jun 2027 12:56:50.627            94.698              Murmansk1          2959.313
       372   04 Jun 2027 12:56:50.627   04 Jun 2027 12:57:07.929            17.302              Murmansk2           540.688
       373   04 Jun 2027 12:58:11.850   04 Jun 2027 12:59:28.836            76.986              Murmansk1          2405.812
       374   04 Jun 2027 13:00:53.244   04 Jun 2027 13:02:11.985            78.741                Norilsk          2460.656
       375   04 Jun 2027 13:12:44.838   04 Jun 2027 13:13:04.164            19.326                Anadyr2           603.937
       376   04 Jun 2027 13:13:52.284   04 Jun 2027 13:14:04.674            12.390                Anadyr1           387.188
       377   04 Jun 2027 14:05:38.178   04 Jun 2027 14:07:43.887           125.709               CapeTown          3928.406
       378   04 Jun 2027 14:08:31.705   04 Jun 2027 14:09:19.490            47.785               CapeTown          1493.281
       379   04 Jun 2027 14:32:52.281   04 Jun 2027 14:33:22.715            30.434              Murmansk2           951.062
       380   04 Jun 2027 14:33:47.707   04 Jun 2027 14:34:19.360            31.653              Murmansk1           989.156
       381   04 Jun 2027 14:34:45.665   04 Jun 2027 14:34:48.685             3.020              Murmansk2            94.375
       382   04 Jun 2027 14:36:09.116   04 Jun 2027 14:37:00.195            51.079              Murmansk1          1596.219
       383   04 Jun 2027 14:37:29.853   04 Jun 2027 14:37:53.248            23.395              Murmansk1           731.094
       384   04 Jun 2027 14:40:03.916   04 Jun 2027 14:40:10.360             6.444              Murmansk1           201.375
       385   04 Jun 2027 14:46:02.210   04 Jun 2027 14:48:17.083           134.873                Anadyr2          4214.781
       386   04 Jun 2027 14:52:35.539   04 Jun 2027 14:52:45.043             9.504                Anadyr2           297.000
       387   04 Jun 2027 14:53:11.191   04 Jun 2027 14:53:47.819            36.628                Anadyr2          1144.625
       388   04 Jun 2027 15:42:27.634   04 Jun 2027 15:42:30.650             3.016               CapeTown            94.250
       389   04 Jun 2027 15:47:05.459   04 Jun 2027 15:47:35.544            30.085               CapeTown           940.156
       390   04 Jun 2027 16:13:02.615   04 Jun 2027 16:14:56.150           113.535              Murmansk2          3547.969
       391   04 Jun 2027 16:15:47.607   04 Jun 2027 16:17:19.109            91.502              Murmansk1          2859.438
       392   04 Jun 2027 16:21:44.741   04 Jun 2027 16:23:21.533            96.792                Anadyr2          3024.750
       393   04 Jun 2027 16:23:57.640   04 Jun 2027 16:24:42.251            44.611                Anadyr2          1394.094
       394   04 Jun 2027 16:25:06.879   04 Jun 2027 16:28:11.365           184.486               Magadan1          5765.187
       395   04 Jun 2027 17:57:40.198   04 Jun 2027 17:59:49.210           129.012                Anadyr2          4031.625
       396   04 Jun 2027 17:59:58.034   04 Jun 2027 18:01:17.619            79.585               Magadan1          2487.031
       397   04 Jun 2027 18:01:51.869   04 Jun 2027 18:03:21.324            89.455               Magadan2          2795.469
       398   04 Jun 2027 18:05:44.375   04 Jun 2027 18:06:25.638            41.263               Magadan1          1289.469
       399   04 Jun 2027 18:53:12.936   04 Jun 2027 18:56:16.642           183.706            RioGallegos          5740.812
       400   04 Jun 2027 18:58:41.557   04 Jun 2027 18:58:48.859             7.302            RioGallegos           228.187
       401   04 Jun 2027 18:59:58.151   04 Jun 2027 19:00:36.749            38.598            RioGallegos          1206.188
       402   04 Jun 2027 19:33:26.516   04 Jun 2027 19:33:35.709             9.193                Anadyr2           287.281
       403   04 Jun 2027 19:34:51.791   04 Jun 2027 19:35:36.383            44.592                Anadyr2          1393.500
       404   04 Jun 2027 19:35:36.589   04 Jun 2027 19:37:51.516           134.927                Norilsk          4216.469
       405   04 Jun 2027 19:38:20.294   04 Jun 2027 19:39:35.771            75.477                Norilsk          2358.656
       406   04 Jun 2027 19:40:51.581   04 Jun 2027 19:41:18.694            27.113                Irkutsk           847.281
       407   04 Jun 2027 19:41:48.762   04 Jun 2027 19:42:20.146            31.384                Irkutsk           980.750
       408   04 Jun 2027 19:42:56.423   04 Jun 2027 19:43:54.464            58.041                Irkutsk          1813.781
       409   04 Jun 2027 19:44:20.411   04 Jun 2027 19:45:34.830            74.419                Irkutsk          2325.594
       410   04 Jun 2027 19:58:04.304   04 Jun 2027 19:58:55.099            50.795                Sumatra          1587.344
       411   04 Jun 2027 20:00:08.065   04 Jun 2027 20:01:26.712            78.647                Sumatra          2457.719
       412   04 Jun 2027 21:15:18.094   04 Jun 2027 21:16:28.388            70.294                Irkutsk          2196.687
       413   04 Jun 2027 21:16:34.286   04 Jun 2027 21:18:00.107            85.821                Novosib          2681.906
       414   04 Jun 2027 21:20:11.127   04 Jun 2027 21:20:58.302            47.175                Novosib          1474.219
       415   04 Jun 2027 21:24:54.100   04 Jun 2027 21:27:26.073           151.973                  Delhi          4749.156
       416   04 Jun 2027 22:47:54.677   04 Jun 2027 22:48:40.263            45.586               Magadan2          1424.562
       417   04 Jun 2027 22:49:01.534   04 Jun 2027 22:49:27.937            26.403               Magadan2           825.094
       418   04 Jun 2027 22:50:10.231   04 Jun 2027 22:53:55.377           225.146              Murmansk2          7035.813
       419   04 Jun 2027 22:54:50.912   04 Jun 2027 22:56:17.492            86.580              Murmansk1          2705.625
       420   05 Jun 2027 00:15:51.211   05 Jun 2027 00:16:30.439            39.228                Anadyr2          1225.875
       421   05 Jun 2027 00:16:51.638   05 Jun 2027 00:17:01.327             9.689                Anadyr2           302.781
       422   05 Jun 2027 00:18:22.512   05 Jun 2027 00:18:46.619            24.107                Anadyr2           753.344
       423   05 Jun 2027 00:21:42.565   05 Jun 2027 00:23:24.798           102.233               Magadan1          3194.781
       424   05 Jun 2027 00:23:42.064   05 Jun 2027 00:23:58.318            16.254               Magadan2           507.937
       425   05 Jun 2027 00:24:31.291   05 Jun 2027 00:24:58.819            27.528               Magadan1           860.250
       426   05 Jun 2027 00:25:34.974   05 Jun 2027 00:27:36.300           121.326              Murmansk1          3791.438
       427   05 Jun 2027 00:27:36.300   05 Jun 2027 00:28:33.544            57.244              Murmansk2          1788.875
       428   05 Jun 2027 00:29:14.060   05 Jun 2027 00:30:29.830            75.770                 Moscow          2367.813
       429   05 Jun 2027 00:30:36.213   05 Jun 2027 00:31:16.197            39.984                 Moscow          1249.500
       430   05 Jun 2027 00:54:44.379   05 Jun 2027 00:56:32.360           107.981               CapeTown          3374.406
       431   05 Jun 2027 01:04:09.851   05 Jun 2027 01:04:39.079            29.228               CapeTown           913.375
       432   05 Jun 2027 01:53:20.671   05 Jun 2027 01:53:54.426            33.755               Magadan1          1054.844
       433   05 Jun 2027 01:54:28.083   05 Jun 2027 01:54:59.109            31.026               Magadan2           969.562
       434   05 Jun 2027 01:55:19.637   05 Jun 2027 01:56:03.673            44.036               Magadan1          1376.125
       435   05 Jun 2027 02:00:34.447   05 Jun 2027 02:00:45.743            11.296                Norilsk           353.000
       436   05 Jun 2027 02:01:31.289   05 Jun 2027 02:02:59.512            88.223              Murmansk1          2756.969
       437   05 Jun 2027 02:03:33.706   05 Jun 2027 02:04:29.299            55.593              Murmansk2          1737.281
       438   05 Jun 2027 02:04:43.721   05 Jun 2027 02:05:38.601            54.880                 Moscow          1715.000
       439   05 Jun 2027 02:14:44.523   05 Jun 2027 02:15:01.818            17.295                 Moscow           540.469
       440   05 Jun 2027 02:28:40.196   05 Jun 2027 02:29:09.772            29.576               CapeTown           924.250
       441   05 Jun 2027 02:33:19.381   05 Jun 2027 02:33:24.299             4.918               CapeTown           153.687
       442   05 Jun 2027 02:34:14.577   05 Jun 2027 02:34:44.166            29.589               CapeTown           924.656
       443   05 Jun 2027 03:30:49.352   05 Jun 2027 03:30:57.405             8.053                Anadyr2           251.656
       444   05 Jun 2027 03:31:20.953   05 Jun 2027 03:36:38.653           317.700               Magadan1          9928.125
       445   05 Jun 2027 03:36:54.965   05 Jun 2027 03:37:34.548            39.583               Magadan1          1236.969
       446   05 Jun 2027 05:08:09.698   05 Jun 2027 05:10:18.899           129.201                Irkutsk          4037.531
       447   05 Jun 2027 05:11:04.965   05 Jun 2027 05:11:33.275            28.310                Irkutsk           884.687
       448   05 Jun 2027 06:45:56.015   05 Jun 2027 06:45:58.054             2.039               Magadan2            63.719
       449   05 Jun 2027 06:46:28.008   05 Jun 2027 06:46:34.942             6.934               Magadan2           216.687
       450   05 Jun 2027 06:46:34.942   05 Jun 2027 06:46:51.208            16.266               Magadan1           508.313
       451   05 Jun 2027 06:46:51.208   05 Jun 2027 06:47:40.894            49.686               Magadan2          1552.688
       452   05 Jun 2027 06:47:57.996   05 Jun 2027 06:48:33.985            35.989               Magadan2          1124.656
       453   05 Jun 2027 06:48:43.170   05 Jun 2027 06:49:06.466            23.296               Magadan1           728.000
       454   05 Jun 2027 06:49:11.047   05 Jun 2027 06:49:31.596            20.549                Norilsk           642.156
       455   05 Jun 2027 08:07:28.875   05 Jun 2027 08:09:11.295           102.420                Sumatra          3200.625
       456   05 Jun 2027 08:20:38.775   05 Jun 2027 08:21:06.007            27.232                Irkutsk           851.000
       457   05 Jun 2027 08:21:36.761   05 Jun 2027 08:22:01.303            24.542                Irkutsk           766.938
       458   05 Jun 2027 08:23:57.464   05 Jun 2027 08:24:19.962            22.498                Irkutsk           703.063
       459   05 Jun 2027 08:24:47.855   05 Jun 2027 08:24:51.192             3.337                Irkutsk           104.281
       460   05 Jun 2027 08:28:25.326   05 Jun 2027 08:28:25.979             0.653                Norilsk            20.406
       461   05 Jun 2027 09:01:18.144   05 Jun 2027 09:01:58.320            40.176            RioGallegos          1255.500
       462   05 Jun 2027 09:03:14.809   05 Jun 2027 09:03:30.487            15.678            RioGallegos           489.938
       463   05 Jun 2027 09:07:36.118   05 Jun 2027 09:07:39.657             3.539            RioGallegos           110.594
       464   05 Jun 2027 09:08:57.206   05 Jun 2027 09:08:58.219             1.013            RioGallegos            31.656
       465   05 Jun 2027 09:09:26.572   05 Jun 2027 09:10:10.067            43.495            RioGallegos          1359.219
       466   05 Jun 2027 09:35:33.566   05 Jun 2027 09:36:55.090            81.524                Sumatra          2547.625
       467   05 Jun 2027 09:58:56.800   05 Jun 2027 09:59:01.072             4.272                Norilsk           133.500
       468   05 Jun 2027 09:59:22.314   05 Jun 2027 10:00:30.684            68.370                Irkutsk          2136.563
       469   05 Jun 2027 10:00:51.986   05 Jun 2027 10:01:05.088            13.102                Novosib           409.437
       470   05 Jun 2027 11:20:26.161   05 Jun 2027 11:23:38.020           191.859                  Delhi          5995.594
       471   05 Jun 2027 11:35:29.955   05 Jun 2027 11:35:37.156             7.201                Novosib           225.031
       472   05 Jun 2027 11:36:04.223   05 Jun 2027 11:36:48.492            44.269                Novosib          1383.406
       473   05 Jun 2027 11:36:54.312   05 Jun 2027 11:37:20.645            26.333                Norilsk           822.906
       474   05 Jun 2027 13:03:51.849   05 Jun 2027 13:04:13.230            21.381                 Moscow           668.156
       475   05 Jun 2027 13:04:48.230   05 Jun 2027 13:05:30.500            42.270                 Moscow          1320.937
       476   05 Jun 2027 13:06:37.872   05 Jun 2027 13:07:41.879            64.007                 Moscow          2000.219
       477   05 Jun 2027 13:07:47.881   05 Jun 2027 13:08:50.998            63.117              Murmansk2          1972.406
       478   05 Jun 2027 13:09:05.110   05 Jun 2027 13:09:59.120            54.010              Murmansk1          1687.812
       479   05 Jun 2027 13:11:23.312   05 Jun 2027 13:12:12.504            49.192              Murmansk2          1537.250
       480   05 Jun 2027 13:13:55.994   05 Jun 2027 13:14:36.940            40.946                Norilsk          1279.563
       481   05 Jun 2027 13:23:36.661   05 Jun 2027 13:26:19.490           162.829                Anadyr1          5088.406
       482   05 Jun 2027 14:18:57.146   05 Jun 2027 14:20:04.552            67.406               CapeTown          2106.438
