uniorb/output/strategy_4/Drop/Drop_KinoSat_110101.txt

KinoSat_110101
-------------------------
    Access    *     Start Time (UTCG)     *     Stop Time (UTCG)  *   Duration (s)        *       Station  *  Data (Mbytes)
         1   01 Jun 2027 03:09:34.469   01 Jun 2027 03:10:44.954            70.485               Magadan2          8810.625
         2   01 Jun 2027 03:11:07.687   01 Jun 2027 03:12:25.598            77.911               Magadan2          9738.875
         3   01 Jun 2027 03:12:47.740   01 Jun 2027 03:13:34.003            46.263               Magadan1          5782.875
         4   01 Jun 2027 03:14:07.679   01 Jun 2027 03:14:39.544            31.865                Irkutsk          3983.125
         5   01 Jun 2027 03:14:53.540   01 Jun 2027 03:15:07.808            14.268              Murmansk1          1783.500
         6   01 Jun 2027 03:15:20.513   01 Jun 2027 03:16:04.417            43.904                Norilsk          5488.000
         7   01 Jun 2027 03:17:31.578   01 Jun 2027 03:17:39.148             7.570              Murmansk1           946.250
         8   01 Jun 2027 03:18:00.200   01 Jun 2027 03:18:09.326             9.126              Murmansk1          1140.750
         9   01 Jun 2027 03:50:58.626   01 Jun 2027 03:53:03.738           125.112            RioGallegos         15639.000
        10   01 Jun 2027 03:54:30.719   01 Jun 2027 03:55:14.802            44.083            RioGallegos          5510.375
        11   01 Jun 2027 04:25:26.990   01 Jun 2027 04:27:07.496           100.506                Sumatra         12563.250
        12   01 Jun 2027 04:48:06.159   01 Jun 2027 04:48:18.692            12.533                Novosib          1566.625
        13   01 Jun 2027 04:48:27.453   01 Jun 2027 04:48:58.277            30.824              Murmansk2          3853.000
        14   01 Jun 2027 04:49:13.247   01 Jun 2027 04:51:15.365           122.118                Norilsk         15264.750
        15   01 Jun 2027 04:51:43.678   01 Jun 2027 04:52:16.499            32.821              Murmansk2          4102.625
        16   01 Jun 2027 04:52:39.951   01 Jun 2027 04:52:59.761            19.810                Norilsk          2476.250
        17   01 Jun 2027 04:53:28.088   01 Jun 2027 04:53:49.048            20.960                Norilsk          2620.000
        18   01 Jun 2027 06:09:58.250   01 Jun 2027 06:12:23.107           144.857                  Delhi         18107.125
        19   01 Jun 2027 06:16:18.239   01 Jun 2027 06:16:45.316            27.077                  Delhi          3384.625
        20   01 Jun 2027 06:24:53.446   01 Jun 2027 06:25:09.069            15.623              Murmansk1          1952.875
        21   01 Jun 2027 06:25:17.280   01 Jun 2027 06:25:39.225            21.945                 Moscow          2743.125
        22   01 Jun 2027 06:25:51.298   01 Jun 2027 06:26:02.298            11.000                Novosib          1375.000
        23   01 Jun 2027 06:26:05.599   01 Jun 2027 06:27:05.600            60.001                Norilsk          7500.125
        24   01 Jun 2027 06:27:26.986   01 Jun 2027 06:28:03.393            36.407                Norilsk          4550.875
        25   01 Jun 2027 06:28:04.092   01 Jun 2027 06:28:38.708            34.616                 Moscow          4327.000
        26   01 Jun 2027 08:00:47.524   01 Jun 2027 08:01:20.359            32.835                 Moscow          4104.375
        27   01 Jun 2027 08:01:30.343   01 Jun 2027 08:01:50.563            20.220                 Moscow          2527.500
        28   01 Jun 2027 08:02:09.963   01 Jun 2027 08:02:48.234            38.271              Murmansk1          4783.875
        29   01 Jun 2027 08:04:05.412   01 Jun 2027 08:04:07.276             1.864                 Moscow           233.000
        30   01 Jun 2027 08:04:41.267   01 Jun 2027 08:05:35.677            54.410                 Moscow          6801.250
        31   01 Jun 2027 09:08:09.276   01 Jun 2027 09:14:25.169           375.893               CapeTown         46986.625
        32   01 Jun 2027 13:02:17.024   01 Jun 2027 13:05:13.814           176.790               Magadan2         22098.750
        33   01 Jun 2027 14:38:11.670   01 Jun 2027 14:38:57.403            45.733               Magadan2          5716.625
        34   01 Jun 2027 14:58:11.148   01 Jun 2027 14:59:55.178           104.030                Sumatra         13003.750
        35   01 Jun 2027 15:29:48.245   01 Jun 2027 15:31:17.812            89.567            RioGallegos         11195.875
        36   01 Jun 2027 15:39:03.682   01 Jun 2027 15:40:32.239            88.557            RioGallegos         11069.625
        37   01 Jun 2027 16:20:36.250   01 Jun 2027 16:20:47.018            10.768                Irkutsk          1346.000
        38   01 Jun 2027 16:22:33.216   01 Jun 2027 16:24:30.339           117.123                Irkutsk         14640.375
        39   01 Jun 2027 16:31:31.610   01 Jun 2027 16:32:48.203            76.593                Sumatra          9574.125
        40   01 Jun 2027 16:33:12.437   01 Jun 2027 16:34:02.368            49.931                  Delhi          6241.375
        41   01 Jun 2027 17:53:30.317   01 Jun 2027 17:54:54.868            84.551                Novosib         10568.875
        42   01 Jun 2027 17:57:58.997   01 Jun 2027 17:58:21.545            22.548                Novosib          2818.500
        43   01 Jun 2027 18:00:50.398   01 Jun 2027 18:02:54.289           123.891                  Delhi         15486.375
        44   01 Jun 2027 18:08:11.788   01 Jun 2027 18:10:25.355           133.567                  Delhi         14836.000
        45   02 Jun 2027 03:27:37.048   02 Jun 2027 03:27:54.604            17.556                Irkutsk          2194.500
        46   02 Jun 2027 04:37:37.778   02 Jun 2027 04:38:31.783            54.005                Sumatra          6750.625
        47   02 Jun 2027 04:40:18.671   02 Jun 2027 04:41:13.384            54.713                Sumatra          6839.125
        48   02 Jun 2027 04:45:17.277   02 Jun 2027 04:45:56.060            38.783                Sumatra          4847.875
        49   02 Jun 2027 05:02:15.495   02 Jun 2027 05:02:18.269             2.774              Murmansk1           346.750
        50   02 Jun 2027 05:02:28.704   02 Jun 2027 05:02:38.459             9.755                Novosib          1219.375
        51   02 Jun 2027 05:03:02.109   02 Jun 2027 05:05:22.218           140.109                Novosib         17513.625
        52   02 Jun 2027 05:05:24.728   02 Jun 2027 05:08:46.428           201.700                Norilsk         25212.500
        53   02 Jun 2027 05:09:16.188   02 Jun 2027 05:10:48.324            92.136              Murmansk1         11517.000
        54   02 Jun 2027 06:22:19.861   02 Jun 2027 06:31:24.251           544.390                  Delhi         68048.750
        55   02 Jun 2027 06:31:41.139   02 Jun 2027 06:31:56.300            15.161                Novosib          1895.125
        56   02 Jun 2027 06:39:27.848   02 Jun 2027 06:42:51.535           203.687                 Moscow         25460.875
        57   02 Jun 2027 06:43:16.606   02 Jun 2027 06:43:35.190            18.584              Murmansk2          2323.000
        58   02 Jun 2027 06:43:38.345   02 Jun 2027 06:44:01.002            22.657                Norilsk          2832.125
        59   02 Jun 2027 06:44:01.782   02 Jun 2027 06:44:32.304            30.522              Murmansk1          3815.250
        60   02 Jun 2027 06:45:00.185   02 Jun 2027 06:45:31.411            31.226              Murmansk1          3903.250
        61   02 Jun 2027 06:45:42.494   02 Jun 2027 06:46:06.923            24.429              Murmansk1          3053.625
        62   02 Jun 2027 08:06:04.261   02 Jun 2027 08:10:00.002           235.741                 Moscow         29467.625
        63   02 Jun 2027 08:10:41.654   02 Jun 2027 08:10:47.994             6.340                 Moscow           792.500
        64   02 Jun 2027 08:14:02.590   02 Jun 2027 08:15:44.617           102.027                 Moscow         12753.375
        65   02 Jun 2027 08:16:04.553   02 Jun 2027 08:17:32.001            87.448                Norilsk         10931.000
        66   02 Jun 2027 08:17:47.740   02 Jun 2027 08:20:17.271           149.531              Murmansk2         18691.375
        67   02 Jun 2027 08:26:46.015   02 Jun 2027 08:28:47.030           121.015                Anadyr2         15126.875
        68   02 Jun 2027 09:24:57.902   02 Jun 2027 09:25:46.547            48.645               CapeTown          6080.625
        69   02 Jun 2027 09:53:40.529   02 Jun 2027 09:55:23.330           102.801              Murmansk2         12850.125
        70   02 Jun 2027 10:00:20.702   02 Jun 2027 10:04:00.572           219.870                Anadyr1         27483.750
        71   02 Jun 2027 10:09:42.344   02 Jun 2027 10:09:45.376             3.032                Anadyr2           379.000
        72   02 Jun 2027 13:14:16.899   02 Jun 2027 13:17:24.151           187.252               Magadan2         23406.500
        73   02 Jun 2027 13:17:24.151   02 Jun 2027 13:18:01.879            37.728               Magadan1          4716.000
        74   02 Jun 2027 13:18:20.240   02 Jun 2027 13:19:07.855            47.615               Magadan2          5951.875
        75   02 Jun 2027 14:50:14.032   02 Jun 2027 14:50:52.689            38.657               Magadan2          4832.125
        76   02 Jun 2027 15:09:02.279   02 Jun 2027 15:13:43.738           281.459                Sumatra         35182.375
        77   02 Jun 2027 15:16:59.281   02 Jun 2027 15:17:56.246            56.965                Sumatra          7120.625
        78   02 Jun 2027 16:33:50.660   02 Jun 2027 16:34:29.397            38.737                Irkutsk          4842.125
        79   02 Jun 2027 16:35:43.973   02 Jun 2027 16:35:50.456             6.483                Novosib           810.375
        80   02 Jun 2027 16:43:45.591   02 Jun 2027 16:44:17.802            32.211                Sumatra          4026.375
        81   02 Jun 2027 16:46:11.735   02 Jun 2027 16:48:10.364           118.629                Sumatra         14828.625
        82   02 Jun 2027 18:05:31.013   02 Jun 2027 18:07:24.234           113.221                Novosib         14152.625
        83   02 Jun 2027 18:12:51.298   02 Jun 2027 18:14:16.200            84.902                  Delhi         10612.750
        84   02 Jun 2027 18:17:48.143   02 Jun 2027 18:20:30.791           162.648                  Delhi         20331.000
        85   02 Jun 2027 19:48:06.297   02 Jun 2027 19:48:54.167            47.870                 Moscow          5983.750
        86   02 Jun 2027 21:28:50.239   02 Jun 2027 21:31:06.651           136.412                 Moscow         17051.500
        87   02 Jun 2027 21:46:06.487   02 Jun 2027 21:47:48.372           101.885               CapeTown         12735.625
        88   03 Jun 2027 03:14:42.016   03 Jun 2027 03:15:31.528            49.512                Sumatra          5728.125
        89   03 Jun 2027 04:49:55.203   03 Jun 2027 04:50:05.963            10.760                Sumatra          1345.000
        90   03 Jun 2027 04:51:58.170   03 Jun 2027 04:54:10.385           132.215                Sumatra         16526.875
        91   03 Jun 2027 05:15:20.503   03 Jun 2027 05:15:49.754            29.251              Murmansk1          3656.375
        92   03 Jun 2027 05:16:09.735   03 Jun 2027 05:17:26.609            76.874                Norilsk          9609.250
        93   03 Jun 2027 05:17:28.614   03 Jun 2027 05:18:23.863            55.249                 Moscow          6906.125
        94   03 Jun 2027 05:19:13.350   03 Jun 2027 05:21:03.761           110.411              Murmansk2         13801.375
        95   03 Jun 2027 06:43:14.032   03 Jun 2027 06:46:47.879           213.847                Novosib         26730.875
        96   03 Jun 2027 06:51:41.856   03 Jun 2027 06:52:13.283            31.427              Murmansk1          3928.375
        97   03 Jun 2027 06:52:13.283   03 Jun 2027 06:55:10.945           177.662              Murmansk2         22207.750
        98   03 Jun 2027 06:55:29.447   03 Jun 2027 06:56:47.461            78.014              Murmansk2          9751.750
        99   03 Jun 2027 08:18:11.916   03 Jun 2027 08:18:43.497            31.581                 Moscow          3947.625
       100   03 Jun 2027 08:21:15.517   03 Jun 2027 08:22:46.467            90.950                 Moscow         11368.750
       101   03 Jun 2027 08:24:16.640   03 Jun 2027 08:25:28.764            72.124                 Moscow          9015.500
       102   03 Jun 2027 08:26:04.874   03 Jun 2027 08:27:53.355           108.481                 Moscow         13560.125
       103   03 Jun 2027 08:28:24.601   03 Jun 2027 08:29:31.223            66.622                Norilsk          8327.750
       104   03 Jun 2027 08:29:33.999   03 Jun 2027 08:32:58.895           204.896              Murmansk2         25612.000
       105   03 Jun 2027 08:37:50.695   03 Jun 2027 08:42:24.050           273.355                Anadyr1         34169.375
       106   03 Jun 2027 10:12:18.572   03 Jun 2027 10:13:16.443            57.871                Anadyr1          7233.875
       107   03 Jun 2027 10:16:49.172   03 Jun 2027 10:17:55.083            65.911                Anadyr2          8238.875
       108   03 Jun 2027 10:19:28.864   03 Jun 2027 10:21:51.941           143.077                Anadyr2         17884.625
       109   03 Jun 2027 11:51:00.090   03 Jun 2027 11:51:18.806            18.716               Magadan1          2339.500
       110   03 Jun 2027 11:53:24.538   03 Jun 2027 11:53:51.563            27.025               Magadan1          3378.125
       111   03 Jun 2027 11:57:07.155   03 Jun 2027 11:57:43.571            36.416               Magadan2          4552.000
       112   03 Jun 2027 13:26:17.278   03 Jun 2027 13:28:47.645           150.367               Magadan2         18795.875
       113   03 Jun 2027 15:07:56.125   03 Jun 2027 15:10:36.601           160.476                Irkutsk         20059.500
       114   03 Jun 2027 15:21:47.950   03 Jun 2027 15:27:43.451           355.501                Sumatra         44437.625
       115   03 Jun 2027 16:46:22.601   03 Jun 2027 16:47:20.093            57.492                Novosib          7186.500
       116   03 Jun 2027 16:50:26.497   03 Jun 2027 16:52:07.992           101.495                  Delhi         12686.875
       117   03 Jun 2027 16:54:15.568   03 Jun 2027 16:59:37.855           322.287                  Delhi         40285.875
       118   03 Jun 2027 20:00:28.534   03 Jun 2027 20:00:39.920            11.386                 Moscow          1423.250
       119   03 Jun 2027 20:02:31.445   03 Jun 2027 20:03:52.928            81.483                 Moscow         10185.375
       120   03 Jun 2027 21:40:40.861   03 Jun 2027 21:42:41.084           120.223                 Moscow         15027.875
       121   03 Jun 2027 21:57:43.210   03 Jun 2027 21:58:02.032            18.822               CapeTown          2352.750
       122   03 Jun 2027 21:59:43.158   03 Jun 2027 22:01:41.972           118.814               CapeTown         14851.750
       123   04 Jun 2027 03:26:15.169   04 Jun 2027 03:28:01.745           106.576                Sumatra           713.375
       124   04 Jun 2027 05:03:40.378   04 Jun 2027 05:04:18.261            37.883                Sumatra          4735.375
       125   04 Jun 2027 05:15:34.947   04 Jun 2027 05:15:42.978             8.031                  Delhi          1003.875
       126   04 Jun 2027 05:16:55.776   04 Jun 2027 05:18:53.235           117.459                  Delhi         14682.375
       127   04 Jun 2027 05:27:34.095   04 Jun 2027 05:30:32.178           178.083                 Moscow         22260.375
       128   04 Jun 2027 05:31:04.988   04 Jun 2027 05:32:49.714           104.726              Murmansk1         13090.750
       129   04 Jun 2027 06:56:00.489   04 Jun 2027 06:57:25.195            84.706                Novosib         10588.250
       130   04 Jun 2027 06:58:11.752   04 Jun 2027 06:59:14.063            62.311                 Moscow          7788.875
       131   04 Jun 2027 07:03:53.597   04 Jun 2027 07:06:58.788           185.191                 Moscow         23148.875
       132   04 Jun 2027 07:07:22.634   04 Jun 2027 07:09:37.890           135.256              Murmansk2         16907.000
       133   04 Jun 2027 08:13:11.123   04 Jun 2027 08:13:54.432            43.309               CapeTown          5413.625
       134   04 Jun 2027 08:30:22.785   04 Jun 2027 08:34:47.788           265.003                 Moscow         33125.375
       135   04 Jun 2027 08:36:50.047   04 Jun 2027 08:38:48.835           118.788              Murmansk1         14848.500
       136   04 Jun 2027 08:41:35.587   04 Jun 2027 08:43:35.979           120.392              Murmansk2         15049.000
       137   04 Jun 2027 08:49:24.839   04 Jun 2027 08:55:29.053           364.214                Anadyr1         45526.750
       138   04 Jun 2027 10:24:17.218   04 Jun 2027 10:26:01.068           103.850                Anadyr2         12981.250
       139   04 Jun 2027 10:34:18.100   04 Jun 2027 10:35:02.679            44.579                Anadyr1          5572.375
       140   04 Jun 2027 11:56:12.997   04 Jun 2027 11:56:38.260            25.263              Murmansk2          3157.875
       141   04 Jun 2027 12:00:06.169   04 Jun 2027 12:02:17.786           131.617                Anadyr2         16452.125
       142   04 Jun 2027 12:02:43.955   04 Jun 2027 12:06:36.555           232.600               Magadan2         29075.000
       143   04 Jun 2027 13:38:18.083   04 Jun 2027 13:40:13.301           115.218               Magadan1         14402.250
       144   04 Jun 2027 15:22:18.668   04 Jun 2027 15:23:41.073            82.405                Irkutsk         10300.625
       145   04 Jun 2027 15:32:04.824   04 Jun 2027 15:38:36.832           392.008                Sumatra         49001.000
       146   04 Jun 2027 17:01:58.383   04 Jun 2027 17:12:43.799           645.416                  Delhi         80677.000
       147   04 Jun 2027 20:15:44.214   04 Jun 2027 20:16:53.954            69.740                 Moscow          8717.500
       148   04 Jun 2027 22:11:42.887   04 Jun 2027 22:12:25.137            42.250               CapeTown          5281.250
       149   04 Jun 2027 22:16:52.428   04 Jun 2027 22:17:19.490            27.062               CapeTown           202.750
       150   05 Jun 2027 05:14:56.855   05 Jun 2027 05:16:31.319            94.464                Sumatra         11808.000
       151   05 Jun 2027 05:29:14.472   05 Jun 2027 05:31:20.778           126.306                  Delhi         15788.250
       152   05 Jun 2027 05:39:19.773   05 Jun 2027 05:39:37.240            17.467              Murmansk2          2183.375
       153   05 Jun 2027 05:39:42.491   05 Jun 2027 05:42:39.542           177.051                 Moscow         22131.375
       154   05 Jun 2027 05:42:57.377   05 Jun 2027 05:44:40.120           102.743              Murmansk1         12842.875
       155   05 Jun 2027 05:44:51.173   05 Jun 2027 05:44:55.945             4.772                Norilsk           596.500
       156   05 Jun 2027 07:08:58.044   05 Jun 2027 07:10:24.225            86.181                Novosib         10772.625
       157   05 Jun 2027 07:15:10.032   05 Jun 2027 07:15:30.820            20.788                Novosib          2598.500
       158   05 Jun 2027 07:16:20.343   05 Jun 2027 07:20:21.740           241.397              Murmansk2         30174.625
       159   05 Jun 2027 07:22:08.958   05 Jun 2027 07:22:32.031            23.073              Murmansk1          2884.125
       160   05 Jun 2027 08:22:42.451   05 Jun 2027 08:28:41.706           359.255               CapeTown         44906.875
       161   05 Jun 2027 08:42:37.069   05 Jun 2027 08:43:05.250            28.181                 Moscow          3522.625
       162   05 Jun 2027 08:45:21.378   05 Jun 2027 08:46:52.048            90.670                 Moscow         11333.750
       163   05 Jun 2027 08:48:51.289   05 Jun 2027 08:50:15.978            84.689              Murmansk1         10586.125
       164   05 Jun 2027 08:50:15.978   05 Jun 2027 08:50:56.178            40.200              Murmansk2          5025.000
       165   05 Jun 2027 08:53:49.016   05 Jun 2027 08:55:05.423            76.407              Murmansk1          9550.875
       166   05 Jun 2027 09:01:08.434   05 Jun 2027 09:07:48.515           400.081                Anadyr2         50010.125
       167   05 Jun 2027 09:07:56.621   05 Jun 2027 09:08:22.079            25.458                Anadyr1          3182.250
       168   05 Jun 2027 10:25:12.759   05 Jun 2027 10:25:48.671            35.912              Murmansk1          4489.000
       169   05 Jun 2027 12:12:27.004   05 Jun 2027 12:12:56.399            29.395                Anadyr2          3674.375
       170   05 Jun 2027 12:14:39.515   05 Jun 2027 12:16:17.898            98.383               Magadan1         12297.875
       171   05 Jun 2027 12:19:26.533   05 Jun 2027 12:19:47.436            20.903               Magadan1          2612.875
       172   05 Jun 2027 12:22:44.480   05 Jun 2027 12:24:11.361            86.881               Magadan2         10860.125
       173   05 Jun 2027 13:50:19.256   05 Jun 2027 13:52:35.880           136.624               Magadan1         17078.000
       174   05 Jun 2027 14:45:17.774   05 Jun 2027 14:46:19.225            61.451            RioGallegos          7681.375
       175   05 Jun 2027 15:30:17.970   05 Jun 2027 15:32:00.551           102.581                Irkutsk         12822.625
       176   05 Jun 2027 15:39:34.522   05 Jun 2027 15:41:34.165           119.643                Irkutsk         14955.375
       177   05 Jun 2027 15:43:49.381   05 Jun 2027 15:46:30.618           161.237                Sumatra         20154.625
       178   05 Jun 2027 17:05:50.441   05 Jun 2027 17:08:13.666           143.225                Novosib         17903.125
       179   05 Jun 2027 17:14:25.953   05 Jun 2027 17:15:22.685            56.732                Novosib          7091.500
       180   05 Jun 2027 17:17:25.131   05 Jun 2027 17:19:59.931           154.800                  Delhi         19350.000
       181   05 Jun 2027 18:49:14.383   05 Jun 2027 18:51:33.017           138.634                  Delhi         17329.250
       182   05 Jun 2027 18:55:04.268   05 Jun 2027 18:55:11.024             6.756                  Delhi           844.500
       183   05 Jun 2027 18:56:51.426   05 Jun 2027 18:58:42.196           110.770                  Delhi         13846.250
       184   05 Jun 2027 20:25:37.902   05 Jun 2027 20:27:39.900           121.998                 Moscow         15249.750
       185   05 Jun 2027 22:02:20.054   05 Jun 2027 22:03:09.802            49.748                 Moscow          5127.000
       186   06 Jun 2027 05:27:49.972   06 Jun 2027 05:28:38.258            48.286                Sumatra          6035.750
       187   06 Jun 2027 05:33:46.310   06 Jun 2027 05:36:07.279           140.969                  Delhi         17621.125
       188   06 Jun 2027 05:41:28.294   06 Jun 2027 05:44:46.340           198.046                  Delhi         24755.750
       189   06 Jun 2027 05:51:46.769   06 Jun 2027 05:51:57.487            10.718              Murmansk2          1339.750
       190   06 Jun 2027 05:52:13.213   06 Jun 2027 05:54:38.902           145.689                Norilsk         18211.125
       191   06 Jun 2027 05:54:50.514   06 Jun 2027 05:56:13.371            82.857              Murmansk2         10357.125
       192   06 Jun 2027 05:56:52.962   06 Jun 2027 05:56:57.671             4.709                Norilsk           588.625
       193   06 Jun 2027 07:18:18.143   06 Jun 2027 07:20:43.863           145.720                 Moscow         18215.000
       194   06 Jun 2027 07:27:00.293   06 Jun 2027 07:27:39.879            39.586                Norilsk          4948.250
       195   06 Jun 2027 07:28:35.488   06 Jun 2027 07:34:33.419           357.931              Murmansk1         44741.375
       196   06 Jun 2027 08:33:45.896   06 Jun 2027 08:41:54.408           488.512               CapeTown         61064.000
       197   06 Jun 2027 09:00:52.679   06 Jun 2027 09:03:51.807           179.128              Murmansk1         22391.000
       198   06 Jun 2027 09:05:49.920   06 Jun 2027 09:06:27.146            37.226              Murmansk1          4653.250
       199   06 Jun 2027 09:07:08.020   06 Jun 2027 09:07:59.179            51.159              Murmansk1          6394.875
       200   06 Jun 2027 09:08:32.689   06 Jun 2027 09:08:40.440             7.751              Murmansk1           968.875
       201   06 Jun 2027 09:10:28.394   06 Jun 2027 09:10:31.609             3.215              Murmansk1           401.875
       202   06 Jun 2027 09:12:57.080   06 Jun 2027 09:21:07.582           490.502                Anadyr2         61312.750
       203   06 Jun 2027 10:37:14.308   06 Jun 2027 10:38:49.181            94.873              Murmansk1         11859.125
       204   06 Jun 2027 10:52:28.430   06 Jun 2027 10:55:33.326           184.896               Magadan2         23112.000
       205   06 Jun 2027 12:26:36.300   06 Jun 2027 12:27:48.735            72.435               Magadan1          9054.375
       206   06 Jun 2027 12:32:15.822   06 Jun 2027 12:36:08.958           233.136               Magadan2         29142.000
       207   06 Jun 2027 14:55:41.742   06 Jun 2027 14:59:53.050           251.308            RioGallegos         31413.500
       208   06 Jun 2027 15:55:40.198   06 Jun 2027 16:00:27.601           287.403                Sumatra         35925.375
       209   06 Jun 2027 17:17:47.724   06 Jun 2027 17:18:53.287            65.563                Novosib          8195.375
       210   06 Jun 2027 17:24:13.039   06 Jun 2027 17:25:45.411            92.372                Novosib         11546.500
       211   06 Jun 2027 17:27:41.041   06 Jun 2027 17:31:18.504           217.463                  Delhi         27182.875
       212   06 Jun 2027 19:03:54.198   06 Jun 2027 19:04:46.199            52.001                  Delhi          6500.125
       213   06 Jun 2027 20:31:17.080   06 Jun 2027 20:32:10.266            53.186                 Moscow          6648.250
       214   06 Jun 2027 20:32:54.099   06 Jun 2027 20:34:12.285            78.186                 Moscow          9773.250
       215   06 Jun 2027 20:38:04.494   06 Jun 2027 20:38:25.001            20.507                 Moscow          2563.375
       216   06 Jun 2027 22:08:40.296   06 Jun 2027 22:08:50.553            10.257              Murmansk2          1282.125
       217   06 Jun 2027 22:09:10.756   06 Jun 2027 22:10:55.342           104.586              Murmansk2          3644.250
       218   07 Jun 2027 05:41:22.440   07 Jun 2027 05:42:45.921            83.481                Sumatra         10435.125
       219   07 Jun 2027 05:45:49.698   07 Jun 2027 05:46:41.465            51.767                  Delhi          6470.875
       220   07 Jun 2027 05:47:57.321   07 Jun 2027 05:48:58.310            60.989                  Delhi          7623.625
       221   07 Jun 2027 05:50:37.664   07 Jun 2027 05:50:44.933             7.269                  Delhi           908.625
       222   07 Jun 2027 05:53:38.088   07 Jun 2027 05:54:55.674            77.586                  Delhi          9698.250
       223   07 Jun 2027 06:03:41.875   07 Jun 2027 06:04:01.248            19.373                Novosib          2421.625
       224   07 Jun 2027 06:04:02.565   07 Jun 2027 06:05:31.597            89.032                 Moscow         11129.000
       225   07 Jun 2027 06:05:35.459   07 Jun 2027 06:06:06.362            30.903              Murmansk1          3862.875
       226   07 Jun 2027 06:06:18.526   07 Jun 2027 06:06:52.073            33.547                 Moscow          4193.375
       227   07 Jun 2027 06:07:08.591   07 Jun 2027 06:08:18.660            70.069              Murmansk1          8758.625
       228   07 Jun 2027 07:30:14.191   07 Jun 2027 07:30:31.434            17.243                 Moscow          2155.375
       229   07 Jun 2027 07:32:57.230   07 Jun 2027 07:33:12.772            15.542                 Moscow          1942.750
       230   07 Jun 2027 07:40:34.304   07 Jun 2027 07:44:41.789           247.485                Norilsk         30935.625
       231   07 Jun 2027 07:44:53.032   07 Jun 2027 07:46:34.933           101.901              Murmansk2         12737.625
       232   07 Jun 2027 08:45:09.064   07 Jun 2027 08:54:22.059           552.995               CapeTown         69124.375
       233   07 Jun 2027 09:07:16.936   07 Jun 2027 09:12:10.250           293.314                 Moscow         36664.250
       234   07 Jun 2027 09:12:57.207   07 Jun 2027 09:13:32.946            35.739                 Moscow          4467.375
       235   07 Jun 2027 09:14:16.281   07 Jun 2027 09:16:04.962           108.681              Murmansk1         13585.125
       236   07 Jun 2027 09:17:51.024   07 Jun 2027 09:18:35.037            44.013              Murmansk1          5501.625
       237   07 Jun 2027 09:19:56.235   07 Jun 2027 09:20:19.944            23.709              Murmansk1          2963.625
       238   07 Jun 2027 09:24:48.926   07 Jun 2027 09:33:47.458           538.532                Anadyr1         67316.500
       239   07 Jun 2027 11:00:16.441   07 Jun 2027 11:00:35.952            19.511                Anadyr1          2438.875
       240   07 Jun 2027 11:02:56.387   07 Jun 2027 11:03:33.195            36.808                Anadyr2          4601.000
       241   07 Jun 2027 11:03:57.753   07 Jun 2027 11:07:24.709           206.956               Magadan1         25869.500
       242   07 Jun 2027 12:36:10.329   07 Jun 2027 12:36:10.375             0.046                Anadyr1             5.750
       243   07 Jun 2027 12:38:34.084   07 Jun 2027 12:39:22.616            48.532               Magadan1          6066.500
       244   07 Jun 2027 12:39:29.329   07 Jun 2027 12:40:59.660            90.331               Magadan2         11291.375
       245   07 Jun 2027 12:43:36.597   07 Jun 2027 12:47:39.283           242.686               Magadan1         30335.750
       246   07 Jun 2027 15:06:12.615   07 Jun 2027 15:08:08.491           115.876            RioGallegos         14484.500
       247   07 Jun 2027 15:53:55.495   07 Jun 2027 15:55:18.616            83.121                Irkutsk         10390.125
       248   07 Jun 2027 16:00:19.353   07 Jun 2027 16:03:15.015           175.662                Irkutsk         21957.750
       249   07 Jun 2027 16:07:36.774   07 Jun 2027 16:10:44.375           187.601                Sumatra         23450.125
       250   07 Jun 2027 17:29:46.056   07 Jun 2027 17:29:53.576             7.520                Novosib           940.000
       251   07 Jun 2027 17:32:44.029   07 Jun 2027 17:34:43.333           119.304                Novosib         14913.000
       252   07 Jun 2027 17:37:13.640   07 Jun 2027 17:39:59.223           165.583                  Delhi         20697.875
       253   07 Jun 2027 19:14:43.141   07 Jun 2027 19:15:40.038            56.897                  Delhi          7112.125
       254   07 Jun 2027 20:40:00.260   07 Jun 2027 20:40:01.776             1.516              Murmansk1           189.500
       255   07 Jun 2027 20:43:16.131   07 Jun 2027 20:43:56.968            40.837                 Moscow          5104.625
       256   07 Jun 2027 20:46:22.999   07 Jun 2027 20:48:10.704           107.705                 Moscow         13463.125
       257   07 Jun 2027 21:11:07.982   07 Jun 2027 21:12:42.823            94.841               CapeTown         11855.125
       258   08 Jun 2027 04:13:37.150   08 Jun 2027 04:16:11.316           154.166                Sumatra         19270.750
       259   08 Jun 2027 04:39:18.554   08 Jun 2027 04:39:41.972            23.418                Irkutsk          2927.250
       260   08 Jun 2027 04:40:10.414   08 Jun 2027 04:46:18.936           368.522              Murmansk1         46065.250
       261   08 Jun 2027 05:19:27.782   08 Jun 2027 05:19:37.791            10.009            RioGallegos          1251.125
       262   08 Jun 2027 05:57:58.653   08 Jun 2027 06:02:37.103           278.450                  Delhi         34806.250
       263   08 Jun 2027 06:05:51.265   08 Jun 2027 06:06:44.964            53.699                Novosib          6712.375
       264   08 Jun 2027 06:15:55.569   08 Jun 2027 06:17:30.118            94.549              Murmansk1         11818.625
       265   08 Jun 2027 06:17:40.161   08 Jun 2027 06:18:57.430            77.269                 Moscow          9658.625
       266   08 Jun 2027 06:19:37.163   08 Jun 2027 06:20:08.906            31.743              Murmansk2          3967.875
       267   08 Jun 2027 07:45:17.894   08 Jun 2027 07:46:46.472            88.578                 Moscow         11072.250
       268   08 Jun 2027 07:51:42.362   08 Jun 2027 07:56:36.903           294.541                Norilsk         36817.625
       269   08 Jun 2027 07:56:45.279   08 Jun 2027 07:58:36.544           111.265              Murmansk1         13908.125
       270   08 Jun 2027 08:56:42.929   08 Jun 2027 09:03:39.087           416.158               CapeTown         52019.750
       271   08 Jun 2027 09:22:49.056   08 Jun 2027 09:24:11.897            82.841              Murmansk1         10355.125
       272   08 Jun 2027 09:24:55.761   08 Jun 2027 09:26:30.800            95.039              Murmansk2         11879.875
       273   08 Jun 2027 09:26:30.800   08 Jun 2027 09:27:46.708            75.908              Murmansk1          9488.500
       274   08 Jun 2027 09:29:52.283   08 Jun 2027 09:30:03.374            11.091              Murmansk1          1386.375
       275   08 Jun 2027 09:30:34.899   08 Jun 2027 09:31:15.607            40.708              Murmansk1          5088.500
       276   08 Jun 2027 09:31:53.854   08 Jun 2027 09:32:11.203            17.349              Murmansk1          2168.625
       277   08 Jun 2027 09:36:42.989   08 Jun 2027 09:41:58.475           315.486                Anadyr2         39435.750
       278   08 Jun 2027 09:44:00.895   08 Jun 2027 09:46:14.872           133.977                Anadyr1         16747.125
       279   08 Jun 2027 11:05:50.272   08 Jun 2027 11:06:27.801            37.529              Murmansk2          4691.125
       280   08 Jun 2027 11:06:47.395   08 Jun 2027 11:07:35.220            47.825              Murmansk2          5978.125
       281   08 Jun 2027 11:15:37.614   08 Jun 2027 11:17:03.683            86.069               Magadan1         10758.625
       282   08 Jun 2027 12:50:32.690   08 Jun 2027 12:51:15.418            42.728               Magadan1          5341.000
       283   08 Jun 2027 12:52:20.470   08 Jun 2027 12:57:02.722           282.252               Magadan2         35281.500
       284   08 Jun 2027 14:34:27.276   08 Jun 2027 14:35:59.649            92.373               Magadan1         11546.625
       285   08 Jun 2027 15:18:07.043   08 Jun 2027 15:20:07.909           120.866            RioGallegos         15108.250
       286   08 Jun 2027 16:05:53.215   08 Jun 2027 16:06:56.271            63.056                Irkutsk          7882.000
       287   08 Jun 2027 16:08:52.590   08 Jun 2027 16:10:53.363           120.773                Irkutsk         15096.625
       288   08 Jun 2027 16:19:38.935   08 Jun 2027 16:21:44.264           125.329                Sumatra         15666.125
       289   08 Jun 2027 16:27:17.464   08 Jun 2027 16:29:19.251           121.787                Sumatra         15223.375
       290   08 Jun 2027 17:49:07.723   08 Jun 2027 17:52:05.832           178.109                  Delhi         22263.625
       291   08 Jun 2027 17:58:22.805   08 Jun 2027 17:58:40.071            17.266                  Delhi          2158.250
       292   08 Jun 2027 19:26:19.266   08 Jun 2027 19:26:58.194            38.928                  Delhi          4866.000
       293   08 Jun 2027 20:55:15.993   08 Jun 2027 20:58:30.494           194.501                 Moscow         24312.625
       294   08 Jun 2027 21:22:21.735   08 Jun 2027 21:24:28.492           126.757               CapeTown         15844.625
       295   09 Jun 2027 02:52:49.831   09 Jun 2027 02:53:46.424            56.593                Sumatra          7074.125
       296   09 Jun 2027 03:16:13.008   09 Jun 2027 03:18:54.989           161.981              Murmansk1         20247.625
       297   09 Jun 2027 04:25:42.141   09 Jun 2027 04:27:21.606            99.465                Sumatra         12433.125
       298   09 Jun 2027 04:33:23.910   09 Jun 2027 04:35:24.846           120.936                Sumatra         15117.000
       299   09 Jun 2027 04:50:34.163   09 Jun 2027 04:51:34.554            60.391                Irkutsk          7548.875
       300   09 Jun 2027 04:52:08.216   09 Jun 2027 04:54:18.261           130.045                 Moscow         16255.625
       301   09 Jun 2027 04:55:46.762   09 Jun 2027 04:57:02.603            75.841              Murmansk2          9480.125
       302   09 Jun 2027 06:10:13.614   09 Jun 2027 06:10:31.974            18.360                  Delhi          2295.000
       303   09 Jun 2027 06:12:38.025   09 Jun 2027 06:14:34.582           116.557                  Delhi         14569.625
       304   09 Jun 2027 06:19:32.839   09 Jun 2027 06:19:57.456            24.617                 Moscow          3077.125
       305   09 Jun 2027 06:20:14.617   09 Jun 2027 06:21:56.311           101.694                Novosib         12711.750
       306   09 Jun 2027 06:22:14.531   09 Jun 2027 06:22:48.205            33.674                 Moscow          4209.250
       307   09 Jun 2027 06:27:44.329   09 Jun 2027 06:28:14.395            30.066                Norilsk          3758.250
       308   09 Jun 2027 06:28:16.764   09 Jun 2027 06:33:27.717           310.953              Murmansk2         38869.125
       309   09 Jun 2027 06:33:27.717   09 Jun 2027 06:33:47.112            19.395              Murmansk1          2424.375
       310   09 Jun 2027 06:34:08.859   09 Jun 2027 06:34:34.298            25.439              Murmansk1          3179.875
       311   09 Jun 2027 07:54:14.718   09 Jun 2027 07:58:48.976           274.258                 Moscow         34282.250
       312   09 Jun 2027 08:02:42.171   09 Jun 2027 08:08:29.340           347.169                Norilsk         43396.125
       313   09 Jun 2027 08:08:38.277   09 Jun 2027 08:09:28.538            50.261              Murmansk1          6282.625
       314   09 Jun 2027 08:10:11.718   09 Jun 2027 08:10:38.223            26.505              Murmansk2          3313.125
       315   09 Jun 2027 09:08:23.909   09 Jun 2027 09:14:39.183           375.274               CapeTown         46909.250
       316   09 Jun 2027 09:36:57.407   09 Jun 2027 09:38:06.262            68.855              Murmansk1          8606.875
       317   09 Jun 2027 09:38:06.262   09 Jun 2027 09:40:22.477           136.215              Murmansk2         17026.875
       318   09 Jun 2027 09:41:53.685   09 Jun 2027 09:43:38.667           104.982              Murmansk1         13122.750
       319   09 Jun 2027 09:48:38.680   09 Jun 2027 09:58:13.005           574.325                Anadyr2         71790.625
       320   09 Jun 2027 11:32:34.033   09 Jun 2027 11:32:50.672            16.639               Magadan2          2079.875
       321   09 Jun 2027 13:02:31.992   09 Jun 2027 13:03:05.115            33.123               Magadan2          4140.375
       322   09 Jun 2027 13:05:29.050   09 Jun 2027 13:07:24.984           115.934               Magadan1         14491.750
       323   09 Jun 2027 13:12:59.073   09 Jun 2027 13:15:11.974           132.901               Magadan1         16612.625
       324   09 Jun 2027 14:38:26.706   09 Jun 2027 14:39:11.958            45.252               Magadan1          5656.500
       325   09 Jun 2027 14:58:23.811   09 Jun 2027 15:00:20.031           116.220                Sumatra         14527.500
       326   09 Jun 2027 15:30:03.155   09 Jun 2027 15:31:32.099            88.944            RioGallegos         11118.000
       327   09 Jun 2027 16:17:52.084   09 Jun 2027 16:18:37.123            45.039                Irkutsk          5629.875
       328   09 Jun 2027 16:20:52.022   09 Jun 2027 16:22:47.959           115.937                Irkutsk         14492.125
       329   09 Jun 2027 16:31:46.825   09 Jun 2027 16:33:02.406            75.581                Sumatra          9447.625
       330   09 Jun 2027 16:33:26.102   09 Jun 2027 16:34:19.322            53.220                  Delhi          6652.500
       331   09 Jun 2027 17:53:45.309   09 Jun 2027 17:57:00.910           195.601                Novosib         24450.125
       332   09 Jun 2027 18:01:05.365   09 Jun 2027 18:03:08.343           122.978                  Delhi         15372.250
       333   09 Jun 2027 21:06:08.129   09 Jun 2027 21:06:31.184            23.055              Murmansk2          2881.875
       334   09 Jun 2027 21:07:16.568   09 Jun 2027 21:09:04.459           107.891                 Moscow         13486.375
       335   09 Jun 2027 21:18:59.679   09 Jun 2027 21:20:10.860            71.181                 Moscow          8897.625
       336   09 Jun 2027 21:36:12.795   09 Jun 2027 21:36:13.188             0.393               CapeTown            49.125
       337   09 Jun 2027 21:38:58.449   09 Jun 2027 21:40:28.140            89.691               CapeTown         11211.375
       338   10 Jun 2027 03:03:52.084   10 Jun 2027 03:07:05.252           193.168                Sumatra         18739.500
       339   10 Jun 2027 03:27:51.845   10 Jun 2027 03:28:09.605            17.760                Irkutsk          2220.000
       340   10 Jun 2027 04:37:53.058   10 Jun 2027 04:38:11.848            18.790                Sumatra          2348.750
       341   10 Jun 2027 04:39:44.471   10 Jun 2027 04:40:33.394            48.923                Sumatra          6115.375
       342   10 Jun 2027 04:45:32.194   10 Jun 2027 04:46:09.608            37.414                Sumatra          4676.750
       343   10 Jun 2027 05:02:30.517   10 Jun 2027 05:02:49.131            18.614                 Moscow          2326.750
       344   10 Jun 2027 05:03:45.385   10 Jun 2027 05:04:35.928            50.543              Murmansk2          6317.875
       345   10 Jun 2027 05:05:03.276   10 Jun 2027 05:06:29.477            86.201                 Moscow         10775.125
       346   10 Jun 2027 05:07:36.965   10 Jun 2027 05:08:50.926            73.961              Murmansk2          9245.125
       347   10 Jun 2027 06:22:35.375   10 Jun 2027 06:26:37.384           242.009                  Delhi         30251.125
       348   10 Jun 2027 06:31:15.572   10 Jun 2027 06:35:03.708           228.136                 Moscow         28517.000
       349   10 Jun 2027 06:39:43.358   10 Jun 2027 06:43:06.594           203.236                 Moscow         25404.500
       350   10 Jun 2027 06:43:30.505   10 Jun 2027 06:43:51.559            21.054              Murmansk2          2631.750
       351   10 Jun 2027 06:43:53.499   10 Jun 2027 06:44:16.240            22.741                Norilsk          2842.625
       352   10 Jun 2027 06:44:18.713   10 Jun 2027 06:45:15.233            56.520              Murmansk2          7065.000
       353   10 Jun 2027 06:45:45.793   10 Jun 2027 06:46:21.383            35.590              Murmansk2          4448.750
       354   10 Jun 2027 08:06:19.370   10 Jun 2027 08:06:40.185            20.815                 Moscow          2601.875
       355   10 Jun 2027 08:09:05.090   10 Jun 2027 08:10:16.273            71.183                 Moscow          8897.875
       356   10 Jun 2027 08:10:25.063   10 Jun 2027 08:11:02.440            37.377              Murmansk2          4672.125
       357   10 Jun 2027 08:13:02.810   10 Jun 2027 08:13:18.924            16.114              Murmansk1          2014.250
       358   10 Jun 2027 08:14:17.387   10 Jun 2027 08:15:59.778           102.391                 Moscow         12798.875
       359   10 Jun 2027 08:16:19.210   10 Jun 2027 08:20:17.268           238.058                Norilsk         29757.250
       360   10 Jun 2027 08:26:58.720   10 Jun 2027 08:29:05.184           126.464                Anadyr2         15808.000
       361   10 Jun 2027 09:25:13.712   10 Jun 2027 09:26:00.812            47.100               CapeTown          5887.500
       362   10 Jun 2027 09:53:55.188   10 Jun 2027 09:54:35.529            40.341              Murmansk1          5042.625
       363   10 Jun 2027 10:00:35.614   10 Jun 2027 10:01:55.176            79.562                Anadyr2          9945.250
       364   10 Jun 2027 10:04:17.631   10 Jun 2027 10:10:08.365           350.734                Anadyr1         43841.750
       365   10 Jun 2027 11:39:12.693   10 Jun 2027 11:45:32.832           380.139               Magadan2         47517.375
       366   10 Jun 2027 13:14:31.880   10 Jun 2027 13:17:39.323           187.443               Magadan1         23430.375
       367   10 Jun 2027 15:09:13.295   10 Jun 2027 15:14:21.149           307.854                Sumatra         38481.750
       368   10 Jun 2027 15:16:57.041   10 Jun 2027 15:18:06.554            69.513                Sumatra          8689.125
       369   10 Jun 2027 16:35:52.047   10 Jun 2027 16:36:14.156            22.109                Novosib          2763.625
       370   10 Jun 2027 16:44:27.380   10 Jun 2027 16:47:32.746           185.366                  Delhi         23170.750
       371   10 Jun 2027 18:05:46.017   10 Jun 2027 18:06:07.322            21.305                Novosib          2663.125
       372   10 Jun 2027 18:13:06.335   10 Jun 2027 18:14:30.451            84.116                  Delhi         10514.500
       373   10 Jun 2027 18:16:17.810   10 Jun 2027 18:18:02.823           105.013                  Delhi         13126.625
       374   10 Jun 2027 19:47:31.303   10 Jun 2027 19:49:08.694            97.391                 Moscow         12173.875
       375   10 Jun 2027 21:28:01.662   10 Jun 2027 21:28:53.669            52.007                 Moscow          6500.875
       376   10 Jun 2027 21:31:21.646   10 Jun 2027 21:32:10.063            48.417                 Moscow          6052.125
       377   10 Jun 2027 21:43:15.219   10 Jun 2027 21:44:28.975            73.756               CapeTown          9219.500
       378   10 Jun 2027 21:49:17.842   10 Jun 2027 21:51:05.495           107.653               CapeTown         13456.625
       379   11 Jun 2027 03:14:56.341   11 Jun 2027 03:22:45.530           469.189                Sumatra          8185.375
       380   11 Jun 2027 04:50:10.630   11 Jun 2027 04:50:20.363             9.733                Sumatra          1216.625
       381   11 Jun 2027 04:52:13.219   11 Jun 2027 04:54:25.235           132.016                Sumatra         16502.000
       382   11 Jun 2027 05:15:34.991   11 Jun 2027 05:16:09.820            34.829              Murmansk2          4353.625
       383   11 Jun 2027 05:16:24.385   11 Jun 2027 05:17:37.668            73.283                Norilsk          9160.375
       384   11 Jun 2027 05:17:43.768   11 Jun 2027 05:18:39.005            55.237                 Moscow          6904.625
       385   11 Jun 2027 05:19:27.879   11 Jun 2027 05:21:18.256           110.377              Murmansk2         13797.125
       386   11 Jun 2027 06:43:29.884   11 Jun 2027 06:46:36.944           187.060                Novosib         23382.500
       387   11 Jun 2027 06:51:35.551   11 Jun 2027 06:52:21.723            46.172                Norilsk          5771.500
       388   11 Jun 2027 06:52:25.450   11 Jun 2027 06:55:10.449           164.999                 Moscow         20624.875
       389   11 Jun 2027 06:55:26.219   11 Jun 2027 06:57:02.505            96.286              Murmansk2         12035.750
       390   11 Jun 2027 06:57:02.505   11 Jun 2027 06:57:43.989            41.484              Murmansk1          5185.500
       391   11 Jun 2027 08:18:27.091   11 Jun 2027 08:18:34.364             7.273                 Moscow           909.125
       392   11 Jun 2027 08:21:30.273   11 Jun 2027 08:23:01.290            91.017                 Moscow         11377.125
       393   11 Jun 2027 08:24:34.977   11 Jun 2027 08:25:45.795            70.818                 Moscow          8852.250
       394   11 Jun 2027 08:26:19.572   11 Jun 2027 08:28:07.948           108.376                 Moscow         13547.000
       395   11 Jun 2027 08:28:41.063   11 Jun 2027 08:29:47.168            66.105                Norilsk          8263.125
       396   11 Jun 2027 08:29:48.851   11 Jun 2027 08:32:51.629           182.778              Murmansk1         22847.250
       397   11 Jun 2027 08:38:04.912   11 Jun 2027 08:42:40.634           275.722                Anadyr1         34465.250
       398   11 Jun 2027 10:12:33.505   11 Jun 2027 10:13:30.865            57.360                Anadyr1          7170.000
       399   11 Jun 2027 10:17:04.640   11 Jun 2027 10:19:16.841           132.201                Anadyr2         16525.125
       400   11 Jun 2027 10:19:44.391   11 Jun 2027 10:22:05.811           141.420                Anadyr2         17677.500
       401   11 Jun 2027 11:57:24.091   11 Jun 2027 11:58:05.541            41.450               Magadan1          5181.250
       402   11 Jun 2027 13:26:32.272   11 Jun 2027 13:29:46.841           194.569               Magadan1         24321.125
       403   11 Jun 2027 15:08:11.351   11 Jun 2027 15:11:01.264           169.913                Irkutsk         21239.125
       404   11 Jun 2027 15:22:03.554   11 Jun 2027 15:27:56.854           353.300                Sumatra         44162.500
       405   11 Jun 2027 16:50:40.777   11 Jun 2027 16:53:03.687           142.910                  Delhi         17863.750
       406   11 Jun 2027 16:53:57.212   11 Jun 2027 16:59:52.296           355.084                  Delhi         44385.500
       407   11 Jun 2027 21:33:51.047   11 Jun 2027 21:34:35.060            44.013                 Moscow          5501.625
       408   11 Jun 2027 21:55:25.986   11 Jun 2027 21:57:58.123           152.137               CapeTown         19017.125
       409   12 Jun 2027 03:26:29.678   12 Jun 2027 03:28:17.250           107.572                Sumatra          7634.250
       410   12 Jun 2027 05:03:54.801   12 Jun 2027 05:04:33.201            38.400                Sumatra          4800.000
       411   12 Jun 2027 05:15:46.256   12 Jun 2027 05:15:57.308            11.052                  Delhi          1381.500
       412   12 Jun 2027 05:17:10.960   12 Jun 2027 05:19:18.692           127.732                  Delhi         15966.500
       413   12 Jun 2027 05:27:48.256   12 Jun 2027 05:30:47.304           179.048                 Moscow         22381.000
       414   12 Jun 2027 05:31:19.527   12 Jun 2027 05:33:06.205           106.678              Murmansk1         13334.750
       415   12 Jun 2027 06:54:48.961   12 Jun 2027 06:55:14.050            25.089                 Moscow          3136.125
       416   12 Jun 2027 06:56:16.528   12 Jun 2027 06:57:39.892            83.364                Novosib         10420.500
       417   12 Jun 2027 06:58:29.320   12 Jun 2027 06:59:31.839            62.519                 Moscow          7814.875
       418   12 Jun 2027 07:04:08.832   12 Jun 2027 07:04:36.660            27.828              Murmansk2          3478.500
       419   12 Jun 2027 07:04:37.258   12 Jun 2027 07:09:02.613           265.355                Norilsk         33169.375
       420   12 Jun 2027 07:09:35.379   12 Jun 2027 07:09:55.673            20.294              Murmansk1          2536.750
       421   12 Jun 2027 08:13:13.465   12 Jun 2027 08:14:22.456            68.991               CapeTown          8623.875
       422   12 Jun 2027 08:30:38.029   12 Jun 2027 08:31:11.787            33.758                 Moscow          4219.750
       423   12 Jun 2027 08:31:43.377   12 Jun 2027 08:35:02.660           199.283                 Moscow         24910.375
       424   12 Jun 2027 08:37:04.773   12 Jun 2027 08:39:05.482           120.709              Murmansk1         15088.625
       425   12 Jun 2027 08:39:08.096   12 Jun 2027 08:40:23.700            75.604                 Moscow          9450.500
       426   12 Jun 2027 08:42:02.971   12 Jun 2027 08:43:51.204           108.233              Murmansk1         13529.125
       427   12 Jun 2027 08:49:39.359   12 Jun 2027 08:55:45.279           365.920                Anadyr2         45740.000
       428   12 Jun 2027 10:24:32.168   12 Jun 2027 10:25:17.292            45.124                Anadyr2          5640.500
       429   12 Jun 2027 10:34:34.042   12 Jun 2027 10:34:40.692             6.650                Anadyr2           831.250
       430   12 Jun 2027 12:00:21.179   12 Jun 2027 12:01:17.249            56.070                Anadyr1          7008.750
       431   12 Jun 2027 12:02:32.773   12 Jun 2027 12:03:40.788            68.015                Anadyr2          8501.875
       432   12 Jun 2027 12:04:05.749   12 Jun 2027 12:05:25.893            80.144               Magadan2         10018.000
       433   12 Jun 2027 12:06:58.861   12 Jun 2027 12:07:01.260             2.399               Magadan2           299.875
       434   12 Jun 2027 12:12:01.292   12 Jun 2027 12:12:29.691            28.399               Magadan2          3549.875
       435   12 Jun 2027 13:38:33.086   12 Jun 2027 13:40:28.670           115.584               Magadan2         14448.000
       436   12 Jun 2027 13:41:51.735   12 Jun 2027 13:43:20.338            88.603               Magadan1         11075.375
       437   12 Jun 2027 15:19:35.230   12 Jun 2027 15:23:55.537           260.307                Irkutsk         32538.375
       438   12 Jun 2027 15:34:28.705   12 Jun 2027 15:38:50.740           262.035                Sumatra         32754.375
       439   12 Jun 2027 16:59:21.638   12 Jun 2027 17:01:33.751           132.113                Novosib         16514.125
       440   12 Jun 2027 17:03:11.945   12 Jun 2027 17:09:18.508           366.563                  Delhi         45820.375
       441   12 Jun 2027 20:08:55.217   12 Jun 2027 20:09:55.822            60.605                 Moscow          7575.625
       442   12 Jun 2027 20:13:21.654   12 Jun 2027 20:15:59.813           158.159                 Moscow         19769.875
       443   12 Jun 2027 22:12:38.610   12 Jun 2027 22:13:55.109            76.499               CapeTown          6838.625
       444   13 Jun 2027 05:15:12.751   13 Jun 2027 05:16:46.169            93.418                Sumatra         11677.250
       445   13 Jun 2027 05:22:03.141   13 Jun 2027 05:22:04.021             0.880                  Delhi           110.000
       446   13 Jun 2027 05:29:29.565   13 Jun 2027 05:31:35.753           126.188                  Delhi         15773.500
       447   13 Jun 2027 05:39:35.524   13 Jun 2027 05:40:15.164            39.640              Murmansk2          4955.000
       448   13 Jun 2027 05:40:25.793   13 Jun 2027 05:42:54.654           148.861                 Moscow         18607.625
       449   13 Jun 2027 05:43:11.926   13 Jun 2027 05:44:28.601            76.675              Murmansk2          9584.375
       450   13 Jun 2027 07:06:39.643   13 Jun 2027 07:08:17.972            98.329                 Moscow         12291.125
       451   13 Jun 2027 07:09:15.589   13 Jun 2027 07:11:28.847           133.258                 Moscow         16657.250
       452   13 Jun 2027 07:15:25.559   13 Jun 2027 07:15:47.050            21.491                Novosib          2686.375
       453   13 Jun 2027 07:16:37.556   13 Jun 2027 07:20:36.783           239.227              Murmansk1         29903.375
       454   13 Jun 2027 07:20:40.440   13 Jun 2027 07:21:01.697            21.257                Norilsk          2657.125
       455   13 Jun 2027 08:22:55.879   13 Jun 2027 08:28:58.594           362.715               CapeTown         45339.375
       456   13 Jun 2027 08:45:36.121   13 Jun 2027 08:47:06.972            90.851                 Moscow         11356.375
       457   13 Jun 2027 08:49:06.017   13 Jun 2027 08:51:12.004           125.987              Murmansk1         15748.375
       458   13 Jun 2027 08:52:14.421   13 Jun 2027 08:52:29.937            15.516              Murmansk2          1939.500
       459   13 Jun 2027 08:54:03.665   13 Jun 2027 08:56:03.938           120.273              Murmansk1         15034.125
       460   13 Jun 2027 09:01:23.105   13 Jun 2027 09:05:58.901           275.796                Anadyr2         34474.500
       461   13 Jun 2027 12:14:54.409   13 Jun 2027 12:19:42.048           287.639               Magadan2         35954.875
       462   13 Jun 2027 12:22:50.838   13 Jun 2027 12:23:50.082            59.244               Magadan1          7405.500
       463   13 Jun 2027 14:43:41.427   13 Jun 2027 14:46:44.308           182.881            RioGallegos         22860.125
       464   13 Jun 2027 15:32:16.039   13 Jun 2027 15:33:00.266            44.227                Irkutsk          5528.375
       465   13 Jun 2027 15:44:04.109   13 Jun 2027 15:46:45.888           161.779                Sumatra         20222.375
       466   13 Jun 2027 17:06:05.348   13 Jun 2027 17:08:29.049           143.701                Novosib         17962.625
       467   13 Jun 2027 17:11:11.281   13 Jun 2027 17:11:57.881            46.600                Novosib          5825.000
       468   13 Jun 2027 17:13:52.671   13 Jun 2027 17:20:13.893           381.222                  Delhi         47652.750
       469   13 Jun 2027 20:19:33.875   13 Jun 2027 20:22:13.496           159.621                 Moscow         19952.625
       470   13 Jun 2027 20:25:53.227   13 Jun 2027 20:27:52.794           119.567                 Moscow         10917.000
