uniorb/output/strategy_4/Drop/Drop_KinoSat_110905.txt

KinoSat_110905
-------------------------
    Access    *     Start Time (UTCG)     *     Stop Time (UTCG)  *   Duration (s)        *       Station  *  Data (Mbytes)
         1   01 Jun 2027 03:31:55.966   01 Jun 2027 03:32:10.499            14.533               Magadan1           454.156
         2   01 Jun 2027 03:32:13.255   01 Jun 2027 03:32:33.684            20.429                Anadyr2           638.406
         3   01 Jun 2027 03:32:37.358   01 Jun 2027 03:34:44.165           126.807                Anadyr1          3962.719
         4   01 Jun 2027 03:34:44.165   01 Jun 2027 03:35:32.054            47.889                Anadyr2          1496.531
         5   01 Jun 2027 05:09:47.412   01 Jun 2027 05:09:50.519             3.107               Magadan1            97.094
         6   01 Jun 2027 05:10:00.197   01 Jun 2027 05:12:19.017           138.820                Anadyr1          4338.125
         7   01 Jun 2027 05:12:55.352   01 Jun 2027 05:13:51.262            55.910                Anadyr1          1747.188
         8   01 Jun 2027 05:50:55.418   01 Jun 2027 05:51:00.673             5.255            RioGallegos           164.219
         9   01 Jun 2027 06:44:05.726   01 Jun 2027 06:46:19.931           134.205               Magadan1          4193.906
        10   01 Jun 2027 06:46:27.301   01 Jun 2027 06:47:49.283            81.982               Magadan1          2561.937
        11   01 Jun 2027 06:48:06.999   01 Jun 2027 06:50:42.703           155.704              Murmansk2          4865.750
        12   01 Jun 2027 06:51:19.902   01 Jun 2027 06:51:35.751            15.849              Murmansk1           495.281
        13   01 Jun 2027 06:52:01.564   01 Jun 2027 06:53:13.866            72.302              Murmansk1          2259.438
        14   01 Jun 2027 07:24:15.721   01 Jun 2027 07:26:02.421           106.700            RioGallegos          3334.375
        15   01 Jun 2027 08:00:20.356   01 Jun 2027 08:02:30.422           130.066                Sumatra          4064.562
        16   01 Jun 2027 08:21:16.369   01 Jun 2027 08:25:05.699           229.330                Novosib          7166.562
        17   01 Jun 2027 08:25:15.417   01 Jun 2027 08:26:08.464            53.047              Murmansk1          1657.719
        18   01 Jun 2027 08:26:14.291   01 Jun 2027 08:27:00.153            45.862                Norilsk          1433.188
        19   01 Jun 2027 09:01:10.371   01 Jun 2027 09:03:01.142           110.771            RioGallegos          3461.594
        20   01 Jun 2027 09:35:25.853   01 Jun 2027 09:36:47.480            81.627                Sumatra          2550.844
        21   01 Jun 2027 09:39:08.215   01 Jun 2027 09:39:46.689            38.474                Sumatra          1202.312
        22   01 Jun 2027 09:44:20.379   01 Jun 2027 09:45:02.364            41.985                  Delhi          1312.031
        23   01 Jun 2027 09:46:05.117   01 Jun 2027 09:47:21.103            75.986                  Delhi          2374.563
        24   01 Jun 2027 09:59:11.580   01 Jun 2027 10:03:49.921           278.341              Murmansk1          8698.156
        25   01 Jun 2027 11:20:18.304   01 Jun 2027 11:24:05.607           227.303                  Delhi          7103.219
        26   01 Jun 2027 11:34:54.609   01 Jun 2027 11:35:39.690            45.081              Murmansk1          1408.781
        27   01 Jun 2027 11:35:50.145   01 Jun 2027 11:35:56.207             6.062                 Moscow           189.438
        28   01 Jun 2027 11:36:15.149   01 Jun 2027 11:37:26.442            71.293              Murmansk2          2227.906
        29   01 Jun 2027 11:37:45.200   01 Jun 2027 11:42:21.442           276.242                Norilsk          8632.563
        30   01 Jun 2027 11:42:28.776   01 Jun 2027 11:42:40.443            11.667              Murmansk2           364.594
        31   01 Jun 2027 11:44:00.755   01 Jun 2027 11:44:03.235             2.480              Murmansk1            77.500
        32   01 Jun 2027 13:03:44.248   01 Jun 2027 13:09:12.012           327.764                 Moscow         10242.625
        33   01 Jun 2027 13:09:50.847   01 Jun 2027 13:11:47.258           116.411              Murmansk1          3637.844
        34   01 Jun 2027 13:12:04.760   01 Jun 2027 13:14:03.383           118.623              Murmansk2          3706.969
        35   01 Jun 2027 13:14:28.406   01 Jun 2027 13:16:31.296           122.890                Norilsk          3840.313
        36   01 Jun 2027 13:23:29.519   01 Jun 2027 13:26:35.360           185.841                Anadyr1          5807.531
        37   01 Jun 2027 13:27:08.040   01 Jun 2027 13:27:46.608            38.568                Anadyr2          1205.250
        38   01 Jun 2027 14:17:20.593   01 Jun 2027 14:18:49.845            89.252               CapeTown          2789.125
        39   01 Jun 2027 14:45:07.827   01 Jun 2027 14:45:28.635            20.808              Murmansk2           650.250
        40   01 Jun 2027 14:46:12.935   01 Jun 2027 14:47:28.390            75.455              Murmansk1          2357.969
        41   01 Jun 2027 14:57:52.478   01 Jun 2027 14:59:59.667           127.189                Anadyr2          3974.656
        42   01 Jun 2027 15:00:01.184   01 Jun 2027 15:01:41.052            99.868                Anadyr1          3120.875
        43   01 Jun 2027 15:53:35.253   01 Jun 2027 15:53:56.591            21.338               CapeTown           666.812
        44   01 Jun 2027 16:25:46.111   01 Jun 2027 16:27:36.275           110.164              Murmansk2          3442.625
        45   01 Jun 2027 16:27:36.275   01 Jun 2027 16:28:02.416            26.141              Murmansk1           816.906
        46   01 Jun 2027 16:28:38.963   01 Jun 2027 16:29:16.550            37.587              Murmansk2          1174.594
        47   01 Jun 2027 16:33:38.368   01 Jun 2027 16:35:49.597           131.229                Anadyr1          4100.906
        48   01 Jun 2027 16:36:24.615   01 Jun 2027 16:41:10.787           286.172               Magadan2          8942.875
        49   01 Jun 2027 18:09:33.781   01 Jun 2027 18:11:15.938           102.157                Anadyr1          3192.406
        50   01 Jun 2027 18:11:39.871   01 Jun 2027 18:13:36.814           116.943                Anadyr2          3654.469
        51   01 Jun 2027 18:13:40.160   01 Jun 2027 18:15:54.356           134.196               Magadan2          4193.625
        52   01 Jun 2027 18:16:03.423   01 Jun 2027 18:16:04.096             0.673               Magadan2            21.031
        53   01 Jun 2027 18:23:47.054   01 Jun 2027 18:23:57.172            10.118               Magadan1           316.187
        54   01 Jun 2027 18:24:06.667   01 Jun 2027 18:24:28.674            22.007               Magadan1           687.719
        55   01 Jun 2027 19:04:39.060   01 Jun 2027 19:07:58.102           199.042            RioGallegos          6220.063
        56   01 Jun 2027 19:10:41.826   01 Jun 2027 19:11:19.363            37.537            RioGallegos          1173.031
        57   01 Jun 2027 19:45:17.360   01 Jun 2027 19:46:22.606            65.246                Anadyr2          2038.937
        58   01 Jun 2027 19:46:27.881   01 Jun 2027 19:46:53.102            25.221                Anadyr2           788.156
        59   01 Jun 2027 19:47:27.680   01 Jun 2027 19:51:28.762           241.082                Norilsk          7533.812
        60   01 Jun 2027 19:51:56.159   01 Jun 2027 19:52:10.996            14.837                Irkutsk           463.656
        61   01 Jun 2027 19:52:30.604   01 Jun 2027 19:52:33.008             2.404                Irkutsk            75.125
        62   01 Jun 2027 19:52:57.963   01 Jun 2027 19:53:21.772            23.809                Irkutsk           744.031
        63   01 Jun 2027 19:53:46.763   01 Jun 2027 19:54:13.513            26.750                Irkutsk           835.937
        64   01 Jun 2027 19:54:31.134   01 Jun 2027 19:55:35.429            64.295                Irkutsk          2009.219
        65   01 Jun 2027 20:00:27.155   01 Jun 2027 20:01:22.547            55.392                Irkutsk          1731.000
        66   01 Jun 2027 20:06:05.131   01 Jun 2027 20:06:53.099            47.968                Sumatra          1499.000
        67   01 Jun 2027 20:09:17.303   01 Jun 2027 20:10:29.021            71.718                Sumatra          2241.188
        68   01 Jun 2027 20:12:13.244   01 Jun 2027 20:12:57.153            43.909                Sumatra          1372.156
        69   01 Jun 2027 21:27:11.244   01 Jun 2027 21:28:32.860            81.616                Irkutsk          2550.500
        70   01 Jun 2027 21:28:42.588   01 Jun 2027 21:29:13.349            30.761                Novosib           961.281
        71   01 Jun 2027 21:30:04.705   01 Jun 2027 21:30:22.212            17.507                Novosib           547.094
        72   01 Jun 2027 21:33:26.442   01 Jun 2027 21:33:33.097             6.655                Novosib           207.969
        73   01 Jun 2027 21:34:00.196   01 Jun 2027 21:34:32.467            32.271                Novosib          1008.469
        74   01 Jun 2027 21:36:05.080   01 Jun 2027 21:39:02.512           177.432                  Delhi          5544.750
        75   01 Jun 2027 21:41:08.284   01 Jun 2027 21:42:30.459            82.175                  Delhi          2567.969
        76   01 Jun 2027 22:56:17.092   01 Jun 2027 22:56:30.974            13.882                Anadyr2           433.812
        77   01 Jun 2027 22:59:19.624   01 Jun 2027 22:59:37.698            18.074                Norilsk           564.812
        78   01 Jun 2027 22:59:44.082   01 Jun 2027 23:01:05.583            81.501               Magadan1          2546.906
        79   01 Jun 2027 23:01:05.583   01 Jun 2027 23:01:53.294            47.711               Magadan2          1490.969
        80   01 Jun 2027 23:01:54.940   01 Jun 2027 23:05:45.474           230.534              Murmansk1          7204.188
        81   01 Jun 2027 23:06:10.003   01 Jun 2027 23:08:30.461           140.458              Murmansk2          4389.313
        82   02 Jun 2027 00:30:21.150   02 Jun 2027 00:30:39.692            18.542                Anadyr1           579.437
        83   02 Jun 2027 00:32:51.920   02 Jun 2027 00:33:08.295            16.375                Anadyr2           511.719
        84   02 Jun 2027 00:34:09.222   02 Jun 2027 00:35:37.363            88.141               Magadan2          2754.406
        85   02 Jun 2027 00:37:28.258   02 Jun 2027 00:38:22.357            54.099              Murmansk2          1690.594
        86   02 Jun 2027 00:38:38.836   02 Jun 2027 00:39:27.944            49.108              Murmansk1          1534.625
        87   02 Jun 2027 00:39:48.639   02 Jun 2027 00:42:00.997           132.358              Murmansk2          4136.187
        88   02 Jun 2027 00:42:48.829   02 Jun 2027 00:43:13.477            24.648                 Moscow           770.250
        89   02 Jun 2027 00:43:31.810   02 Jun 2027 00:43:35.482             3.672                 Moscow           114.750
        90   02 Jun 2027 00:47:42.757   02 Jun 2027 00:48:08.681            25.924                 Moscow           810.125
        91   02 Jun 2027 00:50:31.381   02 Jun 2027 00:50:48.870            17.489                 Moscow           546.531
        92   02 Jun 2027 00:52:11.405   02 Jun 2027 00:52:15.455             4.050                 Moscow           126.563
        93   02 Jun 2027 01:06:02.855   02 Jun 2027 01:07:42.236            99.381               CapeTown          3105.656
        94   02 Jun 2027 01:10:37.868   02 Jun 2027 01:11:42.914            65.046               CapeTown          2032.687
        95   02 Jun 2027 02:03:37.325   02 Jun 2027 02:03:56.531            19.206                Anadyr1           600.187
        96   02 Jun 2027 02:03:56.531   02 Jun 2027 02:04:07.592            11.061                Anadyr2           345.656
        97   02 Jun 2027 02:04:45.406   02 Jun 2027 02:05:55.311            69.905               Magadan1          2184.531
        98   02 Jun 2027 02:07:14.856   02 Jun 2027 02:07:29.699            14.843               Magadan1           463.844
        99   02 Jun 2027 02:09:40.729   02 Jun 2027 02:10:07.238            26.509               Magadan2           828.406
       100   02 Jun 2027 02:12:55.766   02 Jun 2027 02:13:42.477            46.711               Magadan2          1459.719
       101   02 Jun 2027 02:13:43.157   02 Jun 2027 02:15:25.736           102.579              Murmansk1          3205.594
       102   02 Jun 2027 02:19:53.720   02 Jun 2027 02:20:29.697            35.977                Novosib          1124.281
       103   02 Jun 2027 02:25:04.544   02 Jun 2027 02:25:35.093            30.549              Murmansk2           954.656
       104   02 Jun 2027 02:40:46.216   02 Jun 2027 02:41:05.257            19.041               CapeTown           595.031
       105   02 Jun 2027 02:42:25.944   02 Jun 2027 02:43:36.521            70.577               CapeTown          2205.531
       106   02 Jun 2027 02:51:53.884   02 Jun 2027 02:52:17.529            23.645               CapeTown           738.906
       107   02 Jun 2027 03:43:14.467   02 Jun 2027 03:45:13.638           119.171               Magadan2          3724.094
       108   02 Jun 2027 03:45:43.298   02 Jun 2027 03:47:59.946           136.648               Magadan2          4270.250
       109   02 Jun 2027 03:48:01.916   02 Jun 2027 03:49:12.120            70.204                Anadyr2          2193.875
       110   02 Jun 2027 03:49:12.120   02 Jun 2027 03:50:10.084            57.964                Anadyr1          1811.375
       111   02 Jun 2027 05:22:28.651   02 Jun 2027 05:23:36.881            68.230               Magadan2          2132.187
       112   02 Jun 2027 05:23:48.397   02 Jun 2027 05:23:59.814            11.417                Irkutsk           356.781
       113   02 Jun 2027 05:24:15.374   02 Jun 2027 05:25:34.052            78.678               Magadan1          2458.687
       114   02 Jun 2027 06:57:09.731   02 Jun 2027 06:57:38.978            29.247                Novosib           913.969
       115   02 Jun 2027 06:59:03.078   02 Jun 2027 06:59:48.807            45.729                Irkutsk          1429.031
       116   02 Jun 2027 06:59:52.417   02 Jun 2027 07:00:48.458            56.041               Magadan1          1751.281
       117   02 Jun 2027 07:00:51.294   02 Jun 2027 07:00:59.425             8.131               Magadan2           254.094
       118   02 Jun 2027 08:34:18.723   02 Jun 2027 08:35:12.853            54.130                Irkutsk          1691.563
       119   02 Jun 2027 08:35:43.024   02 Jun 2027 08:37:28.755           105.731                Irkutsk          3304.094
       120   02 Jun 2027 08:37:45.287   02 Jun 2027 08:38:11.654            26.367                Novosib           823.969
       121   02 Jun 2027 09:15:11.830   02 Jun 2027 09:15:45.511            33.681            RioGallegos          1052.531
       122   02 Jun 2027 09:47:50.018   02 Jun 2027 09:48:43.396            53.378                Sumatra          1668.063
       123   02 Jun 2027 09:49:17.846   02 Jun 2027 09:49:43.139            25.293                Sumatra           790.406
       124   02 Jun 2027 09:55:31.598   02 Jun 2027 09:57:26.924           115.326                Sumatra          3603.938
       125   02 Jun 2027 10:08:54.239   02 Jun 2027 10:09:16.701            22.462                Novosib           701.937
       126   02 Jun 2027 10:09:34.622   02 Jun 2027 10:09:48.874            14.252                Novosib           445.375
       127   02 Jun 2027 10:10:01.260   02 Jun 2027 10:10:43.729            42.469                Novosib          1327.156
       128   02 Jun 2027 10:10:59.813   02 Jun 2027 10:11:58.459            58.646                Novosib          1832.687
       129   02 Jun 2027 10:12:20.388   02 Jun 2027 10:12:20.524             0.136                Novosib             4.250
       130   02 Jun 2027 10:12:47.553   02 Jun 2027 10:12:50.766             3.213                Novosib           100.406
       131   02 Jun 2027 10:12:51.089   02 Jun 2027 10:13:06.471            15.382                Novosib           480.688
       132   02 Jun 2027 11:32:56.752   02 Jun 2027 11:33:16.138            19.386                  Delhi           605.812
       133   02 Jun 2027 11:33:34.612   02 Jun 2027 11:35:02.473            87.861                  Delhi          2745.656
       134   02 Jun 2027 11:35:13.716   02 Jun 2027 11:36:03.755            50.039                  Delhi          1563.719
       135   02 Jun 2027 11:48:38.995   02 Jun 2027 11:49:00.677            21.682                Novosib           677.562
       136   02 Jun 2027 11:49:14.456   02 Jun 2027 11:49:28.109            13.653              Murmansk2           426.656
       137   02 Jun 2027 13:15:54.646   02 Jun 2027 13:16:16.593            21.947                 Moscow           685.844
       138   02 Jun 2027 13:16:43.799   02 Jun 2027 13:16:46.800             3.001                 Moscow            93.781
       139   02 Jun 2027 13:17:02.763   02 Jun 2027 13:17:19.957            17.194                 Moscow           537.312
       140   02 Jun 2027 13:18:35.177   02 Jun 2027 13:19:52.423            77.246                 Moscow          2413.937
       141   02 Jun 2027 13:20:06.678   02 Jun 2027 13:20:45.095            38.417              Murmansk2          1200.531
       142   02 Jun 2027 13:20:54.352   02 Jun 2027 13:21:07.013            12.661              Murmansk1           395.656
       143   02 Jun 2027 13:21:38.097   02 Jun 2027 13:22:20.516            42.419              Murmansk2          1325.594
       144   02 Jun 2027 13:22:20.516   02 Jun 2027 13:22:50.139            29.623              Murmansk1           925.719
       145   02 Jun 2027 13:23:09.860   02 Jun 2027 13:24:06.304            56.444              Murmansk1          1763.875
       146   02 Jun 2027 13:24:54.335   02 Jun 2027 13:25:22.596            28.261              Murmansk1           883.156
       147   02 Jun 2027 13:27:24.888   02 Jun 2027 13:28:27.011            62.123                Norilsk          1941.344
       148   02 Jun 2027 13:35:01.507   02 Jun 2027 13:36:53.193           111.686                Anadyr2          3490.188
       149   02 Jun 2027 13:37:02.252   02 Jun 2027 13:38:26.251            83.999                Anadyr1          2624.969
       150   02 Jun 2027 14:37:17.615   02 Jun 2027 14:37:41.270            23.655               CapeTown           739.219
       151   02 Jun 2027 14:38:45.516   02 Jun 2027 14:38:53.691             8.175               CapeTown           255.469
       152   02 Jun 2027 14:57:33.526   02 Jun 2027 14:58:58.215            84.689              Murmansk2          2646.531
       153   02 Jun 2027 15:00:04.672   02 Jun 2027 15:00:20.461            15.789              Murmansk2           493.406
       154   02 Jun 2027 15:00:30.585   02 Jun 2027 15:02:01.165            90.580              Murmansk2          2830.625
       155   02 Jun 2027 15:09:51.028   02 Jun 2027 15:12:02.341           131.313                Anadyr2          4103.531
       156   02 Jun 2027 15:20:23.233   02 Jun 2027 15:21:07.888            44.655                Anadyr1          1395.469
       157   02 Jun 2027 16:15:43.758   02 Jun 2027 16:15:48.430             4.672               CapeTown           146.000
       158   02 Jun 2027 16:38:47.102   02 Jun 2027 16:41:41.132           174.030              Murmansk2          5438.438
       159   02 Jun 2027 16:42:07.945   02 Jun 2027 16:42:09.378             1.433              Murmansk1            44.781
       160   02 Jun 2027 16:45:39.629   02 Jun 2027 16:47:28.442           108.813                Anadyr1          3400.406
       161   02 Jun 2027 16:47:48.392   02 Jun 2027 16:48:28.861            40.469                Anadyr1          1264.656
       162   02 Jun 2027 16:48:59.651   02 Jun 2027 16:50:55.228           115.577               Magadan1          3611.781
       163   02 Jun 2027 16:51:09.929   02 Jun 2027 16:53:05.232           115.303               Magadan1          3603.219
       164   02 Jun 2027 18:21:34.706   02 Jun 2027 18:24:16.560           161.854                Anadyr2          5057.938
       165   02 Jun 2027 18:24:49.767   02 Jun 2027 18:25:04.791            15.024                Anadyr2           469.500
       166   02 Jun 2027 18:25:33.532   02 Jun 2027 18:26:12.464            38.932               Magadan1          1216.625
       167   02 Jun 2027 18:26:29.502   02 Jun 2027 18:26:59.332            29.830                Norilsk           932.188
       168   02 Jun 2027 18:31:12.405   02 Jun 2027 18:31:23.664            11.259               Magadan2           351.844
       169   02 Jun 2027 18:33:27.542   02 Jun 2027 18:34:01.164            33.622               Magadan1          1050.688
       170   02 Jun 2027 19:16:19.980   02 Jun 2027 19:18:33.940           133.960            RioGallegos          4186.250
       171   02 Jun 2027 19:19:47.537   02 Jun 2027 19:22:40.847           173.310            RioGallegos          5415.938
       172   02 Jun 2027 19:59:27.095   02 Jun 2027 20:01:34.853           127.758                Norilsk          3992.437
       173   02 Jun 2027 20:02:09.465   02 Jun 2027 20:03:29.590            80.125                Norilsk          2503.906
       174   02 Jun 2027 20:03:46.268   02 Jun 2027 20:05:52.963           126.695                Irkutsk          3959.219
       175   02 Jun 2027 20:06:50.434   02 Jun 2027 20:06:53.584             3.150                Irkutsk            98.438
       176   02 Jun 2027 20:17:41.297   02 Jun 2027 20:21:12.000           210.703                Sumatra          6584.469
       177   02 Jun 2027 21:35:24.900   02 Jun 2027 21:36:30.839            65.939                Norilsk          2060.594
       178   02 Jun 2027 21:39:53.944   02 Jun 2027 21:40:30.817            36.873                Novosib          1152.281
       179   02 Jun 2027 21:41:07.254   02 Jun 2027 21:41:43.718            36.464                Novosib          1139.500
       180   02 Jun 2027 21:42:11.813   02 Jun 2027 21:43:21.265            69.452                Novosib          2170.375
       181   02 Jun 2027 21:47:35.585   02 Jun 2027 21:49:38.489           122.904                  Delhi          3840.750
       182   02 Jun 2027 21:53:28.715   02 Jun 2027 21:54:20.267            51.552                  Delhi          1611.000
       183   02 Jun 2027 23:11:28.571   02 Jun 2027 23:13:01.149            92.578                Norilsk          2893.063
       184   02 Jun 2027 23:13:21.243   02 Jun 2027 23:13:37.478            16.235               Magadan2           507.344
       185   02 Jun 2027 23:13:49.658   02 Jun 2027 23:16:35.851           166.193              Murmansk2          5193.531
       186   02 Jun 2027 23:17:28.945   02 Jun 2027 23:17:43.989            15.044              Murmansk1           470.125
       187   02 Jun 2027 23:19:28.722   02 Jun 2027 23:23:47.562           258.840                 Moscow          8088.750
       188   03 Jun 2027 00:44:34.482   03 Jun 2027 00:45:43.521            69.039               Magadan2          2157.469
       189   03 Jun 2027 00:47:40.037   03 Jun 2027 00:48:19.797            39.760               Magadan2          1242.500
       190   03 Jun 2027 00:49:29.343   03 Jun 2027 00:50:55.497            86.154              Murmansk2          2692.312
       191   03 Jun 2027 00:50:55.497   03 Jun 2027 00:51:14.699            19.202              Murmansk1           600.062
       192   03 Jun 2027 00:52:56.097   03 Jun 2027 00:54:19.102            83.005                 Moscow          2593.906
       193   03 Jun 2027 00:59:45.974   03 Jun 2027 00:59:52.551             6.577                 Moscow           205.531
       194   03 Jun 2027 01:02:14.690   03 Jun 2027 01:02:40.055            25.365                 Moscow           792.656
       195   03 Jun 2027 01:04:57.677   03 Jun 2027 01:05:00.580             2.903                 Moscow            90.719
       196   03 Jun 2027 01:17:35.611   03 Jun 2027 01:18:29.258            53.647               CapeTown          1676.469
       197   03 Jun 2027 01:19:19.321   03 Jun 2027 01:20:02.416            43.095               CapeTown          1346.719
       198   03 Jun 2027 02:13:30.462   03 Jun 2027 02:14:36.267            65.805                Anadyr2          2056.406
       199   03 Jun 2027 02:15:20.553   03 Jun 2027 02:16:13.426            52.873                Anadyr1          1652.281
       200   03 Jun 2027 02:16:18.723   03 Jun 2027 02:17:23.039            64.316               Magadan1          2009.875
       201   03 Jun 2027 02:21:36.347   03 Jun 2027 02:21:42.708             6.361               Magadan1           198.781
       202   03 Jun 2027 02:22:36.740   03 Jun 2027 02:22:40.229             3.489                Norilsk           109.031
       203   03 Jun 2027 02:24:04.529   03 Jun 2027 02:24:30.708            26.179               Magadan2           818.094
       204   03 Jun 2027 02:24:47.558   03 Jun 2027 02:25:13.369            25.811                Norilsk           806.594
       205   03 Jun 2027 02:25:49.492   03 Jun 2027 02:26:23.062            33.570              Murmansk2          1049.062
       206   03 Jun 2027 02:26:40.380   03 Jun 2027 02:27:23.748            43.368              Murmansk2          1355.250
       207   03 Jun 2027 02:28:40.152   03 Jun 2027 02:29:16.018            35.866                 Moscow          1120.813
       208   03 Jun 2027 02:34:35.345   03 Jun 2027 02:34:40.305             4.960                 Moscow           155.000
       209   03 Jun 2027 02:35:06.738   03 Jun 2027 02:35:16.958            10.220                 Moscow           319.375
       210   03 Jun 2027 02:35:26.587   03 Jun 2027 02:36:51.033            84.446                 Moscow          2638.938
       211   03 Jun 2027 03:02:36.751   03 Jun 2027 03:02:49.555            12.804               CapeTown           400.125
       212   03 Jun 2027 03:04:00.871   03 Jun 2027 03:04:11.020            10.149               CapeTown           317.156
       213   03 Jun 2027 03:53:09.658   03 Jun 2027 03:54:18.455            68.797                Anadyr2          2149.906
       214   03 Jun 2027 03:55:49.392   03 Jun 2027 03:57:07.827            78.435               Magadan1          2451.094
       215   03 Jun 2027 03:57:07.827   03 Jun 2027 03:57:44.397            36.570               Magadan2          1142.813
       216   03 Jun 2027 03:58:12.762   03 Jun 2027 04:02:10.805           238.043                Anadyr2          7438.844
       217   03 Jun 2027 04:44:53.403   03 Jun 2027 04:45:52.288            58.885            RioGallegos          1840.156
       218   03 Jun 2027 05:34:26.429   03 Jun 2027 05:34:47.139            20.710                Anadyr2           647.188
       219   03 Jun 2027 05:34:54.400   03 Jun 2027 05:35:25.640            31.240                Irkutsk           976.250
       220   03 Jun 2027 05:35:30.113   03 Jun 2027 05:35:47.562            17.449               Magadan1           545.281
       221   03 Jun 2027 05:35:52.431   03 Jun 2027 05:35:57.305             4.874                Anadyr1           152.313
       222   03 Jun 2027 05:36:49.572   03 Jun 2027 05:37:43.203            53.631                Anadyr1          1675.969
       223   03 Jun 2027 07:08:03.692   03 Jun 2027 07:08:10.295             6.603               Magadan1           206.344
       224   03 Jun 2027 07:08:22.094   03 Jun 2027 07:08:27.309             5.215                Novosib           162.969
       225   03 Jun 2027 07:09:46.417   03 Jun 2027 07:09:54.450             8.033               Magadan2           251.031
       226   03 Jun 2027 07:10:19.950   03 Jun 2027 07:11:33.115            73.165               Magadan1          2286.406
       227   03 Jun 2027 07:11:55.454   03 Jun 2027 07:12:28.414            32.960               Magadan2          1030.000
       228   03 Jun 2027 07:12:40.716   03 Jun 2027 07:13:02.567            21.851               Magadan1           682.844
       229   03 Jun 2027 07:13:10.214   03 Jun 2027 07:13:39.103            28.889                Novosib           902.781
       230   03 Jun 2027 07:49:00.897   03 Jun 2027 07:49:20.323            19.426            RioGallegos           607.062
       231   03 Jun 2027 08:00:11.962   03 Jun 2027 08:00:28.714            16.752            RioGallegos           523.500
       232   03 Jun 2027 08:25:53.910   03 Jun 2027 08:27:11.455            77.545                Sumatra          2423.281
       233   03 Jun 2027 08:44:30.352   03 Jun 2027 08:44:57.869            27.517                Irkutsk           859.906
       234   03 Jun 2027 08:45:09.791   03 Jun 2027 08:45:32.788            22.997                Irkutsk           718.656
       235   03 Jun 2027 08:45:57.584   03 Jun 2027 08:46:28.322            30.738                Irkutsk           960.563
       236   03 Jun 2027 08:46:51.968   03 Jun 2027 08:47:17.697            25.729                Irkutsk           804.031
       237   03 Jun 2027 08:47:33.502   03 Jun 2027 08:47:46.777            13.275                Irkutsk           414.844
       238   03 Jun 2027 08:47:59.423   03 Jun 2027 08:49:01.587            62.164                Irkutsk          1942.625
       239   03 Jun 2027 08:49:09.265   03 Jun 2027 08:49:15.564             6.299              Murmansk1           196.844
       240   03 Jun 2027 09:26:11.672   03 Jun 2027 09:26:42.462            30.790            RioGallegos           962.188
       241   03 Jun 2027 09:27:16.265   03 Jun 2027 09:27:23.210             6.945            RioGallegos           217.031
       242   03 Jun 2027 09:27:47.761   03 Jun 2027 09:29:00.590            72.829            RioGallegos          2275.906
       243   03 Jun 2027 10:03:51.652   03 Jun 2027 10:05:07.019            75.367                Sumatra          2355.219
       244   03 Jun 2027 10:21:12.520   03 Jun 2027 10:21:32.462            19.942                Novosib           623.188
       245   03 Jun 2027 10:21:37.512   03 Jun 2027 10:21:41.965             4.453                Novosib           139.156
       246   03 Jun 2027 10:22:50.213   03 Jun 2027 10:23:00.277            10.064                Novosib           314.500
       247   03 Jun 2027 10:24:12.256   03 Jun 2027 10:24:30.949            18.693                Novosib           584.156
       248   03 Jun 2027 10:24:33.603   03 Jun 2027 10:24:50.554            16.951                Novosib           529.719
       249   03 Jun 2027 10:24:56.380   03 Jun 2027 10:24:56.830             0.450                Novosib            14.063
       250   03 Jun 2027 11:45:49.620   03 Jun 2027 11:48:36.004           166.384                  Delhi          5199.500
       251   03 Jun 2027 11:59:05.962   03 Jun 2027 11:59:25.159            19.197                 Moscow           599.906
       252   03 Jun 2027 11:59:35.088   03 Jun 2027 12:00:36.245            61.157                Novosib          1911.156
       253   03 Jun 2027 12:02:32.108   03 Jun 2027 12:02:39.001             6.893                Norilsk           215.406
       254   03 Jun 2027 12:04:17.334   03 Jun 2027 12:05:05.022            47.688                Norilsk          1490.250
       255   03 Jun 2027 13:28:08.425   03 Jun 2027 13:28:46.803            38.378                 Moscow          1199.313
       256   03 Jun 2027 13:30:40.252   03 Jun 2027 13:31:41.187            60.935                 Moscow          1904.219
       257   03 Jun 2027 13:33:08.011   03 Jun 2027 13:33:16.627             8.616              Murmansk2           269.250
       258   03 Jun 2027 13:33:53.029   03 Jun 2027 13:34:21.123            28.094              Murmansk1           877.938
       259   03 Jun 2027 13:35:05.754   03 Jun 2027 13:36:07.956            62.202              Murmansk1          1943.812
       260   03 Jun 2027 13:40:00.184   03 Jun 2027 13:40:13.647            13.463              Murmansk1           420.719
       261   03 Jun 2027 13:40:19.729   03 Jun 2027 13:40:44.582            24.853              Murmansk2           776.656
       262   03 Jun 2027 13:41:36.699   03 Jun 2027 13:41:52.744            16.045              Murmansk2           501.406
       263   03 Jun 2027 13:42:25.929   03 Jun 2027 13:42:43.131            17.202              Murmansk1           537.563
       264   03 Jun 2027 13:42:49.817   03 Jun 2027 13:43:20.583            30.766              Murmansk2           961.438
       265   03 Jun 2027 13:46:44.120   03 Jun 2027 13:49:42.755           178.635                Anadyr1          5582.344
       266   03 Jun 2027 13:52:45.538   03 Jun 2027 13:53:48.529            62.991                Anadyr1          1968.469
       267   03 Jun 2027 14:53:02.117   03 Jun 2027 14:53:57.946            55.829               CapeTown          1744.656
       268   03 Jun 2027 15:11:28.410   03 Jun 2027 15:11:45.801            17.391                 Moscow           543.469
       269   03 Jun 2027 15:12:31.526   03 Jun 2027 15:12:38.035             6.509                 Moscow           203.406
       270   03 Jun 2027 15:14:03.073   03 Jun 2027 15:14:17.638            14.565              Murmansk2           455.156
       271   03 Jun 2027 15:14:49.330   03 Jun 2027 15:15:20.941            31.611              Murmansk2           987.844
       272   03 Jun 2027 15:18:08.427   03 Jun 2027 15:18:36.195            27.768              Murmansk2           867.750
       273   03 Jun 2027 15:21:50.219   03 Jun 2027 15:23:35.489           105.270                Anadyr1          3289.688
       274   03 Jun 2027 15:23:40.620   03 Jun 2027 15:23:52.938            12.318                Anadyr2           384.937
       275   03 Jun 2027 15:24:03.363   03 Jun 2027 15:24:12.083             8.720                Anadyr2           272.500
       276   03 Jun 2027 15:27:21.090   03 Jun 2027 15:29:13.296           112.206               Magadan1          3506.438
       277   03 Jun 2027 16:52:12.076   03 Jun 2027 16:54:09.180           117.104              Murmansk1          3659.500
       278   03 Jun 2027 16:57:40.983   03 Jun 2027 16:59:46.620           125.637                Anadyr1          3926.156
       279   03 Jun 2027 17:00:13.736   03 Jun 2027 17:02:16.361           122.625               Magadan2          3832.031
       280   03 Jun 2027 17:02:31.559   03 Jun 2027 17:02:37.787             6.228               Magadan2           194.625
       281   03 Jun 2027 17:06:30.276   03 Jun 2027 17:06:45.571            15.295               Magadan1           477.969
       282   03 Jun 2027 17:07:11.364   03 Jun 2027 17:07:20.819             9.455               Magadan1           295.469
       283   03 Jun 2027 17:08:30.981   03 Jun 2027 17:10:26.259           115.278               Magadan1          3602.438
       284   03 Jun 2027 18:33:35.408   03 Jun 2027 18:35:39.724           124.316                Anadyr1          3884.875
       285   03 Jun 2027 18:35:52.718   03 Jun 2027 18:37:24.705            91.987               Magadan1          2874.594
       286   03 Jun 2027 18:37:24.705   03 Jun 2027 18:37:38.808            14.103               Magadan2           440.719
       287   03 Jun 2027 18:37:41.093   03 Jun 2027 18:38:29.532            48.439                Norilsk          1513.719
       288   03 Jun 2027 18:38:39.949   03 Jun 2027 18:40:07.954            88.005                Norilsk          2750.156
       289   03 Jun 2027 19:28:05.832   03 Jun 2027 19:29:56.256           110.424            RioGallegos          3450.750
       290   03 Jun 2027 19:30:20.858   03 Jun 2027 19:30:52.901            32.043            RioGallegos          1001.344
       291   03 Jun 2027 19:31:43.448   03 Jun 2027 19:32:02.122            18.674            RioGallegos           583.563
       292   03 Jun 2027 20:11:27.144   03 Jun 2027 20:13:20.519           113.375                Norilsk          3542.969
       293   03 Jun 2027 20:14:25.845   03 Jun 2027 20:15:07.769            41.924                Norilsk          1310.125
       294   03 Jun 2027 20:15:38.863   03 Jun 2027 20:16:30.024            51.161                Irkutsk          1598.781
       295   03 Jun 2027 20:16:41.545   03 Jun 2027 20:17:06.226            24.681                Norilsk           771.281
       296   03 Jun 2027 20:17:45.677   03 Jun 2027 20:20:24.611           158.934                Novosib          4966.688
       297   03 Jun 2027 20:23:10.799   03 Jun 2027 20:23:34.132            23.333                Irkutsk           729.156
       298   03 Jun 2027 20:29:24.878   03 Jun 2027 20:30:36.072            71.194                Sumatra          2224.813
       299   03 Jun 2027 20:33:12.305   03 Jun 2027 20:33:39.679            27.374                Sumatra           855.438
       300   03 Jun 2027 20:39:56.803   03 Jun 2027 20:41:26.961            90.158                Sumatra          2817.437
       301   03 Jun 2027 21:49:24.799   03 Jun 2027 21:49:40.984            16.185                Norilsk           505.781
       302   03 Jun 2027 21:50:54.292   03 Jun 2027 21:51:02.259             7.967                Norilsk           248.969
       303   03 Jun 2027 21:51:15.065   03 Jun 2027 21:51:48.850            33.785                Irkutsk          1055.781
       304   03 Jun 2027 21:51:59.253   03 Jun 2027 21:52:00.941             1.688                Irkutsk            52.750
       305   03 Jun 2027 21:52:25.534   03 Jun 2027 21:53:11.540            46.006                Novosib          1437.687
       306   03 Jun 2027 21:53:18.826   03 Jun 2027 21:53:44.530            25.704                Novosib           803.250
       307   03 Jun 2027 21:54:24.191   03 Jun 2027 21:55:10.721            46.530                Novosib          1454.063
       308   03 Jun 2027 21:59:14.274   03 Jun 2027 22:01:49.593           155.319                  Delhi          4853.719
       309   03 Jun 2027 23:18:57.082   03 Jun 2027 23:19:49.092            52.010                Anadyr2          1625.313
       310   03 Jun 2027 23:20:14.413   03 Jun 2027 23:20:22.997             8.584                Anadyr2           268.250
       311   03 Jun 2027 23:23:22.609   03 Jun 2027 23:25:03.131           100.522                Norilsk          3141.312
       312   03 Jun 2027 23:25:37.161   03 Jun 2027 23:25:37.754             0.593               Magadan1            18.531
       313   03 Jun 2027 23:25:46.146   03 Jun 2027 23:28:32.992           166.846              Murmansk2          5213.938
       314   03 Jun 2027 23:28:32.992   03 Jun 2027 23:30:00.083            87.091              Murmansk1          2721.594
       315   03 Jun 2027 23:30:42.232   03 Jun 2027 23:32:48.653           126.421                 Moscow          3950.656
       316   04 Jun 2027 00:50:55.499   04 Jun 2027 00:50:57.846             2.347                Anadyr1            73.344
       317   04 Jun 2027 00:52:50.877   04 Jun 2027 00:53:27.087            36.210                Anadyr1          1131.563
       318   04 Jun 2027 00:56:02.602   04 Jun 2027 00:57:56.855           114.253               Magadan2          3570.406
       319   04 Jun 2027 00:59:22.634   04 Jun 2027 00:59:42.722            20.088               Magadan1           627.750
       320   04 Jun 2027 00:59:49.550   04 Jun 2027 01:00:28.986            39.436               Magadan1          1232.375
       321   04 Jun 2027 01:01:30.639   04 Jun 2027 01:02:27.893            57.254              Murmansk2          1789.188
       322   04 Jun 2027 01:02:40.169   04 Jun 2027 01:03:14.549            34.380              Murmansk2          1074.375
       323   04 Jun 2027 01:04:52.966   04 Jun 2027 01:05:02.613             9.647                 Moscow           301.469
       324   04 Jun 2027 01:05:10.839   04 Jun 2027 01:06:43.616            92.777                 Moscow          2899.281
       325   04 Jun 2027 01:29:14.544   04 Jun 2027 01:30:29.060            74.516               CapeTown          2328.625
       326   04 Jun 2027 02:25:26.577   04 Jun 2027 02:26:24.070            57.493                Anadyr2          1796.656
       327   04 Jun 2027 02:26:36.311   04 Jun 2027 02:27:04.775            28.464                Anadyr2           889.500
       328   04 Jun 2027 02:27:22.276   04 Jun 2027 02:27:37.247            14.971                Anadyr2           467.844
       329   04 Jun 2027 02:27:53.565   04 Jun 2027 02:29:48.575           115.010               Magadan2          3594.063
       330   04 Jun 2027 02:35:46.328   04 Jun 2027 02:35:58.911            12.583               Magadan1           393.219
       331   04 Jun 2027 02:36:50.617   04 Jun 2027 02:37:08.005            17.388                Norilsk           543.375
       332   04 Jun 2027 02:37:28.775   04 Jun 2027 02:37:48.006            19.231              Murmansk2           600.969
       333   04 Jun 2027 02:38:21.295   04 Jun 2027 02:38:42.233            20.938              Murmansk1           654.312
       334   04 Jun 2027 02:38:59.403   04 Jun 2027 02:39:26.913            27.510              Murmansk1           859.687
       335   04 Jun 2027 02:40:42.909   04 Jun 2027 02:41:30.591            47.682                 Moscow          1490.062
       336   04 Jun 2027 02:44:01.137   04 Jun 2027 02:44:10.720             9.583                 Moscow           299.469
       337   04 Jun 2027 02:47:05.100   04 Jun 2027 02:48:07.276            62.176                 Moscow          1943.000
       338   04 Jun 2027 03:05:29.480   04 Jun 2027 03:06:15.578            46.098               CapeTown          1440.563
       339   04 Jun 2027 03:13:32.234   04 Jun 2027 03:13:46.161            13.927               CapeTown           435.219
       340   04 Jun 2027 03:14:56.674   04 Jun 2027 03:15:09.916            13.242               CapeTown           413.812
       341   04 Jun 2027 04:07:07.200   04 Jun 2027 04:10:13.876           186.676                Anadyr1          5833.625
       342   04 Jun 2027 04:10:13.876   04 Jun 2027 04:13:54.501           220.625                Anadyr2          6894.531
       343   04 Jun 2027 05:45:37.020   04 Jun 2027 05:47:41.568           124.548               Magadan1          3892.125
       344   04 Jun 2027 05:47:41.568   04 Jun 2027 05:48:06.561            24.993               Magadan2           781.031
       345   04 Jun 2027 07:19:49.404   04 Jun 2027 07:20:06.917            17.513               Magadan2           547.281
       346   04 Jun 2027 07:20:06.917   04 Jun 2027 07:20:40.343            33.426               Magadan1          1044.562
       347   04 Jun 2027 07:20:56.293   04 Jun 2027 07:21:09.632            13.339               Magadan2           416.844
       348   04 Jun 2027 07:21:11.046   04 Jun 2027 07:21:48.668            37.622               Magadan1          1175.688
       349   04 Jun 2027 07:21:48.668   04 Jun 2027 07:21:56.487             7.819               Magadan2           244.344
       350   04 Jun 2027 07:22:23.686   04 Jun 2027 07:23:32.252            68.566               Magadan1          2142.687
       351   04 Jun 2027 07:23:38.478   04 Jun 2027 07:23:53.328            14.850                Norilsk           464.062
       352   04 Jun 2027 07:23:58.366   04 Jun 2027 07:24:09.377            11.011               Magadan2           344.094
       353   04 Jun 2027 07:24:09.377   04 Jun 2027 07:24:35.233            25.856               Magadan1           808.000
       354   04 Jun 2027 07:25:15.012   04 Jun 2027 07:26:20.332            65.320              Murmansk2          2041.250
       355   04 Jun 2027 08:11:42.331   04 Jun 2027 08:11:57.938            15.607            RioGallegos           487.719
       356   04 Jun 2027 08:35:19.100   04 Jun 2027 08:36:27.950            68.850                Sumatra          2151.562
       357   04 Jun 2027 08:39:01.650   04 Jun 2027 08:39:09.959             8.309                Sumatra           259.656
       358   04 Jun 2027 08:55:42.856   04 Jun 2027 08:56:20.169            37.313                Irkutsk          1166.031
       359   04 Jun 2027 08:56:33.388   04 Jun 2027 08:56:41.603             8.215                Novosib           256.719
       360   04 Jun 2027 08:57:33.348   04 Jun 2027 08:58:23.458            50.110                Irkutsk          1565.938
       361   04 Jun 2027 08:58:41.612   04 Jun 2027 08:59:20.866            39.254                Irkutsk          1226.688
       362   04 Jun 2027 08:59:24.977   04 Jun 2027 08:59:30.586             5.609                Irkutsk           175.281
       363   04 Jun 2027 08:59:44.366   04 Jun 2027 08:59:57.583            13.217                Irkutsk           413.031
       364   04 Jun 2027 09:00:35.059   04 Jun 2027 09:01:44.262            69.203                Novosib          2162.594
       365   04 Jun 2027 09:40:32.674   04 Jun 2027 09:40:57.241            24.567            RioGallegos           767.719
       366   04 Jun 2027 10:13:14.377   04 Jun 2027 10:15:01.867           107.490                Sumatra          3359.062
       367   04 Jun 2027 10:33:16.473   04 Jun 2027 10:33:37.790            21.317                Novosib           666.156
       368   04 Jun 2027 10:34:56.082   04 Jun 2027 10:35:00.005             3.923                Novosib           122.594
       369   04 Jun 2027 10:36:18.787   04 Jun 2027 10:36:29.673            10.886                Novosib           340.188
       370   04 Jun 2027 10:36:40.118   04 Jun 2027 10:36:42.973             2.855                Novosib            89.219
       371   04 Jun 2027 10:36:53.042   04 Jun 2027 10:37:04.939            11.897                Novosib           371.781
       372   04 Jun 2027 11:59:09.007   04 Jun 2027 12:02:01.835           172.828                  Delhi          5400.875
       373   04 Jun 2027 12:07:35.831   04 Jun 2027 12:07:48.821            12.990                Novosib           405.938
       374   04 Jun 2027 12:09:14.547   04 Jun 2027 12:09:54.273            39.726                Novosib          1241.437
       375   04 Jun 2027 12:15:16.368   04 Jun 2027 12:15:39.574            23.206                Norilsk           725.187
       376   04 Jun 2027 13:40:25.827   04 Jun 2027 13:41:22.719            56.892                 Moscow          1777.875
       377   04 Jun 2027 13:41:48.975   04 Jun 2027 13:42:44.818            55.843                 Moscow          1745.094
       378   04 Jun 2027 13:43:48.608   04 Jun 2027 13:43:56.573             7.965              Murmansk2           248.906
       379   04 Jun 2027 13:43:56.573   04 Jun 2027 13:44:01.394             4.821              Murmansk1           150.656
       380   04 Jun 2027 13:44:18.638   04 Jun 2027 13:44:51.436            32.798              Murmansk1          1024.937
       381   04 Jun 2027 13:46:29.272   04 Jun 2027 13:47:02.316            33.044              Murmansk1          1032.625
       382   04 Jun 2027 13:50:33.537   04 Jun 2027 13:50:43.628            10.091              Murmansk1           315.344
       383   04 Jun 2027 13:51:18.533   04 Jun 2027 13:52:05.032            46.499              Murmansk1          1453.094
       384   04 Jun 2027 13:54:25.088   04 Jun 2027 13:54:37.647            12.559              Murmansk1           392.469
       385   04 Jun 2027 13:58:32.185   04 Jun 2027 14:00:52.077           139.892                Anadyr2          4371.625
       386   04 Jun 2027 14:02:18.553   04 Jun 2027 14:02:52.830            34.277                Anadyr1          1071.156
       387   04 Jun 2027 14:03:28.614   04 Jun 2027 14:04:45.828            77.214                Anadyr1          2412.937
       388   04 Jun 2027 15:03:12.130   04 Jun 2027 15:04:49.224            97.094               CapeTown          3034.188
       389   04 Jun 2027 15:24:23.831   04 Jun 2027 15:26:04.949           101.118              Murmansk1          3159.938
       390   04 Jun 2027 15:33:49.933   04 Jun 2027 15:34:44.371            54.438                Anadyr2          1701.187
       391   04 Jun 2027 15:35:16.897   04 Jun 2027 15:35:33.136            16.239                Anadyr1           507.469
       392   04 Jun 2027 15:35:41.702   04 Jun 2027 15:36:04.214            22.512                Anadyr1           703.500
       393   04 Jun 2027 15:38:08.120   04 Jun 2027 15:41:15.106           186.986               Magadan1          5843.312
       394   04 Jun 2027 15:43:00.326   04 Jun 2027 15:43:04.808             4.482               Magadan1           140.063
       395   04 Jun 2027 17:09:42.379   04 Jun 2027 17:12:10.910           148.531                Anadyr2          4641.594
       396   04 Jun 2027 17:12:50.379   04 Jun 2027 17:14:18.885            88.506               Magadan1          2765.813
       397   04 Jun 2027 17:18:59.706   04 Jun 2027 17:20:10.758            71.052               Magadan1          2220.375
       398   04 Jun 2027 17:23:46.256   04 Jun 2027 17:23:55.303             9.047               Magadan2           282.719
       399   04 Jun 2027 17:23:58.599   04 Jun 2027 17:24:01.417             2.818               Magadan2            88.063
       400   04 Jun 2027 18:45:35.854   04 Jun 2027 18:47:20.205           104.351                Anadyr2          3260.969
       401   04 Jun 2027 18:47:40.298   04 Jun 2027 18:49:17.875            97.577                Anadyr1          3049.281
       402   04 Jun 2027 18:49:21.143   04 Jun 2027 18:51:48.446           147.303                Norilsk          4603.219
       403   04 Jun 2027 18:54:51.233   04 Jun 2027 18:57:53.319           182.086                Irkutsk          5690.188
       404   04 Jun 2027 19:39:55.209   04 Jun 2027 19:40:08.010            12.801            RioGallegos           400.031
       405   04 Jun 2027 19:41:11.037   04 Jun 2027 19:42:22.531            71.494            RioGallegos          2234.188
       406   04 Jun 2027 19:50:55.778   04 Jun 2027 19:51:07.948            12.170            RioGallegos           380.313
       407   04 Jun 2027 20:23:27.680   04 Jun 2027 20:25:17.489           109.809                Norilsk          3431.531
       408   04 Jun 2027 20:27:32.123   04 Jun 2027 20:27:58.026            25.903                Norilsk           809.469
       409   04 Jun 2027 20:28:35.874   04 Jun 2027 20:29:05.770            29.896                Norilsk           934.250
       410   04 Jun 2027 20:29:17.843   04 Jun 2027 20:29:52.903            35.060                Irkutsk          1095.625
       411   04 Jun 2027 20:30:23.553   04 Jun 2027 20:31:59.140            95.587                Novosib          2987.094
       412   04 Jun 2027 20:32:52.279   04 Jun 2027 20:34:18.898            86.619                Novosib          2706.844
       413   04 Jun 2027 20:41:14.826   04 Jun 2027 20:42:18.076            63.250                Sumatra          1976.562
       414   04 Jun 2027 20:50:22.041   04 Jun 2027 20:50:45.484            23.443                Sumatra           732.594
       415   04 Jun 2027 20:51:32.773   04 Jun 2027 20:52:19.789            47.016                Sumatra          1469.250
       416   04 Jun 2027 22:00:02.230   04 Jun 2027 22:01:20.551            78.321               Magadan2          2447.531
       417   04 Jun 2027 22:03:18.149   04 Jun 2027 22:03:37.745            19.596                Irkutsk           612.375
       418   04 Jun 2027 22:04:04.996   04 Jun 2027 22:05:34.067            89.071                Novosib          2783.469
       419   04 Jun 2027 22:10:58.986   04 Jun 2027 22:13:11.470           132.484                  Delhi          4140.125
       420   04 Jun 2027 22:15:47.870   04 Jun 2027 22:17:11.628            83.758                  Delhi          2617.438
       421   04 Jun 2027 23:31:41.620   04 Jun 2027 23:31:52.932            11.312                Anadyr2           353.500
       422   04 Jun 2027 23:35:18.462   04 Jun 2027 23:35:55.119            36.657               Magadan1          1145.531
       423   04 Jun 2027 23:36:00.472   04 Jun 2027 23:37:05.049            64.577                Norilsk          2018.031
       424   04 Jun 2027 23:37:43.896   04 Jun 2027 23:42:28.475           284.579              Murmansk2          8893.094
       425   04 Jun 2027 23:43:09.805   04 Jun 2027 23:43:52.855            43.050                 Moscow          1345.313
       426   04 Jun 2027 23:47:23.936   04 Jun 2027 23:47:55.671            31.735                 Moscow           991.719
       427   05 Jun 2027 01:02:41.414   05 Jun 2027 01:02:55.618            14.204                Anadyr1           443.875
       428   05 Jun 2027 01:04:07.421   05 Jun 2027 01:04:26.289            18.868                Anadyr1           589.625
       429   05 Jun 2027 01:04:50.780   05 Jun 2027 01:05:15.495            24.715                Anadyr2           772.344
       430   05 Jun 2027 01:07:30.546   05 Jun 2027 01:08:03.248            32.702               Magadan1          1021.937
       431   05 Jun 2027 01:08:10.489   05 Jun 2027 01:08:49.745            39.256               Magadan2          1226.750
       432   05 Jun 2027 01:09:36.839   05 Jun 2027 01:11:18.316           101.477               Magadan2          3171.156
       433   05 Jun 2027 01:13:32.104   05 Jun 2027 01:14:38.692            66.588              Murmansk2          2080.875
       434   05 Jun 2027 01:15:38.963   05 Jun 2027 01:15:47.298             8.335                Novosib           260.469
       435   05 Jun 2027 01:15:50.163   05 Jun 2027 01:16:03.027            12.864                Novosib           402.000
       436   05 Jun 2027 01:16:19.221   05 Jun 2027 01:16:32.437            13.216              Murmansk2           413.000
       437   05 Jun 2027 01:16:50.954   05 Jun 2027 01:18:42.693           111.739                 Moscow          3491.844
       438   05 Jun 2027 01:40:59.040   05 Jun 2027 01:41:52.124            53.084               CapeTown          1658.875
       439   05 Jun 2027 01:48:29.139   05 Jun 2027 01:48:41.569            12.430               CapeTown           388.438
       440   05 Jun 2027 01:48:59.886   05 Jun 2027 01:49:17.480            17.594               CapeTown           549.813
       441   05 Jun 2027 02:37:24.456   05 Jun 2027 02:38:36.692            72.236                Anadyr1          2257.375
       442   05 Jun 2027 02:38:50.136   05 Jun 2027 02:39:23.318            33.182                Anadyr2          1036.938
       443   05 Jun 2027 02:39:30.046   05 Jun 2027 02:40:44.345            74.299               Magadan2          2321.844
       444   05 Jun 2027 02:44:53.568   05 Jun 2027 02:45:47.479            53.911               Magadan2          1684.719
       445   05 Jun 2027 02:49:28.930   05 Jun 2027 02:50:03.137            34.207                Norilsk          1068.969
       446   05 Jun 2027 02:50:25.651   05 Jun 2027 02:51:10.349            44.698              Murmansk1          1396.812
       447   05 Jun 2027 02:52:46.151   05 Jun 2027 02:53:41.731            55.580                 Moscow          1736.875
       448   05 Jun 2027 02:57:42.493   05 Jun 2027 02:57:47.104             4.611                 Moscow           144.094
       449   05 Jun 2027 02:58:38.194   05 Jun 2027 02:58:56.050            17.856                 Moscow           558.000
       450   05 Jun 2027 03:17:49.739   05 Jun 2027 03:18:17.873            28.134               CapeTown           879.187
       451   05 Jun 2027 04:18:41.272   05 Jun 2027 04:19:22.480            41.208                Anadyr1          1287.750
       452   05 Jun 2027 04:20:12.193   05 Jun 2027 04:21:42.586            90.393               Magadan1          2824.781
       453   05 Jun 2027 04:21:53.968   05 Jun 2027 04:25:02.811           188.843               Magadan1          5901.344
       454   05 Jun 2027 05:55:00.830   05 Jun 2027 05:58:45.911           225.081                Irkutsk          7033.781
       455   05 Jun 2027 05:59:32.388   05 Jun 2027 05:59:57.278            24.890                Anadyr2           777.813
       456   05 Jun 2027 07:31:49.456   05 Jun 2027 07:32:10.047            20.591               Magadan2           643.469
       457   05 Jun 2027 07:33:01.139   05 Jun 2027 07:33:13.549            12.410               Magadan1           387.812
       458   05 Jun 2027 07:33:15.249   05 Jun 2027 07:33:52.076            36.827               Magadan2          1150.844
       459   05 Jun 2027 07:33:58.245   05 Jun 2027 07:34:30.026            31.781               Magadan1           993.156
       460   05 Jun 2027 07:35:30.640   05 Jun 2027 07:36:01.132            30.492               Magadan2           952.875
       461   05 Jun 2027 07:36:55.422   05 Jun 2027 07:37:13.499            18.077              Murmansk2           564.906
       462   05 Jun 2027 07:37:47.135   05 Jun 2027 07:37:56.094             8.959                Novosib           279.969
       463   05 Jun 2027 07:42:26.018   05 Jun 2027 07:42:29.647             3.629              Murmansk1           113.406
       464   05 Jun 2027 07:42:30.358   05 Jun 2027 07:42:49.288            18.930              Murmansk2           591.563
       465   05 Jun 2027 08:12:21.296   05 Jun 2027 08:13:14.146            52.850            RioGallegos          1651.563
       466   05 Jun 2027 08:47:11.998   05 Jun 2027 08:49:16.065           124.067                Sumatra          3877.094
       467   05 Jun 2027 09:08:14.499   05 Jun 2027 09:09:17.813            63.314                Irkutsk          1978.562
       468   05 Jun 2027 09:10:00.806   05 Jun 2027 09:10:38.318            37.512                Irkutsk          1172.250
       469   05 Jun 2027 09:10:42.500   05 Jun 2027 09:10:58.856            16.356                Irkutsk           511.125
       470   05 Jun 2027 09:11:03.954   05 Jun 2027 09:11:06.390             2.436                Irkutsk            76.125
       471   05 Jun 2027 09:11:18.476   05 Jun 2027 09:11:51.982            33.506                Novosib          1047.062
       472   05 Jun 2027 09:11:58.931   05 Jun 2027 09:12:17.887            18.956                Irkutsk           592.375
       473   05 Jun 2027 09:12:28.286   05 Jun 2027 09:13:06.584            38.298                Irkutsk          1196.812
       474   05 Jun 2027 09:13:15.809   05 Jun 2027 09:13:21.719             5.910                Irkutsk           184.687
       475   05 Jun 2027 09:13:43.339   05 Jun 2027 09:14:20.230            36.891                Novosib          1152.844
       476   05 Jun 2027 09:51:43.610   05 Jun 2027 09:51:53.560             9.950            RioGallegos           310.937
       477   05 Jun 2027 09:52:52.288   05 Jun 2027 09:53:19.590            27.302            RioGallegos           853.187
       478   05 Jun 2027 10:26:37.422   05 Jun 2027 10:27:35.032            57.610                Sumatra          1800.312
       479   05 Jun 2027 10:29:49.567   05 Jun 2027 10:30:08.063            18.496                Sumatra           578.000
       480   05 Jun 2027 10:31:22.525   05 Jun 2027 10:31:45.353            22.828                  Delhi           713.375
       481   05 Jun 2027 10:45:17.476   05 Jun 2027 10:45:52.320            34.844              Murmansk2          1088.875
       482   05 Jun 2027 10:47:01.391   05 Jun 2027 10:48:06.644            65.253                Novosib          2039.156
