uniorb/output/strategy_4/Drop/Drop_KinoSat_111102.txt

KinoSat_111102
-------------------------
    Access    *     Start Time (UTCG)     *     Stop Time (UTCG)  *   Duration (s)        *       Station  *  Data (Mbytes)
         1   01 Jun 2027 03:54:12.440   01 Jun 2027 03:58:07.571           235.131               Magadan2          7347.844
         2   01 Jun 2027 04:04:58.196   01 Jun 2027 04:05:20.719            22.523              Murmansk1           703.844
         3   01 Jun 2027 04:05:28.537   01 Jun 2027 04:05:33.103             4.566                Norilsk           142.688
         4   01 Jun 2027 04:05:59.554   01 Jun 2027 04:06:15.914            16.360              Murmansk2           511.250
         5   01 Jun 2027 04:07:49.102   01 Jun 2027 04:08:04.106            15.004              Murmansk2           468.875
         6   01 Jun 2027 04:09:02.507   01 Jun 2027 04:09:05.450             2.943              Murmansk1            91.969
         7   01 Jun 2027 04:09:11.214   01 Jun 2027 04:09:25.971            14.757                 Moscow           461.156
         8   01 Jun 2027 04:10:05.757   01 Jun 2027 04:10:27.471            21.714              Murmansk1           678.562
         9   01 Jun 2027 04:10:28.513   01 Jun 2027 04:11:08.430            39.917              Murmansk2          1247.406
        10   01 Jun 2027 05:27:48.740   01 Jun 2027 05:28:54.730            65.990               Magadan2          2062.187
        11   01 Jun 2027 05:28:58.808   01 Jun 2027 05:29:26.431            27.623               Magadan1           863.219
        12   01 Jun 2027 05:29:34.787   01 Jun 2027 05:29:53.416            18.629                Anadyr2           582.156
        13   01 Jun 2027 05:30:23.870   01 Jun 2027 05:34:52.929           269.059                Anadyr2          8408.094
        14   01 Jun 2027 06:15:42.887   01 Jun 2027 06:15:51.541             8.654            RioGallegos           270.438
        15   01 Jun 2027 07:02:57.300   01 Jun 2027 07:07:45.395           288.095               Magadan1          9002.969
        16   01 Jun 2027 07:07:52.272   01 Jun 2027 07:08:11.282            19.010               Magadan1           594.062
        17   01 Jun 2027 07:08:30.301   01 Jun 2027 07:09:56.324            86.023                Anadyr1          2688.219
        18   01 Jun 2027 07:10:11.416   01 Jun 2027 07:10:33.658            22.242                Novosib           695.062
        19   01 Jun 2027 07:10:48.629   01 Jun 2027 07:10:58.613             9.984                Norilsk           312.000
        20   01 Jun 2027 07:11:36.794   01 Jun 2027 07:13:43.001           126.207              Murmansk1          3943.969
        21   01 Jun 2027 07:45:40.470   01 Jun 2027 07:47:35.122           114.652            RioGallegos          3582.875
        22   01 Jun 2027 08:40:51.699   01 Jun 2027 08:41:33.013            41.314                Irkutsk          1291.062
        23   01 Jun 2027 08:41:44.790   01 Jun 2027 08:42:17.873            33.083                Norilsk          1033.844
        24   01 Jun 2027 08:42:24.675   01 Jun 2027 08:44:37.209           132.534                Irkutsk          4141.688
        25   01 Jun 2027 08:44:53.295   01 Jun 2027 08:46:09.581            76.286                Novosib          2383.937
        26   01 Jun 2027 08:46:16.792   01 Jun 2027 08:47:24.419            67.627                Norilsk          2113.344
        27   01 Jun 2027 09:21:14.439   01 Jun 2027 09:22:57.027           102.588            RioGallegos          3205.875
        28   01 Jun 2027 09:55:52.532   01 Jun 2027 09:57:41.243           108.711                Sumatra          3397.219
        29   01 Jun 2027 10:05:54.947   01 Jun 2027 10:06:35.294            40.347                  Delhi          1260.844
        30   01 Jun 2027 10:16:08.878   01 Jun 2027 10:16:09.511             0.633                  Delhi            19.781
        31   01 Jun 2027 10:16:42.773   01 Jun 2027 10:17:12.184            29.411                Irkutsk           919.094
        32   01 Jun 2027 10:18:21.160   01 Jun 2027 10:19:46.929            85.769                Irkutsk          2680.281
        33   01 Jun 2027 10:19:51.564   01 Jun 2027 10:20:02.222            10.658              Murmansk1           333.063
        34   01 Jun 2027 10:20:04.779   01 Jun 2027 10:20:26.584            21.805                Irkutsk           681.406
        35   01 Jun 2027 10:20:30.158   01 Jun 2027 10:21:11.830            41.672                Irkutsk          1302.250
        36   01 Jun 2027 10:21:20.604   01 Jun 2027 10:22:50.172            89.568              Murmansk1          2799.000
        37   01 Jun 2027 10:23:01.823   01 Jun 2027 10:23:38.311            36.488                 Moscow          1140.250
        38   01 Jun 2027 11:40:13.694   01 Jun 2027 11:40:35.043            21.349                  Delhi           667.156
        39   01 Jun 2027 11:40:55.208   01 Jun 2027 11:42:15.330            80.122                  Delhi          2503.812
        40   01 Jun 2027 11:44:12.218   01 Jun 2027 11:44:56.824            44.606                  Delhi          1393.938
        41   01 Jun 2027 11:55:28.969   01 Jun 2027 11:56:19.879            50.910              Murmansk1          1590.938
        42   01 Jun 2027 11:56:21.479   01 Jun 2027 11:57:03.246            41.767                Norilsk          1305.219
        43   01 Jun 2027 11:57:21.283   01 Jun 2027 11:57:39.896            18.613                Norilsk           581.656
        44   01 Jun 2027 11:57:43.359   01 Jun 2027 12:01:55.234           251.875              Murmansk2          7871.094
        45   01 Jun 2027 12:02:20.857   01 Jun 2027 12:03:13.979            53.122              Murmansk2          1660.063
        46   01 Jun 2027 12:03:25.065   01 Jun 2027 12:03:58.998            33.933              Murmansk1          1060.406
        47   01 Jun 2027 12:04:18.583   01 Jun 2027 12:04:32.606            14.023              Murmansk1           438.219
        48   01 Jun 2027 12:04:55.526   01 Jun 2027 12:04:58.235             2.709              Murmansk1            84.656
        49   01 Jun 2027 13:24:28.482   01 Jun 2027 13:28:29.604           241.122                 Moscow          7535.062
        50   01 Jun 2027 13:28:39.179   01 Jun 2027 13:31:16.190           157.011              Murmansk1          4906.594
        51   01 Jun 2027 13:31:41.479   01 Jun 2027 13:31:55.844            14.365              Murmansk1           448.906
        52   01 Jun 2027 13:32:08.083   01 Jun 2027 13:34:24.222           136.139                Norilsk          4254.344
        53   01 Jun 2027 13:35:15.155   01 Jun 2027 13:35:43.594            28.439                Norilsk           888.719
        54   01 Jun 2027 13:36:24.106   01 Jun 2027 13:36:47.118            23.012              Murmansk1           719.125
        55   01 Jun 2027 13:37:14.975   01 Jun 2027 13:37:22.692             7.717                 Moscow           241.156
        56   01 Jun 2027 13:37:24.437   01 Jun 2027 13:38:53.351            88.914                Norilsk          2778.563
        57   01 Jun 2027 13:39:04.543   01 Jun 2027 13:39:30.232            25.689              Murmansk1           802.781
        58   01 Jun 2027 13:39:47.078   01 Jun 2027 13:40:51.993            64.915              Murmansk2          2028.594
        59   01 Jun 2027 14:41:30.714   01 Jun 2027 14:42:10.946            40.232               CapeTown          1257.250
        60   01 Jun 2027 14:43:30.443   01 Jun 2027 14:43:49.504            19.061               CapeTown           595.656
        61   01 Jun 2027 14:44:39.278   01 Jun 2027 14:48:17.628           218.350               CapeTown          6823.438
        62   01 Jun 2027 14:49:30.586   01 Jun 2027 14:49:37.109             6.523               CapeTown           203.844
        63   01 Jun 2027 15:10:02.954   01 Jun 2027 15:10:31.958            29.004              Murmansk2           906.375
        64   01 Jun 2027 15:11:15.144   01 Jun 2027 15:11:48.489            33.345              Murmansk2          1042.031
        65   01 Jun 2027 15:11:56.519   01 Jun 2027 15:12:46.606            50.087                 Moscow          1565.219
        66   01 Jun 2027 15:13:20.957   01 Jun 2027 15:13:44.151            23.194              Murmansk2           724.813
        67   01 Jun 2027 15:14:53.291   01 Jun 2027 15:15:52.892            59.601              Murmansk1          1862.531
        68   01 Jun 2027 15:16:46.897   01 Jun 2027 15:16:50.003             3.106              Murmansk2            97.063
        69   01 Jun 2027 15:19:12.046   01 Jun 2027 15:19:51.738            39.692                Anadyr2          1240.375
        70   01 Jun 2027 15:21:00.354   01 Jun 2027 15:22:07.659            67.305                Anadyr2          2103.281
        71   01 Jun 2027 15:23:47.037   01 Jun 2027 15:24:02.554            15.517                Anadyr1           484.906
        72   01 Jun 2027 15:24:16.400   01 Jun 2027 15:25:09.862            53.462                Anadyr1          1670.688
        73   01 Jun 2027 15:28:22.081   01 Jun 2027 15:28:37.341            15.260                Anadyr2           476.875
        74   01 Jun 2027 16:44:29.616   01 Jun 2027 16:45:28.468            58.852              Murmansk2          1839.125
        75   01 Jun 2027 16:46:17.487   01 Jun 2027 16:47:13.924            56.437              Murmansk1          1763.656
        76   01 Jun 2027 16:48:49.449   01 Jun 2027 16:49:15.488            26.039              Murmansk1           813.719
        77   01 Jun 2027 16:51:12.011   01 Jun 2027 16:51:52.717            40.706              Murmansk1          1272.063
        78   01 Jun 2027 16:54:32.274   01 Jun 2027 16:55:46.236            73.962                Anadyr1          2311.313
        79   01 Jun 2027 16:57:37.747   01 Jun 2027 16:58:14.370            36.623                Anadyr2          1144.469
        80   01 Jun 2027 16:59:17.448   01 Jun 2027 17:00:51.717            94.269               Magadan1          2945.906
        81   01 Jun 2027 17:01:23.127   01 Jun 2027 17:01:48.029            24.902               Magadan1           778.188
        82   01 Jun 2027 17:03:47.660   01 Jun 2027 17:04:19.444            31.784               Magadan2           993.250
        83   01 Jun 2027 18:30:27.189   01 Jun 2027 18:34:21.349           234.160                Anadyr1          7317.500
        84   01 Jun 2027 18:35:02.466   01 Jun 2027 18:36:05.590            63.124               Magadan1          1972.625
        85   01 Jun 2027 18:36:05.590   01 Jun 2027 18:36:38.483            32.893               Magadan2          1027.906
        86   01 Jun 2027 18:39:31.708   01 Jun 2027 18:39:49.316            17.608               Magadan2           550.250
        87   01 Jun 2027 18:41:06.159   01 Jun 2027 18:41:44.091            37.932               Magadan1          1185.375
        88   01 Jun 2027 18:43:10.068   01 Jun 2027 18:43:56.448            46.380               Magadan2          1449.375
        89   01 Jun 2027 19:27:49.670   01 Jun 2027 19:29:33.509           103.839            RioGallegos          3244.969
        90   01 Jun 2027 20:06:17.781   01 Jun 2027 20:06:41.254            23.473                Anadyr1           733.531
        91   01 Jun 2027 20:07:32.940   01 Jun 2027 20:08:19.986            47.046                Anadyr2          1470.187
        92   01 Jun 2027 20:08:31.123   01 Jun 2027 20:11:49.744           198.621                Norilsk          6206.906
        93   01 Jun 2027 20:13:43.963   01 Jun 2027 20:14:38.554            54.591                Irkutsk          1705.969
        94   01 Jun 2027 20:16:38.823   01 Jun 2027 20:17:26.981            48.158                Irkutsk          1504.937
        95   01 Jun 2027 20:17:28.007   01 Jun 2027 20:17:57.699            29.692                Irkutsk           927.875
        96   01 Jun 2027 20:18:42.909   01 Jun 2027 20:19:19.688            36.779                Irkutsk          1149.344
        97   01 Jun 2027 20:20:30.363   01 Jun 2027 20:20:41.326            10.963                Irkutsk           342.594
        98   01 Jun 2027 20:29:17.970   01 Jun 2027 20:31:01.556           103.586                Sumatra          3237.063
        99   01 Jun 2027 20:31:55.080   01 Jun 2027 20:32:55.947            60.867                Sumatra          1902.094
       100   01 Jun 2027 20:35:13.373   01 Jun 2027 20:36:08.964            55.591                Sumatra          1737.219
       101   01 Jun 2027 21:44:11.506   01 Jun 2027 21:44:50.139            38.633                Norilsk          1207.281
       102   01 Jun 2027 21:45:10.882   01 Jun 2027 21:45:32.283            21.401                Norilsk           668.781
       103   01 Jun 2027 21:45:50.006   01 Jun 2027 21:46:10.999            20.993                Norilsk           656.031
       104   01 Jun 2027 21:48:08.649   01 Jun 2027 21:49:37.110            88.461                Irkutsk          2764.406
       105   01 Jun 2027 21:52:21.725   01 Jun 2027 21:52:24.178             2.453                Novosib            76.656
       106   01 Jun 2027 21:55:01.904   01 Jun 2027 21:55:53.854            51.950                Novosib          1623.437
       107   01 Jun 2027 22:06:29.063   01 Jun 2027 22:07:41.437            72.374                Sumatra          2261.687
       108   01 Jun 2027 22:13:46.634   01 Jun 2027 22:14:30.896            44.262                Sumatra          1383.188
       109   01 Jun 2027 23:15:55.250   01 Jun 2027 23:16:48.203            52.953                Anadyr2          1654.781
       110   01 Jun 2027 23:16:48.203   01 Jun 2027 23:18:06.553            78.350                Anadyr1          2448.437
       111   01 Jun 2027 23:20:11.243   01 Jun 2027 23:20:46.451            35.208                Norilsk          1100.250
       112   01 Jun 2027 23:20:46.674   01 Jun 2027 23:22:03.896            77.222               Magadan2          2413.188
       113   01 Jun 2027 23:23:26.865   01 Jun 2027 23:24:52.507            85.642              Murmansk2          2676.312
       114   01 Jun 2027 23:24:56.894   01 Jun 2027 23:26:44.400           107.506              Murmansk1          3359.563
       115   01 Jun 2027 23:31:23.287   01 Jun 2027 23:32:06.869            43.582                  Delhi          1361.937
       116   01 Jun 2027 23:32:24.883   01 Jun 2027 23:34:19.388           114.505                  Delhi          3578.281
       117   02 Jun 2027 00:49:14.627   02 Jun 2027 00:49:36.303            21.676                Anadyr2           677.375
       118   02 Jun 2027 00:49:52.774   02 Jun 2027 00:50:13.109            20.335                Anadyr2           635.469
       119   02 Jun 2027 00:50:52.806   02 Jun 2027 00:51:52.421            59.615                Anadyr1          1862.969
       120   02 Jun 2027 00:52:07.720   02 Jun 2027 00:52:17.191             9.471                Anadyr2           295.969
       121   02 Jun 2027 00:55:03.385   02 Jun 2027 00:55:14.351            10.966                Anadyr1           342.687
       122   02 Jun 2027 00:55:22.472   02 Jun 2027 00:58:26.363           183.891               Magadan1          5746.594
       123   02 Jun 2027 00:58:27.069   02 Jun 2027 01:00:53.403           146.334              Murmansk2          4572.937
       124   02 Jun 2027 01:03:41.896   02 Jun 2027 01:03:59.787            17.891                 Moscow           559.094
       125   02 Jun 2027 01:07:30.360   02 Jun 2027 01:08:08.944            38.584                 Moscow          1205.750
       126   02 Jun 2027 01:29:05.230   02 Jun 2027 01:31:00.037           114.807               CapeTown          3587.719
       127   02 Jun 2027 02:22:57.693   02 Jun 2027 02:24:34.653            96.960                Anadyr2          3030.000
       128   02 Jun 2027 02:25:10.111   02 Jun 2027 02:25:33.300            23.189                Anadyr1           724.656
       129   02 Jun 2027 02:25:55.572   02 Jun 2027 02:26:17.284            21.712                Anadyr2           678.500
       130   02 Jun 2027 02:27:06.488   02 Jun 2027 02:28:26.377            79.889               Magadan2          2496.531
       131   02 Jun 2027 02:33:36.206   02 Jun 2027 02:33:56.326            20.120                Norilsk           628.750
       132   02 Jun 2027 02:34:17.244   02 Jun 2027 02:35:57.100            99.856              Murmansk1          3120.500
       133   02 Jun 2027 02:37:03.624   02 Jun 2027 02:37:56.629            53.005                Novosib          1656.406
       134   02 Jun 2027 02:41:02.663   02 Jun 2027 02:41:05.991             3.328                Novosib           104.000
       135   02 Jun 2027 02:46:55.678   02 Jun 2027 02:47:12.688            17.010                 Moscow           531.563
       136   02 Jun 2027 02:48:32.858   02 Jun 2027 02:49:12.518            39.660                 Moscow          1239.375
       137   02 Jun 2027 03:08:25.877   02 Jun 2027 03:09:05.075            39.198               CapeTown          1224.938
       138   02 Jun 2027 04:04:40.333   02 Jun 2027 04:05:21.155            40.822               Magadan2          1275.687
       139   02 Jun 2027 04:05:21.155   02 Jun 2027 04:06:03.306            42.151               Magadan1          1317.219
       140   02 Jun 2027 04:06:07.113   02 Jun 2027 04:11:03.810           296.697                Anadyr1          9271.781
       141   02 Jun 2027 05:42:54.456   02 Jun 2027 05:45:11.698           137.242                Anadyr2          4288.812
       142   02 Jun 2027 05:45:28.289   02 Jun 2027 05:45:49.333            21.044                Anadyr1           657.625
       143   02 Jun 2027 07:17:28.255   02 Jun 2027 07:18:03.627            35.372                Anadyr2          1105.375
       144   02 Jun 2027 07:18:27.124   02 Jun 2027 07:21:37.403           190.279                Anadyr2          5946.219
       145   02 Jun 2027 07:21:41.881   02 Jun 2027 07:22:51.074            69.193                Novosib          2162.281
       146   02 Jun 2027 08:04:15.407   02 Jun 2027 08:04:52.909            37.502            RioGallegos          1171.937
       147   02 Jun 2027 08:34:42.560   02 Jun 2027 08:35:08.995            26.435                Sumatra           826.094
       148   02 Jun 2027 08:38:11.190   02 Jun 2027 08:39:06.499            55.309                Sumatra          1728.406
       149   02 Jun 2027 08:53:36.506   02 Jun 2027 08:55:04.439            87.933               Magadan2          2747.906
       150   02 Jun 2027 08:55:50.865   02 Jun 2027 08:56:08.953            18.088               Magadan1           565.250
       151   02 Jun 2027 08:56:35.412   02 Jun 2027 08:58:10.884            95.472                Irkutsk          2983.500
       152   02 Jun 2027 08:58:12.655   02 Jun 2027 08:59:00.678            48.023                Novosib          1500.719
       153   02 Jun 2027 10:12:08.971   02 Jun 2027 10:12:29.884            20.913                Sumatra           653.531
       154   02 Jun 2027 10:30:02.413   02 Jun 2027 10:30:07.837             5.424                Novosib           169.500
       155   02 Jun 2027 10:31:33.292   02 Jun 2027 10:31:45.016            11.724                Novosib           366.375
       156   02 Jun 2027 10:31:57.909   02 Jun 2027 10:32:00.951             3.042                Novosib            95.062
       157   02 Jun 2027 10:32:02.565   02 Jun 2027 10:32:09.024             6.459                Norilsk           201.844
       158   02 Jun 2027 10:32:09.852   02 Jun 2027 10:32:10.745             0.893                Norilsk            27.906
       159   02 Jun 2027 10:32:11.872   02 Jun 2027 10:32:57.927            46.055                Norilsk          1439.219
       160   02 Jun 2027 10:33:13.498   02 Jun 2027 10:33:50.613            37.115                Irkutsk          1159.844
       161   02 Jun 2027 10:33:55.492   02 Jun 2027 10:34:00.562             5.070                Novosib           158.437
       162   02 Jun 2027 10:34:07.217   02 Jun 2027 10:34:13.722             6.505                Norilsk           203.281
       163   02 Jun 2027 11:15:31.513   02 Jun 2027 11:16:03.153            31.640            RioGallegos           988.750
       164   02 Jun 2027 11:16:07.101   02 Jun 2027 11:16:28.762            21.661            RioGallegos           676.906
       165   02 Jun 2027 11:52:28.515   02 Jun 2027 11:53:41.071            72.556                  Delhi          2267.375
       166   02 Jun 2027 11:57:21.652   02 Jun 2027 11:57:32.047            10.395                  Delhi           324.844
       167   02 Jun 2027 12:00:14.451   02 Jun 2027 12:01:00.452            46.001                  Delhi          1437.531
       168   02 Jun 2027 12:07:58.674   02 Jun 2027 12:08:15.992            17.318                Novosib           541.188
       169   02 Jun 2027 12:09:58.518   02 Jun 2027 12:10:32.776            34.258                Novosib          1070.562
       170   02 Jun 2027 13:36:30.124   02 Jun 2027 13:40:39.066           248.942                 Moscow          7779.437
       171   02 Jun 2027 13:40:48.795   02 Jun 2027 13:42:12.129            83.334              Murmansk1          2604.188
       172   02 Jun 2027 13:43:41.076   02 Jun 2027 13:44:31.067            49.991              Murmansk2          1562.219
       173   02 Jun 2027 13:46:56.542   02 Jun 2027 13:47:12.957            16.415                Norilsk           512.969
       174   02 Jun 2027 14:50:39.761   02 Jun 2027 14:54:03.383           203.622               CapeTown          6363.188
       175   02 Jun 2027 15:15:31.555   02 Jun 2027 15:16:02.034            30.479                 Moscow           952.469
       176   02 Jun 2027 15:17:22.900   02 Jun 2027 15:17:28.884             5.984              Murmansk1           187.000
       177   02 Jun 2027 15:17:29.396   02 Jun 2027 15:18:22.923            53.527              Murmansk2          1672.719
       178   02 Jun 2027 15:21:12.993   02 Jun 2027 15:21:24.780            11.787              Murmansk1           368.344
       179   02 Jun 2027 15:21:33.806   02 Jun 2027 15:22:13.448            39.642              Murmansk1          1238.813
       180   02 Jun 2027 15:25:21.292   02 Jun 2027 15:27:02.529           101.237              Murmansk1          3163.656
       181   02 Jun 2027 15:30:53.956   02 Jun 2027 15:31:12.968            19.012                Anadyr2           594.125
       182   02 Jun 2027 15:31:13.447   02 Jun 2027 15:32:08.788            55.341                Anadyr2          1729.406
       183   02 Jun 2027 15:36:12.457   02 Jun 2027 15:36:17.650             5.193                Anadyr1           162.281
       184   02 Jun 2027 15:40:24.501   02 Jun 2027 15:40:25.935             1.434                Anadyr2            44.813
       185   02 Jun 2027 15:40:28.216   02 Jun 2027 15:40:48.094            19.878                Anadyr1           621.187
       186   02 Jun 2027 15:41:01.889   02 Jun 2027 15:41:08.827             6.938                Anadyr1           216.812
       187   02 Jun 2027 16:35:51.350   02 Jun 2027 16:35:55.715             4.365               CapeTown           136.406
       188   02 Jun 2027 16:36:41.656   02 Jun 2027 16:37:01.710            20.054               CapeTown           626.688
       189   02 Jun 2027 16:57:11.135   02 Jun 2027 16:59:15.488           124.353              Murmansk2          3886.031
       190   02 Jun 2027 17:00:47.834   02 Jun 2027 17:01:56.037            68.203              Murmansk1          2131.344
       191   02 Jun 2027 17:06:33.136   02 Jun 2027 17:07:46.698            73.562                Anadyr1          2298.812
       192   02 Jun 2027 17:09:38.729   02 Jun 2027 17:10:04.796            26.067               Magadan2           814.594
       193   02 Jun 2027 17:11:16.222   02 Jun 2027 17:12:21.740            65.518               Magadan1          2047.437
       194   02 Jun 2027 17:12:21.740   02 Jun 2027 17:12:46.331            24.591               Magadan2           768.469
       195   02 Jun 2027 17:18:38.959   02 Jun 2027 17:18:39.162             0.203               Magadan2             6.344
       196   02 Jun 2027 18:42:28.578   02 Jun 2027 18:47:46.844           318.266                Anadyr1          9945.812
       197   02 Jun 2027 18:47:56.202   02 Jun 2027 18:49:35.412            99.210               Magadan1          3100.312
       198   02 Jun 2027 19:38:35.816   02 Jun 2027 19:41:12.622           156.806            RioGallegos          4900.187
       199   02 Jun 2027 19:43:54.280   02 Jun 2027 19:44:26.677            32.397            RioGallegos          1012.406
       200   02 Jun 2027 20:18:17.162   02 Jun 2027 20:18:43.009            25.847                Anadyr1           807.719
       201   02 Jun 2027 20:19:51.900   02 Jun 2027 20:20:05.089            13.189                Anadyr1           412.156
       202   02 Jun 2027 20:20:27.444   02 Jun 2027 20:22:40.567           133.123                Norilsk          4160.094
       203   02 Jun 2027 20:22:47.151   02 Jun 2027 20:23:41.814            54.663                Norilsk          1708.219
       204   02 Jun 2027 20:25:20.691   02 Jun 2027 20:26:12.083            51.392                Irkutsk          1606.000
       205   02 Jun 2027 20:26:36.567   02 Jun 2027 20:28:33.530           116.963                Irkutsk          3655.094
       206   02 Jun 2027 20:29:42.411   02 Jun 2027 20:30:03.008            20.597                Irkutsk           643.656
       207   02 Jun 2027 20:30:10.787   02 Jun 2027 20:30:28.539            17.752                Irkutsk           554.750
       208   02 Jun 2027 20:40:13.917   02 Jun 2027 20:42:35.263           141.346                Sumatra          4417.062
       209   02 Jun 2027 20:46:52.502   02 Jun 2027 20:48:12.997            80.495                Sumatra          2515.469
       210   02 Jun 2027 22:00:07.573   02 Jun 2027 22:01:32.209            84.636                Irkutsk          2644.875
       211   02 Jun 2027 22:01:42.045   02 Jun 2027 22:04:17.987           155.942                Novosib          4873.188
       212   02 Jun 2027 22:10:38.769   02 Jun 2027 22:12:30.979           112.210                  Delhi          3506.563
       213   02 Jun 2027 23:32:13.189   02 Jun 2027 23:32:26.350            13.161                Norilsk           411.281
       214   02 Jun 2027 23:32:34.964   02 Jun 2027 23:32:41.604             6.640                Anadyr1           207.500
       215   02 Jun 2027 23:32:46.378   02 Jun 2027 23:32:52.072             5.694               Magadan1           177.938
       216   02 Jun 2027 23:32:52.072   02 Jun 2027 23:34:07.762            75.690               Magadan2          2365.313
       217   02 Jun 2027 23:35:08.731   02 Jun 2027 23:39:39.254           270.523              Murmansk2          8453.844
       218   03 Jun 2027 00:25:16.679   03 Jun 2027 00:26:02.963            46.284            RioGallegos          1446.375
       219   03 Jun 2027 01:00:56.383   03 Jun 2027 01:01:18.600            22.217                Anadyr1           694.281
       220   03 Jun 2027 01:01:18.600   03 Jun 2027 01:01:50.882            32.282                Anadyr2          1008.812
       221   03 Jun 2027 01:01:52.185   03 Jun 2027 01:02:14.022            21.837                Anadyr2           682.406
       222   03 Jun 2027 01:02:54.122   03 Jun 2027 01:03:38.499            44.377                Anadyr1          1386.781
       223   03 Jun 2027 01:06:47.350   03 Jun 2027 01:06:48.852             1.502                Anadyr2            46.937
       224   03 Jun 2027 01:06:52.449   03 Jun 2027 01:07:18.724            26.275                Anadyr2           821.094
       225   03 Jun 2027 01:07:39.396   03 Jun 2027 01:08:41.419            62.023               Magadan1          1938.219
       226   03 Jun 2027 01:08:41.419   03 Jun 2027 01:08:57.977            16.558               Magadan2           517.438
       227   03 Jun 2027 01:09:07.102   03 Jun 2027 01:10:42.444            95.342               Magadan2          2979.438
       228   03 Jun 2027 01:10:59.214   03 Jun 2027 01:12:42.118           102.904              Murmansk1          3215.750
       229   03 Jun 2027 01:19:15.690   03 Jun 2027 01:19:29.761            14.071                 Moscow           439.719
       230   03 Jun 2027 01:19:52.953   03 Jun 2027 01:19:58.619             5.666                 Moscow           177.063
       231   03 Jun 2027 01:20:10.806   03 Jun 2027 01:20:16.389             5.583                 Moscow           174.469
       232   03 Jun 2027 01:22:14.204   03 Jun 2027 01:22:26.513            12.309                  Delhi           384.656
       233   03 Jun 2027 01:24:31.220   03 Jun 2027 01:24:33.461             2.241                 Moscow            70.031
       234   03 Jun 2027 01:25:00.611   03 Jun 2027 01:26:00.848            60.237                  Delhi          1882.406
       235   03 Jun 2027 01:43:06.054   03 Jun 2027 01:44:01.191            55.137               CapeTown          1723.031
       236   03 Jun 2027 02:34:47.696   03 Jun 2027 02:35:49.243            61.547                Anadyr2          1923.344
       237   03 Jun 2027 02:35:49.243   03 Jun 2027 02:35:51.860             2.617                Anadyr1            81.781
       238   03 Jun 2027 02:35:54.751   03 Jun 2027 02:37:22.670            87.919                Anadyr2          2747.469
       239   03 Jun 2027 02:38:58.321   03 Jun 2027 02:39:30.537            32.216               Magadan1          1006.750
       240   03 Jun 2027 02:43:44.600   03 Jun 2027 02:44:00.298            15.698                Norilsk           490.562
       241   03 Jun 2027 02:44:13.915   03 Jun 2027 02:44:41.354            27.439                Norilsk           857.469
       242   03 Jun 2027 02:46:19.051   03 Jun 2027 02:46:40.362            21.311              Murmansk1           665.969
       243   03 Jun 2027 02:46:46.933   03 Jun 2027 02:47:31.550            44.617              Murmansk2          1394.281
       244   03 Jun 2027 02:48:00.068   03 Jun 2027 02:48:31.110            31.042              Murmansk1           970.062
       245   03 Jun 2027 02:48:51.702   03 Jun 2027 02:49:19.973            28.271                Novosib           883.469
       246   03 Jun 2027 02:53:13.449   03 Jun 2027 02:53:27.314            13.865                 Moscow           433.281
       247   03 Jun 2027 02:54:51.507   03 Jun 2027 02:56:19.323            87.816                 Moscow          2744.250
       248   03 Jun 2027 04:16:49.751   03 Jun 2027 04:20:43.148           233.397               Magadan1          7293.656
       249   03 Jun 2027 04:21:03.877   03 Jun 2027 04:21:11.131             7.254               Magadan1           226.687
       250   03 Jun 2027 04:21:50.167   03 Jun 2027 04:22:40.660            50.493               Magadan1          1577.906
       251   03 Jun 2027 05:54:41.073   03 Jun 2027 05:54:43.221             2.148               Magadan1            67.125
       252   03 Jun 2027 05:54:51.657   03 Jun 2027 05:55:01.031             9.374               Magadan2           292.937
       253   03 Jun 2027 05:55:01.031   03 Jun 2027 05:55:11.804            10.773               Magadan1           336.656
       254   03 Jun 2027 05:55:23.138   03 Jun 2027 05:58:35.468           192.330               Magadan2          6010.312
       255   03 Jun 2027 07:28:06.469   03 Jun 2027 07:28:09.426             2.957               Magadan1            92.406
       256   03 Jun 2027 07:28:12.962   03 Jun 2027 07:28:15.301             2.339               Magadan2            73.094
       257   03 Jun 2027 07:28:25.725   03 Jun 2027 07:29:06.243            40.518               Magadan2          1266.187
       258   03 Jun 2027 07:29:14.231   03 Jun 2027 07:30:07.633            53.402                Anadyr1          1668.813
       259   03 Jun 2027 07:30:16.407   03 Jun 2027 07:31:28.638            72.231                Anadyr2          2257.219
       260   03 Jun 2027 07:31:28.638   03 Jun 2027 07:32:32.675            64.037                Anadyr1          2001.156
       261   03 Jun 2027 07:32:50.171   03 Jun 2027 07:32:57.831             7.660               Magadan1           239.375
       262   03 Jun 2027 07:32:58.842   03 Jun 2027 07:33:40.768            41.926               Magadan1          1310.188
       263   03 Jun 2027 07:34:03.930   03 Jun 2027 07:34:14.776            10.846               Magadan2           338.938
       264   03 Jun 2027 07:34:14.776   03 Jun 2027 07:34:19.266             4.490               Magadan1           140.313
       265   03 Jun 2027 07:35:52.739   03 Jun 2027 07:36:24.710            31.971                Norilsk           999.094
       266   03 Jun 2027 08:09:18.325   03 Jun 2027 08:09:55.866            37.541            RioGallegos          1173.156
       267   03 Jun 2027 08:11:01.527   03 Jun 2027 08:12:02.270            60.743            RioGallegos          1898.219
       268   03 Jun 2027 08:50:36.040   03 Jun 2027 08:51:34.237            58.197                Sumatra          1818.656
       269   03 Jun 2027 09:06:12.081   03 Jun 2027 09:06:20.448             8.367                Irkutsk           261.469
       270   03 Jun 2027 09:06:32.671   03 Jun 2027 09:07:06.654            33.983                Irkutsk          1061.969
       271   03 Jun 2027 09:08:21.941   03 Jun 2027 09:08:32.356            10.415                Irkutsk           325.469
       272   03 Jun 2027 09:08:50.379   03 Jun 2027 09:09:29.851            39.472                Irkutsk          1233.500
       273   03 Jun 2027 09:10:00.253   03 Jun 2027 09:10:10.106             9.853                Irkutsk           307.906
       274   03 Jun 2027 09:45:47.432   03 Jun 2027 09:46:03.418            15.986            RioGallegos           499.563
       275   03 Jun 2027 09:46:30.281   03 Jun 2027 09:46:30.602             0.321            RioGallegos            10.031
       276   03 Jun 2027 09:47:44.971   03 Jun 2027 09:48:03.426            18.455            RioGallegos           576.719
       277   03 Jun 2027 09:48:25.745   03 Jun 2027 09:49:17.568            51.823            RioGallegos          1619.469
       278   03 Jun 2027 10:20:08.221   03 Jun 2027 10:21:06.208            57.987                Sumatra          1812.094
       279   03 Jun 2027 10:30:57.879   03 Jun 2027 10:31:02.447             4.568                  Delhi           142.750
       280   03 Jun 2027 10:42:08.419   03 Jun 2027 10:43:08.656            60.237                Novosib          1882.406
       281   03 Jun 2027 10:43:20.051   03 Jun 2027 10:43:41.882            21.831                Novosib           682.219
       282   03 Jun 2027 10:43:50.896   03 Jun 2027 10:43:53.528             2.632                Novosib            82.250
       283   03 Jun 2027 10:43:56.172   03 Jun 2027 10:44:03.125             6.953                Novosib           217.281
       284   03 Jun 2027 10:44:09.193   03 Jun 2027 10:44:10.239             1.046                Norilsk            32.687
       285   03 Jun 2027 10:44:18.946   03 Jun 2027 10:44:40.069            21.123                Norilsk           660.094
       286   03 Jun 2027 10:44:51.752   03 Jun 2027 10:45:40.756            49.004                Norilsk          1531.375
       287   03 Jun 2027 10:45:45.260   03 Jun 2027 10:45:56.981            11.721                Novosib           366.281
       288   03 Jun 2027 12:04:50.117   03 Jun 2027 12:07:41.488           171.371                  Delhi          5355.344
       289   03 Jun 2027 12:13:05.370   03 Jun 2027 12:13:58.052            52.682                Novosib          1646.312
       290   03 Jun 2027 12:16:56.690   03 Jun 2027 12:17:29.917            33.227                Norilsk          1038.344
       291   03 Jun 2027 13:48:34.728   03 Jun 2027 13:52:19.617           224.889                 Moscow          7027.781
       292   03 Jun 2027 13:52:48.750   03 Jun 2027 13:54:56.504           127.754              Murmansk1          3992.312
       293   03 Jun 2027 13:55:19.656   03 Jun 2027 13:55:33.156            13.500              Murmansk1           421.875
       294   03 Jun 2027 13:57:43.983   03 Jun 2027 13:57:44.527             0.544              Murmansk2            17.000
       295   03 Jun 2027 13:57:48.631   03 Jun 2027 13:58:42.645            54.014                Norilsk          1687.937
       296   03 Jun 2027 13:59:09.295   03 Jun 2027 13:59:48.123            38.828                Norilsk          1213.375
       297   03 Jun 2027 14:09:14.821   03 Jun 2027 14:11:18.708           123.887                Anadyr1          3871.469
       298   03 Jun 2027 15:03:34.181   03 Jun 2027 15:04:36.272            62.091               CapeTown          1940.344
       299   03 Jun 2027 15:28:04.378   03 Jun 2027 15:28:33.846            29.468                 Moscow           920.875
       300   03 Jun 2027 15:29:44.258   03 Jun 2027 15:30:33.898            49.640              Murmansk1          1551.250
       301   03 Jun 2027 15:31:33.544   03 Jun 2027 15:32:37.757            64.213              Murmansk1          2006.656
       302   03 Jun 2027 15:42:50.957   03 Jun 2027 15:45:01.743           130.786                Anadyr1          4087.062
       303   03 Jun 2027 15:48:34.284   03 Jun 2027 15:48:43.926             9.642                Anadyr1           301.313
       304   03 Jun 2027 16:39:37.141   03 Jun 2027 16:39:55.173            18.032               CapeTown           563.500
       305   03 Jun 2027 16:43:56.989   03 Jun 2027 16:44:35.624            38.635               CapeTown          1207.344
       306   03 Jun 2027 16:49:31.346   03 Jun 2027 16:49:43.858            12.512               CapeTown           391.000
       307   03 Jun 2027 17:09:57.329   03 Jun 2027 17:12:45.121           167.792              Murmansk1          5243.500
       308   03 Jun 2027 17:18:34.212   03 Jun 2027 17:19:16.181            41.969                Anadyr2          1311.531
       309   03 Jun 2027 17:19:31.495   03 Jun 2027 17:20:11.404            39.909                Anadyr1          1247.156
       310   03 Jun 2027 17:21:28.173   03 Jun 2027 17:23:15.662           107.489               Magadan1          3359.031
       311   03 Jun 2027 17:27:06.875   03 Jun 2027 17:27:24.093            17.218               Magadan2           538.062
       312   03 Jun 2027 17:29:54.263   03 Jun 2027 17:30:12.034            17.771               Magadan2           555.344
       313   03 Jun 2027 17:30:43.237   03 Jun 2027 17:31:05.661            22.424               Magadan2           700.750
       314   03 Jun 2027 18:54:29.868   03 Jun 2027 18:56:27.614           117.746                Anadyr2          3679.562
       315   03 Jun 2027 18:56:35.215   03 Jun 2027 18:58:14.410            99.195                Anadyr1          3099.844
       316   03 Jun 2027 18:58:14.557   03 Jun 2027 18:59:37.747            83.190               Magadan1          2599.687
       317   03 Jun 2027 18:59:54.674   03 Jun 2027 19:00:56.788            62.114               Magadan1          1941.062
       318   03 Jun 2027 19:49:57.861   03 Jun 2027 19:52:57.265           179.404            RioGallegos          5606.375
       319   03 Jun 2027 19:56:28.227   03 Jun 2027 19:57:04.270            36.043            RioGallegos          1126.344
       320   03 Jun 2027 20:30:41.925   03 Jun 2027 20:30:44.743             2.818                Anadyr2            88.062
       321   03 Jun 2027 20:32:25.220   03 Jun 2027 20:36:13.810           228.590                Norilsk          7143.437
       322   03 Jun 2027 20:37:45.103   03 Jun 2027 20:38:35.690            50.587                Irkutsk          1580.844
       323   03 Jun 2027 20:40:09.352   03 Jun 2027 20:40:28.562            19.210                Irkutsk           600.313
       324   03 Jun 2027 20:46:00.807   03 Jun 2027 20:46:28.024            27.217                Irkutsk           850.531
       325   03 Jun 2027 20:51:29.948   03 Jun 2027 20:54:16.832           166.884                Sumatra          5215.125
       326   03 Jun 2027 20:57:52.215   03 Jun 2027 20:58:23.209            30.994                Sumatra           968.562
       327   03 Jun 2027 22:08:39.560   03 Jun 2027 22:08:47.985             8.425                Norilsk           263.281
       328   03 Jun 2027 22:08:51.332   03 Jun 2027 22:09:17.287            25.955               Magadan1           811.094
       329   03 Jun 2027 22:11:12.929   03 Jun 2027 22:11:33.018            20.089               Magadan1           627.781
       330   03 Jun 2027 22:12:06.990   03 Jun 2027 22:12:20.245            13.255               Magadan1           414.219
       331   03 Jun 2027 22:12:37.567   03 Jun 2027 22:16:13.453           215.886                Novosib          6746.438
       332   03 Jun 2027 22:21:36.974   03 Jun 2027 22:24:07.594           150.620                  Delhi          4706.875
       333   03 Jun 2027 23:44:15.055   03 Jun 2027 23:45:52.093            97.038                Norilsk          3032.438
       334   03 Jun 2027 23:45:59.115   03 Jun 2027 23:46:10.376            11.261                Norilsk           351.906
       335   03 Jun 2027 23:46:57.653   03 Jun 2027 23:48:52.321           114.668              Murmansk2          3583.375
       336   03 Jun 2027 23:49:00.147   03 Jun 2027 23:50:34.639            94.492              Murmansk1          2952.875
       337   03 Jun 2027 23:51:38.521   03 Jun 2027 23:53:06.626            88.105              Murmansk2          2753.281
       338   04 Jun 2027 00:39:27.102   04 Jun 2027 00:39:52.006            24.904            RioGallegos           778.250
       339   04 Jun 2027 00:42:37.920   04 Jun 2027 00:42:52.573            14.653            RioGallegos           457.906
       340   04 Jun 2027 01:12:38.725   04 Jun 2027 01:13:11.325            32.600                Anadyr1          1018.750
       341   04 Jun 2027 01:13:12.992   04 Jun 2027 01:13:48.095            35.103                Anadyr2          1096.969
       342   04 Jun 2027 01:14:14.712   04 Jun 2027 01:14:55.466            40.754                Anadyr2          1273.562
       343   04 Jun 2027 01:18:29.563   04 Jun 2027 01:20:32.391           122.828               Magadan1          3838.375
       344   04 Jun 2027 01:20:58.442   04 Jun 2027 01:21:00.229             1.787               Magadan2            55.844
       345   04 Jun 2027 01:22:24.195   04 Jun 2027 01:23:42.305            78.110              Murmansk1          2440.937
       346   04 Jun 2027 01:23:42.786   04 Jun 2027 01:24:30.282            47.496              Murmansk2          1484.250
       347   04 Jun 2027 01:24:36.608   04 Jun 2027 01:25:26.577            49.969                Novosib          1561.531
       348   04 Jun 2027 01:29:58.031   04 Jun 2027 01:31:18.008            79.977              Murmansk2          2499.281
       349   04 Jun 2027 01:51:29.214   04 Jun 2027 01:51:37.476             8.262               CapeTown           258.188
       350   04 Jun 2027 01:52:27.766   04 Jun 2027 01:52:59.173            31.407               CapeTown           981.469
       351   04 Jun 2027 01:58:33.871   04 Jun 2027 01:58:57.404            23.533               CapeTown           735.406
       352   04 Jun 2027 02:46:39.184   04 Jun 2027 02:49:12.102           152.918                Anadyr1          4778.687
       353   04 Jun 2027 02:50:06.964   04 Jun 2027 02:50:32.115            25.151               Magadan1           785.969
       354   04 Jun 2027 02:51:33.247   04 Jun 2027 02:52:14.402            41.155               Magadan2          1286.094
       355   04 Jun 2027 02:55:41.448   04 Jun 2027 02:56:01.089            19.641                Norilsk           613.781
       356   04 Jun 2027 02:57:45.914   04 Jun 2027 02:57:51.729             5.815                Norilsk           181.719
       357   04 Jun 2027 02:58:20.860   04 Jun 2027 03:00:01.507           100.647              Murmansk1          3145.219
       358   04 Jun 2027 03:05:14.934   04 Jun 2027 03:05:29.983            15.049                Novosib           470.281
       359   04 Jun 2027 03:05:36.391   04 Jun 2027 03:06:49.701            73.310              Murmansk2          2290.938
       360   04 Jun 2027 03:06:54.151   04 Jun 2027 03:08:34.056            99.905                 Moscow          3122.031
       361   04 Jun 2027 03:08:51.666   04 Jun 2027 03:09:31.429            39.763                 Moscow          1242.594
       362   04 Jun 2027 03:09:36.099   04 Jun 2027 03:10:19.452            43.353              Murmansk1          1354.781
       363   04 Jun 2027 03:25:30.571   04 Jun 2027 03:27:43.929           133.358               CapeTown          4167.438
       364   04 Jun 2027 04:22:17.534   04 Jun 2027 04:24:12.019           114.485                Anadyr2          3577.656
       365   04 Jun 2027 04:28:32.713   04 Jun 2027 04:29:04.397            31.684               Magadan1           990.125
       366   04 Jun 2027 04:29:13.881   04 Jun 2027 04:31:11.700           117.819                Anadyr2          3681.844
       367   04 Jun 2027 06:07:19.603   04 Jun 2027 06:08:53.138            93.535               Magadan1          2922.969
       368   04 Jun 2027 06:09:31.086   04 Jun 2027 06:10:09.425            38.339                Anadyr2          1198.094
       369   04 Jun 2027 07:40:17.064   04 Jun 2027 07:40:35.085            18.021               Magadan1           563.156
       370   04 Jun 2027 07:40:47.636   04 Jun 2027 07:41:02.480            14.844               Magadan2           463.875
       371   04 Jun 2027 07:41:07.815   04 Jun 2027 07:41:43.764            35.949               Magadan1          1123.406
       372   04 Jun 2027 07:42:38.132   04 Jun 2027 07:42:51.769            13.637               Magadan1           426.156
       373   04 Jun 2027 07:43:11.231   04 Jun 2027 07:43:30.188            18.957               Magadan2           592.406
       374   04 Jun 2027 07:43:39.932   04 Jun 2027 07:44:50.765            70.833               Magadan2          2213.531
       375   04 Jun 2027 07:45:02.124   04 Jun 2027 07:45:27.112            24.988               Magadan1           780.875
       376   04 Jun 2027 07:45:55.412   04 Jun 2027 07:46:08.557            13.145               Magadan2           410.781
       377   04 Jun 2027 07:50:19.020   04 Jun 2027 07:50:56.319            37.299              Murmansk2          1165.594
       378   04 Jun 2027 08:21:12.029   04 Jun 2027 08:22:06.241            54.212            RioGallegos          1694.125
       379   04 Jun 2027 08:57:12.836   04 Jun 2027 08:58:01.660            48.824                Sumatra          1525.750
       380   04 Jun 2027 09:01:13.526   04 Jun 2027 09:02:23.825            70.299                Sumatra          2196.844
       381   04 Jun 2027 09:18:00.080   04 Jun 2027 09:18:00.281             0.201                Irkutsk             6.281
       382   04 Jun 2027 09:18:15.068   04 Jun 2027 09:18:59.715            44.647                Novosib          1395.219
       383   04 Jun 2027 09:19:08.844   04 Jun 2027 09:19:19.024            10.180                Norilsk           318.125
       384   04 Jun 2027 09:19:27.806   04 Jun 2027 09:19:47.649            19.843                Norilsk           620.094
       385   04 Jun 2027 09:20:13.392   04 Jun 2027 09:20:16.280             2.888                Norilsk            90.250
       386   04 Jun 2027 09:20:27.830   04 Jun 2027 09:20:28.037             0.207                Irkutsk             6.469
       387   04 Jun 2027 09:21:20.368   04 Jun 2027 09:21:40.474            20.106                Irkutsk           628.313
       388   04 Jun 2027 09:22:10.962   04 Jun 2027 09:22:25.917            14.955                Irkutsk           467.344
       389   04 Jun 2027 09:58:10.651   04 Jun 2027 09:58:38.862            28.211            RioGallegos           881.594
       390   04 Jun 2027 09:59:06.724   04 Jun 2027 09:59:29.587            22.863            RioGallegos           714.469
       391   04 Jun 2027 10:00:31.445   04 Jun 2027 10:01:11.365            39.920            RioGallegos          1247.500
       392   04 Jun 2027 10:32:25.678   04 Jun 2027 10:33:57.070            91.392                Sumatra          2856.000
       393   04 Jun 2027 10:54:07.540   04 Jun 2027 10:54:50.302            42.762                Irkutsk          1336.313
       394   04 Jun 2027 10:55:25.561   04 Jun 2027 10:56:27.710            62.149                Irkutsk          1942.156
       395   04 Jun 2027 10:56:46.192   04 Jun 2027 10:57:25.233            39.041                Novosib          1220.031
       396   04 Jun 2027 10:57:42.648   04 Jun 2027 10:57:47.086             4.438                Norilsk           138.688
       397   04 Jun 2027 12:17:19.812   04 Jun 2027 12:20:38.215           198.403                  Delhi          6200.094
       398   04 Jun 2027 12:25:43.958   04 Jun 2027 12:25:44.802             0.844                Novosib            26.375
       399   04 Jun 2027 12:26:34.206   04 Jun 2027 12:27:04.613            30.407                Novosib           950.219
       400   04 Jun 2027 12:28:52.628   04 Jun 2027 12:30:03.864            71.236                Novosib          2226.125
       401   04 Jun 2027 12:36:23.174   04 Jun 2027 12:36:36.853            13.679              Murmansk2           427.469
       402   04 Jun 2027 12:40:08.376   04 Jun 2027 12:40:15.123             6.747              Murmansk2           210.844
       403   04 Jun 2027 14:00:42.403   04 Jun 2027 14:02:33.478           111.075                 Moscow          3471.094
       404   04 Jun 2027 14:04:13.780   04 Jun 2027 14:06:20.628           126.848              Murmansk1          3964.000
       405   04 Jun 2027 14:06:20.628   04 Jun 2027 14:08:27.649           127.021              Murmansk2          3969.406
       406   04 Jun 2027 14:10:52.854   04 Jun 2027 14:12:56.171           123.317                Norilsk          3853.656
       407   04 Jun 2027 14:20:20.404   04 Jun 2027 14:22:16.593           116.189                Anadyr1          3630.906
       408   04 Jun 2027 14:22:41.172   04 Jun 2027 14:23:22.850            41.678                Anadyr1          1302.438
       409   04 Jun 2027 15:39:50.655   04 Jun 2027 15:40:06.148            15.493                 Moscow           484.156
       410   04 Jun 2027 15:42:07.926   04 Jun 2027 15:42:37.484            29.558              Murmansk1           923.688
       411   04 Jun 2027 15:42:48.827   04 Jun 2027 15:43:17.714            28.887              Murmansk2           902.719
       412   04 Jun 2027 15:45:13.741   04 Jun 2027 15:45:36.522            22.781              Murmansk2           711.906
       413   04 Jun 2027 15:51:21.268   04 Jun 2027 15:51:51.631            30.363              Murmansk2           948.844
       414   04 Jun 2027 15:54:48.922   04 Jun 2027 15:57:02.756           133.834                Anadyr2          4182.312
       415   04 Jun 2027 16:00:54.456   04 Jun 2027 16:01:07.619            13.163                Anadyr1           411.344
       416   04 Jun 2027 16:50:34.759   04 Jun 2027 16:51:02.517            27.758               CapeTown           867.437
       417   04 Jun 2027 16:55:46.170   04 Jun 2027 16:55:58.975            12.805               CapeTown           400.156
       418   04 Jun 2027 17:22:49.779   04 Jun 2027 17:26:59.268           249.489              Murmansk2          7796.531
       419   04 Jun 2027 17:30:35.455   04 Jun 2027 17:31:09.788            34.333                Anadyr1          1072.906
       420   04 Jun 2027 17:33:20.284   04 Jun 2027 17:35:19.199           118.915               Magadan2          3716.094
       421   04 Jun 2027 19:06:31.020   04 Jun 2027 19:10:26.325           235.305                Anadyr1          7353.281
       422   04 Jun 2027 19:10:37.227   04 Jun 2027 19:12:41.607           124.380               Magadan2          3886.875
       423   04 Jun 2027 19:12:57.725   04 Jun 2027 19:13:16.815            19.090               Magadan1           596.562
       424   04 Jun 2027 19:19:46.238   04 Jun 2027 19:19:47.538             1.300               Magadan2            40.625
       425   04 Jun 2027 19:19:49.960   04 Jun 2027 19:20:34.433            44.473               Magadan2          1389.781
       426   04 Jun 2027 20:01:32.592   04 Jun 2027 20:04:39.197           186.605            RioGallegos          5831.406
       427   04 Jun 2027 20:42:14.372   04 Jun 2027 20:44:27.341           132.969                Anadyr1          4155.281
       428   04 Jun 2027 20:44:43.670   04 Jun 2027 20:46:43.748           120.078                Norilsk          3752.437
       429   04 Jun 2027 20:47:04.702   04 Jun 2027 20:47:33.842            29.140                Norilsk           910.625
       430   04 Jun 2027 20:48:51.308   04 Jun 2027 20:49:28.430            37.122                Irkutsk          1160.062
       431   04 Jun 2027 20:50:35.797   04 Jun 2027 20:51:21.585            45.788                Irkutsk          1430.875
       432   04 Jun 2027 20:52:13.801   04 Jun 2027 20:52:22.633             8.832                Irkutsk           276.000
       433   04 Jun 2027 21:02:58.284   04 Jun 2027 21:06:05.021           186.737                Sumatra          5835.531
       434   04 Jun 2027 22:22:18.803   04 Jun 2027 22:22:59.982            41.179               Magadan1          1286.844
       435   04 Jun 2027 22:23:18.526   04 Jun 2027 22:23:50.564            32.038               Magadan1          1001.188
       436   04 Jun 2027 22:24:25.992   04 Jun 2027 22:25:13.242            47.250                Irkutsk          1476.563
       437   04 Jun 2027 22:25:58.178   04 Jun 2027 22:26:30.413            32.235                Novosib          1007.344
       438   04 Jun 2027 22:27:45.312   04 Jun 2027 22:29:11.188            85.876                Novosib          2683.625
       439   04 Jun 2027 22:32:57.139   04 Jun 2027 22:35:03.978           126.839                  Delhi          3963.719
       440   04 Jun 2027 23:53:22.038   04 Jun 2027 23:53:51.835            29.797                Anadyr1           931.156
       441   04 Jun 2027 23:54:55.095   04 Jun 2027 23:55:25.649            30.554                Anadyr2           954.812
       442   04 Jun 2027 23:56:16.811   04 Jun 2027 23:57:06.475            49.664                Norilsk          1552.000
       443   04 Jun 2027 23:57:41.096   04 Jun 2027 23:58:46.839            65.743               Magadan1          2054.469
       444   04 Jun 2027 23:58:50.386   05 Jun 2027 00:02:32.112           221.726              Murmansk2          6928.938
       445   05 Jun 2027 00:03:37.381   05 Jun 2027 00:03:46.341             8.960              Murmansk1           280.000
       446   05 Jun 2027 00:04:11.481   05 Jun 2027 00:04:51.561            40.080              Murmansk1          1252.500
       447   05 Jun 2027 00:50:10.919   05 Jun 2027 00:50:25.437            14.518            RioGallegos           453.688
       448   05 Jun 2027 00:51:17.893   05 Jun 2027 00:51:39.709            21.816            RioGallegos           681.750
       449   05 Jun 2027 00:53:43.463   05 Jun 2027 00:54:15.691            32.228            RioGallegos          1007.125
       450   05 Jun 2027 01:24:21.810   05 Jun 2027 01:25:04.902            43.092                Anadyr1          1346.625
       451   05 Jun 2027 01:25:44.153   05 Jun 2027 01:25:54.774            10.621                Anadyr1           331.906
       452   05 Jun 2027 01:26:15.124   05 Jun 2027 01:26:56.796            41.672                Anadyr2          1302.250
       453   05 Jun 2027 01:27:33.380   05 Jun 2027 01:27:38.699             5.319                Anadyr1           166.219
       454   05 Jun 2027 01:29:59.454   05 Jun 2027 01:30:40.535            41.081               Magadan1          1283.781
       455   05 Jun 2027 01:30:58.596   05 Jun 2027 01:32:19.194            80.598               Magadan2          2518.688
       456   05 Jun 2027 01:32:19.194   05 Jun 2027 01:32:25.556             6.362               Magadan1           198.812
       457   05 Jun 2027 01:34:24.157   05 Jun 2027 01:34:36.193            12.036               Magadan2           376.125
       458   05 Jun 2027 01:34:45.621   05 Jun 2027 01:37:48.332           182.711              Murmansk2          5709.719
       459   05 Jun 2027 01:47:30.414   05 Jun 2027 01:48:32.766            62.352                 Moscow          1948.500
       460   05 Jun 2027 02:04:00.675   05 Jun 2027 02:04:01.241             0.566               CapeTown            17.688
       461   05 Jun 2027 02:04:32.376   05 Jun 2027 02:05:16.288            43.912               CapeTown          1372.250
       462   05 Jun 2027 02:10:44.723   05 Jun 2027 02:12:08.749            84.026               CapeTown          2625.813
       463   05 Jun 2027 02:58:32.236   05 Jun 2027 02:59:53.438            81.202                Anadyr1          2537.562
       464   05 Jun 2027 03:18:28.200   05 Jun 2027 03:18:59.972            31.772                Norilsk           992.875
       465   05 Jun 2027 03:20:13.214   05 Jun 2027 03:20:15.315             2.101              Murmansk2            65.656
       466   05 Jun 2027 03:20:30.971   05 Jun 2027 03:21:23.264            52.293              Murmansk2          1634.156
       467   05 Jun 2027 04:34:25.519   05 Jun 2027 04:34:58.815            33.296                Anadyr2          1040.500
       468   05 Jun 2027 04:35:12.195   05 Jun 2027 04:36:18.339            66.144               Magadan1          2067.000
       469   05 Jun 2027 04:40:48.069   05 Jun 2027 04:40:52.230             4.161               Magadan2           130.031
       470   05 Jun 2027 04:41:01.041   05 Jun 2027 04:41:06.757             5.716               Magadan2           178.625
       471   05 Jun 2027 04:41:06.757   05 Jun 2027 04:41:39.185            32.428               Magadan1          1013.375
       472   05 Jun 2027 04:41:44.628   05 Jun 2027 04:42:28.284            43.656               Magadan1          1364.250
       473   05 Jun 2027 04:42:28.284   05 Jun 2027 04:42:52.301            24.017               Magadan2           750.531
       474   05 Jun 2027 04:43:17.641   05 Jun 2027 04:44:19.758            62.117                Anadyr2          1941.156
       475   05 Jun 2027 04:44:19.758   05 Jun 2027 04:47:07.308           167.550                Anadyr1          5235.938
       476   05 Jun 2027 06:18:29.337   05 Jun 2027 06:18:33.276             3.939                Anadyr1           123.094
       477   05 Jun 2027 06:18:48.539   05 Jun 2027 06:18:53.055             4.516               Magadan1           141.125
       478   05 Jun 2027 06:18:53.055   05 Jun 2027 06:18:55.159             2.104               Magadan2            65.750
       479   05 Jun 2027 06:19:01.809   05 Jun 2027 06:19:07.487             5.678               Magadan2           177.437
       480   05 Jun 2027 06:19:07.487   05 Jun 2027 06:19:33.331            25.844               Magadan1           807.625
       481   05 Jun 2027 06:19:37.049   05 Jun 2027 06:20:06.666            29.617                Anadyr1           925.531
       482   05 Jun 2027 06:21:14.775   05 Jun 2027 06:21:32.739            17.964                Anadyr2           561.375
