uniorb/output/strategy_4/Drop/Drop_KinoSat_111409.txt

KinoSat_111409
-------------------------
    Access    *     Start Time (UTCG)     *     Stop Time (UTCG)  *   Duration (s)        *       Station  *  Data (Mbytes)
         1   01 Jun 2027 04:24:22.166   01 Jun 2027 04:24:24.191             2.025                Norilsk            63.281
         2   01 Jun 2027 04:24:25.965   01 Jun 2027 04:25:11.408            45.443              Murmansk2          1420.094
         3   01 Jun 2027 04:25:26.086   01 Jun 2027 04:27:59.436           153.350              Murmansk1          4792.187
         4   01 Jun 2027 04:49:17.226   01 Jun 2027 04:51:18.294           121.068               CapeTown          3783.375
         5   01 Jun 2027 05:45:56.453   01 Jun 2027 05:46:30.351            33.898                Anadyr2          1059.312
         6   01 Jun 2027 05:47:19.736   01 Jun 2027 05:49:30.861           131.125               Magadan2          4097.656
         7   01 Jun 2027 05:49:30.861   01 Jun 2027 05:49:39.095             8.234               Magadan1           257.312
         8   01 Jun 2027 05:49:56.971   01 Jun 2027 05:51:06.824            69.853                Anadyr2          2182.906
         9   01 Jun 2027 05:51:27.106   01 Jun 2027 05:51:57.962            30.856               Magadan2           964.250
        10   01 Jun 2027 07:24:06.043   01 Jun 2027 07:24:14.185             8.142               Magadan2           254.437
        11   01 Jun 2027 07:24:26.291   01 Jun 2027 07:25:14.175            47.884                Anadyr2          1496.375
        12   01 Jun 2027 07:25:14.175   01 Jun 2027 07:27:28.458           134.283                Anadyr1          4196.344
        13   01 Jun 2027 07:27:32.825   01 Jun 2027 07:28:38.571            65.746              Murmansk1          2054.563
        14   01 Jun 2027 07:32:10.264   01 Jun 2027 07:32:19.958             9.694                 Moscow           302.937
        15   01 Jun 2027 07:33:09.772   01 Jun 2027 07:33:21.775            12.003                 Moscow           375.094
        16   01 Jun 2027 08:04:59.538   01 Jun 2027 08:05:48.570            49.032            RioGallegos          1532.250
        17   01 Jun 2027 08:05:57.680   01 Jun 2027 08:06:11.531            13.851            RioGallegos           432.844
        18   01 Jun 2027 08:59:51.265   01 Jun 2027 09:00:44.165            52.900                Irkutsk          1653.125
        19   01 Jun 2027 09:00:52.042   01 Jun 2027 09:03:29.223           157.181               Magadan1          4911.906
        20   01 Jun 2027 09:40:37.719   01 Jun 2027 09:41:09.342            31.623            RioGallegos           988.219
        21   01 Jun 2027 09:41:37.871   01 Jun 2027 09:42:07.149            29.278            RioGallegos           914.938
        22   01 Jun 2027 09:43:19.224   01 Jun 2027 09:43:31.732            12.508            RioGallegos           390.875
        23   01 Jun 2027 09:45:03.605   01 Jun 2027 09:45:24.340            20.735            RioGallegos           647.969
        24   01 Jun 2027 09:45:44.207   01 Jun 2027 09:46:09.695            25.488            RioGallegos           796.500
        25   01 Jun 2027 10:14:23.440   01 Jun 2027 10:15:11.991            48.551                Sumatra          1517.219
        26   01 Jun 2027 10:18:02.749   01 Jun 2027 10:19:56.002           113.253                Sumatra          3539.156
        27   01 Jun 2027 10:35:00.128   01 Jun 2027 10:35:23.307            23.179                Irkutsk           724.344
        28   01 Jun 2027 10:35:55.046   01 Jun 2027 10:38:33.909           158.863                Novosib          4964.469
        29   01 Jun 2027 10:38:40.775   01 Jun 2027 10:39:40.635            59.860                Irkutsk          1870.625
        30   01 Jun 2027 10:40:02.761   01 Jun 2027 10:40:53.803            51.042                Norilsk          1595.062
        31   01 Jun 2027 10:41:16.092   01 Jun 2027 10:41:38.915            22.823              Murmansk1           713.219
        32   01 Jun 2027 10:41:53.528   01 Jun 2027 10:42:41.609            48.081              Murmansk1          1502.531
        33   01 Jun 2027 11:15:28.210   01 Jun 2027 11:15:59.927            31.717            RioGallegos           991.156
        34   01 Jun 2027 11:16:32.471   01 Jun 2027 11:17:11.576            39.105            RioGallegos          1222.031
        35   01 Jun 2027 11:17:43.780   01 Jun 2027 11:18:29.047            45.267            RioGallegos          1414.594
        36   01 Jun 2027 11:19:38.302   01 Jun 2027 11:20:28.919            50.617            RioGallegos          1581.781
        37   01 Jun 2027 11:49:43.116   01 Jun 2027 11:51:12.297            89.181                Sumatra          2786.906
        38   01 Jun 2027 11:54:17.488   01 Jun 2027 11:54:22.751             5.263                Sumatra           164.469
        39   01 Jun 2027 12:04:56.481   01 Jun 2027 12:06:51.475           114.994                Irkutsk          3593.563
        40   01 Jun 2027 13:34:54.615   01 Jun 2027 13:35:32.939            38.324                  Delhi          1197.625
        41   01 Jun 2027 13:36:03.227   01 Jun 2027 13:37:53.302           110.075                  Delhi          3439.844
        42   01 Jun 2027 13:38:13.535   01 Jun 2027 13:39:48.093            94.558                  Delhi          2954.938
        43   01 Jun 2027 13:45:22.630   01 Jun 2027 13:46:15.040            52.410                Novosib          1637.813
        44   01 Jun 2027 13:47:36.752   01 Jun 2027 13:47:58.622            21.870                Novosib           683.437
        45   01 Jun 2027 15:18:45.314   01 Jun 2027 15:19:23.005            37.691                 Moscow          1177.844
        46   01 Jun 2027 15:19:55.555   01 Jun 2027 15:21:03.735            68.180                 Moscow          2130.625
        47   01 Jun 2027 15:22:32.236   01 Jun 2027 15:23:12.101            39.865                 Moscow          1245.781
        48   01 Jun 2027 15:24:42.061   01 Jun 2027 15:25:06.568            24.507                 Moscow           765.844
        49   01 Jun 2027 15:26:25.406   01 Jun 2027 15:26:41.397            15.991              Murmansk1           499.719
        50   01 Jun 2027 15:26:56.809   01 Jun 2027 15:27:41.267            44.458                 Moscow          1389.312
        51   01 Jun 2027 15:28:13.198   01 Jun 2027 15:29:00.991            47.793                Norilsk          1493.531
        52   01 Jun 2027 15:30:36.577   01 Jun 2027 15:31:28.649            52.072                Norilsk          1627.250
        53   01 Jun 2027 15:38:37.185   01 Jun 2027 15:39:02.933            25.748                Anadyr2           804.625
        54   01 Jun 2027 16:33:23.338   01 Jun 2027 16:34:12.861            49.523               CapeTown          1547.594
        55   01 Jun 2027 16:37:58.210   01 Jun 2027 16:38:16.906            18.696               CapeTown           584.250
        56   01 Jun 2027 16:40:15.827   01 Jun 2027 16:40:59.572            43.745               CapeTown          1367.031
        57   01 Jun 2027 16:57:10.693   01 Jun 2027 16:58:02.657            51.964                 Moscow          1623.875
        58   01 Jun 2027 16:59:25.169   01 Jun 2027 17:00:16.803            51.634              Murmansk1          1613.563
        59   01 Jun 2027 17:02:40.390   01 Jun 2027 17:03:05.853            25.463              Murmansk2           795.719
        60   01 Jun 2027 17:03:36.884   01 Jun 2027 17:03:38.474             1.590                 Moscow            49.688
        61   01 Jun 2027 17:04:15.238   01 Jun 2027 17:04:40.420            25.182              Murmansk1           786.938
        62   01 Jun 2027 17:05:45.301   01 Jun 2027 17:06:24.997            39.696              Murmansk1          1240.500
        63   01 Jun 2027 17:07:55.249   01 Jun 2027 17:08:29.646            34.397              Murmansk2          1074.906
        64   01 Jun 2027 17:14:47.992   01 Jun 2027 17:14:55.912             7.920                Anadyr2           247.500
        65   01 Jun 2027 17:15:20.686   01 Jun 2027 17:15:43.424            22.738                Anadyr1           710.563
        66   01 Jun 2027 17:17:10.462   01 Jun 2027 17:17:25.260            14.798                Anadyr1           462.438
        67   01 Jun 2027 17:18:13.811   01 Jun 2027 17:18:19.801             5.990                Anadyr2           187.188
        68   01 Jun 2027 17:18:36.679   01 Jun 2027 17:19:13.749            37.070                Anadyr2          1158.438
        69   01 Jun 2027 17:22:29.034   01 Jun 2027 17:22:35.634             6.600                Anadyr2           206.250
        70   01 Jun 2027 17:22:58.160   01 Jun 2027 17:23:18.047            19.887                Anadyr1           621.469
        71   01 Jun 2027 18:15:09.741   01 Jun 2027 18:15:43.091            33.350               CapeTown          1042.188
        72   01 Jun 2027 18:18:23.385   01 Jun 2027 18:18:26.687             3.302               CapeTown           103.188
        73   01 Jun 2027 18:40:09.508   01 Jun 2027 18:45:19.910           310.402              Murmansk2          9700.063
        74   01 Jun 2027 18:54:54.474   01 Jun 2027 18:55:56.387            61.913               Magadan2          1934.781
        75   01 Jun 2027 18:58:03.869   01 Jun 2027 18:58:33.417            29.548               Magadan2           923.375
        76   01 Jun 2027 20:23:46.050   01 Jun 2027 20:29:11.203           325.153                Anadyr2         10161.031
        77   01 Jun 2027 20:29:17.794   01 Jun 2027 20:29:52.656            34.862               Magadan2          1089.437
        78   01 Jun 2027 20:30:35.045   01 Jun 2027 20:30:44.442             9.397               Magadan1           293.656
        79   01 Jun 2027 20:30:45.835   01 Jun 2027 20:30:56.419            10.584               Magadan1           330.750
        80   01 Jun 2027 20:32:05.544   01 Jun 2027 20:32:37.047            31.503               Magadan2           984.469
        81   01 Jun 2027 20:33:47.074   01 Jun 2027 20:34:04.508            17.434               Magadan2           544.813
        82   01 Jun 2027 20:36:27.848   01 Jun 2027 20:36:34.637             6.789               Magadan1           212.156
        83   01 Jun 2027 20:36:44.327   01 Jun 2027 20:37:13.645            29.318               Magadan2           916.188
        84   01 Jun 2027 21:18:43.715   01 Jun 2027 21:20:53.878           130.163            RioGallegos          4067.594
        85   01 Jun 2027 21:23:54.349   01 Jun 2027 21:23:59.149             4.800            RioGallegos           150.000
        86   01 Jun 2027 21:24:34.905   01 Jun 2027 21:25:17.289            42.384            RioGallegos          1324.500
        87   01 Jun 2027 21:59:29.402   01 Jun 2027 21:59:58.904            29.502                Anadyr1           921.938
        88   01 Jun 2027 22:01:17.122   01 Jun 2027 22:01:45.134            28.012                Anadyr1           875.375
        89   01 Jun 2027 22:02:02.609   01 Jun 2027 22:03:38.012            95.403               Magadan2          2981.344
        90   01 Jun 2027 22:04:32.916   01 Jun 2027 22:05:12.053            39.137               Magadan2          1223.031
        91   01 Jun 2027 22:06:03.989   01 Jun 2027 22:06:17.995            14.006                Irkutsk           437.687
        92   01 Jun 2027 22:06:52.012   01 Jun 2027 22:08:33.933           101.921                Irkutsk          3185.031
        93   01 Jun 2027 22:15:05.802   01 Jun 2027 22:15:31.091            25.289                Irkutsk           790.281
        94   01 Jun 2027 22:16:51.121   01 Jun 2027 22:16:51.860             0.739                Irkutsk            23.094
        95   01 Jun 2027 22:22:23.620   01 Jun 2027 22:23:11.795            48.175                Sumatra          1505.469
        96   01 Jun 2027 22:26:51.236   01 Jun 2027 22:26:53.718             2.482                Sumatra            77.563
        97   01 Jun 2027 22:28:16.527   01 Jun 2027 22:29:26.062            69.535                Sumatra          2172.969
        98   01 Jun 2027 23:04:03.764   01 Jun 2027 23:04:43.373            39.609            RioGallegos          1237.781
        99   01 Jun 2027 23:34:29.693   01 Jun 2027 23:34:37.514             7.821                Anadyr2           244.406
       100   01 Jun 2027 23:34:46.682   01 Jun 2027 23:35:30.064            43.382                Anadyr1          1355.687
       101   01 Jun 2027 23:35:41.652   01 Jun 2027 23:35:43.809             2.157                Anadyr1            67.406
       102   01 Jun 2027 23:37:08.036   01 Jun 2027 23:37:11.558             3.522                Anadyr1           110.063
       103   01 Jun 2027 23:37:23.658   01 Jun 2027 23:37:41.381            17.723                Anadyr2           553.844
       104   01 Jun 2027 23:38:09.834   01 Jun 2027 23:39:53.671           103.837               Magadan2          3244.906
       105   01 Jun 2027 23:39:53.671   01 Jun 2027 23:40:11.293            17.622               Magadan1           550.688
       106   01 Jun 2027 23:41:23.200   01 Jun 2027 23:42:19.722            56.522                Irkutsk          1766.313
       107   01 Jun 2027 23:42:22.398   01 Jun 2027 23:42:59.640            37.242                Novosib          1163.813
       108   01 Jun 2027 23:45:01.184   01 Jun 2027 23:45:45.233            44.049                Novosib          1376.531
       109   01 Jun 2027 23:48:22.577   01 Jun 2027 23:48:26.395             3.818                Novosib           119.313
       110   01 Jun 2027 23:49:54.907   01 Jun 2027 23:50:18.676            23.769                Novosib           742.781
       111   01 Jun 2027 23:50:29.993   01 Jun 2027 23:51:02.011            32.018                  Delhi          1000.562
       112   01 Jun 2027 23:54:45.343   01 Jun 2027 23:54:56.253            10.910                  Delhi           340.937
       113   01 Jun 2027 23:56:19.967   01 Jun 2027 23:57:05.159            45.192                  Delhi          1412.250
       114   02 Jun 2027 00:06:11.841   02 Jun 2027 00:06:25.403            13.562                Sumatra           423.812
       115   02 Jun 2027 00:06:33.083   02 Jun 2027 00:06:48.550            15.467                Sumatra           483.344
       116   02 Jun 2027 00:35:24.265   02 Jun 2027 00:35:39.761            15.496            RioGallegos           484.250
       117   02 Jun 2027 00:36:54.869   02 Jun 2027 00:37:20.018            25.149            RioGallegos           785.906
       118   02 Jun 2027 00:39:20.806   02 Jun 2027 00:40:36.577            75.771            RioGallegos          2367.844
       119   02 Jun 2027 01:08:16.611   02 Jun 2027 01:08:25.720             9.109                Anadyr2           284.656
       120   02 Jun 2027 01:08:58.371   02 Jun 2027 01:08:59.865             1.494                Anadyr1            46.687
       121   02 Jun 2027 01:09:23.536   02 Jun 2027 01:10:03.998            40.462                Anadyr2          1264.437
       122   02 Jun 2027 01:10:39.542   02 Jun 2027 01:10:42.517             2.975                Anadyr1            92.969
       123   02 Jun 2027 01:13:31.634   02 Jun 2027 01:13:41.582             9.948                Norilsk           310.875
       124   02 Jun 2027 01:13:55.310   02 Jun 2027 01:14:21.160            25.850                Anadyr2           807.812
       125   02 Jun 2027 01:14:22.579   02 Jun 2027 01:14:33.462            10.883                Norilsk           340.094
       126   02 Jun 2027 01:14:43.375   02 Jun 2027 01:17:20.677           157.302               Magadan2          4915.688
       127   02 Jun 2027 01:17:33.474   02 Jun 2027 01:18:02.922            29.448                Novosib           920.250
       128   02 Jun 2027 01:18:41.666   02 Jun 2027 01:19:10.214            28.548              Murmansk1           892.125
       129   02 Jun 2027 01:21:03.989   02 Jun 2027 01:21:26.867            22.878                Irkutsk           714.938
       130   02 Jun 2027 01:24:08.434   02 Jun 2027 01:24:27.559            19.125                Novosib           597.656
       131   02 Jun 2027 01:26:10.903   02 Jun 2027 01:26:53.462            42.559                  Delhi          1329.969
       132   02 Jun 2027 01:33:23.153   02 Jun 2027 01:33:27.754             4.601                  Delhi           143.781
       133   02 Jun 2027 01:33:40.256   02 Jun 2027 01:34:22.368            42.112                  Delhi          1316.000
       134   02 Jun 2027 02:07:33.551   02 Jun 2027 02:08:17.180            43.629            RioGallegos          1363.406
       135   02 Jun 2027 02:08:28.951   02 Jun 2027 02:09:20.935            51.984            RioGallegos          1624.500
       136   02 Jun 2027 02:11:18.262   02 Jun 2027 02:11:22.020             3.758            RioGallegos           117.438
       137   02 Jun 2027 02:41:34.857   02 Jun 2027 02:41:51.372            16.515                Anadyr1           516.094
       138   02 Jun 2027 02:41:58.453   02 Jun 2027 02:43:01.697            63.244                Anadyr2          1976.375
       139   02 Jun 2027 02:47:12.327   02 Jun 2027 02:48:07.935            55.608               Magadan1          1737.750
       140   02 Jun 2027 02:49:11.580   02 Jun 2027 02:49:30.999            19.419               Magadan2           606.844
       141   02 Jun 2027 02:49:38.109   02 Jun 2027 02:49:42.672             4.563                Norilsk           142.594
       142   02 Jun 2027 02:51:09.493   02 Jun 2027 02:51:20.201            10.708                Norilsk           334.625
       143   02 Jun 2027 02:51:39.413   02 Jun 2027 02:52:36.521            57.108              Murmansk1          1784.625
       144   02 Jun 2027 02:52:42.134   02 Jun 2027 02:53:23.316            41.182              Murmansk2          1286.937
       145   02 Jun 2027 02:54:43.865   02 Jun 2027 02:55:26.368            42.503                Novosib          1328.219
       146   02 Jun 2027 02:59:56.734   02 Jun 2027 03:00:21.663            24.929                Novosib           779.031
       147   02 Jun 2027 03:00:43.765   02 Jun 2027 03:01:11.758            27.993              Murmansk1           874.781
       148   02 Jun 2027 03:01:14.879   02 Jun 2027 03:02:01.732            46.853              Murmansk2          1464.156
       149   02 Jun 2027 03:20:06.983   02 Jun 2027 03:20:36.688            29.705               CapeTown           928.281
       150   02 Jun 2027 04:36:35.587   02 Jun 2027 04:38:30.177           114.590              Murmansk2          3580.937
       151   02 Jun 2027 04:55:58.022   02 Jun 2027 04:56:25.032            27.010               CapeTown           844.062
       152   02 Jun 2027 04:56:37.160   02 Jun 2027 04:56:54.503            17.343               CapeTown           541.969
       153   02 Jun 2027 05:58:08.955   02 Jun 2027 06:00:04.295           115.340               Magadan2          3604.375
       154   02 Jun 2027 06:00:18.927   02 Jun 2027 06:00:38.448            19.521                Anadyr1           610.031
       155   02 Jun 2027 09:11:50.689   02 Jun 2027 09:12:45.867            55.178                Irkutsk          1724.312
       156   02 Jun 2027 09:12:52.975   02 Jun 2027 09:14:13.387            80.412               Magadan2          2512.875
       157   02 Jun 2027 09:14:13.387   02 Jun 2027 09:15:22.295            68.908               Magadan1          2153.375
       158   02 Jun 2027 10:47:10.735   02 Jun 2027 10:47:14.287             3.552                Irkutsk           111.000
       159   02 Jun 2027 10:47:15.438   02 Jun 2027 10:47:23.618             8.180                Novosib           255.625
       160   02 Jun 2027 10:47:29.554   02 Jun 2027 10:47:47.254            17.700                Irkutsk           553.125
       161   02 Jun 2027 10:47:54.189   02 Jun 2027 10:48:17.802            23.613                Novosib           737.906
       162   02 Jun 2027 10:48:19.461   02 Jun 2027 10:48:32.527            13.066                Irkutsk           408.312
       163   02 Jun 2027 10:48:54.974   02 Jun 2027 10:49:11.265            16.291                Norilsk           509.094
       164   02 Jun 2027 10:49:16.515   02 Jun 2027 10:49:19.633             3.118                Novosib            97.438
       165   02 Jun 2027 10:49:56.944   02 Jun 2027 10:50:24.784            27.840                Irkutsk           870.000
       166   02 Jun 2027 10:50:29.521   02 Jun 2027 10:50:31.478             1.957                Norilsk            61.156
       167   02 Jun 2027 10:50:35.466   02 Jun 2027 10:51:32.631            57.165                Irkutsk          1786.406
       168   02 Jun 2027 11:30:26.948   02 Jun 2027 11:31:36.800            69.852            RioGallegos          2182.875
       169   02 Jun 2027 12:02:10.005   02 Jun 2027 12:02:34.319            24.314                Sumatra           759.813
       170   02 Jun 2027 12:15:53.768   02 Jun 2027 12:16:26.809            33.041                  Delhi          1032.531
       171   02 Jun 2027 12:16:29.580   02 Jun 2027 12:16:49.346            19.766                Novosib           617.687
       172   02 Jun 2027 12:17:13.537   02 Jun 2027 12:17:49.939            36.402                Novosib          1137.563
       173   02 Jun 2027 12:18:19.296   02 Jun 2027 12:18:56.477            37.181                Irkutsk          1161.906
       174   02 Jun 2027 12:23:46.166   02 Jun 2027 12:24:21.781            35.615                Norilsk          1112.969
       175   02 Jun 2027 12:28:57.463   02 Jun 2027 12:29:25.466            28.003                Norilsk           875.094
       176   02 Jun 2027 13:47:20.568   02 Jun 2027 13:48:23.643            63.075                  Delhi          1971.094
       177   02 Jun 2027 13:49:13.516   02 Jun 2027 13:52:14.480           180.964                  Delhi          5655.125
       178   02 Jun 2027 13:57:18.067   02 Jun 2027 13:58:11.750            53.683                Novosib          1677.594
       179   02 Jun 2027 13:58:13.522   02 Jun 2027 13:58:34.862            21.340              Murmansk1           666.875
       180   02 Jun 2027 13:58:38.323   02 Jun 2027 13:59:07.726            29.403              Murmansk1           918.844
       181   02 Jun 2027 13:59:12.651   02 Jun 2027 13:59:34.899            22.248                Norilsk           695.250
       182   02 Jun 2027 14:00:40.633   02 Jun 2027 14:01:27.920            47.287                Novosib          1477.719
       183   02 Jun 2027 14:07:44.277   02 Jun 2027 14:08:34.363            50.086                Norilsk          1565.187
       184   02 Jun 2027 15:12:07.947   02 Jun 2027 15:12:53.509            45.562               CapeTown          1423.812
       185   02 Jun 2027 15:14:06.933   02 Jun 2027 15:14:29.691            22.758               CapeTown           711.187
       186   02 Jun 2027 15:30:09.514   02 Jun 2027 15:31:26.335            76.821                 Moscow          2400.656
       187   02 Jun 2027 15:33:39.091   02 Jun 2027 15:34:56.884            77.793              Murmansk1          2431.031
       188   02 Jun 2027 15:36:54.169   02 Jun 2027 15:37:06.932            12.763              Murmansk1           398.844
       189   02 Jun 2027 15:46:08.803   02 Jun 2027 15:46:14.381             5.578              Murmansk2           174.312
       190   02 Jun 2027 15:49:05.356   02 Jun 2027 15:49:58.553            53.197                Anadyr1          1662.406
       191   02 Jun 2027 15:50:06.161   02 Jun 2027 15:51:04.272            58.111                Anadyr2          1815.969
       192   02 Jun 2027 15:52:51.111   02 Jun 2027 15:53:46.818            55.707                Anadyr2          1740.844
       193   02 Jun 2027 16:43:24.336   02 Jun 2027 16:43:49.026            24.690               CapeTown           771.563
       194   02 Jun 2027 16:47:23.661   02 Jun 2027 16:49:27.361           123.700               CapeTown          3865.625
       195   02 Jun 2027 17:11:51.680   02 Jun 2027 17:12:33.614            41.934              Murmansk1          1310.437
       196   02 Jun 2027 17:12:50.066   02 Jun 2027 17:13:43.841            53.775              Murmansk1          1680.469
       197   02 Jun 2027 17:24:01.776   02 Jun 2027 17:25:49.655           107.879                Anadyr1          3371.219
       198   02 Jun 2027 17:26:12.154   02 Jun 2027 17:26:22.065             9.911                Anadyr2           309.719
       199   02 Jun 2027 17:26:54.296   02 Jun 2027 17:26:55.877             1.581                Anadyr1            49.406
       200   02 Jun 2027 17:35:33.969   02 Jun 2027 17:35:36.130             2.161                Anadyr2            67.531
       201   02 Jun 2027 18:20:13.046   02 Jun 2027 18:21:28.502            75.456               CapeTown          2358.000
       202   02 Jun 2027 18:26:46.465   02 Jun 2027 18:27:11.903            25.438               CapeTown           794.937
       203   02 Jun 2027 18:53:13.227   02 Jun 2027 18:56:59.320           226.093              Murmansk2          7065.406
       204   02 Jun 2027 18:59:51.670   02 Jun 2027 19:00:20.168            28.498                Anadyr2           890.562
       205   02 Jun 2027 19:00:38.290   02 Jun 2027 19:00:41.352             3.062                Anadyr2            95.687
       206   02 Jun 2027 19:01:01.930   02 Jun 2027 19:01:39.485            37.555                Anadyr2          1173.594
       207   02 Jun 2027 19:02:54.649   02 Jun 2027 19:03:16.008            21.359               Magadan2           667.469
       208   02 Jun 2027 19:04:21.210   02 Jun 2027 19:04:48.214            27.004               Magadan2           843.875
       209   02 Jun 2027 19:05:21.297   02 Jun 2027 19:05:28.116             6.819               Magadan2           213.094
       210   02 Jun 2027 19:07:08.456   02 Jun 2027 19:07:36.015            27.559               Magadan1           861.219
       211   02 Jun 2027 19:09:38.624   02 Jun 2027 19:09:50.063            11.439               Magadan1           357.469
       212   02 Jun 2027 20:35:47.151   02 Jun 2027 20:39:30.504           223.353                Anadyr2          6979.781
       213   02 Jun 2027 20:39:33.325   02 Jun 2027 20:39:52.949            19.624                Norilsk           613.250
       214   02 Jun 2027 20:40:03.729   02 Jun 2027 20:42:27.634           143.905               Magadan1          4497.031
       215   02 Jun 2027 20:42:27.634   02 Jun 2027 20:42:30.043             2.409               Magadan2            75.281
       216   02 Jun 2027 20:43:47.467   02 Jun 2027 20:43:55.370             7.903               Magadan2           246.969
       217   02 Jun 2027 20:47:18.625   02 Jun 2027 20:47:43.415            24.790               Magadan1           774.687
       218   02 Jun 2027 20:49:13.717   02 Jun 2027 20:49:38.866            25.149               Magadan1           785.906
       219   02 Jun 2027 21:30:26.473   02 Jun 2027 21:33:02.610           156.137            RioGallegos          4879.281
       220   02 Jun 2027 21:33:25.905   02 Jun 2027 21:33:43.486            17.581            RioGallegos           549.406
       221   02 Jun 2027 22:11:27.143   02 Jun 2027 22:12:00.643            33.500                Anadyr2          1046.875
       222   02 Jun 2027 22:13:37.552   02 Jun 2027 22:13:45.740             8.188                Norilsk           255.875
       223   02 Jun 2027 22:14:05.487   02 Jun 2027 22:16:01.811           116.324               Magadan1          3635.125
       224   02 Jun 2027 22:17:23.378   02 Jun 2027 22:18:18.952            55.574               Magadan2          1736.688
       225   02 Jun 2027 22:18:31.031   02 Jun 2027 22:19:07.189            36.158                Irkutsk          1129.938
       226   02 Jun 2027 22:20:50.624   02 Jun 2027 22:22:40.012           109.388                Novosib          3418.375
       227   02 Jun 2027 22:31:47.876   02 Jun 2027 22:32:22.421            34.545                Sumatra          1079.531
       228   02 Jun 2027 22:34:00.984   02 Jun 2027 22:35:05.541            64.557                Sumatra          2017.406
       229   02 Jun 2027 23:46:19.111   02 Jun 2027 23:47:27.952            68.841                Anadyr1          2151.281
       230   02 Jun 2027 23:48:49.163   02 Jun 2027 23:49:21.913            32.750                Anadyr1          1023.438
       231   02 Jun 2027 23:49:33.340   02 Jun 2027 23:49:53.091            19.751                Norilsk           617.219
       232   02 Jun 2027 23:50:12.422   02 Jun 2027 23:51:40.712            88.290               Magadan2          2759.063
       233   02 Jun 2027 23:52:59.148   02 Jun 2027 23:53:03.881             4.733               Magadan2           147.906
       234   02 Jun 2027 23:53:11.338   02 Jun 2027 23:53:20.439             9.101                Norilsk           284.406
       235   02 Jun 2027 23:53:25.190   02 Jun 2027 23:53:59.282            34.092                Irkutsk          1065.375
       236   02 Jun 2027 23:54:32.244   02 Jun 2027 23:55:41.342            69.098                Novosib          2159.313
       237   02 Jun 2027 23:56:04.425   02 Jun 2027 23:56:17.801            13.376                Novosib           418.000
       238   03 Jun 2027 00:00:19.777   03 Jun 2027 00:00:35.161            15.384                Novosib           480.750
       239   03 Jun 2027 00:01:40.364   03 Jun 2027 00:04:19.180           158.816                  Delhi          4963.000
       240   03 Jun 2027 00:45:04.992   03 Jun 2027 00:45:33.398            28.406            RioGallegos           887.688
       241   03 Jun 2027 00:49:41.028   03 Jun 2027 00:49:56.141            15.113            RioGallegos           472.281
       242   03 Jun 2027 00:51:19.995   03 Jun 2027 00:51:29.379             9.384            RioGallegos           293.250
       243   03 Jun 2027 01:19:58.027   03 Jun 2027 01:20:49.943            51.916                Anadyr1          1622.375
       244   03 Jun 2027 01:21:24.066   03 Jun 2027 01:22:05.340            41.274                Anadyr2          1289.812
       245   03 Jun 2027 01:22:27.660   03 Jun 2027 01:22:55.234            27.574                Anadyr1           861.688
       246   03 Jun 2027 01:25:33.390   03 Jun 2027 01:25:43.750            10.360                Norilsk           323.750
       247   03 Jun 2027 01:25:52.468   03 Jun 2027 01:28:08.054           135.586               Magadan1          4237.063
       248   03 Jun 2027 01:28:53.320   03 Jun 2027 01:30:08.273            74.953              Murmansk1          2342.281
       249   03 Jun 2027 01:30:28.457   03 Jun 2027 01:30:52.288            23.831                Novosib           744.719
       250   03 Jun 2027 01:31:20.683   03 Jun 2027 01:32:33.737            73.054                Novosib          2282.937
       251   03 Jun 2027 01:42:32.095   03 Jun 2027 01:42:39.966             7.871                  Delhi           245.969
       252   03 Jun 2027 01:44:27.922   03 Jun 2027 01:44:37.373             9.451                  Delhi           295.344
       253   03 Jun 2027 01:44:49.823   03 Jun 2027 01:45:39.459            49.636                  Delhi          1551.125
       254   03 Jun 2027 02:53:18.956   03 Jun 2027 02:55:53.990           155.034                Anadyr2          4844.812
       255   03 Jun 2027 02:56:58.285   03 Jun 2027 02:57:19.511            21.226                Anadyr1           663.313
       256   03 Jun 2027 02:58:40.581   03 Jun 2027 03:00:04.264            83.683               Magadan1          2615.094
       257   03 Jun 2027 03:09:51.197   03 Jun 2027 03:10:04.922            13.725              Murmansk1           428.906
       258   03 Jun 2027 03:10:16.165   03 Jun 2027 03:10:57.018            40.853                Norilsk          1276.656
       259   03 Jun 2027 03:11:05.185   03 Jun 2027 03:11:07.533             2.348              Murmansk2            73.375
       260   03 Jun 2027 03:11:09.154   03 Jun 2027 03:11:22.988            13.834                 Moscow           432.313
       261   03 Jun 2027 03:11:23.748   03 Jun 2027 03:12:27.134            63.386                Novosib          1980.813
       262   03 Jun 2027 03:12:40.738   03 Jun 2027 03:13:45.670            64.932                 Moscow          2029.125
       263   03 Jun 2027 03:13:47.480   03 Jun 2027 03:15:07.338            79.858                Novosib          2495.563
       264   03 Jun 2027 03:15:38.390   03 Jun 2027 03:15:48.913            10.523                 Moscow           328.844
       265   03 Jun 2027 03:15:55.460   03 Jun 2027 03:16:38.670            43.210                 Moscow          1350.312
       266   03 Jun 2027 03:31:41.428   03 Jun 2027 03:32:45.147            63.719               CapeTown          1991.219
       267   03 Jun 2027 04:27:41.244   03 Jun 2027 04:30:14.498           153.254                Anadyr2          4789.188
       268   03 Jun 2027 04:30:21.938   03 Jun 2027 04:31:19.577            57.639                Anadyr2          1801.219
       269   03 Jun 2027 04:49:21.799   03 Jun 2027 04:49:29.305             7.506                 Moscow           234.563
       270   03 Jun 2027 04:50:37.567   03 Jun 2027 04:50:49.836            12.269                 Moscow           383.406
       271   03 Jun 2027 04:51:14.510   03 Jun 2027 04:51:59.593            45.083                 Moscow          1408.844
       272   03 Jun 2027 05:07:15.006   03 Jun 2027 05:08:51.232            96.226               CapeTown          3007.063
       273   03 Jun 2027 06:03:42.374   03 Jun 2027 06:04:27.611            45.237               Magadan1          1413.656
       274   03 Jun 2027 06:04:27.611   03 Jun 2027 06:05:00.413            32.802               Magadan2          1025.062
       275   03 Jun 2027 06:05:09.150   03 Jun 2027 06:05:35.281            26.131                Anadyr2           816.594
       276   03 Jun 2027 06:06:48.176   03 Jun 2027 06:07:39.049            50.873                Anadyr2          1589.781
       277   03 Jun 2027 06:10:11.740   03 Jun 2027 06:12:02.778           111.038                Anadyr1          3469.937
       278   03 Jun 2027 06:12:06.224   03 Jun 2027 06:13:09.148            62.924               Magadan2          1966.375
       279   03 Jun 2027 07:45:50.628   03 Jun 2027 07:46:52.290            61.662                Anadyr2          1926.938
       280   03 Jun 2027 07:47:11.190   03 Jun 2027 07:47:19.541             8.351               Magadan1           260.969
       281   03 Jun 2027 07:47:37.551   03 Jun 2027 07:48:17.124            39.573                Anadyr2          1236.656
       282   03 Jun 2027 07:48:22.341   03 Jun 2027 07:48:58.465            36.124               Magadan2          1128.875
       283   03 Jun 2027 07:49:26.687   03 Jun 2027 07:50:38.179            71.492                Anadyr2          2234.125
       284   03 Jun 2027 08:29:20.381   03 Jun 2027 08:29:46.372            25.991            RioGallegos           812.219
       285   03 Jun 2027 09:20:58.469   03 Jun 2027 09:21:01.582             3.113               Magadan2            97.281
       286   03 Jun 2027 09:21:11.110   03 Jun 2027 09:21:41.963            30.853                Irkutsk           964.156
       287   03 Jun 2027 09:22:28.999   03 Jun 2027 09:22:53.879            24.880               Magadan2           777.500
       288   03 Jun 2027 09:23:24.636   03 Jun 2027 09:23:35.558            10.922               Magadan1           341.312
       289   03 Jun 2027 09:23:35.558   03 Jun 2027 09:23:50.305            14.747               Magadan2           460.844
       290   03 Jun 2027 09:23:50.305   03 Jun 2027 09:24:18.639            28.334               Magadan1           885.438
       291   03 Jun 2027 09:24:56.434   03 Jun 2027 09:26:12.839            76.405               Magadan1          2387.656
       292   03 Jun 2027 09:26:22.614   03 Jun 2027 09:27:33.325            70.711                Irkutsk          2209.719
       293   03 Jun 2027 09:30:41.760   03 Jun 2027 09:30:42.887             1.127                Norilsk            35.219
       294   03 Jun 2027 10:02:24.178   03 Jun 2027 10:03:16.742            52.564            RioGallegos          1642.625
       295   03 Jun 2027 10:03:29.312   03 Jun 2027 10:03:47.148            17.836            RioGallegos           557.375
       296   03 Jun 2027 10:10:25.128   03 Jun 2027 10:10:42.043            16.915            RioGallegos           528.594
       297   03 Jun 2027 10:37:39.815   03 Jun 2027 10:38:19.724            39.909                Sumatra          1247.156
       298   03 Jun 2027 10:50:04.509   03 Jun 2027 10:50:26.514            22.005                  Delhi           687.656
       299   03 Jun 2027 10:54:29.638   03 Jun 2027 10:54:40.443            10.805                  Delhi           337.656
       300   03 Jun 2027 10:58:05.167   03 Jun 2027 10:59:01.265            56.098                Irkutsk          1753.063
       301   03 Jun 2027 10:59:15.718   03 Jun 2027 10:59:26.189            10.471                Irkutsk           327.219
       302   03 Jun 2027 10:59:37.974   03 Jun 2027 11:00:21.128            43.154                Norilsk          1348.562
       303   03 Jun 2027 11:00:43.229   03 Jun 2027 11:01:11.713            28.484                Irkutsk           890.125
       304   03 Jun 2027 11:01:14.261   03 Jun 2027 11:01:24.337            10.076                Novosib           314.875
       305   03 Jun 2027 11:01:35.184   03 Jun 2027 11:01:58.843            23.659                Norilsk           739.344
       306   03 Jun 2027 11:02:01.358   03 Jun 2027 11:02:02.408             1.050                Irkutsk            32.812
       307   03 Jun 2027 11:02:10.827   03 Jun 2027 11:02:13.275             2.448                Novosib            76.500
       308   03 Jun 2027 11:02:22.675   03 Jun 2027 11:03:13.765            51.090                Novosib          1596.562
       309   03 Jun 2027 11:03:17.475   03 Jun 2027 11:03:20.569             3.094                Norilsk            96.687
       310   03 Jun 2027 11:03:40.184   03 Jun 2027 11:04:01.180            20.996                Novosib           656.125
       311   03 Jun 2027 11:40:33.097   03 Jun 2027 11:40:59.796            26.699            RioGallegos           834.344
       312   03 Jun 2027 11:41:52.711   03 Jun 2027 11:42:28.170            35.459            RioGallegos          1108.094
       313   03 Jun 2027 11:45:06.608   03 Jun 2027 11:45:34.618            28.010            RioGallegos           875.313
       314   03 Jun 2027 12:14:48.211   03 Jun 2027 12:15:23.420            35.209                Sumatra          1100.281
       315   03 Jun 2027 12:28:24.705   03 Jun 2027 12:29:44.406            79.701                  Delhi          2490.656
       316   03 Jun 2027 12:29:56.402   03 Jun 2027 12:31:31.968            95.566                Novosib          2986.437
       317   03 Jun 2027 14:00:18.869   03 Jun 2027 14:01:36.505            77.636                  Delhi          2426.125
       318   03 Jun 2027 14:02:26.715   03 Jun 2027 14:04:46.512           139.797                  Delhi          4368.656
       319   03 Jun 2027 14:07:36.283   03 Jun 2027 14:07:57.381            21.098                 Moscow           659.313
       320   03 Jun 2027 14:08:50.027   03 Jun 2027 14:09:11.758            21.731                Novosib           679.094
       321   03 Jun 2027 14:09:22.265   03 Jun 2027 14:11:04.343           102.078              Murmansk1          3189.938
       322   03 Jun 2027 14:11:35.810   03 Jun 2027 14:13:16.715           100.905                Novosib          3153.281
       323   03 Jun 2027 15:22:17.637   03 Jun 2027 15:24:22.638           125.001               CapeTown          3906.281
       324   03 Jun 2027 15:28:03.067   03 Jun 2027 15:28:20.736            17.669               CapeTown           552.156
       325   03 Jun 2027 15:42:24.388   03 Jun 2027 15:43:29.148            64.760                 Moscow          2023.750
       326   03 Jun 2027 15:45:50.675   03 Jun 2027 15:46:38.049            47.374              Murmansk2          1480.437
       327   03 Jun 2027 15:52:26.379   03 Jun 2027 15:52:45.977            19.598              Murmansk2           612.438
       328   03 Jun 2027 15:54:36.694   03 Jun 2027 15:54:38.668             1.974              Murmansk1            61.688
       329   03 Jun 2027 16:00:50.336   03 Jun 2027 16:03:01.970           131.634                Anadyr1          4113.562
       330   03 Jun 2027 16:55:21.954   03 Jun 2027 16:57:54.887           152.933               CapeTown          4779.156
       331   03 Jun 2027 17:23:21.390   03 Jun 2027 17:25:04.944           103.554                 Moscow          3236.062
       332   03 Jun 2027 17:27:02.042   03 Jun 2027 17:27:07.445             5.403                 Moscow           168.844
       333   03 Jun 2027 17:27:13.421   03 Jun 2027 17:28:12.660            59.239              Murmansk1          1851.219
       334   03 Jun 2027 17:36:01.378   03 Jun 2027 17:36:40.900            39.522                Anadyr1          1235.062
       335   03 Jun 2027 17:37:51.771   03 Jun 2027 17:37:54.466             2.695                Anadyr1            84.219
       336   03 Jun 2027 17:38:10.554   03 Jun 2027 17:38:45.838            35.284                Anadyr1          1102.625
       337   03 Jun 2027 17:40:57.858   03 Jun 2027 17:42:24.924            87.066               Magadan1          2720.813
       338   03 Jun 2027 19:06:50.461   03 Jun 2027 19:08:07.260            76.799              Murmansk2          2399.969
       339   03 Jun 2027 19:11:53.276   03 Jun 2027 19:13:40.539           107.263                Anadyr1          3351.969
       340   03 Jun 2027 19:13:41.608   03 Jun 2027 19:15:27.382           105.774                Anadyr2          3305.438
       341   03 Jun 2027 19:16:06.212   03 Jun 2027 19:17:23.284            77.072               Magadan2          2408.500
       342   03 Jun 2027 19:18:13.489   03 Jun 2027 19:19:14.530            61.041               Magadan2          1907.531
       343   03 Jun 2027 20:47:48.028   03 Jun 2027 20:49:55.998           127.970                Anadyr1          3999.062
       344   03 Jun 2027 20:50:05.026   03 Jun 2027 20:54:06.199           241.173               Magadan2          7536.656
       345   03 Jun 2027 20:54:38.154   03 Jun 2027 20:54:51.709            13.555                Norilsk           423.594
       346   03 Jun 2027 21:42:13.682   03 Jun 2027 21:44:42.227           148.545            RioGallegos          4642.031
       347   03 Jun 2027 21:45:37.110   03 Jun 2027 21:45:47.993            10.883            RioGallegos           340.094
       348   03 Jun 2027 21:50:31.875   03 Jun 2027 21:51:04.211            32.336            RioGallegos          1010.500
       349   03 Jun 2027 21:52:58.627   03 Jun 2027 21:52:59.960             1.333            RioGallegos            41.656
       350   03 Jun 2027 22:23:24.136   03 Jun 2027 22:24:05.847            41.711                Anadyr1          1303.469
       351   03 Jun 2027 22:25:38.042   03 Jun 2027 22:25:47.660             9.618                Norilsk           300.563
       352   03 Jun 2027 22:26:08.455   03 Jun 2027 22:28:31.204           142.749               Magadan1          4460.906
       353   03 Jun 2027 22:29:31.884   03 Jun 2027 22:29:54.381            22.497               Magadan1           703.031
       354   03 Jun 2027 22:30:03.099   03 Jun 2027 22:30:16.434            13.335                Irkutsk           416.719
       355   03 Jun 2027 22:30:39.517   03 Jun 2027 22:31:01.327            21.810                Norilsk           681.563
       356   03 Jun 2027 22:31:14.776   03 Jun 2027 22:31:47.805            33.029                Irkutsk          1032.156
       357   03 Jun 2027 22:32:05.836   03 Jun 2027 22:32:28.183            22.347                Novosib           698.344
       358   03 Jun 2027 22:32:46.104   03 Jun 2027 22:32:58.295            12.191                Novosib           380.969
       359   03 Jun 2027 22:33:22.633   03 Jun 2027 22:34:18.294            55.661                Novosib          1739.406
       360   03 Jun 2027 22:43:33.398   03 Jun 2027 22:44:15.570            42.172                Sumatra          1317.875
       361   03 Jun 2027 22:46:17.762   03 Jun 2027 22:47:04.962            47.200                Sumatra          1475.000
       362   03 Jun 2027 23:58:07.216   04 Jun 2027 00:00:23.344           136.128                Anadyr1          4254.000
       363   04 Jun 2027 00:00:50.205   04 Jun 2027 00:01:03.488            13.283                Anadyr1           415.094
       364   04 Jun 2027 00:01:35.520   04 Jun 2027 00:03:12.109            96.589                Norilsk          3018.406
       365   04 Jun 2027 00:03:19.659   04 Jun 2027 00:03:26.701             7.042                Norilsk           220.063
       366   04 Jun 2027 00:03:38.373   04 Jun 2027 00:04:17.436            39.063               Magadan1          1220.719
       367   04 Jun 2027 00:05:27.983   04 Jun 2027 00:06:22.737            54.754                Irkutsk          1711.062
       368   04 Jun 2027 00:06:38.906   04 Jun 2027 00:07:29.366            50.460                Novosib          1576.875
       369   04 Jun 2027 00:08:30.039   04 Jun 2027 00:09:19.391            49.352                Novosib          1542.250
       370   04 Jun 2027 00:13:21.063   04 Jun 2027 00:13:54.933            33.870                  Delhi          1058.438
       371   04 Jun 2027 00:14:39.169   04 Jun 2027 00:14:49.367            10.198                  Delhi           318.688
       372   04 Jun 2027 00:15:04.812   04 Jun 2027 00:16:38.010            93.198                  Delhi          2912.438
       373   04 Jun 2027 01:02:33.608   04 Jun 2027 01:03:19.946            46.338            RioGallegos          1448.063
       374   04 Jun 2027 01:31:39.143   04 Jun 2027 01:31:58.209            19.066                Anadyr1           595.812
       375   04 Jun 2027 01:32:50.157   04 Jun 2027 01:33:24.285            34.128                Anadyr2          1066.500
       376   04 Jun 2027 01:34:06.426   04 Jun 2027 01:34:34.320            27.894                Anadyr2           871.687
       377   04 Jun 2027 01:36:47.601   04 Jun 2027 01:36:51.999             4.398                Anadyr1           137.437
       378   04 Jun 2027 01:37:13.771   04 Jun 2027 01:37:38.819            25.048                Anadyr1           782.750
       379   04 Jun 2027 01:37:43.693   04 Jun 2027 01:39:31.609           107.916               Magadan2          3372.375
       380   04 Jun 2027 01:39:55.847   04 Jun 2027 01:40:48.983            53.136              Murmansk1          1660.500
       381   04 Jun 2027 01:41:24.581   04 Jun 2027 01:42:35.176            70.595                Novosib          2206.094
       382   04 Jun 2027 01:44:49.097   04 Jun 2027 01:45:11.592            22.495                 Moscow           702.969
       383   04 Jun 2027 01:47:11.627   04 Jun 2027 01:47:25.540            13.913                 Moscow           434.781
       384   04 Jun 2027 01:47:38.344   04 Jun 2027 01:48:23.838            45.494                 Moscow          1421.687
       385   04 Jun 2027 01:53:31.971   04 Jun 2027 01:53:54.417            22.446                  Delhi           701.438
       386   04 Jun 2027 01:59:07.189   04 Jun 2027 01:59:42.100            34.911                  Delhi          1090.969
       387   04 Jun 2027 03:05:04.087   04 Jun 2027 03:07:02.140           118.053                Anadyr1          3689.156
       388   04 Jun 2027 03:13:24.465   04 Jun 2027 03:13:56.484            32.019               Magadan2          1000.594
       389   04 Jun 2027 03:23:18.821   04 Jun 2027 03:24:14.876            56.055                Norilsk          1751.719
       390   04 Jun 2027 03:24:40.520   04 Jun 2027 03:25:31.764            51.244                Norilsk          1601.375
       391   04 Jun 2027 03:25:49.199   04 Jun 2027 03:27:49.221           120.022              Murmansk1          3750.687
       392   04 Jun 2027 03:29:48.423   04 Jun 2027 03:30:22.066            33.643                 Moscow          1051.344
       393   04 Jun 2027 03:43:21.931   04 Jun 2027 03:44:23.326            61.395               CapeTown          1918.594
       394   04 Jun 2027 03:44:59.189   04 Jun 2027 03:45:47.834            48.645               CapeTown          1520.156
       395   04 Jun 2027 03:46:13.768   04 Jun 2027 03:46:39.078            25.310               CapeTown           790.938
       396   04 Jun 2027 04:39:37.927   04 Jun 2027 04:44:41.583           303.656                Anadyr1          9489.250
       397   04 Jun 2027 04:46:39.957   04 Jun 2027 04:46:49.982            10.025                Anadyr2           313.281
       398   04 Jun 2027 04:46:49.982   04 Jun 2027 04:47:05.295            15.313                Anadyr1           478.531
       399   04 Jun 2027 04:47:42.779   04 Jun 2027 04:49:13.586            90.807               Magadan2          2837.719
       400   04 Jun 2027 04:50:41.463   04 Jun 2027 04:52:12.451            90.988                Anadyr1          2843.375
       401   04 Jun 2027 04:52:27.855   04 Jun 2027 04:52:29.955             2.100                Anadyr2            65.625
       402   04 Jun 2027 04:59:12.514   04 Jun 2027 04:59:14.370             1.856                Norilsk            58.000
       403   04 Jun 2027 05:01:40.217   04 Jun 2027 05:01:52.095            11.878                 Moscow           371.187
       404   04 Jun 2027 05:06:34.768   04 Jun 2027 05:06:45.522            10.754                 Moscow           336.062
       405   04 Jun 2027 05:19:39.149   04 Jun 2027 05:20:33.706            54.557               CapeTown          1704.906
       406   04 Jun 2027 05:24:05.381   04 Jun 2027 05:24:19.332            13.951               CapeTown           435.969
       407   04 Jun 2027 05:24:54.273   04 Jun 2027 05:24:58.466             4.193               CapeTown           131.031
       408   04 Jun 2027 05:27:25.837   04 Jun 2027 05:27:37.172            11.335               CapeTown           354.219
       409   04 Jun 2027 06:20:30.808   04 Jun 2027 06:21:24.723            53.915               Magadan1          1684.844
       410   04 Jun 2027 06:21:39.334   04 Jun 2027 06:21:44.269             4.935                Anadyr2           154.219
       411   04 Jun 2027 06:22:01.126   04 Jun 2027 06:22:16.236            15.110               Magadan2           472.187
       412   04 Jun 2027 06:22:25.815   04 Jun 2027 06:24:08.632           102.817               Magadan1          3213.031
       413   04 Jun 2027 06:24:18.837   04 Jun 2027 06:24:53.341            34.504               Magadan2          1078.250
       414   04 Jun 2027 06:25:01.562   04 Jun 2027 06:25:03.181             1.619               Magadan1            50.594
       415   04 Jun 2027 06:25:07.225   04 Jun 2027 06:25:34.592            27.367                Anadyr1           855.219
       416   04 Jun 2027 06:33:28.860   04 Jun 2027 06:34:22.074            53.214                 Moscow          1662.937
       417   04 Jun 2027 07:56:10.189   04 Jun 2027 07:56:44.805            34.616                Anadyr2          1081.750
       418   04 Jun 2027 07:57:25.196   04 Jun 2027 07:57:39.278            14.082                Anadyr1           440.063
       419   04 Jun 2027 07:57:47.731   04 Jun 2027 07:58:04.970            17.239               Magadan1           538.719
       420   04 Jun 2027 07:58:24.853   04 Jun 2027 07:58:33.441             8.588               Magadan1           268.375
       421   04 Jun 2027 07:58:53.316   04 Jun 2027 08:00:09.043            75.727                Anadyr1          2366.469
       422   04 Jun 2027 08:00:16.262   04 Jun 2027 08:00:18.234             1.972               Magadan1            61.625
       423   04 Jun 2027 08:00:20.299   04 Jun 2027 08:00:36.553            16.254                Anadyr2           507.937
       424   04 Jun 2027 08:00:43.540   04 Jun 2027 08:00:44.961             1.421                Anadyr2            44.406
       425   04 Jun 2027 08:01:10.869   04 Jun 2027 08:01:12.110             1.241               Magadan2            38.781
       426   04 Jun 2027 08:01:12.110   04 Jun 2027 08:01:38.948            26.838               Magadan1           838.688
       427   04 Jun 2027 08:01:41.440   04 Jun 2027 08:02:23.589            42.149               Magadan2          1317.156
       428   04 Jun 2027 08:02:38.255   04 Jun 2027 08:03:48.286            70.031                Anadyr2          2188.469
       429   04 Jun 2027 09:33:01.158   04 Jun 2027 09:34:29.357            88.199               Magadan1          2756.219
       430   04 Jun 2027 09:35:27.023   04 Jun 2027 09:35:44.081            17.058               Magadan1           533.063
       431   04 Jun 2027 09:35:46.144   04 Jun 2027 09:35:51.324             5.180                Irkutsk           161.875
       432   04 Jun 2027 09:35:53.472   04 Jun 2027 09:36:20.780            27.308               Magadan2           853.375
       433   04 Jun 2027 09:36:32.730   04 Jun 2027 09:37:02.493            29.763               Magadan2           930.094
       434   04 Jun 2027 09:37:29.254   04 Jun 2027 09:37:29.366             0.112                Irkutsk             3.500
       435   04 Jun 2027 09:37:47.275   04 Jun 2027 09:38:10.544            23.269                Irkutsk           727.156
       436   04 Jun 2027 09:38:19.376   04 Jun 2027 09:38:31.308            11.932                Irkutsk           372.875
       437   04 Jun 2027 09:39:25.801   04 Jun 2027 09:39:44.763            18.962                Irkutsk           592.562
       438   04 Jun 2027 10:14:28.232   04 Jun 2027 10:15:08.079            39.847            RioGallegos          1245.219
       439   04 Jun 2027 10:15:24.900   04 Jun 2027 10:15:53.639            28.739            RioGallegos           898.094
       440   04 Jun 2027 10:49:28.533   04 Jun 2027 10:50:09.918            41.385                Sumatra          1293.281
       441   04 Jun 2027 11:02:33.954   04 Jun 2027 11:02:49.705            15.751                  Delhi           492.219
       442   04 Jun 2027 11:10:54.902   04 Jun 2027 11:11:36.394            41.492                Irkutsk          1296.625
       443   04 Jun 2027 11:11:45.393   04 Jun 2027 11:12:59.002            73.609                Norilsk          2300.281
       444   04 Jun 2027 11:13:10.836   04 Jun 2027 11:13:25.307            14.471                Novosib           452.219
       445   04 Jun 2027 11:13:28.550   04 Jun 2027 11:13:59.728            31.178                Novosib           974.312
       446   04 Jun 2027 11:14:04.997   04 Jun 2027 11:14:34.325            29.328                Irkutsk           916.500
       447   04 Jun 2027 11:14:42.837   04 Jun 2027 11:14:54.395            11.558                Norilsk           361.187
       448   04 Jun 2027 11:15:06.236   04 Jun 2027 11:15:17.796            11.560                Norilsk           361.250
       449   04 Jun 2027 11:15:20.211   04 Jun 2027 11:16:11.864            51.653                Novosib          1614.156
       450   04 Jun 2027 11:53:16.588   04 Jun 2027 11:53:19.773             3.185            RioGallegos            99.531
       451   04 Jun 2027 11:55:29.548   04 Jun 2027 11:56:32.268            62.720            RioGallegos          1960.000
       452   04 Jun 2027 12:30:12.964   04 Jun 2027 12:32:19.904           126.940                Sumatra          3966.875
       453   04 Jun 2027 12:41:59.102   04 Jun 2027 12:42:28.068            28.966                Novosib           905.187
       454   04 Jun 2027 12:45:01.105   04 Jun 2027 12:46:16.546            75.441                Norilsk          2357.531
       455   04 Jun 2027 14:13:51.310   04 Jun 2027 14:16:11.296           139.986                  Delhi          4374.562
       456   04 Jun 2027 14:16:48.787   04 Jun 2027 14:17:00.331            11.544                  Delhi           360.750
       457   04 Jun 2027 14:19:11.134   04 Jun 2027 14:20:07.935            56.801                 Moscow          1775.031
       458   04 Jun 2027 14:21:22.338   04 Jun 2027 14:23:38.569           136.231              Murmansk2          4257.219
       459   04 Jun 2027 14:24:10.740   04 Jun 2027 14:25:31.834            81.094                Novosib          2534.187
       460   04 Jun 2027 14:26:33.808   04 Jun 2027 14:27:13.109            39.301                Norilsk          1228.156
       461   04 Jun 2027 15:33:24.943   04 Jun 2027 15:36:00.420           155.477               CapeTown          4858.656
       462   04 Jun 2027 15:58:04.160   04 Jun 2027 15:59:00.582            56.422              Murmansk1          1763.188
       463   04 Jun 2027 16:00:29.661   04 Jun 2027 16:00:56.562            26.901              Murmansk2           840.656
       464   04 Jun 2027 16:00:56.562   04 Jun 2027 16:01:26.312            29.750              Murmansk1           929.688
       465   04 Jun 2027 16:12:39.925   04 Jun 2027 16:13:56.120            76.195                Anadyr2          2381.094
       466   04 Jun 2027 16:14:12.529   04 Jun 2027 16:14:23.379            10.850                Anadyr1           339.063
       467   04 Jun 2027 16:15:06.807   04 Jun 2027 16:15:24.252            17.445                Anadyr1           545.156
       468   04 Jun 2027 16:15:53.574   04 Jun 2027 16:16:13.706            20.132                Anadyr2           629.125
       469   04 Jun 2027 17:07:22.430   04 Jun 2027 17:09:49.366           146.936               CapeTown          4591.750
       470   04 Jun 2027 17:36:52.689   04 Jun 2027 17:37:24.783            32.094              Murmansk2          1002.938
       471   04 Jun 2027 17:38:45.047   04 Jun 2027 17:40:46.845           121.798              Murmansk1          3806.188
       472   04 Jun 2027 17:48:01.467   04 Jun 2027 17:48:28.160            26.693                Anadyr1           834.156
       473   04 Jun 2027 17:48:58.402   04 Jun 2027 17:49:49.471            51.069                Anadyr1          1595.906
       474   04 Jun 2027 17:51:15.783   04 Jun 2027 17:51:34.858            19.075                Anadyr1           596.094
       475   04 Jun 2027 17:52:06.501   04 Jun 2027 17:52:43.538            37.037               Magadan1          1157.406
       476   04 Jun 2027 17:52:43.538   04 Jun 2027 17:53:37.101            53.563               Magadan2          1673.844
       477   04 Jun 2027 17:54:03.652   04 Jun 2027 17:54:56.880            53.228               Magadan2          1663.375
       478   04 Jun 2027 19:23:54.915   04 Jun 2027 19:27:46.838           231.923                Anadyr2          7247.594
       479   04 Jun 2027 19:28:02.118   04 Jun 2027 19:28:51.376            49.258               Magadan1          1539.313
       480   04 Jun 2027 19:28:55.543   04 Jun 2027 19:29:50.345            54.802               Magadan2          1712.562
       481   04 Jun 2027 19:31:18.023   04 Jun 2027 19:31:25.331             7.308               Magadan1           228.375
       482   04 Jun 2027 19:37:24.645   04 Jun 2027 19:37:55.735            31.090               Magadan2           971.562
