uniorb/output/strategy_4/Drop/Drop_KinoSat_110410.txt

KinoSat_110410
-------------------------
    Access    *     Start Time (UTCG)     *     Stop Time (UTCG)  *   Duration (s)        *       Station  *  Data (Mbytes)
         1   01 Jun 2027 03:03:11.353   01 Jun 2027 03:03:28.455            17.102               Magadan2          2137.750
         2   01 Jun 2027 03:03:34.709   01 Jun 2027 03:04:17.469            42.760               Magadan1          5345.000
         3   01 Jun 2027 03:05:05.109   01 Jun 2027 03:05:37.230            32.121               Magadan2          4015.125
         4   01 Jun 2027 03:05:39.257   01 Jun 2027 03:06:20.668            41.411                Anadyr1          5176.375
         5   01 Jun 2027 03:06:38.440   01 Jun 2027 03:06:51.088            12.648               Magadan1          1581.000
         6   01 Jun 2027 03:06:54.669   01 Jun 2027 03:08:01.172            66.503                Anadyr1          8312.875
         7   01 Jun 2027 03:08:35.747   01 Jun 2027 03:08:56.296            20.549               Magadan1          2568.625
         8   01 Jun 2027 03:08:56.296   01 Jun 2027 03:09:34.469            38.173               Magadan2          4771.625
         9   01 Jun 2027 03:10:21.471   01 Jun 2027 03:11:02.121            40.650                Anadyr2          5081.250
        10   01 Jun 2027 03:11:07.687   01 Jun 2027 03:11:13.181             5.494               Magadan1           686.750
        11   01 Jun 2027 03:48:30.795   01 Jun 2027 03:49:02.510            31.715            RioGallegos          3964.375
        12   01 Jun 2027 03:49:25.985   01 Jun 2027 03:50:06.595            40.610            RioGallegos          5076.250
        13   01 Jun 2027 04:41:43.666   01 Jun 2027 04:42:19.229            35.563                Norilsk          4445.375
        14   01 Jun 2027 04:42:21.221   01 Jun 2027 04:42:42.089            20.868                Irkutsk          2608.500
        15   01 Jun 2027 04:43:00.239   01 Jun 2027 04:46:45.440           225.201                Irkutsk         28150.125
        16   01 Jun 2027 05:56:45.102   01 Jun 2027 05:57:59.243            74.141                Sumatra          9267.625
        17   01 Jun 2027 06:07:49.251   01 Jun 2027 06:09:58.250           128.999                  Delhi         16124.875
        18   01 Jun 2027 06:19:43.926   01 Jun 2027 06:20:09.030            25.104              Murmansk2          3138.000
        19   01 Jun 2027 06:20:28.780   01 Jun 2027 06:21:51.031            82.251              Murmansk2         10281.375
        20   01 Jun 2027 06:22:17.962   01 Jun 2027 06:23:02.882            44.920              Murmansk1          5615.000
        21   01 Jun 2027 06:23:47.070   01 Jun 2027 06:24:01.810            14.740                 Moscow          1842.500
        22   01 Jun 2027 07:35:32.614   01 Jun 2027 07:36:22.354            49.740                Sumatra          6217.500
        23   01 Jun 2027 07:40:52.207   01 Jun 2027 07:42:01.162            68.955                  Delhi          8619.375
        24   01 Jun 2027 07:57:07.736   01 Jun 2027 07:57:25.726            17.990                 Moscow          2248.750
        25   01 Jun 2027 07:57:50.428   01 Jun 2027 07:58:14.306            23.878                Novosib          2984.750
        26   01 Jun 2027 07:58:16.201   01 Jun 2027 07:58:31.130            14.929                 Moscow          1866.125
        27   01 Jun 2027 07:58:46.242   01 Jun 2027 08:00:12.703            86.461                Norilsk         10807.625
        28   01 Jun 2027 09:30:59.537   01 Jun 2027 09:31:50.475            50.938                Novosib          6367.250
        29   01 Jun 2027 09:32:03.362   01 Jun 2027 09:32:21.030            17.668              Murmansk1          2208.500
        30   01 Jun 2027 09:32:29.118   01 Jun 2027 09:33:15.706            46.588                Norilsk          5823.500
        31   01 Jun 2027 09:33:33.677   01 Jun 2027 09:38:09.988           276.311                 Moscow         34538.875
        32   01 Jun 2027 09:38:17.791   01 Jun 2027 09:41:39.027           201.236              Murmansk1         25154.500
        33   01 Jun 2027 10:43:37.517   01 Jun 2027 10:49:26.494           348.977               CapeTown         43622.125
        34   01 Jun 2027 11:19:57.988   01 Jun 2027 11:27:05.589           427.601                Anadyr2         53450.125
        35   01 Jun 2027 12:59:16.818   01 Jun 2027 13:02:40.383           203.565               Magadan1         25445.625
        36   01 Jun 2027 16:15:32.475   01 Jun 2027 16:20:36.250           303.775                Irkutsk         37971.875
        37   01 Jun 2027 17:03:00.549   01 Jun 2027 17:04:02.236            61.687            RioGallegos          7710.875
        38   01 Jun 2027 17:50:18.492   01 Jun 2027 17:53:30.317           191.825                Novosib         23978.125
        39   01 Jun 2027 17:56:45.814   01 Jun 2027 17:57:58.997            73.183                Novosib          9147.875
        40   01 Jun 2027 18:04:23.747   01 Jun 2027 18:05:49.298            85.551                Sumatra         10693.875
        41   01 Jun 2027 19:32:23.003   01 Jun 2027 19:34:30.549           127.546                  Delhi         13767.377
        42   02 Jun 2027 03:20:49.469   02 Jun 2027 03:20:52.138             2.669               Magadan1           333.625
        43   02 Jun 2027 03:20:59.045   02 Jun 2027 03:22:19.648            80.603               Magadan1         10075.375
        44   02 Jun 2027 03:22:22.764   02 Jun 2027 03:22:28.402             5.638               Magadan1           704.750
        45   02 Jun 2027 03:22:34.283   02 Jun 2027 03:23:16.193            41.910               Magadan1          5238.750
        46   02 Jun 2027 03:23:23.391   02 Jun 2027 03:23:59.772            36.381                Norilsk          4547.625
        47   02 Jun 2027 04:37:59.595   02 Jun 2027 04:38:31.783            32.188                Sumatra          4023.500
        48   02 Jun 2027 04:40:18.671   02 Jun 2027 04:41:13.384            54.713                Sumatra          6839.125
        49   02 Jun 2027 04:54:27.326   02 Jun 2027 04:55:39.393            72.067                Irkutsk          9008.375
        50   02 Jun 2027 04:56:01.825   02 Jun 2027 04:56:10.459             8.634                Irkutsk          1079.250
        51   02 Jun 2027 04:56:43.684   02 Jun 2027 04:57:01.613            17.929               Magadan2          2241.125
        52   02 Jun 2027 04:57:07.721   02 Jun 2027 04:57:50.572            42.851               Magadan2          5356.375
        53   02 Jun 2027 04:58:49.921   02 Jun 2027 04:59:09.252            19.331                Irkutsk          2416.375
        54   02 Jun 2027 04:59:10.856   02 Jun 2027 04:59:14.195             3.339                Norilsk           417.375
        55   02 Jun 2027 04:59:41.555   02 Jun 2027 05:00:40.162            58.607                Norilsk          7325.875
        56   02 Jun 2027 05:01:57.990   02 Jun 2027 05:07:22.446           324.456              Murmansk1         40557.000
        57   02 Jun 2027 05:42:08.614   02 Jun 2027 05:46:33.339           264.725            RioGallegos         33090.625
        58   02 Jun 2027 06:15:54.190   02 Jun 2027 06:20:30.485           276.295                Sumatra         34536.875
        59   02 Jun 2027 06:35:03.665   02 Jun 2027 06:36:39.564            95.899                Novosib         11987.375
        60   02 Jun 2027 06:36:55.536   02 Jun 2027 06:40:05.199           189.663                Norilsk         23707.875
        61   02 Jun 2027 06:40:25.638   02 Jun 2027 06:42:15.638           110.000              Murmansk1         13750.000
        62   02 Jun 2027 07:17:20.897   02 Jun 2027 07:20:31.524           190.627            RioGallegos         23828.375
        63   02 Jun 2027 07:59:53.142   02 Jun 2027 08:05:31.510           338.368                  Delhi         42296.000
        64   02 Jun 2027 08:05:43.543   02 Jun 2027 08:06:47.336            63.793                Novosib          7974.125
        65   02 Jun 2027 08:10:47.994   02 Jun 2027 08:13:59.861           191.867                 Moscow         23983.375
        66   02 Jun 2027 08:14:10.992   02 Jun 2027 08:17:47.740           216.748              Murmansk1         27093.500
        67   02 Jun 2027 09:40:10.985   02 Jun 2027 09:40:35.799            24.814                 Moscow          3101.750
        68   02 Jun 2027 09:47:25.081   02 Jun 2027 09:51:43.836           258.755                Norilsk         32344.375
        69   02 Jun 2027 09:52:09.648   02 Jun 2027 09:53:40.529            90.881              Murmansk2         11360.125
        70   02 Jun 2027 11:16:09.949   02 Jun 2027 11:16:40.311            30.362                 Moscow          3795.250
        71   02 Jun 2027 11:18:13.852   02 Jun 2027 11:25:39.122           445.270                 Moscow         55658.750
        72   02 Jun 2027 11:25:57.844   02 Jun 2027 11:29:38.378           220.534              Murmansk2         27566.750
        73   02 Jun 2027 11:31:50.944   02 Jun 2027 11:41:10.157           559.213                Anadyr1         69901.625
        74   02 Jun 2027 12:29:50.032   02 Jun 2027 12:39:17.317           567.285               CapeTown         70910.625
        75   02 Jun 2027 12:57:01.846   02 Jun 2027 13:04:09.369           427.523              Murmansk2         53440.375
        76   02 Jun 2027 13:10:52.147   02 Jun 2027 13:15:16.116           263.969               Magadan1         32996.125
        77   02 Jun 2027 14:46:17.312   02 Jun 2027 14:48:12.899           115.587               Magadan2         14448.375
        78   02 Jun 2027 16:26:48.702   02 Jun 2027 16:30:13.214           204.512                Irkutsk         25564.000
        79   02 Jun 2027 16:30:59.637   02 Jun 2027 16:32:53.183           113.546                Irkutsk         14193.250
        80   02 Jun 2027 16:42:50.274   02 Jun 2027 16:43:45.591            55.317                Sumatra          6914.625
        81   02 Jun 2027 16:45:44.986   02 Jun 2027 16:46:11.735            26.749                Sumatra          3343.625
        82   02 Jun 2027 18:02:01.773   02 Jun 2027 18:05:31.013           209.240                Novosib         26155.000
        83   02 Jun 2027 21:11:13.610   02 Jun 2027 21:12:24.906            71.296              Murmansk1          8912.000
        84   02 Jun 2027 21:15:16.346   02 Jun 2027 21:19:02.770           226.424                 Moscow         28303.000
        85   02 Jun 2027 21:42:24.984   02 Jun 2027 21:44:14.677           109.693               CapeTown         13711.625
        86   02 Jun 2027 21:45:26.383   02 Jun 2027 21:46:06.487            40.104               CapeTown          5013.000
        87   03 Jun 2027 03:33:54.363   03 Jun 2027 03:34:23.871            29.508                Norilsk          3688.500
        88   03 Jun 2027 03:35:15.973   03 Jun 2027 03:35:34.609            18.636                Novosib          2329.500
        89   03 Jun 2027 03:35:49.788   03 Jun 2027 03:44:57.175           547.387              Murmansk2         68423.375
        90   03 Jun 2027 04:10:22.511   03 Jun 2027 04:12:55.278           152.767            RioGallegos         19095.875
        91   03 Jun 2027 04:48:04.894   03 Jun 2027 04:49:55.203           110.309                Sumatra         13788.625
        92   03 Jun 2027 05:11:12.179   03 Jun 2027 05:12:48.572            96.393                Norilsk         12049.125
        93   03 Jun 2027 05:13:50.988   03 Jun 2027 05:19:13.350           322.362              Murmansk1         40295.250
        94   03 Jun 2027 05:54:09.226   03 Jun 2027 05:58:29.947           260.721            RioGallegos         32590.125
        95   03 Jun 2027 06:28:47.548   03 Jun 2027 06:33:19.884           272.336                Sumatra         34042.000
        96   03 Jun 2027 06:36:14.175   03 Jun 2027 06:36:46.093            31.918                Irkutsk          3989.750
        97   03 Jun 2027 06:37:13.908   03 Jun 2027 06:40:50.105           216.197                Irkutsk         27024.625
        98   03 Jun 2027 06:47:08.454   03 Jun 2027 06:48:10.720            62.266                 Moscow          7783.250
        99   03 Jun 2027 06:48:14.095   03 Jun 2027 06:52:07.060           232.965                Norilsk         29120.625
       100   03 Jun 2027 06:52:13.283   03 Jun 2027 06:54:12.210           118.927              Murmansk1         14865.875
       101   03 Jun 2027 07:29:06.577   03 Jun 2027 07:31:37.959           151.382            RioGallegos         18922.750
       102   03 Jun 2027 08:13:11.205   03 Jun 2027 08:17:22.389           251.184                  Delhi         31398.000
       103   03 Jun 2027 08:17:30.750   03 Jun 2027 08:17:50.961            20.211              Murmansk2          2526.375
       104   03 Jun 2027 08:22:46.467   03 Jun 2027 08:26:04.874           198.407                 Moscow         24800.875
       105   03 Jun 2027 08:26:13.540   03 Jun 2027 08:29:47.893           214.353              Murmansk2         26794.125
       106   03 Jun 2027 09:52:06.519   03 Jun 2027 09:52:37.202            30.683                 Moscow          3835.375
       107   03 Jun 2027 09:53:51.599   03 Jun 2027 09:54:39.703            48.104                 Moscow          6013.000
       108   03 Jun 2027 09:57:54.035   03 Jun 2027 09:59:37.770           103.735              Murmansk1         12966.875
       109   03 Jun 2027 09:59:39.505   03 Jun 2027 10:02:12.420           152.915                 Moscow         19114.375
       110   03 Jun 2027 10:02:14.966   03 Jun 2027 10:03:37.615            82.649                Norilsk         10331.125
       111   03 Jun 2027 10:03:58.372   03 Jun 2027 10:05:42.114           103.742              Murmansk1         12967.750
       112   03 Jun 2027 11:32:04.079   03 Jun 2027 11:33:41.875            97.796              Murmansk2         12224.500
       113   03 Jun 2027 11:34:16.901   03 Jun 2027 11:37:30.452           193.551                 Moscow         24193.875
       114   03 Jun 2027 11:37:50.410   03 Jun 2027 11:41:39.490           229.080              Murmansk2         28635.000
       115   03 Jun 2027 11:47:02.304   03 Jun 2027 11:53:43.351           401.047                Anadyr2         50130.875
       116   03 Jun 2027 12:47:02.467   03 Jun 2027 12:51:03.639           241.172               CapeTown         30146.500
       117   03 Jun 2027 13:09:41.446   03 Jun 2027 13:17:15.490           454.044              Murmansk1         56755.500
       118   03 Jun 2027 13:20:11.804   03 Jun 2027 13:31:12.995           661.191                Anadyr1         82648.875
       119   03 Jun 2027 15:51:53.418   03 Jun 2027 15:56:33.300           279.882            RioGallegos         34985.250
       120   03 Jun 2027 16:38:20.812   03 Jun 2027 16:44:56.024           395.212                Irkutsk         49401.500
       121   03 Jun 2027 16:53:30.049   03 Jun 2027 16:55:56.049           146.000                Sumatra         18250.000
       122   03 Jun 2027 16:57:52.749   03 Jun 2027 17:00:11.804           139.055                Sumatra         17381.875
       123   03 Jun 2027 18:15:57.311   03 Jun 2027 18:17:32.341            95.030                Novosib         11878.750
       124   03 Jun 2027 18:24:15.868   03 Jun 2027 18:25:49.125            93.257                  Delhi         11657.125
       125   03 Jun 2027 18:27:58.348   03 Jun 2027 18:28:27.365            29.017                  Delhi          3627.125
       126   03 Jun 2027 21:24:02.593   03 Jun 2027 21:24:15.936            13.343              Murmansk2          1667.875
       127   03 Jun 2027 21:30:24.777   03 Jun 2027 21:33:36.063           191.286                 Moscow         23910.750
       128   03 Jun 2027 21:53:23.669   03 Jun 2027 21:55:10.721           107.052               CapeTown         13381.500
       129   03 Jun 2027 21:59:43.158   03 Jun 2027 22:01:41.972           118.814               CapeTown          2821.125
       130   04 Jun 2027 03:47:20.063   04 Jun 2027 03:56:44.456           564.393              Murmansk2         70549.125
       131   04 Jun 2027 04:59:01.764   04 Jun 2027 05:01:47.889           166.125                Sumatra         20765.625
       132   04 Jun 2027 05:23:36.120   04 Jun 2027 05:24:35.065            58.945                Novosib          7368.125
       133   04 Jun 2027 05:25:44.732   04 Jun 2027 05:28:11.969           147.237              Murmansk1         18404.625
       134   04 Jun 2027 05:28:11.969   04 Jun 2027 05:31:04.988           173.019              Murmansk2         21627.375
       135   04 Jun 2027 06:06:08.824   04 Jun 2027 06:10:24.969           256.145            RioGallegos         32018.125
       136   04 Jun 2027 06:40:56.010   04 Jun 2027 06:45:08.666           252.656                Sumatra         31582.000
       137   04 Jun 2027 06:48:32.272   04 Jun 2027 06:49:07.053            34.781                Irkutsk          4347.625
       138   04 Jun 2027 06:50:12.835   04 Jun 2027 06:53:16.453           183.618                Irkutsk         22952.250
       139   04 Jun 2027 06:57:37.982   04 Jun 2027 06:57:43.967             5.985                Irkutsk           748.125
       140   04 Jun 2027 06:59:14.063   04 Jun 2027 07:01:29.380           135.317                 Moscow         16914.625
       141   04 Jun 2027 07:01:29.734   04 Jun 2027 07:06:09.363           279.629              Murmansk1         34953.625
       142   04 Jun 2027 08:25:10.899   04 Jun 2027 08:29:08.778           237.879                  Delhi         29734.875
       143   04 Jun 2027 08:29:40.890   04 Jun 2027 08:30:05.926            25.036                Novosib          3129.500
       144   04 Jun 2027 08:34:42.743   04 Jun 2027 08:35:57.556            74.813                Novosib          9351.625
       145   04 Jun 2027 08:36:15.566   04 Jun 2027 08:40:06.593           231.027                Norilsk         28878.375
       146   04 Jun 2027 08:40:10.996   04 Jun 2027 08:41:48.324            97.328              Murmansk1         12166.000
       147   04 Jun 2027 10:04:37.991   04 Jun 2027 10:05:59.622            81.631                 Moscow         10203.875
       148   04 Jun 2027 10:09:41.570   04 Jun 2027 10:11:45.924           124.354              Murmansk2         15544.250
       149   04 Jun 2027 10:11:55.806   04 Jun 2027 10:14:12.675           136.869                 Moscow         17108.625
       150   04 Jun 2027 10:15:04.237   04 Jun 2027 10:17:43.756           159.519              Murmansk2         19939.875
       151   04 Jun 2027 11:27:04.157   04 Jun 2027 11:27:07.097             2.940               CapeTown           367.500
       152   04 Jun 2027 11:44:05.147   04 Jun 2027 11:53:40.348           575.201              Murmansk2         71900.125
       153   04 Jun 2027 11:58:09.590   04 Jun 2027 12:06:12.828           483.238                Anadyr2         60404.750
       154   04 Jun 2027 12:59:01.030   04 Jun 2027 13:02:44.559           223.529               CapeTown         27941.125
       155   04 Jun 2027 13:22:25.306   04 Jun 2027 13:29:08.754           403.448              Murmansk1         50431.000
       156   04 Jun 2027 13:31:23.030   04 Jun 2027 13:32:10.077            47.047                Anadyr2          5880.875
       157   04 Jun 2027 13:34:22.738   04 Jun 2027 13:40:13.301           350.563               Magadan1         43820.375
       158   04 Jun 2027 16:03:03.973   04 Jun 2027 16:05:44.356           160.383            RioGallegos         20047.875
       159   04 Jun 2027 16:09:00.739   04 Jun 2027 16:09:53.163            52.424            RioGallegos          6553.000
       160   04 Jun 2027 16:51:23.387   04 Jun 2027 16:53:57.074           153.687                Irkutsk         19210.875
       161   04 Jun 2027 16:55:56.637   04 Jun 2027 16:56:21.611            24.974                Irkutsk          3121.750
       162   04 Jun 2027 17:04:38.172   04 Jun 2027 17:08:37.152           238.980                Sumatra         29872.500
       163   04 Jun 2027 18:29:06.695   04 Jun 2027 18:29:34.234            27.539                Novosib          3442.375
       164   04 Jun 2027 18:34:52.112   04 Jun 2027 18:37:29.516           157.404                  Delhi         19675.500
       165   04 Jun 2027 18:39:12.296   04 Jun 2027 18:39:48.480            36.184                  Delhi          4523.000
       166   04 Jun 2027 21:37:11.888   04 Jun 2027 21:39:01.225           109.337              Murmansk2         13667.125
       167   04 Jun 2027 21:39:57.804   04 Jun 2027 21:41:29.858            92.054                 Moscow         11506.750
       168   04 Jun 2027 21:45:53.335   04 Jun 2027 21:46:16.048            22.713                 Moscow          2839.125
       169   04 Jun 2027 22:04:36.719   04 Jun 2027 22:05:20.857            44.138               CapeTown          5517.250
       170   04 Jun 2027 22:06:27.818   04 Jun 2027 22:07:27.185            59.367               CapeTown          5296.375
       171   05 Jun 2027 03:59:07.389   05 Jun 2027 04:05:56.031           408.642              Murmansk2         51080.250
       172   05 Jun 2027 05:10:18.219   05 Jun 2027 05:13:36.363           198.144                Sumatra         24768.000
       173   05 Jun 2027 05:35:15.278   05 Jun 2027 05:35:19.989             4.711                Norilsk           588.875
       174   05 Jun 2027 05:35:41.677   05 Jun 2027 05:40:11.864           270.187                Norilsk         33773.375
       175   05 Jun 2027 05:40:24.962   05 Jun 2027 05:42:57.377           152.415              Murmansk2         19051.875
       176   05 Jun 2027 06:18:07.313   05 Jun 2027 06:22:18.101           250.788            RioGallegos         31348.500
       177   05 Jun 2027 06:52:58.728   05 Jun 2027 06:56:50.945           232.217                Sumatra         29027.125
       178   05 Jun 2027 07:00:10.183   05 Jun 2027 07:05:40.780           330.597                Irkutsk         41324.625
       179   05 Jun 2027 07:10:24.225   05 Jun 2027 07:12:41.858           137.633                Novosib         17204.125
       180   05 Jun 2027 07:12:55.647   05 Jun 2027 07:16:10.843           195.196                Norilsk         24399.500
       181   05 Jun 2027 07:16:20.343   05 Jun 2027 07:18:07.065           106.722              Murmansk1         13340.250
       182   05 Jun 2027 08:37:07.207   05 Jun 2027 08:40:49.650           222.443                  Delhi         27805.375
       183   05 Jun 2027 08:41:06.185   05 Jun 2027 08:42:10.826            64.641                Novosib          8080.125
       184   05 Jun 2027 08:47:08.484   05 Jun 2027 08:47:45.382            36.898                Novosib          4612.250
       185   05 Jun 2027 08:48:12.179   05 Jun 2027 08:52:07.084           234.905                Norilsk         29363.125
       186   05 Jun 2027 08:52:15.044   05 Jun 2027 08:53:49.016            93.972              Murmansk2         11746.500
       187   05 Jun 2027 10:16:38.103   05 Jun 2027 10:18:05.850            87.747                 Moscow         10968.375
       188   05 Jun 2027 10:19:58.988   05 Jun 2027 10:20:48.175            49.187              Murmansk1          6148.375
       189   05 Jun 2027 10:21:05.139   05 Jun 2027 10:26:12.182           307.043                 Moscow         38380.375
       190   05 Jun 2027 10:26:57.881   05 Jun 2027 10:29:45.425           167.544              Murmansk2         20943.000
       191   05 Jun 2027 10:34:55.862   05 Jun 2027 10:37:03.195           127.333                Anadyr2         15916.625
       192   05 Jun 2027 11:34:43.554   05 Jun 2027 11:39:24.772           281.218               CapeTown         35152.250
       193   05 Jun 2027 11:54:30.518   05 Jun 2027 12:00:57.450           386.932                 Moscow         48366.500
       194   05 Jun 2027 13:46:13.491   05 Jun 2027 13:50:29.449           255.958               Magadan2         31994.750
       195   05 Jun 2027 13:52:35.880   05 Jun 2027 13:53:39.079            63.199               Magadan1          7899.875
       196   05 Jun 2027 16:14:33.461   05 Jun 2027 16:18:12.701           219.240            RioGallegos         27405.000
       197   05 Jun 2027 16:19:38.413   05 Jun 2027 16:21:03.196            84.783            RioGallegos         10597.875
       198   05 Jun 2027 17:04:53.754   05 Jun 2027 17:05:52.037            58.283                Irkutsk          7285.375
       199   05 Jun 2027 17:17:36.992   05 Jun 2027 17:23:24.120           347.128                Sumatra         43391.000
       200   05 Jun 2027 18:40:00.209   05 Jun 2027 18:40:22.116            21.907                Novosib          2738.375
       201   05 Jun 2027 18:44:27.277   05 Jun 2027 18:44:44.104            16.827                Novosib          2103.375
       202   05 Jun 2027 18:46:03.816   05 Jun 2027 18:49:14.383           190.567                  Delhi         23820.875
       203   05 Jun 2027 21:50:07.517   05 Jun 2027 21:50:27.200            19.683              Murmansk1          2460.375
       204   05 Jun 2027 21:50:48.615   05 Jun 2027 21:53:34.050           165.435                 Moscow         20679.375
       205   05 Jun 2027 21:55:09.700   05 Jun 2027 21:55:10.304             0.604                 Moscow            75.500
       206   05 Jun 2027 21:56:06.296   05 Jun 2027 21:56:19.187            12.891                 Moscow          1611.375
       207   05 Jun 2027 21:56:35.690   05 Jun 2027 21:58:35.626           119.936              Murmansk1          7579.000
       208   06 Jun 2027 04:11:10.146   06 Jun 2027 04:12:15.776            65.630              Murmansk2          8203.750
       209   06 Jun 2027 04:12:18.148   06 Jun 2027 04:12:44.650            26.502                Norilsk          3312.750
       210   06 Jun 2027 05:21:46.772   06 Jun 2027 05:23:08.173            81.401                Sumatra         10175.125
       211   06 Jun 2027 05:47:16.996   06 Jun 2027 05:47:36.256            19.260                Norilsk          2407.500
       212   06 Jun 2027 05:47:42.292   06 Jun 2027 05:52:13.213           270.921                Norilsk         33865.125
       213   06 Jun 2027 05:52:27.016   06 Jun 2027 05:54:50.514           143.498              Murmansk2         17937.250
       214   06 Jun 2027 06:30:04.533   06 Jun 2027 06:34:08.877           244.344            RioGallegos         30543.000
       215   06 Jun 2027 07:04:55.868   06 Jun 2027 07:08:25.566           209.698                Sumatra         26212.250
       216   06 Jun 2027 07:11:58.411   06 Jun 2027 07:13:11.268            72.857                Novosib          9107.125
       217   06 Jun 2027 07:13:51.212   06 Jun 2027 07:17:46.939           235.727                  Delhi         29465.875
       218   06 Jun 2027 07:17:50.684   06 Jun 2027 07:18:14.096            23.412                Irkutsk          2926.500
       219   06 Jun 2027 07:22:59.067   06 Jun 2027 07:24:41.200           102.133                Novosib         12766.625
       220   06 Jun 2027 07:24:44.124   06 Jun 2027 07:28:12.708           208.584                Norilsk         26073.000
       221   06 Jun 2027 07:28:20.978   06 Jun 2027 07:30:05.277           104.299              Murmansk2         13037.375
       222   06 Jun 2027 08:48:59.848   06 Jun 2027 08:52:23.245           203.397                  Delhi         25424.625
       223   06 Jun 2027 08:52:32.577   06 Jun 2027 08:55:07.629           155.052                Novosib         19381.500
       224   06 Jun 2027 08:59:08.107   06 Jun 2027 08:59:29.023            20.916                Novosib          2614.500
       225   06 Jun 2027 08:59:38.128   06 Jun 2027 09:04:07.088           268.960                Norilsk         33620.000
       226   06 Jun 2027 09:04:09.657   06 Jun 2027 09:05:49.920           100.263              Murmansk1         12532.875
       227   06 Jun 2027 10:27:41.588   06 Jun 2027 10:30:09.486           147.898                 Moscow         18487.250
       228   06 Jun 2027 10:32:11.225   06 Jun 2027 10:35:24.833           193.608              Murmansk2         24201.000
       229   06 Jun 2027 10:35:32.844   06 Jun 2027 10:38:10.848           158.004                 Moscow         19750.500
       230   06 Jun 2027 10:38:49.181   06 Jun 2027 10:41:47.088           177.907              Murmansk1         22238.375
       231   06 Jun 2027 10:44:56.135   06 Jun 2027 10:50:18.537           322.402                Anadyr1         40300.250
       232   06 Jun 2027 11:46:40.831   06 Jun 2027 11:48:32.587           111.756               CapeTown         13969.500
       233   06 Jun 2027 13:58:06.530   06 Jun 2027 14:00:40.762           154.232               Magadan2         19279.000
       234   06 Jun 2027 14:02:20.743   06 Jun 2027 14:02:27.284             6.541               Magadan1           817.625
       235   06 Jun 2027 14:04:58.739   06 Jun 2027 14:05:39.038            40.299               Magadan2          5037.375
       236   06 Jun 2027 16:26:12.102   06 Jun 2027 16:32:39.844           387.742            RioGallegos         48467.750
       237   06 Jun 2027 17:13:35.519   06 Jun 2027 17:14:38.907            63.388                Irkutsk          7923.500
       238   06 Jun 2027 17:16:07.472   06 Jun 2027 17:17:45.009            97.537                Irkutsk         12192.125
       239   06 Jun 2027 17:19:12.301   06 Jun 2027 17:19:20.548             8.247                Irkutsk          1030.875
       240   06 Jun 2027 17:27:34.503   06 Jun 2027 17:29:21.843           107.340                Sumatra         13417.500
       241   06 Jun 2027 17:31:30.022   06 Jun 2027 17:34:16.868           166.846                Sumatra         20855.750
       242   06 Jun 2027 18:49:16.663   06 Jun 2027 18:51:00.696           104.033                Novosib         13004.125
       243   06 Jun 2027 18:57:30.686   06 Jun 2027 18:59:16.531           105.845                  Delhi         13230.625
       244   06 Jun 2027 20:29:42.165   06 Jun 2027 20:31:17.080            94.915                 Moscow         11864.375
       245   06 Jun 2027 21:59:15.107   06 Jun 2027 22:01:05.234           110.127              Murmansk1         12535.750
       246   07 Jun 2027 04:23:22.806   07 Jun 2027 04:25:17.476           114.670                Norilsk         14333.750
       247   07 Jun 2027 05:35:15.108   07 Jun 2027 05:37:20.624           125.516                Sumatra         15689.500
       248   07 Jun 2027 05:47:27.184   07 Jun 2027 05:47:57.321            30.137                  Delhi          3767.125
       249   07 Jun 2027 05:48:58.310   07 Jun 2027 05:50:37.664            99.354                  Delhi         12419.250
       250   07 Jun 2027 05:59:18.802   07 Jun 2027 06:04:14.705           295.903                Norilsk         36987.875
       251   07 Jun 2027 06:04:28.988   07 Jun 2027 06:06:44.388           135.400              Murmansk2         16925.000
       252   07 Jun 2027 06:42:00.283   07 Jun 2027 06:45:56.622           236.339            RioGallegos         29542.375
       253   07 Jun 2027 07:16:47.301   07 Jun 2027 07:19:50.444           183.143                Sumatra         22892.875
       254   07 Jun 2027 07:24:08.332   07 Jun 2027 07:25:01.269            52.937                Novosib          6617.125
       255   07 Jun 2027 07:25:39.179   07 Jun 2027 07:30:59.041           319.862                Irkutsk         39982.750
       256   07 Jun 2027 07:35:12.462   07 Jun 2027 07:36:39.675            87.213                Novosib         10901.625
       257   07 Jun 2027 07:36:51.795   07 Jun 2027 07:40:14.516           202.721                Norilsk         25340.125
       258   07 Jun 2027 07:40:17.346   07 Jun 2027 07:42:03.950           106.604              Murmansk1         13325.500
       259   07 Jun 2027 09:00:48.319   07 Jun 2027 09:03:46.207           177.888                  Delhi         22236.000
       260   07 Jun 2027 09:03:48.384   07 Jun 2027 09:06:19.140           150.756                Novosib         18844.500
       261   07 Jun 2027 09:11:39.130   07 Jun 2027 09:16:06.461           267.331                Norilsk         33416.375
       262   07 Jun 2027 09:16:56.377   07 Jun 2027 09:17:51.024            54.647              Murmansk2          6830.875
       263   07 Jun 2027 10:21:16.930   07 Jun 2027 10:23:08.902           111.972               CapeTown         13996.500
       264   07 Jun 2027 10:40:35.930   07 Jun 2027 10:41:21.168            45.238                 Moscow          5654.750
       265   07 Jun 2027 10:44:12.883   07 Jun 2027 10:47:39.659           206.776              Murmansk1         25847.000
       266   07 Jun 2027 10:47:39.941   07 Jun 2027 10:50:08.538           148.597                 Moscow         18574.625
       267   07 Jun 2027 10:50:08.810   07 Jun 2027 10:53:48.716           219.906              Murmansk2         27488.250
       268   07 Jun 2027 10:56:35.811   07 Jun 2027 11:03:16.579           400.768                Anadyr2         50096.000
       269   07 Jun 2027 14:10:01.311   07 Jun 2027 14:14:25.923           264.612               Magadan1         33076.500
       270   07 Jun 2027 14:15:04.217   07 Jun 2027 14:15:26.623            22.406               Magadan1          2800.750
       271   07 Jun 2027 14:18:13.999   07 Jun 2027 14:19:06.346            52.347               Magadan2          6543.375
       272   07 Jun 2027 16:37:56.393   07 Jun 2027 16:43:59.208           362.815            RioGallegos         45351.875
       273   07 Jun 2027 17:27:07.865   07 Jun 2027 17:28:15.416            67.551                Irkutsk          8443.875
       274   07 Jun 2027 17:29:46.056   07 Jun 2027 17:31:48.078           122.022                Novosib         15252.750
       275   07 Jun 2027 17:39:15.680   07 Jun 2027 17:41:04.344           108.664                Sumatra         13583.000
       276   07 Jun 2027 17:42:34.246   07 Jun 2027 17:43:32.790            58.544                Sumatra          7318.000
       277   07 Jun 2027 19:01:11.942   07 Jun 2027 19:03:03.852           111.910                Novosib         13988.750
       278   07 Jun 2027 19:09:06.852   07 Jun 2027 19:11:11.482           124.630                  Delhi         15578.750
       279   07 Jun 2027 19:14:43.141   07 Jun 2027 19:15:40.038            56.897                  Delhi          7112.125
       280   07 Jun 2027 20:39:29.965   07 Jun 2027 20:40:01.776            31.811              Murmansk1          3976.375
       281   07 Jun 2027 20:40:41.641   07 Jun 2027 20:43:16.131           154.490                 Moscow         14772.625
       282   08 Jun 2027 04:35:23.503   08 Jun 2027 04:40:22.974           299.471                Norilsk         37433.875
       283   08 Jun 2027 05:45:08.812   08 Jun 2027 05:46:51.559           102.747                Sumatra         12843.375
       284   08 Jun 2027 05:57:05.685   08 Jun 2027 05:57:58.653            52.968                  Delhi          6621.000
       285   08 Jun 2027 06:11:20.667   08 Jun 2027 06:11:43.958            23.291                Norilsk          2911.375
       286   08 Jun 2027 06:11:44.228   08 Jun 2027 06:16:16.333           272.105                Norilsk         34013.125
       287   08 Jun 2027 06:16:27.869   08 Jun 2027 06:18:38.990           131.121              Murmansk2         16390.125
       288   08 Jun 2027 06:53:54.297   08 Jun 2027 06:57:40.269           225.972            RioGallegos         28246.500
       289   08 Jun 2027 07:28:32.563   08 Jun 2027 07:31:01.400           148.837                Sumatra         18604.625
       290   08 Jun 2027 07:36:21.604   08 Jun 2027 07:36:58.991            37.387                Novosib          4673.375
       291   08 Jun 2027 07:37:06.817   08 Jun 2027 07:41:53.195           286.378                  Delhi         35797.250
       292   08 Jun 2027 07:42:01.365   08 Jun 2027 07:43:25.368            84.003                Irkutsk         10500.375
       293   08 Jun 2027 07:46:46.472   08 Jun 2027 07:47:14.007            27.535                 Moscow          3441.875
       294   08 Jun 2027 07:47:19.517   08 Jun 2027 07:52:16.230           296.713                Norilsk         37089.125
       295   08 Jun 2027 07:52:21.259   08 Jun 2027 07:54:03.050           101.791              Murmansk2         12723.875
       296   08 Jun 2027 09:12:31.796   08 Jun 2027 09:14:50.488           138.692                  Delhi         17336.500
       297   08 Jun 2027 09:24:09.491   08 Jun 2027 09:28:05.013           235.522                Norilsk         29440.250
       298   08 Jun 2027 09:28:47.231   08 Jun 2027 09:29:52.283            65.052              Murmansk1          8131.500
       299   08 Jun 2027 10:33:51.328   08 Jun 2027 10:36:42.286           170.958               CapeTown         21369.750
       300   08 Jun 2027 10:52:33.404   08 Jun 2027 10:52:51.719            18.315                 Moscow          2289.375
       301   08 Jun 2027 10:56:14.500   08 Jun 2027 10:59:03.917           169.417              Murmansk1         21177.125
       302   08 Jun 2027 10:59:39.803   08 Jun 2027 11:02:05.068           145.265                 Moscow         18158.125
       303   08 Jun 2027 11:02:09.912   08 Jun 2027 11:05:50.272           220.360              Murmansk2         27545.000
       304   08 Jun 2027 11:08:22.183   08 Jun 2027 11:16:05.421           463.238                Anadyr1         57904.750
       305   08 Jun 2027 12:10:50.607   08 Jun 2027 12:15:44.151           293.544               CapeTown         36693.000
       306   08 Jun 2027 12:31:38.735   08 Jun 2027 12:35:16.816           218.081                 Moscow         27260.125
       307   08 Jun 2027 12:35:26.376   08 Jun 2027 12:38:07.604           161.228              Murmansk1         20153.500
       308   08 Jun 2027 12:43:56.131   08 Jun 2027 12:45:51.414           115.283                Anadyr1         14410.375
       309   08 Jun 2027 12:48:11.623   08 Jun 2027 12:50:32.690           141.067               Magadan1         17633.375
       310   08 Jun 2027 14:21:57.460   08 Jun 2027 14:23:37.834           100.374               Magadan1         12546.750
       311   08 Jun 2027 14:26:24.511   08 Jun 2027 14:26:25.245             0.734               Magadan2            91.750
       312   08 Jun 2027 16:49:44.611   08 Jun 2027 16:55:32.547           347.936            RioGallegos         43492.000
       313   08 Jun 2027 17:37:21.117   08 Jun 2027 17:39:31.654           130.537                Irkutsk         16317.125
       314   08 Jun 2027 17:41:45.288   08 Jun 2027 17:42:35.194            49.906                Novosib          6238.250
       315   08 Jun 2027 17:51:54.458   08 Jun 2027 17:52:36.499            42.041                Sumatra          5255.125
       316   08 Jun 2027 17:53:56.456   08 Jun 2027 17:55:29.649            93.193                Sumatra         11649.125
       317   08 Jun 2027 19:20:49.620   08 Jun 2027 19:24:58.534           248.914                  Delhi         31114.250
       318   08 Jun 2027 19:26:13.353   08 Jun 2027 19:26:19.266             5.913                  Delhi           739.125
       319   08 Jun 2027 20:48:15.578   08 Jun 2027 20:49:17.336            61.758              Murmansk1          7719.750
       320   08 Jun 2027 20:52:08.825   08 Jun 2027 20:55:46.960           218.135                 Moscow         21612.624
       321   09 Jun 2027 04:47:56.800   09 Jun 2027 04:48:50.284            53.484                Norilsk          6685.500
       322   09 Jun 2027 04:50:20.325   09 Jun 2027 04:52:11.763           111.438              Murmansk1         13929.750
       323   09 Jun 2027 04:52:11.763   09 Jun 2027 04:55:46.762           214.999              Murmansk2         26874.875
       324   09 Jun 2027 05:29:39.969   09 Jun 2027 05:34:50.011           310.042            RioGallegos         38755.250
       325   09 Jun 2027 06:04:25.093   09 Jun 2027 06:09:39.669           314.576                Sumatra         39322.000
       326   09 Jun 2027 06:10:50.945   09 Jun 2027 06:16:54.365           363.420                Irkutsk         45427.500
       327   09 Jun 2027 06:22:55.791   09 Jun 2027 06:23:08.854            13.063                Irkutsk          1632.875
       328   09 Jun 2027 06:23:22.571   09 Jun 2027 06:23:32.530             9.959                Norilsk          1244.875
       329   09 Jun 2027 06:23:36.471   09 Jun 2027 06:24:52.278            75.807                Novosib          9475.875
       330   09 Jun 2027 06:25:23.732   09 Jun 2027 06:25:58.778            35.046              Murmansk1          4380.750
       331   09 Jun 2027 06:26:12.678   09 Jun 2027 06:28:18.056           125.378                Norilsk         15672.250
       332   09 Jun 2027 06:28:32.580   09 Jun 2027 06:30:34.280           121.700              Murmansk2         15212.500
       333   09 Jun 2027 07:05:46.178   09 Jun 2027 07:09:17.927           211.749            RioGallegos         26468.625
       334   09 Jun 2027 07:40:10.771   09 Jun 2027 07:41:47.489            96.718                Sumatra         12089.750
       335   09 Jun 2027 07:48:25.573   09 Jun 2027 07:53:51.376           325.803                  Delhi         40725.375
       336   09 Jun 2027 07:54:10.445   09 Jun 2027 07:55:31.189            80.744                Irkutsk         10093.000
       337   09 Jun 2027 07:58:48.976   09 Jun 2027 08:02:09.017           200.041                 Moscow         25005.125
       338   09 Jun 2027 08:02:14.558   09 Jun 2027 08:04:17.810           123.252                Norilsk         15406.500
       339   09 Jun 2027 08:04:20.833   09 Jun 2027 08:06:02.539           101.706              Murmansk1         12713.250
       340   09 Jun 2027 09:24:08.902   09 Jun 2027 09:24:54.479            45.577                  Delhi          5697.125
       341   09 Jun 2027 09:35:40.025   09 Jun 2027 09:40:02.477           262.452                Norilsk         32806.500
       342   09 Jun 2027 09:40:37.251   09 Jun 2027 09:41:53.685            76.434              Murmansk1          9554.250
       343   09 Jun 2027 10:46:17.155   09 Jun 2027 10:49:41.765           204.610               CapeTown         25576.250
       344   09 Jun 2027 11:04:29.676   09 Jun 2027 11:04:38.930             9.254                 Moscow          1156.750
       345   09 Jun 2027 11:08:16.038   09 Jun 2027 11:08:38.623            22.585              Murmansk1          2823.125
       346   09 Jun 2027 11:08:50.124   09 Jun 2027 11:14:00.221           310.097                 Moscow         38762.125
       347   09 Jun 2027 11:14:11.179   09 Jun 2027 11:17:51.725           220.546              Murmansk2         27568.250
       348   09 Jun 2027 11:21:21.053   09 Jun 2027 11:28:47.849           446.796                Anadyr2         55849.500
       349   09 Jun 2027 12:18:09.268   09 Jun 2027 12:27:40.458           571.190               CapeTown         71398.750
       350   09 Jun 2027 12:44:40.912   09 Jun 2027 12:53:37.664           536.752              Murmansk2         67094.000
       351   09 Jun 2027 12:55:35.955   09 Jun 2027 12:58:42.313           186.358                Anadyr1         23294.750
       352   09 Jun 2027 12:59:31.068   09 Jun 2027 13:05:29.050           357.982               Magadan1         44747.750
       353   09 Jun 2027 16:15:46.385   09 Jun 2027 16:20:52.022           305.637                Irkutsk         38204.625
       354   09 Jun 2027 17:03:15.521   09 Jun 2027 17:04:17.066            61.545            RioGallegos          7693.125
       355   09 Jun 2027 17:49:19.996   09 Jun 2027 17:51:06.275           106.279                Irkutsk         13284.875
       356   09 Jun 2027 17:51:29.230   09 Jun 2027 17:53:45.309           136.079                Novosib         17009.875
       357   09 Jun 2027 17:55:10.036   09 Jun 2027 17:57:00.910           110.874                Novosib         13859.250
       358   09 Jun 2027 19:32:37.519   09 Jun 2027 19:34:45.050           127.531                  Delhi         15941.375
       359   09 Jun 2027 20:59:29.123   09 Jun 2027 20:59:54.725            25.602              Murmansk2          3200.250
       360   09 Jun 2027 20:59:57.476   09 Jun 2027 21:00:53.257            55.781              Murmansk1          6972.625
       361   09 Jun 2027 21:03:46.751   09 Jun 2027 21:05:13.461            86.710                 Moscow         10838.750
       362   09 Jun 2027 21:34:22.969   09 Jun 2027 21:36:12.795           109.826               CapeTown         13728.250
       363   10 Jun 2027 03:22:23.314   10 Jun 2027 03:22:33.710            10.396                Norilsk          1299.500
       364   10 Jun 2027 03:23:02.836   10 Jun 2027 03:30:44.793           461.957              Murmansk1         57744.625
       365   10 Jun 2027 04:38:11.848   10 Jun 2027 04:38:46.056            34.208                Sumatra          4276.000
       366   10 Jun 2027 04:40:33.394   10 Jun 2027 04:41:30.312            56.918                Sumatra          7114.750
       367   10 Jun 2027 04:59:25.582   10 Jun 2027 04:59:29.226             3.644                Norilsk           455.500
       368   10 Jun 2027 04:59:56.168   10 Jun 2027 05:00:55.080            58.912                Norilsk          7364.000
       369   10 Jun 2027 05:02:12.586   10 Jun 2027 05:07:36.965           324.379              Murmansk1         40547.375
       370   10 Jun 2027 05:42:23.245   10 Jun 2027 05:46:47.945           264.700            RioGallegos         33087.500
       371   10 Jun 2027 06:16:47.621   10 Jun 2027 06:21:39.842           292.221                Sumatra         36527.625
       372   10 Jun 2027 06:25:17.500   10 Jun 2027 06:28:58.781           221.281                Irkutsk         27660.125
       373   10 Jun 2027 06:35:46.924   10 Jun 2027 06:40:19.862           272.938                Norilsk         34117.250
       374   10 Jun 2027 06:40:34.144   10 Jun 2027 06:42:30.229           116.085              Murmansk1         14510.625
       375   10 Jun 2027 07:17:35.362   10 Jun 2027 07:20:45.672           190.310            RioGallegos         23788.750
       376   10 Jun 2027 07:59:02.474   10 Jun 2027 08:05:46.061           403.587                  Delhi         50448.375
       377   10 Jun 2027 08:05:58.200   10 Jun 2027 08:07:01.865            63.665                Novosib          7958.125
       378   10 Jun 2027 08:10:59.618   10 Jun 2027 08:14:14.568           194.950                 Moscow         24368.750
       379   10 Jun 2027 08:14:25.847   10 Jun 2027 08:16:02.993            97.146              Murmansk2         12143.250
       380   10 Jun 2027 08:16:02.993   10 Jun 2027 08:18:02.379           119.386              Murmansk1         14923.250
       381   10 Jun 2027 09:40:25.753   10 Jun 2027 09:40:50.459            24.706                 Moscow          3088.250
       382   10 Jun 2027 09:47:39.686   10 Jun 2027 09:51:58.417           258.731                Norilsk         32341.375
       383   10 Jun 2027 09:52:26.544   10 Jun 2027 09:53:55.188            88.644              Murmansk2         11080.500
       384   10 Jun 2027 11:20:17.468   10 Jun 2027 11:22:00.618           103.150              Murmansk1         12893.750
       385   10 Jun 2027 11:22:17.506   10 Jun 2027 11:25:53.669           216.163                 Moscow         27020.375
       386   10 Jun 2027 11:26:07.483   10 Jun 2027 11:29:53.034           225.551              Murmansk1         28193.875
       387   10 Jun 2027 11:34:25.064   10 Jun 2027 11:41:25.239           420.175                Anadyr1         52521.875
       388   10 Jun 2027 12:32:03.934   10 Jun 2027 12:39:31.817           447.883               CapeTown         55985.375
       389   10 Jun 2027 12:57:16.957   10 Jun 2027 13:05:34.633           497.676              Murmansk2         62209.500
       390   10 Jun 2027 13:07:36.251   10 Jun 2027 13:20:07.318           751.067                Anadyr2         93883.375
       391   10 Jun 2027 14:06:37.933   10 Jun 2027 14:07:22.065            44.132               CapeTown          5516.500
       392   10 Jun 2027 14:46:32.477   10 Jun 2027 14:48:27.741           115.264               Magadan1         14408.000
       393   10 Jun 2027 14:49:52.864   10 Jun 2027 14:51:07.261            74.397               Magadan1          9299.625
       394   10 Jun 2027 16:27:02.917   10 Jun 2027 16:34:06.087           423.170                Irkutsk         52896.250
       395   10 Jun 2027 16:43:03.584   10 Jun 2027 16:44:32.146            88.562                Sumatra         11070.250
       396   10 Jun 2027 16:46:00.101   10 Jun 2027 16:48:25.168           145.067                Sumatra         18133.375
       397   10 Jun 2027 18:02:18.752   10 Jun 2027 18:03:45.832            87.080                Novosib         10885.000
       398   10 Jun 2027 18:05:46.017   10 Jun 2027 18:06:07.322            21.305                Novosib          2663.125
       399   10 Jun 2027 18:07:39.328   10 Jun 2027 18:08:39.133            59.805                Novosib          7475.625
       400   10 Jun 2027 21:11:28.241   10 Jun 2027 21:12:39.435            71.194              Murmansk2          8899.250
       401   10 Jun 2027 21:15:30.812   10 Jun 2027 21:17:26.086           115.274                 Moscow         14409.250
       402   10 Jun 2027 21:18:42.315   10 Jun 2027 21:19:15.496            33.181              Murmansk2          4147.625
       403   10 Jun 2027 21:21:29.915   10 Jun 2027 21:22:36.427            66.512                 Moscow          8314.000
       404   10 Jun 2027 21:42:38.731   10 Jun 2027 21:44:28.975           110.244               CapeTown         13780.500
       405   11 Jun 2027 03:34:09.182   11 Jun 2027 03:34:27.937            18.755               Magadan2          2344.375
       406   11 Jun 2027 03:35:30.400   11 Jun 2027 03:35:49.452            19.052                Novosib          2381.500
       407   11 Jun 2027 03:35:55.864   11 Jun 2027 03:45:11.652           555.788              Murmansk1         69473.500
       408   11 Jun 2027 04:10:36.993   11 Jun 2027 04:13:36.946           179.953            RioGallegos         22494.125
       409   11 Jun 2027 04:48:18.556   11 Jun 2027 04:50:10.630           112.074                Sumatra         14009.250
       410   11 Jun 2027 05:11:26.908   11 Jun 2027 05:13:03.261            96.353                Norilsk         12044.125
       411   11 Jun 2027 05:14:05.597   11 Jun 2027 05:19:27.879           322.282              Murmansk1         40285.250
       412   11 Jun 2027 05:54:23.844   11 Jun 2027 05:58:44.535           260.691            RioGallegos         32586.375
       413   11 Jun 2027 06:29:02.303   11 Jun 2027 06:33:34.420           272.117                Sumatra         34014.625
       414   11 Jun 2027 06:36:27.319   11 Jun 2027 06:37:00.658            33.339                Irkutsk          4167.375
       415   11 Jun 2027 06:37:28.474   11 Jun 2027 06:41:07.118           218.644                Irkutsk         27330.500
       416   11 Jun 2027 06:47:18.694   11 Jun 2027 06:48:26.634            67.940                 Moscow          8492.500
       417   11 Jun 2027 06:48:29.636   11 Jun 2027 06:52:21.723           232.087                Norilsk         29010.875
       418   11 Jun 2027 06:52:27.770   11 Jun 2027 06:54:26.809           119.039              Murmansk2         14879.875
       419   11 Jun 2027 07:29:20.991   11 Jun 2027 07:31:51.650           150.659            RioGallegos         18832.375
       420   11 Jun 2027 08:13:25.834   11 Jun 2027 08:17:36.888           251.054                  Delhi         31381.750
       421   11 Jun 2027 08:17:47.526   11 Jun 2027 08:18:13.118            25.592              Murmansk1          3199.000
       422   11 Jun 2027 08:23:01.290   11 Jun 2027 08:26:19.572           198.282                 Moscow         24785.250
       423   11 Jun 2027 08:26:28.421   11 Jun 2027 08:30:02.535           214.114              Murmansk1         26764.250
       424   11 Jun 2027 09:52:21.263   11 Jun 2027 09:53:23.164            61.901                 Moscow          7737.625
       425   11 Jun 2027 09:54:32.647   11 Jun 2027 09:54:55.407            22.760                 Moscow          2845.000
       426   11 Jun 2027 09:58:10.658   11 Jun 2027 09:59:53.259           102.601              Murmansk1         12825.125
       427   11 Jun 2027 09:59:56.309   11 Jun 2027 10:02:27.067           150.758                 Moscow         18844.750
       428   11 Jun 2027 10:02:32.392   11 Jun 2027 10:03:52.160            79.768                Norilsk          9971.000
       429   11 Jun 2027 10:03:52.456   11 Jun 2027 10:05:56.774           124.318              Murmansk2         15539.750
       430   11 Jun 2027 11:32:18.733   11 Jun 2027 11:33:57.757            99.024              Murmansk1         12378.000
       431   11 Jun 2027 11:34:32.507   11 Jun 2027 11:37:44.965           192.458                 Moscow         24057.250
       432   11 Jun 2027 11:38:14.096   11 Jun 2027 11:41:54.142           220.046              Murmansk1         27505.750
       433   11 Jun 2027 11:47:17.495   11 Jun 2027 11:53:58.382           400.887                Anadyr1         50110.875
       434   11 Jun 2027 12:46:41.984   11 Jun 2027 12:51:18.073           276.089               CapeTown         34511.125
       435   11 Jun 2027 13:09:56.605   11 Jun 2027 13:17:30.062           453.457              Murmansk2         56682.125
       436   11 Jun 2027 13:22:35.034   11 Jun 2027 13:31:27.941           532.907                Anadyr1         66613.375
       437   11 Jun 2027 15:52:07.211   11 Jun 2027 15:56:49.185           281.974            RioGallegos         35246.750
       438   11 Jun 2027 16:38:35.161   11 Jun 2027 16:45:44.395           429.234                Irkutsk         53654.250
       439   11 Jun 2027 16:53:43.910   11 Jun 2027 16:56:10.501           146.591                Sumatra         18323.875
       440   11 Jun 2027 16:58:24.172   11 Jun 2027 17:00:26.703           122.531                Sumatra         15316.375
       441   11 Jun 2027 18:17:47.359   11 Jun 2027 18:18:02.018            14.659                Novosib          1832.375
       442   11 Jun 2027 18:24:28.946   11 Jun 2027 18:26:54.147           145.201                  Delhi         18150.125
       443   11 Jun 2027 18:28:13.179   11 Jun 2027 18:28:43.745            30.566                  Delhi          3820.750
       444   11 Jun 2027 21:24:18.420   11 Jun 2027 21:24:30.508            12.088              Murmansk1          1511.000
       445   11 Jun 2027 21:27:18.921   11 Jun 2027 21:29:37.598           138.677                 Moscow         17334.625
       446   11 Jun 2027 21:33:51.047   11 Jun 2027 21:34:35.060            44.013                 Moscow          5501.625
       447   11 Jun 2027 21:53:37.645   11 Jun 2027 21:55:25.986           108.341               CapeTown         13542.625
       448   12 Jun 2027 03:47:34.541   12 Jun 2027 03:56:58.937           564.396              Murmansk2         70549.500
       449   12 Jun 2027 04:59:15.761   12 Jun 2027 05:02:02.389           166.628                Sumatra         20828.500
       450   12 Jun 2027 05:23:50.158   12 Jun 2027 05:24:49.762            59.604                Novosib          7450.500
       451   12 Jun 2027 05:25:59.353   12 Jun 2027 05:28:27.275           147.922              Murmansk2         18490.250
       452   12 Jun 2027 05:28:27.275   12 Jun 2027 05:31:19.527           172.252              Murmansk1         21531.500
       453   12 Jun 2027 06:06:23.428   12 Jun 2027 06:10:39.534           256.106            RioGallegos         32013.250
       454   12 Jun 2027 06:41:10.692   12 Jun 2027 06:45:23.125           252.433                Sumatra         31554.125
       455   12 Jun 2027 06:48:46.891   12 Jun 2027 06:49:21.593            34.702                Irkutsk          4337.750
       456   12 Jun 2027 06:50:27.481   12 Jun 2027 06:53:33.054           185.573                Irkutsk         23196.625
       457   12 Jun 2027 06:57:53.033   12 Jun 2027 06:57:59.835             6.802                Irkutsk           850.250
       458   12 Jun 2027 06:59:31.839   12 Jun 2027 07:01:44.156           132.317                 Moscow         16539.625
       459   12 Jun 2027 07:01:46.214   12 Jun 2027 07:04:15.832           149.618              Murmansk1         18702.250
       460   12 Jun 2027 07:04:15.832   12 Jun 2027 07:06:23.970           128.138              Murmansk2         16017.250
       461   12 Jun 2027 08:25:25.487   12 Jun 2027 08:29:23.214           237.727                  Delhi         29715.875
       462   12 Jun 2027 08:29:55.629   12 Jun 2027 08:30:21.279            25.650                Novosib          3206.250
       463   12 Jun 2027 08:34:57.396   12 Jun 2027 08:36:12.063            74.667                Novosib          9333.375
       464   12 Jun 2027 08:36:30.871   12 Jun 2027 08:40:21.241           230.370                Norilsk         28796.250
       465   12 Jun 2027 08:40:25.503   12 Jun 2027 08:42:02.971            97.468              Murmansk2         12183.500
       466   12 Jun 2027 10:04:52.636   12 Jun 2027 10:06:14.592            81.956                 Moscow         10244.500
       467   12 Jun 2027 10:09:56.355   12 Jun 2027 10:14:27.312           270.957                 Moscow         33869.625
       468   12 Jun 2027 10:14:29.461   12 Jun 2027 10:15:42.409            72.948                Norilsk          9118.500
       469   12 Jun 2027 10:15:49.563   12 Jun 2027 10:17:58.415           128.852              Murmansk1         16106.500
       470   12 Jun 2027 11:27:18.741   12 Jun 2027 11:27:21.997             3.256               CapeTown           407.000
       471   12 Jun 2027 11:44:19.797   12 Jun 2027 11:45:55.461            95.664              Murmansk2         11958.000
       472   12 Jun 2027 11:46:42.097   12 Jun 2027 11:53:54.996           432.899              Murmansk2         54112.375
       473   12 Jun 2027 11:58:24.621   12 Jun 2027 12:06:27.815           483.194                Anadyr1         60399.250
       474   12 Jun 2027 12:59:15.596   12 Jun 2027 13:02:58.922           223.326               CapeTown         27915.750
       475   12 Jun 2027 13:22:40.526   12 Jun 2027 13:29:23.290           402.764              Murmansk2         50345.500
       476   12 Jun 2027 13:31:37.681   12 Jun 2027 13:32:16.793            39.112                Anadyr2          4889.000
       477   12 Jun 2027 13:34:37.244   12 Jun 2027 13:38:33.086           235.842               Magadan2         29480.250
       478   12 Jun 2027 16:03:18.147   12 Jun 2027 16:06:37.154           199.007            RioGallegos         24875.875
       479   12 Jun 2027 16:09:15.809   12 Jun 2027 16:10:08.629            52.820            RioGallegos          6602.500
       480   12 Jun 2027 16:51:39.422   12 Jun 2027 16:54:11.696           152.274                Irkutsk         19034.250
       481   12 Jun 2027 16:56:11.678   12 Jun 2027 16:56:35.687            24.009                Irkutsk          3001.125
       482   12 Jun 2027 17:04:52.269   12 Jun 2027 17:09:40.110           287.841                Sumatra         35980.125
