uniorb/output/strategy_4/Drop/Drop_KinoSat_110710.txt

KinoSat_110710
-------------------------
    Access    *     Start Time (UTCG)     *     Stop Time (UTCG)  *   Duration (s)        *       Station  *  Data (Mbytes)
         1   01 Jun 2027 04:29:53.992   01 Jun 2027 04:30:43.239            49.247               Magadan2          1538.969
         2   01 Jun 2027 04:30:43.239   01 Jun 2027 04:30:57.673            14.434               Magadan1           451.062
         3   01 Jun 2027 04:31:14.438   01 Jun 2027 04:32:18.998            64.560                Irkutsk          2017.500
         4   01 Jun 2027 04:32:19.562   01 Jun 2027 04:32:50.922            31.360               Magadan2           980.000
         5   01 Jun 2027 04:33:07.653   01 Jun 2027 04:33:19.062            11.409               Magadan2           356.531
         6   01 Jun 2027 04:33:33.445   01 Jun 2027 04:33:58.580            25.135                Anadyr1           785.469
         7   01 Jun 2027 05:10:19.587   01 Jun 2027 05:12:10.904           111.317            RioGallegos          3478.656
         8   01 Jun 2027 06:04:47.911   01 Jun 2027 06:05:11.626            23.715                Novosib           741.094
         9   01 Jun 2027 06:05:15.318   01 Jun 2027 06:08:58.300           222.982                Irkutsk          6968.188
        10   01 Jun 2027 06:09:11.145   01 Jun 2027 06:09:43.925            32.780              Murmansk1          1024.375
        11   01 Jun 2027 06:09:43.925   01 Jun 2027 06:10:09.506            25.581              Murmansk2           799.406
        12   01 Jun 2027 06:10:41.058   01 Jun 2027 06:10:49.878             8.820                Novosib           275.625
        13   01 Jun 2027 06:12:25.388   01 Jun 2027 06:12:50.019            24.631              Murmansk2           769.719
        14   01 Jun 2027 06:13:37.924   01 Jun 2027 06:14:04.801            26.877              Murmansk2           839.906
        15   01 Jun 2027 06:44:27.298   01 Jun 2027 06:45:40.426            73.128            RioGallegos          2285.250
        16   01 Jun 2027 07:19:51.505   01 Jun 2027 07:22:05.637           134.132                Sumatra          4191.625
        17   01 Jun 2027 07:32:54.879   01 Jun 2027 07:33:49.752            54.873                  Delhi          1714.781
        18   01 Jun 2027 07:41:25.005   01 Jun 2027 07:43:56.831           151.826                Irkutsk          4744.563
        19   01 Jun 2027 07:44:07.434   01 Jun 2027 07:44:31.976            24.542                Novosib           766.938
        20   01 Jun 2027 07:44:44.984   01 Jun 2027 07:44:51.484             6.500                Norilsk           203.125
        21   01 Jun 2027 07:44:55.886   01 Jun 2027 07:48:08.064           192.178              Murmansk2          6005.562
        22   01 Jun 2027 08:22:19.885   01 Jun 2027 08:23:23.540            63.655            RioGallegos          1989.219
        23   01 Jun 2027 08:56:31.779   01 Jun 2027 08:56:37.395             5.616                Sumatra           175.500
        24   01 Jun 2027 08:57:10.312   01 Jun 2027 08:57:32.738            22.426                Sumatra           700.812
        25   01 Jun 2027 08:58:04.482   01 Jun 2027 08:59:24.932            80.450                Sumatra          2514.062
        26   01 Jun 2027 09:03:39.516   01 Jun 2027 09:05:38.427           118.911                  Delhi          3715.969
        27   01 Jun 2027 09:20:13.112   01 Jun 2027 09:20:13.393             0.281                Irkutsk             8.781
        28   01 Jun 2027 09:20:16.885   01 Jun 2027 09:20:39.329            22.444              Murmansk1           701.375
        29   01 Jun 2027 09:20:39.329   01 Jun 2027 09:21:27.157            47.828              Murmansk2          1494.625
        30   01 Jun 2027 09:21:27.267   01 Jun 2027 09:21:34.921             7.654                Norilsk           239.188
        31   01 Jun 2027 09:21:54.063   01 Jun 2027 09:22:11.975            17.912                Novosib           559.750
        32   01 Jun 2027 09:22:27.787   01 Jun 2027 09:23:50.469            82.682              Murmansk2          2583.812
        33   01 Jun 2027 09:23:56.173   01 Jun 2027 09:24:19.440            23.267                 Moscow           727.094
        34   01 Jun 2027 09:27:32.565   01 Jun 2027 09:28:11.046            38.481              Murmansk1          1202.531
        35   01 Jun 2027 09:28:19.840   01 Jun 2027 09:28:33.498            13.658              Murmansk1           426.813
        36   01 Jun 2027 10:41:52.752   01 Jun 2027 10:45:31.366           218.614                  Delhi          6831.687
        37   01 Jun 2027 10:55:10.662   01 Jun 2027 10:55:45.985            35.323              Murmansk2          1103.844
        38   01 Jun 2027 10:56:05.093   01 Jun 2027 11:02:11.152           366.059                Norilsk         11439.344
        39   01 Jun 2027 12:05:02.002   01 Jun 2027 12:06:51.419           109.417               CapeTown          3419.281
        40   01 Jun 2027 12:24:20.966   01 Jun 2027 12:25:13.773            52.807                 Moscow          1650.219
        41   01 Jun 2027 12:27:05.400   01 Jun 2027 12:27:32.446            27.046                 Moscow           845.188
        42   01 Jun 2027 12:27:49.076   01 Jun 2027 12:32:56.291           307.215              Murmansk1          9600.469
        43   01 Jun 2027 12:43:03.332   01 Jun 2027 12:49:53.226           409.894                Anadyr1         12809.188
        44   01 Jun 2027 14:06:11.503   01 Jun 2027 14:06:36.180            24.677              Murmansk2           771.156
        45   01 Jun 2027 14:07:50.325   01 Jun 2027 14:08:23.178            32.853              Murmansk2          1026.656
        46   01 Jun 2027 14:15:24.074   01 Jun 2027 14:15:32.381             8.307              Murmansk1           259.594
        47   01 Jun 2027 14:18:06.140   01 Jun 2027 14:19:45.576            99.436                Anadyr1          3107.375
        48   01 Jun 2027 14:19:52.279   01 Jun 2027 14:22:32.283           160.004                Anadyr2          5000.125
        49   01 Jun 2027 15:14:29.191   01 Jun 2027 15:14:42.865            13.674               CapeTown           427.312
        50   01 Jun 2027 15:17:44.796   01 Jun 2027 15:17:58.255            13.459               CapeTown           420.594
        51   01 Jun 2027 15:48:06.940   01 Jun 2027 15:49:38.609            91.669              Murmansk1          2864.656
        52   01 Jun 2027 15:53:56.359   01 Jun 2027 15:56:50.034           173.675                Anadyr1          5427.344
        53   01 Jun 2027 15:57:04.584   01 Jun 2027 15:57:06.448             1.864                Anadyr1            58.250
        54   01 Jun 2027 15:57:32.369   01 Jun 2027 15:57:47.799            15.430                Anadyr2           482.188
        55   01 Jun 2027 15:57:57.213   01 Jun 2027 15:59:44.305           107.092               Magadan1          3346.625
        56   01 Jun 2027 15:59:44.305   01 Jun 2027 16:01:56.789           132.484               Magadan2          4140.125
        57   01 Jun 2027 17:29:50.829   01 Jun 2027 17:32:53.524           182.695                Anadyr1          5709.219
        58   01 Jun 2027 17:33:08.099   01 Jun 2027 17:36:19.625           191.526                Norilsk          5985.187
        59   01 Jun 2027 18:24:24.320   01 Jun 2027 18:28:11.144           226.824            RioGallegos          7088.250
        60   01 Jun 2027 18:28:26.527   01 Jun 2027 18:30:31.198           124.671            RioGallegos          3895.969
        61   01 Jun 2027 19:07:42.992   01 Jun 2027 19:08:56.843            73.851                Norilsk          2307.844
        62   01 Jun 2027 19:09:57.413   01 Jun 2027 19:13:11.378           193.965                Norilsk          6061.406
        63   01 Jun 2027 19:13:41.002   01 Jun 2027 19:14:39.354            58.352                Irkutsk          1823.500
        64   01 Jun 2027 19:14:59.331   01 Jun 2027 19:17:56.262           176.931                Novosib          5529.094
        65   01 Jun 2027 19:28:14.626   01 Jun 2027 19:29:40.690            86.064                Sumatra          2689.500
        66   01 Jun 2027 20:48:36.064   01 Jun 2027 20:49:53.652            77.588                Novosib          2424.625
        67   01 Jun 2027 20:51:08.948   01 Jun 2027 20:51:59.718            50.770                Novosib          1586.562
        68   01 Jun 2027 20:54:09.608   01 Jun 2027 20:54:29.365            19.757                Novosib           617.406
        69   01 Jun 2027 20:55:33.947   01 Jun 2027 20:58:55.049           201.102                  Delhi          6284.438
        70   01 Jun 2027 22:22:02.747   01 Jun 2027 22:26:11.472           248.725              Murmansk2          7772.656
        71   01 Jun 2027 22:27:06.002   01 Jun 2027 22:33:08.673           362.671                 Moscow         11333.469
        72   01 Jun 2027 23:57:46.125   01 Jun 2027 23:58:28.583            42.458              Murmansk1          1326.812
        73   02 Jun 2027 00:01:09.264   02 Jun 2027 00:02:46.015            96.751                 Moscow          3023.469
        74   02 Jun 2027 00:08:22.399   02 Jun 2027 00:08:31.746             9.347                 Moscow           292.094
        75   02 Jun 2027 00:11:13.551   02 Jun 2027 00:12:52.438            98.887                 Moscow          3090.219
        76   02 Jun 2027 00:25:34.075   02 Jun 2027 00:26:45.588            71.513               CapeTown          2234.781
        77   02 Jun 2027 00:27:46.313   02 Jun 2027 00:29:12.824            86.511               CapeTown          2703.469
        78   02 Jun 2027 01:29:36.158   02 Jun 2027 01:29:36.729             0.571               Magadan2            17.844
        79   02 Jun 2027 01:33:44.103   02 Jun 2027 01:35:05.562            81.459              Murmansk1          2545.594
        80   02 Jun 2027 01:36:57.872   02 Jun 2027 01:38:16.618            78.746                 Moscow          2460.813
        81   02 Jun 2027 01:41:11.186   02 Jun 2027 01:41:22.640            11.454                 Moscow           357.938
        82   02 Jun 2027 01:42:52.986   02 Jun 2027 01:43:39.366            46.380                 Moscow          1449.375
        83   02 Jun 2027 02:01:30.551   02 Jun 2027 02:02:11.150            40.599               CapeTown          1268.719
        84   02 Jun 2027 02:06:44.184   02 Jun 2027 02:07:45.830            61.646               CapeTown          1926.437
        85   02 Jun 2027 02:57:40.637   02 Jun 2027 03:00:19.390           158.753               Magadan2          4961.031
        86   02 Jun 2027 03:03:21.191   02 Jun 2027 03:03:39.478            18.287               Magadan2           571.469
        87   02 Jun 2027 03:03:39.478   02 Jun 2027 03:03:51.792            12.314               Magadan1           384.812
        88   02 Jun 2027 03:03:54.574   02 Jun 2027 03:04:26.770            32.196                Anadyr2          1006.125
        89   02 Jun 2027 03:04:30.421   02 Jun 2027 03:05:53.667            83.246                Anadyr2          2601.438
        90   02 Jun 2027 03:05:54.467   02 Jun 2027 03:06:38.322            43.855               Magadan1          1370.469
        91   02 Jun 2027 03:06:51.331   02 Jun 2027 03:07:19.124            27.793               Magadan2           868.531
        92   02 Jun 2027 03:07:19.124   02 Jun 2027 03:09:04.438           105.314               Magadan1          3291.063
        93   02 Jun 2027 03:09:04.438   02 Jun 2027 03:09:38.978            34.540               Magadan2          1079.375
        94   02 Jun 2027 04:41:55.060   02 Jun 2027 04:43:04.181            69.121               Magadan1          2160.031
        95   02 Jun 2027 04:43:18.882   02 Jun 2027 04:43:51.365            32.483               Magadan1          1015.094
        96   02 Jun 2027 04:43:53.297   02 Jun 2027 04:44:20.242            26.945                Anadyr2           842.031
        97   02 Jun 2027 04:44:38.418   02 Jun 2027 04:44:47.979             9.561                Irkutsk           298.781
        98   02 Jun 2027 04:45:35.612   02 Jun 2027 04:45:53.586            17.974                Anadyr2           561.688
        99   02 Jun 2027 06:17:22.802   02 Jun 2027 06:17:44.466            21.664                Irkutsk           677.000
       100   02 Jun 2027 06:18:12.218   02 Jun 2027 06:19:02.863            50.645                Irkutsk          1582.656
       101   02 Jun 2027 06:19:15.982   02 Jun 2027 06:21:08.700           112.718               Magadan1          3522.438
       102   02 Jun 2027 06:22:26.187   02 Jun 2027 06:22:57.295            31.108                Novosib           972.125
       103   02 Jun 2027 06:25:39.362   02 Jun 2027 06:26:52.693            73.331                Norilsk          2291.594
       104   02 Jun 2027 07:53:37.363   02 Jun 2027 07:54:54.183            76.820                Irkutsk          2400.625
       105   02 Jun 2027 07:55:02.614   02 Jun 2027 07:55:21.692            19.078                Novosib           596.188
       106   02 Jun 2027 07:55:25.851   02 Jun 2027 07:56:29.858            64.007                Irkutsk          2000.219
       107   02 Jun 2027 07:57:22.242   02 Jun 2027 07:58:25.181            62.939                Novosib          1966.844
       108   02 Jun 2027 07:58:39.096   02 Jun 2027 07:59:35.587            56.491              Murmansk1          1765.344
       109   02 Jun 2027 08:36:26.238   02 Jun 2027 08:37:34.208            67.970            RioGallegos          2124.063
       110   02 Jun 2027 08:38:00.287   02 Jun 2027 08:38:43.695            43.408            RioGallegos          1356.500
       111   02 Jun 2027 09:09:17.664   02 Jun 2027 09:10:02.905            45.241                Sumatra          1413.781
       112   02 Jun 2027 09:10:59.671   02 Jun 2027 09:11:45.385            45.714                Sumatra          1428.562
       113   02 Jun 2027 09:12:54.533   02 Jun 2027 09:13:23.002            28.469                Sumatra           889.656
       114   02 Jun 2027 09:30:11.888   02 Jun 2027 09:30:34.242            22.354              Murmansk1           698.562
       115   02 Jun 2027 09:31:04.366   02 Jun 2027 09:32:00.281            55.915                Novosib          1747.344
       116   02 Jun 2027 09:32:11.065   02 Jun 2027 09:32:36.319            25.254                Novosib           789.188
       117   02 Jun 2027 09:32:41.400   02 Jun 2027 09:33:09.566            28.166                Novosib           880.188
       118   02 Jun 2027 09:33:17.391   02 Jun 2027 09:33:18.039             0.648                Novosib            20.250
       119   02 Jun 2027 10:55:04.551   02 Jun 2027 10:57:40.265           155.714                  Delhi          4866.063
       120   02 Jun 2027 11:10:26.134   02 Jun 2027 11:10:29.822             3.688                Norilsk           115.250
       121   02 Jun 2027 12:36:37.552   02 Jun 2027 12:38:13.274            95.722                 Moscow          2991.313
       122   02 Jun 2027 12:39:02.739   02 Jun 2027 12:39:20.897            18.158                 Moscow           567.437
       123   02 Jun 2027 12:39:57.697   02 Jun 2027 12:40:33.245            35.548                 Moscow          1110.875
       124   02 Jun 2027 12:40:47.951   02 Jun 2027 12:42:44.456           116.505              Murmansk2          3640.781
       125   02 Jun 2027 12:43:50.211   02 Jun 2027 12:45:06.354            76.143              Murmansk1          2379.469
       126   02 Jun 2027 12:54:50.369   02 Jun 2027 12:58:42.669           232.300                Anadyr2          7259.375
       127   02 Jun 2027 12:58:49.523   02 Jun 2027 13:00:53.690           124.167                Anadyr1          3880.219
       128   02 Jun 2027 14:18:41.867   02 Jun 2027 14:19:51.779            69.912              Murmansk1          2184.750
       129   02 Jun 2027 14:30:05.698   02 Jun 2027 14:33:40.210           214.512                Anadyr1          6703.500
       130   02 Jun 2027 14:34:34.199   02 Jun 2027 14:39:02.275           268.076               Magadan2          8377.375
       131   02 Jun 2027 16:08:26.737   02 Jun 2027 16:11:46.980           200.243               Magadan1          6257.594
       132   02 Jun 2027 16:13:40.842   02 Jun 2027 16:14:51.085            70.243               Magadan1          2195.094
       133   02 Jun 2027 17:41:51.284   02 Jun 2027 17:43:13.212            81.928                Anadyr2          2560.250
       134   02 Jun 2027 17:44:09.441   02 Jun 2027 17:45:49.908           100.467               Magadan1          3139.594
       135   02 Jun 2027 17:45:52.795   02 Jun 2027 17:46:58.453            65.658                Norilsk          2051.812
       136   02 Jun 2027 17:47:29.957   02 Jun 2027 17:49:21.603           111.646                Norilsk          3488.937
       137   02 Jun 2027 17:51:39.068   02 Jun 2027 17:53:12.965            93.897                Irkutsk          2934.281
       138   02 Jun 2027 18:37:03.555   02 Jun 2027 18:37:20.052            16.497            RioGallegos           515.531
       139   02 Jun 2027 18:38:00.098   02 Jun 2027 18:39:19.004            78.906            RioGallegos          2465.812
       140   02 Jun 2027 19:19:43.375   02 Jun 2027 19:21:14.274            90.899                Norilsk          2840.594
       141   02 Jun 2027 19:23:50.149   02 Jun 2027 19:24:11.311            21.162                Irkutsk           661.312
       142   02 Jun 2027 19:24:34.012   02 Jun 2027 19:25:10.463            36.451                Norilsk          1139.094
       143   02 Jun 2027 19:25:27.663   02 Jun 2027 19:31:52.169           384.506                Novosib         12015.812
       144   02 Jun 2027 19:38:49.852   02 Jun 2027 19:40:27.514            97.662                Sumatra          3051.937
       145   02 Jun 2027 21:01:24.006   02 Jun 2027 21:01:36.571            12.565                Novosib           392.656
       146   02 Jun 2027 21:02:14.245   02 Jun 2027 21:03:12.145            57.900                Novosib          1809.375
       147   02 Jun 2027 21:07:17.464   02 Jun 2027 21:11:08.382           230.918                  Delhi          7216.187
       148   02 Jun 2027 22:34:00.190   02 Jun 2027 22:40:10.277           370.087              Murmansk1         11565.219
       149   02 Jun 2027 22:40:35.002   02 Jun 2027 22:45:42.004           307.002                 Moscow          9593.813
       150   03 Jun 2027 00:13:06.975   03 Jun 2027 00:15:22.730           135.755                 Moscow          4242.344
       151   03 Jun 2027 00:37:17.440   03 Jun 2027 00:39:38.979           141.539               CapeTown          4423.094
       152   03 Jun 2027 00:41:04.538   03 Jun 2027 00:41:12.226             7.688               CapeTown           240.250
       153   03 Jun 2027 01:35:55.864   03 Jun 2027 01:36:28.994            33.130               Magadan1          1035.312
       154   03 Jun 2027 01:37:07.074   03 Jun 2027 01:37:43.678            36.604               Magadan2          1143.875
       155   03 Jun 2027 01:40:18.004   03 Jun 2027 01:40:48.494            30.490               Magadan2           952.813
       156   03 Jun 2027 01:45:45.582   03 Jun 2027 01:47:03.709            78.127              Murmansk1          2441.469
       157   03 Jun 2027 01:48:39.744   03 Jun 2027 01:48:44.397             4.653              Murmansk2           145.406
       158   03 Jun 2027 01:49:00.964   03 Jun 2027 01:50:16.949            75.985                 Moscow          2374.531
       159   03 Jun 2027 01:53:27.203   03 Jun 2027 01:53:34.352             7.149                 Moscow           223.406
       160   03 Jun 2027 01:54:06.053   03 Jun 2027 01:54:22.285            16.232                 Moscow           507.250
       161   03 Jun 2027 01:55:22.541   03 Jun 2027 01:55:55.753            33.212                 Moscow          1037.875
       162   03 Jun 2027 02:13:58.435   03 Jun 2027 02:14:11.267            12.832               CapeTown           401.000
       163   03 Jun 2027 02:15:21.997   03 Jun 2027 02:16:43.043            81.046               CapeTown          2532.687
       164   03 Jun 2027 03:09:32.351   03 Jun 2027 03:09:45.208            12.857               Magadan1           401.781
       165   03 Jun 2027 03:09:52.309   03 Jun 2027 03:10:59.863            67.554               Magadan2          2111.063
       166   03 Jun 2027 03:14:14.276   03 Jun 2027 03:15:10.629            56.353                Anadyr2          1761.031
       167   03 Jun 2027 03:15:11.599   03 Jun 2027 03:15:23.778            12.179               Magadan1           380.594
       168   03 Jun 2027 03:15:29.882   03 Jun 2027 03:15:38.238             8.356                Anadyr1           261.125
       169   03 Jun 2027 03:15:55.942   03 Jun 2027 03:16:24.996            29.054                Anadyr1           907.938
       170   03 Jun 2027 03:16:28.647   03 Jun 2027 03:17:17.435            48.788               Magadan2          1524.625
       171   03 Jun 2027 03:17:39.541   03 Jun 2027 03:21:06.723           207.182               Magadan2          6474.438
       172   03 Jun 2027 03:21:08.187   03 Jun 2027 03:22:26.820            78.633                Anadyr1          2457.281
       173   03 Jun 2027 04:53:24.734   03 Jun 2027 04:53:44.436            19.702                Anadyr1           615.687
       174   03 Jun 2027 04:53:44.436   03 Jun 2027 04:55:09.600            85.164                Anadyr2          2661.375
       175   03 Jun 2027 04:55:21.759   03 Jun 2027 04:58:01.925           160.166               Magadan2          5005.188
       176   03 Jun 2027 06:27:27.933   03 Jun 2027 06:27:41.248            13.315               Magadan2           416.094
       177   03 Jun 2027 06:28:43.949   03 Jun 2027 06:28:56.067            12.118               Magadan1           378.687
       178   03 Jun 2027 06:29:36.234   03 Jun 2027 06:31:17.459           101.225               Magadan1          3163.281
       179   03 Jun 2027 06:31:29.164   03 Jun 2027 06:32:06.887            37.723               Magadan1          1178.844
       180   03 Jun 2027 06:32:06.887   03 Jun 2027 06:32:43.694            36.807               Magadan2          1150.219
       181   03 Jun 2027 06:35:13.932   03 Jun 2027 06:35:26.575            12.643              Murmansk2           395.094
       182   03 Jun 2027 06:40:48.874   03 Jun 2027 06:41:16.953            28.079              Murmansk1           877.469
       183   03 Jun 2027 08:04:05.836   03 Jun 2027 08:04:19.247            13.411                Irkutsk           419.094
       184   03 Jun 2027 08:04:23.591   03 Jun 2027 08:04:45.247            21.656                Novosib           676.750
       185   03 Jun 2027 08:05:07.867   03 Jun 2027 08:05:25.176            17.309                Novosib           540.906
       186   03 Jun 2027 08:05:37.371   03 Jun 2027 08:05:49.259            11.888                Irkutsk           371.500
       187   03 Jun 2027 08:06:01.026   03 Jun 2027 08:06:14.577            13.551              Murmansk1           423.469
       188   03 Jun 2027 08:06:36.418   03 Jun 2027 08:07:01.166            24.748              Murmansk2           773.375
       189   03 Jun 2027 08:07:03.311   03 Jun 2027 08:07:07.540             4.229                Irkutsk           132.156
       190   03 Jun 2027 08:07:10.532   03 Jun 2027 08:07:35.397            24.865                Irkutsk           777.031
       191   03 Jun 2027 08:07:38.378   03 Jun 2027 08:08:31.054            52.676                 Moscow          1646.125
       192   03 Jun 2027 08:08:41.666   03 Jun 2027 08:08:55.536            13.870                Irkutsk           433.437
       193   03 Jun 2027 08:09:10.065   03 Jun 2027 08:09:24.377            14.312                Novosib           447.250
       194   03 Jun 2027 08:09:43.070   03 Jun 2027 08:09:47.120             4.050                Novosib           126.563
       195   03 Jun 2027 08:11:26.355   03 Jun 2027 08:11:34.264             7.909              Murmansk1           247.156
       196   03 Jun 2027 08:16:36.867   03 Jun 2027 08:17:03.410            26.543              Murmansk2           829.469
       197   03 Jun 2027 08:47:47.712   03 Jun 2027 08:48:13.428            25.716            RioGallegos           803.625
       198   03 Jun 2027 08:48:41.546   03 Jun 2027 08:48:49.932             8.386            RioGallegos           262.063
       199   03 Jun 2027 08:50:29.323   03 Jun 2027 08:50:45.107            15.784            RioGallegos           493.250
       200   03 Jun 2027 09:22:30.345   03 Jun 2027 09:23:38.102            67.757                Sumatra          2117.406
       201   03 Jun 2027 09:24:40.795   03 Jun 2027 09:25:14.345            33.550                Sumatra          1048.437
       202   03 Jun 2027 09:42:21.794   03 Jun 2027 09:42:30.621             8.827              Murmansk2           275.844
       203   03 Jun 2027 09:43:55.619   03 Jun 2027 09:44:09.615            13.996                Novosib           437.375
       204   03 Jun 2027 09:44:38.674   03 Jun 2027 09:44:45.204             6.530                Novosib           204.063
       205   03 Jun 2027 09:44:51.632   03 Jun 2027 09:45:19.930            28.298                Norilsk           884.313
       206   03 Jun 2027 11:09:56.184   03 Jun 2027 11:10:33.288            37.104                  Delhi          1159.500
       207   03 Jun 2027 11:22:27.673   03 Jun 2027 11:22:29.775             2.102                Norilsk            65.688
       208   03 Jun 2027 12:48:57.988   03 Jun 2027 12:49:18.021            20.033                 Moscow           626.031
       209   03 Jun 2027 12:50:17.823   03 Jun 2027 12:51:12.031            54.208                 Moscow          1694.000
       210   03 Jun 2027 12:51:36.122   03 Jun 2027 12:51:52.604            16.482                 Moscow           515.062
       211   03 Jun 2027 12:52:04.707   03 Jun 2027 12:52:34.009            29.302                 Moscow           915.688
       212   03 Jun 2027 12:52:53.927   03 Jun 2027 12:53:50.197            56.270              Murmansk2          1758.437
       213   03 Jun 2027 12:53:55.645   03 Jun 2027 12:54:25.184            29.539              Murmansk2           923.094
       214   03 Jun 2027 12:55:48.732   03 Jun 2027 12:57:04.313            75.581              Murmansk2          2361.906
       215   03 Jun 2027 13:06:41.137   03 Jun 2027 13:09:33.761           172.624                Anadyr2          5394.500
       216   03 Jun 2027 14:02:45.949   03 Jun 2027 14:03:15.223            29.274               CapeTown           914.813
       217   03 Jun 2027 14:31:15.152   03 Jun 2027 14:31:53.387            38.235              Murmansk1          1194.844
       218   03 Jun 2027 14:31:53.387   03 Jun 2027 14:33:43.218           109.831              Murmansk2          3432.219
       219   03 Jun 2027 14:42:05.689   03 Jun 2027 14:43:37.271            91.582                Anadyr1          2861.937
       220   03 Jun 2027 14:43:39.567   03 Jun 2027 14:45:26.682           107.115                Anadyr2          3347.344
       221   03 Jun 2027 14:45:56.846   03 Jun 2027 14:52:15.711           378.865               Magadan2         11839.531
       222   03 Jun 2027 16:20:24.135   03 Jun 2027 16:22:16.824           112.689               Magadan2          3521.531
       223   03 Jun 2027 16:22:40.875   03 Jun 2027 16:24:34.645           113.770               Magadan1          3555.312
       224   03 Jun 2027 17:53:51.444   03 Jun 2027 17:55:14.463            83.019                Anadyr2          2594.344
       225   03 Jun 2027 17:55:28.992   03 Jun 2027 17:56:20.882            51.890                Anadyr1          1621.562
       226   03 Jun 2027 17:56:42.462   03 Jun 2027 18:02:13.774           331.312                Norilsk         10353.500
       227   03 Jun 2027 18:03:10.443   03 Jun 2027 18:04:54.796           104.353                Irkutsk          3261.031
       228   03 Jun 2027 18:06:07.632   03 Jun 2027 18:07:33.293            85.661                Irkutsk          2676.906
       229   03 Jun 2027 18:50:05.030   03 Jun 2027 18:50:54.164            49.134            RioGallegos          1535.438
       230   03 Jun 2027 19:31:44.165   03 Jun 2027 19:32:39.632            55.467                Norilsk          1733.344
       231   03 Jun 2027 19:36:59.356   03 Jun 2027 19:44:28.244           448.888                Novosib         14027.750
       232   03 Jun 2027 21:11:35.860   03 Jun 2027 21:13:25.853           109.993                Novosib          3437.281
       233   03 Jun 2027 21:19:05.982   03 Jun 2027 21:23:08.498           242.516                  Delhi          7578.625
       234   03 Jun 2027 22:45:58.651   03 Jun 2027 22:47:46.738           108.087              Murmansk1          3377.719
       235   03 Jun 2027 22:47:48.549   03 Jun 2027 22:52:23.098           274.549              Murmansk2          8579.656
       236   03 Jun 2027 22:52:38.414   03 Jun 2027 22:56:39.835           241.421                 Moscow          7544.406
       237   03 Jun 2027 23:18:23.569   03 Jun 2027 23:19:24.056            60.487               CapeTown          1890.219
       238   03 Jun 2027 23:20:19.109   03 Jun 2027 23:21:34.239            75.130               CapeTown          2347.813
       239   04 Jun 2027 00:26:15.039   04 Jun 2027 00:27:17.898            62.859                 Moscow          1964.344
       240   04 Jun 2027 00:49:06.043   04 Jun 2027 00:50:54.870           108.827               CapeTown          3400.844
       241   04 Jun 2027 00:56:24.693   04 Jun 2027 00:56:31.713             7.020               CapeTown           219.375
       242   04 Jun 2027 00:57:11.521   04 Jun 2027 00:58:29.655            78.134               CapeTown          2441.687
       243   04 Jun 2027 01:47:45.627   04 Jun 2027 01:48:03.700            18.073               Magadan1           564.781
       244   04 Jun 2027 01:49:20.471   04 Jun 2027 01:49:45.491            25.020               Magadan2           781.875
       245   04 Jun 2027 01:52:02.836   04 Jun 2027 01:52:16.256            13.420               Magadan1           419.375
       246   04 Jun 2027 01:57:46.949   04 Jun 2027 01:58:04.855            17.906              Murmansk2           559.563
       247   04 Jun 2027 01:58:15.001   04 Jun 2027 01:59:02.427            47.426              Murmansk1          1482.063
       248   04 Jun 2027 02:00:35.056   04 Jun 2027 02:00:45.844            10.788              Murmansk2           337.125
       249   04 Jun 2027 02:01:04.524   04 Jun 2027 02:03:16.323           131.799                 Moscow          4118.719
       250   04 Jun 2027 02:26:35.472   04 Jun 2027 02:27:02.025            26.553               CapeTown           829.781
       251   04 Jun 2027 02:28:23.862   04 Jun 2027 02:28:57.775            33.913               CapeTown          1059.781
       252   04 Jun 2027 02:33:05.886   04 Jun 2027 02:34:46.940           101.054               CapeTown          3157.938
       253   04 Jun 2027 03:26:11.407   04 Jun 2027 03:31:02.173           290.766                Anadyr1          9086.438
       254   04 Jun 2027 03:31:24.719   04 Jun 2027 03:33:51.682           146.963               Magadan2          4592.594
       255   04 Jun 2027 03:33:51.682   04 Jun 2027 03:34:12.826            21.144               Magadan1           660.750
       256   04 Jun 2027 05:03:39.461   04 Jun 2027 05:04:01.323            21.862                Irkutsk           683.187
       257   04 Jun 2027 05:04:11.750   04 Jun 2027 05:04:39.981            28.231                Anadyr2           882.219
       258   04 Jun 2027 05:05:25.314   04 Jun 2027 05:10:00.318           275.004               Magadan1          8593.875
       259   04 Jun 2027 06:40:34.762   04 Jun 2027 06:41:28.624            53.862               Magadan2          1683.187
       260   04 Jun 2027 06:41:39.535   04 Jun 2027 06:42:02.091            22.556               Magadan1           704.875
       261   04 Jun 2027 06:42:02.091   04 Jun 2027 06:43:15.694            73.603               Magadan2          2300.094
       262   04 Jun 2027 06:43:21.532   04 Jun 2027 06:43:31.860            10.328               Magadan1           322.750
       263   04 Jun 2027 06:43:33.636   04 Jun 2027 06:44:14.987            41.351               Magadan1          1292.219
       264   04 Jun 2027 06:47:14.301   04 Jun 2027 06:48:04.645            50.344              Murmansk1          1573.250
       265   04 Jun 2027 08:17:02.050   04 Jun 2027 08:17:41.469            39.419                Novosib          1231.844
       266   04 Jun 2027 08:18:05.328   04 Jun 2027 08:19:02.447            57.119                Novosib          1784.969
       267   04 Jun 2027 08:19:05.228   04 Jun 2027 08:19:28.038            22.810              Murmansk2           712.812
       268   04 Jun 2027 08:19:31.129   04 Jun 2027 08:19:53.824            22.695                Irkutsk           709.219
       269   04 Jun 2027 08:20:06.068   04 Jun 2027 08:20:27.158            21.090                Novosib           659.063
       270   04 Jun 2027 08:20:48.353   04 Jun 2027 08:21:33.189            44.836                Irkutsk          1401.125
       271   04 Jun 2027 08:21:53.026   04 Jun 2027 08:22:10.212            17.186                Novosib           537.063
       272   04 Jun 2027 09:00:49.959   04 Jun 2027 09:01:38.880            48.921            RioGallegos          1528.781
       273   04 Jun 2027 09:04:41.323   04 Jun 2027 09:04:43.791             2.468            RioGallegos            77.125
       274   04 Jun 2027 09:06:34.746   04 Jun 2027 09:07:10.112            35.366            RioGallegos          1105.188
       275   04 Jun 2027 09:41:29.403   04 Jun 2027 09:41:47.040            17.637                  Delhi           551.156
       276   04 Jun 2027 09:53:48.562   04 Jun 2027 09:54:31.008            42.446                Novosib          1326.438
       277   04 Jun 2027 09:56:17.831   04 Jun 2027 09:56:26.157             8.326                Novosib           260.187
       278   04 Jun 2027 09:56:35.470   04 Jun 2027 09:56:59.408            23.938                Norilsk           748.063
       279   04 Jun 2027 09:57:06.029   04 Jun 2027 09:57:13.824             7.795                Norilsk           243.594
       280   04 Jun 2027 09:57:26.565   04 Jun 2027 09:57:28.425             1.860                Novosib            58.125
       281   04 Jun 2027 11:37:55.386   04 Jun 2027 11:38:14.591            19.205                Norilsk           600.156
       282   04 Jun 2027 13:01:22.667   04 Jun 2027 13:02:21.888            59.221                 Moscow          1850.656
       283   04 Jun 2027 13:02:47.452   04 Jun 2027 13:03:05.873            18.421                 Moscow           575.656
       284   04 Jun 2027 13:04:11.022   04 Jun 2027 13:04:55.341            44.319                 Moscow          1384.969
       285   04 Jun 2027 13:04:56.190   04 Jun 2027 13:05:09.458            13.268              Murmansk2           414.625
       286   04 Jun 2027 13:05:23.589   04 Jun 2027 13:05:49.832            26.243              Murmansk2           820.094
       287   04 Jun 2027 13:06:39.927   04 Jun 2027 13:07:36.017            56.090              Murmansk2          1752.813
       288   04 Jun 2027 13:09:36.860   04 Jun 2027 13:09:46.661             9.801              Murmansk2           306.281
       289   04 Jun 2027 13:18:34.418   04 Jun 2027 13:19:47.068            72.650                Anadyr2          2270.312
       290   04 Jun 2027 13:21:19.240   04 Jun 2027 13:21:35.131            15.891                Anadyr2           496.594
       291   04 Jun 2027 14:13:31.388   04 Jun 2027 14:15:04.254            92.866               CapeTown          2902.063
       292   04 Jun 2027 14:43:51.652   04 Jun 2027 14:45:12.531            80.879              Murmansk1          2527.469
       293   04 Jun 2027 14:45:12.531   04 Jun 2027 14:45:44.933            32.402              Murmansk2          1012.562
       294   04 Jun 2027 14:46:01.546   04 Jun 2027 14:46:24.589            23.043              Murmansk1           720.094
       295   04 Jun 2027 14:47:41.299   04 Jun 2027 14:47:42.783             1.484              Murmansk1            46.375
       296   04 Jun 2027 14:48:03.248   04 Jun 2027 14:48:34.015            30.767              Murmansk2           961.469
       297   04 Jun 2027 14:54:06.044   04 Jun 2027 14:55:34.849            88.805                Anadyr1          2775.156
       298   04 Jun 2027 14:55:54.940   04 Jun 2027 14:57:26.642            91.702                Anadyr2          2865.688
       299   04 Jun 2027 14:57:33.617   04 Jun 2027 15:01:09.448           215.831               Magadan2          6744.719
       300   04 Jun 2027 15:01:28.712   04 Jun 2027 15:04:37.291           188.579               Magadan1          5893.094
       301   04 Jun 2027 16:32:22.419   04 Jun 2027 16:34:22.783           120.364               Magadan1          3761.375
       302   04 Jun 2027 16:34:42.600   04 Jun 2027 16:34:59.601            17.001               Magadan1           531.281
       303   04 Jun 2027 16:35:52.430   04 Jun 2027 16:36:34.852            42.422               Magadan1          1325.688
       304   04 Jun 2027 18:05:51.249   04 Jun 2027 18:08:57.835           186.586                Anadyr2          5830.813
       305   04 Jun 2027 18:08:58.900   04 Jun 2027 18:13:08.519           249.619                Norilsk          7800.594
       306   04 Jun 2027 18:13:28.276   04 Jun 2027 18:16:41.274           192.998                Irkutsk          6031.187
       307   04 Jun 2027 18:19:58.911   04 Jun 2027 18:20:44.000            45.089                Irkutsk          1409.031
       308   04 Jun 2027 18:29:20.042   04 Jun 2027 18:34:17.667           297.625                Sumatra          9300.781
       309   04 Jun 2027 19:48:39.713   04 Jun 2027 19:49:21.635            41.922                Novosib          1310.063
       310   04 Jun 2027 19:49:34.370   04 Jun 2027 19:52:19.174           164.804                Novosib          5150.125
       311   04 Jun 2027 19:54:29.377   04 Jun 2027 19:55:00.844            31.467                Novosib           983.344
       312   04 Jun 2027 20:10:30.046   04 Jun 2027 20:10:49.531            19.485                Sumatra           608.906
       313   04 Jun 2027 21:23:12.015   04 Jun 2027 21:26:43.857           211.842              Murmansk2          6620.062
       314   04 Jun 2027 21:30:58.660   04 Jun 2027 21:32:31.358            92.698                  Delhi          2896.812
       315   04 Jun 2027 21:32:49.419   04 Jun 2027 21:33:53.965            64.546                  Delhi          2017.062
       316   04 Jun 2027 21:40:08.644   04 Jun 2027 21:40:29.991            21.347                  Delhi           667.094
       317   04 Jun 2027 22:57:19.291   04 Jun 2027 22:57:26.812             7.521               Magadan2           235.031
       318   04 Jun 2027 22:57:51.056   04 Jun 2027 22:58:23.363            32.307               Magadan1          1009.594
       319   04 Jun 2027 22:58:38.132   04 Jun 2027 22:58:40.926             2.794                Norilsk            87.313
       320   04 Jun 2027 22:59:21.232   04 Jun 2027 23:03:47.611           266.379              Murmansk2          8324.344
       321   04 Jun 2027 23:04:34.048   04 Jun 2027 23:06:12.392            98.344              Murmansk2          3073.250
       322   04 Jun 2027 23:07:08.142   04 Jun 2027 23:09:26.517           138.375                 Moscow          4324.219
       323   04 Jun 2027 23:28:59.345   04 Jun 2027 23:30:49.060           109.715               CapeTown          3428.594
       324   04 Jun 2027 23:31:53.095   04 Jun 2027 23:33:52.671           119.576               CapeTown          3736.750
       325   05 Jun 2027 00:35:34.334   05 Jun 2027 00:36:09.441            35.107              Murmansk2          1097.094
       326   05 Jun 2027 00:37:05.196   05 Jun 2027 00:38:43.582            98.386                 Moscow          3074.563
       327   05 Jun 2027 01:00:59.670   05 Jun 2027 01:01:55.243            55.573               CapeTown          1736.656
       328   05 Jun 2027 01:57:40.776   05 Jun 2027 01:58:22.954            42.178                Anadyr1          1318.062
       329   05 Jun 2027 01:59:07.771   05 Jun 2027 02:00:34.365            86.594               Magadan2          2706.063
       330   05 Jun 2027 02:01:16.540   05 Jun 2027 02:01:36.825            20.285               Magadan1           633.906
       331   05 Jun 2027 02:03:43.742   05 Jun 2027 02:04:01.383            17.641               Magadan1           551.281
       332   05 Jun 2027 02:09:48.165   05 Jun 2027 02:10:51.481            63.316              Murmansk1          1978.625
       333   05 Jun 2027 02:10:51.481   05 Jun 2027 02:11:02.079            10.598              Murmansk2           331.187
       334   05 Jun 2027 02:11:18.582   05 Jun 2027 02:11:41.367            22.785              Murmansk1           712.031
       335   05 Jun 2027 02:12:29.681   05 Jun 2027 02:12:47.438            17.757              Murmansk1           554.906
       336   05 Jun 2027 02:13:07.853   05 Jun 2027 02:13:19.859            12.006              Murmansk2           375.187
       337   05 Jun 2027 02:13:35.303   05 Jun 2027 02:13:49.006            13.703                 Moscow           428.219
       338   05 Jun 2027 02:14:36.243   05 Jun 2027 02:14:44.523             8.280                 Moscow           258.750
       339   05 Jun 2027 02:15:01.818   05 Jun 2027 02:15:27.594            25.776                 Moscow           805.500
       340   05 Jun 2027 02:19:03.200   05 Jun 2027 02:19:22.837            19.637                 Moscow           613.656
       341   05 Jun 2027 02:39:25.159   05 Jun 2027 02:40:10.115            44.956               CapeTown          1404.875
       342   05 Jun 2027 02:43:01.027   05 Jun 2027 02:43:20.658            19.631               CapeTown           613.469
       343   05 Jun 2027 02:44:52.191   05 Jun 2027 02:46:23.788            91.597               CapeTown          2862.406
       344   05 Jun 2027 03:37:34.548   05 Jun 2027 03:37:39.463             4.915               Magadan1           153.594
       345   05 Jun 2027 03:37:53.804   05 Jun 2027 03:38:11.649            17.845               Magadan1           557.656
       346   05 Jun 2027 03:38:12.141   05 Jun 2027 03:43:53.342           341.201                Anadyr2         10662.531
       347   05 Jun 2027 05:15:42.595   05 Jun 2027 05:16:13.352            30.757                Anadyr2           961.156
       348   05 Jun 2027 05:16:26.676   05 Jun 2027 05:17:27.855            61.179               Magadan2          1911.844
       349   05 Jun 2027 05:17:35.450   05 Jun 2027 05:20:55.070           199.620                Irkutsk          6238.125
       350   05 Jun 2027 05:21:03.321   05 Jun 2027 05:21:28.515            25.194                Irkutsk           787.312
       351   05 Jun 2027 05:21:32.173   05 Jun 2027 05:21:57.852            25.679               Magadan1           802.469
       352   05 Jun 2027 06:51:47.220   05 Jun 2027 06:52:14.255            27.035               Magadan1           844.844
       353   05 Jun 2027 06:53:01.232   05 Jun 2027 06:53:22.108            20.876               Magadan1           652.375
       354   05 Jun 2027 06:53:30.042   05 Jun 2027 06:53:42.849            12.807               Magadan2           400.219
       355   05 Jun 2027 06:53:42.849   05 Jun 2027 06:54:10.426            27.577               Magadan1           861.781
       356   05 Jun 2027 06:54:14.252   05 Jun 2027 06:54:24.081             9.829                Norilsk           307.156
       357   05 Jun 2027 06:54:34.857   05 Jun 2027 06:54:50.336            15.479                Novosib           483.719
       358   05 Jun 2027 06:55:13.025   05 Jun 2027 06:55:24.665            11.640               Magadan1           363.750
       359   05 Jun 2027 06:55:26.990   05 Jun 2027 06:56:23.361            56.371              Murmansk1          1761.594
       360   05 Jun 2027 06:58:04.410   05 Jun 2027 06:58:15.514            11.104                Novosib           347.000
       361   05 Jun 2027 07:43:08.044   05 Jun 2027 07:43:28.074            20.030            RioGallegos           625.937
       362   05 Jun 2027 08:07:28.875   05 Jun 2027 08:07:32.817             3.942                Sumatra           123.187
       363   05 Jun 2027 08:16:23.819   05 Jun 2027 08:17:09.850            46.031                Sumatra          1438.469
       364   05 Jun 2027 08:28:54.661   05 Jun 2027 08:29:30.567            35.906                Irkutsk          1122.063
       365   05 Jun 2027 08:29:34.282   05 Jun 2027 08:30:25.421            51.139                Irkutsk          1598.094
       366   05 Jun 2027 08:30:42.430   05 Jun 2027 08:31:12.836            30.406                Novosib           950.188
       367   05 Jun 2027 08:31:59.290   05 Jun 2027 08:32:54.158            54.868                Irkutsk          1714.625
       368   05 Jun 2027 08:34:18.208   05 Jun 2027 08:34:23.037             4.829                Novosib           150.906
       369   05 Jun 2027 09:14:20.627   05 Jun 2027 09:15:53.994            93.367            RioGallegos          2917.719
       370   05 Jun 2027 09:53:14.808   05 Jun 2027 09:54:38.694            83.886                  Delhi          2621.438
       371   05 Jun 2027 10:05:41.204   05 Jun 2027 10:06:24.623            43.419                Norilsk          1356.844
       372   05 Jun 2027 10:07:33.485   05 Jun 2027 10:07:48.345            14.860                Novosib           464.375
       373   05 Jun 2027 10:08:25.163   05 Jun 2027 10:08:41.731            16.568                Novosib           517.750
       374   05 Jun 2027 10:08:54.790   05 Jun 2027 10:09:38.213            43.423                Novosib          1356.969
       375   05 Jun 2027 11:48:21.934   05 Jun 2027 11:48:56.127            34.193                Norilsk          1068.531
       376   05 Jun 2027 13:14:17.321   05 Jun 2027 13:14:33.367            16.046                 Moscow           501.437
       377   05 Jun 2027 13:14:46.296   05 Jun 2027 13:15:02.463            16.167                 Moscow           505.219
       378   05 Jun 2027 13:16:16.735   05 Jun 2027 13:16:33.381            16.646                 Moscow           520.188
       379   05 Jun 2027 13:17:37.148   05 Jun 2027 13:18:02.955            25.807                 Moscow           806.469
       380   05 Jun 2027 13:22:39.339   05 Jun 2027 13:22:50.290            10.951              Murmansk1           342.219
       381   05 Jun 2027 13:23:46.501   05 Jun 2027 13:24:13.206            26.705              Murmansk1           834.531
       382   05 Jun 2027 13:28:10.383   05 Jun 2027 13:28:24.059            13.676              Murmansk2           427.375
       383   05 Jun 2027 13:31:38.551   05 Jun 2027 13:33:36.462           117.911                Anadyr1          3684.719
       384   05 Jun 2027 13:34:35.737   05 Jun 2027 13:36:09.739            94.002                Anadyr2          2937.562
       385   05 Jun 2027 13:38:24.477   05 Jun 2027 13:38:54.358            29.881                Anadyr1           933.781
       386   05 Jun 2027 14:26:41.835   05 Jun 2027 14:26:57.013            15.178               CapeTown           474.312
       387   05 Jun 2027 14:29:51.002   05 Jun 2027 14:29:51.988             0.986               CapeTown            30.813
       388   05 Jun 2027 14:30:54.064   05 Jun 2027 14:31:29.164            35.100               CapeTown          1096.875
       389   05 Jun 2027 14:36:28.061   05 Jun 2027 14:36:45.716            17.655               CapeTown           551.719
       390   05 Jun 2027 14:56:31.829   05 Jun 2027 14:58:15.607           103.778              Murmansk2          3243.062
       391   05 Jun 2027 14:59:43.204   05 Jun 2027 15:00:02.111            18.907              Murmansk2           590.844
       392   05 Jun 2027 15:00:02.111   05 Jun 2027 15:00:03.634             1.523              Murmansk1            47.594
       393   05 Jun 2027 15:01:40.555   05 Jun 2027 15:01:47.691             7.136              Murmansk2           223.000
       394   05 Jun 2027 15:02:17.032   05 Jun 2027 15:03:27.029            69.997              Murmansk1          2187.406
       395   05 Jun 2027 15:06:06.688   05 Jun 2027 15:06:13.049             6.361                Anadyr1           198.781
       396   05 Jun 2027 15:06:45.369   05 Jun 2027 15:07:33.260            47.891                Anadyr2          1496.594
       397   05 Jun 2027 15:08:32.186   05 Jun 2027 15:09:26.220            54.034                Anadyr1          1688.563
       398   05 Jun 2027 15:09:35.568   05 Jun 2027 15:16:38.515           422.947               Magadan2         13217.094
       399   05 Jun 2027 16:43:18.198   05 Jun 2027 16:43:27.029             8.831                Anadyr2           275.969
       400   05 Jun 2027 16:44:21.431   05 Jun 2027 16:46:01.445           100.014               Magadan1          3125.437
       401   05 Jun 2027 16:46:41.910   05 Jun 2027 16:47:13.807            31.897               Magadan2           996.781
       402   05 Jun 2027 16:48:10.387   05 Jun 2027 16:48:41.531            31.144               Magadan1           973.250
       403   05 Jun 2027 17:38:28.448   05 Jun 2027 17:41:05.495           157.047            RioGallegos          4907.719
       404   05 Jun 2027 18:17:50.647   05 Jun 2027 18:18:11.653            21.006                Anadyr2           656.437
       405   05 Jun 2027 18:18:25.541   05 Jun 2027 18:18:49.261            23.720                Anadyr2           741.250
       406   05 Jun 2027 18:19:12.096   05 Jun 2027 18:19:16.543             4.447                Anadyr2           138.969
       407   05 Jun 2027 18:19:29.988   05 Jun 2027 18:20:12.077            42.089                Anadyr1          1315.281
       408   05 Jun 2027 18:20:15.005   05 Jun 2027 18:20:33.648            18.643               Magadan1           582.594
       409   05 Jun 2027 18:20:42.112   05 Jun 2027 18:20:59.010            16.898               Magadan1           528.062
       410   05 Jun 2027 18:21:02.238   05 Jun 2027 18:21:11.579             9.341               Magadan2           291.906
       411   05 Jun 2027 18:21:13.463   05 Jun 2027 18:24:11.421           177.958                Norilsk          5561.187
       412   05 Jun 2027 18:25:01.883   05 Jun 2027 18:29:43.581           281.698                Irkutsk          8803.062
       413   05 Jun 2027 18:40:05.682   05 Jun 2027 18:42:26.818           141.136                Sumatra          4410.500
       414   05 Jun 2027 18:44:26.117   05 Jun 2027 18:46:14.497           108.380                Sumatra          3386.875
       415   05 Jun 2027 20:01:31.006   05 Jun 2027 20:03:12.411           101.405                Novosib          3168.906
       416   05 Jun 2027 20:03:47.629   05 Jun 2027 20:04:13.256            25.627                Novosib           800.844
       417   05 Jun 2027 20:05:34.373   05 Jun 2027 20:06:05.114            30.741                Novosib           960.656
       418   05 Jun 2027 20:06:34.067   05 Jun 2027 20:07:56.308            82.241                Novosib          2570.031
       419   05 Jun 2027 20:10:43.471   05 Jun 2027 20:12:21.627            98.156                  Delhi          3067.375
       420   05 Jun 2027 21:34:49.115   05 Jun 2027 21:39:49.339           300.224              Murmansk1          9382.000
       421   05 Jun 2027 23:06:37.484   05 Jun 2027 23:06:55.637            18.153               Magadan2           567.281
       422   05 Jun 2027 23:08:27.406   05 Jun 2027 23:08:40.309            12.903               Magadan2           403.219
       423   05 Jun 2027 23:08:55.315   05 Jun 2027 23:09:07.547            12.232               Magadan2           382.250
       424   05 Jun 2027 23:09:19.478   05 Jun 2027 23:10:00.941            41.463               Magadan2          1295.719
       425   05 Jun 2027 23:10:42.100   05 Jun 2027 23:11:32.533            50.433              Murmansk2          1576.031
       426   05 Jun 2027 23:11:36.876   05 Jun 2027 23:13:24.094           107.218              Murmansk1          3350.562
       427   05 Jun 2027 23:13:24.139   05 Jun 2027 23:15:04.528           100.389              Murmansk1          3137.156
       428   05 Jun 2027 23:15:18.556   05 Jun 2027 23:17:24.325           125.769                 Moscow          3930.281
       429   05 Jun 2027 23:40:00.567   05 Jun 2027 23:42:21.328           140.761               CapeTown          4398.781
       430   05 Jun 2027 23:45:51.342   05 Jun 2027 23:47:56.784           125.442               CapeTown          3920.062
       431   06 Jun 2027 00:48:21.929   06 Jun 2027 00:48:59.695            37.766              Murmansk2          1180.188
       432   06 Jun 2027 00:49:05.470   06 Jun 2027 00:49:51.285            45.815                 Moscow          1431.719
       433   06 Jun 2027 00:56:26.813   06 Jun 2027 00:56:27.990             1.177                 Moscow            36.781
       434   06 Jun 2027 00:57:40.710   06 Jun 2027 00:57:54.623            13.913                 Moscow           434.781
       435   06 Jun 2027 00:58:11.527   06 Jun 2027 00:59:13.621            62.094                 Moscow          1940.437
       436   06 Jun 2027 01:12:58.240   06 Jun 2027 01:13:01.232             2.992               CapeTown            93.500
       437   06 Jun 2027 01:14:24.441   06 Jun 2027 01:15:22.323            57.882               CapeTown          1808.813
       438   06 Jun 2027 02:09:43.877   06 Jun 2027 02:10:25.976            42.099                Anadyr1          1315.594
       439   06 Jun 2027 02:10:49.275   06 Jun 2027 02:11:25.751            36.476               Magadan2          1139.875
       440   06 Jun 2027 02:11:42.187   06 Jun 2027 02:13:03.100            80.913               Magadan2          2528.531
       441   06 Jun 2027 02:13:56.463   06 Jun 2027 02:14:12.535            16.072               Magadan1           502.250
       442   06 Jun 2027 02:16:58.712   06 Jun 2027 02:16:59.140             0.428               Magadan2            13.375
       443   06 Jun 2027 02:18:02.022   06 Jun 2027 02:18:12.946            10.924               Magadan1           341.375
       444   06 Jun 2027 02:18:46.621   06 Jun 2027 02:19:09.479            22.858                Norilsk           714.313
       445   06 Jun 2027 02:22:11.554   06 Jun 2027 02:22:57.336            45.782              Murmansk1          1430.687
       446   06 Jun 2027 02:22:57.336   06 Jun 2027 02:23:33.066            35.730              Murmansk2          1116.563
       447   06 Jun 2027 02:24:23.579   06 Jun 2027 02:24:49.136            25.557              Murmansk1           798.656
       448   06 Jun 2027 02:25:13.088   06 Jun 2027 02:25:39.899            26.811                 Moscow           837.844
       449   06 Jun 2027 02:27:23.378   06 Jun 2027 02:28:04.683            41.305                 Moscow          1290.781
       450   06 Jun 2027 02:52:36.042   06 Jun 2027 02:55:07.380           151.338               CapeTown          4729.312
       451   06 Jun 2027 03:51:59.735   06 Jun 2027 03:52:56.713            56.978               Magadan1          1780.563
       452   06 Jun 2027 03:53:12.471   06 Jun 2027 03:55:26.809           134.338               Magadan1          4198.063
       453   06 Jun 2027 04:36:07.000   06 Jun 2027 04:37:33.318            86.318            RioGallegos          2697.437
       454   06 Jun 2027 05:28:05.152   06 Jun 2027 05:33:06.882           301.730                Irkutsk          9429.063
       455   06 Jun 2027 07:05:32.807   06 Jun 2027 07:06:08.501            35.694                Novosib          1115.438
       456   06 Jun 2027 07:06:56.969   06 Jun 2027 07:07:20.565            23.596                Novosib           737.375
       457   06 Jun 2027 07:08:42.329   06 Jun 2027 07:08:49.230             6.901                Irkutsk           215.656
       458   06 Jun 2027 07:10:01.885   06 Jun 2027 07:10:14.909            13.024                Novosib           407.000
       459   06 Jun 2027 07:45:28.484   06 Jun 2027 07:45:53.647            25.163            RioGallegos           786.344
       460   06 Jun 2027 07:56:07.573   06 Jun 2027 07:56:22.101            14.528            RioGallegos           454.000
       461   06 Jun 2027 08:20:57.807   06 Jun 2027 08:21:17.503            19.696                Sumatra           615.500
       462   06 Jun 2027 08:28:17.706   06 Jun 2027 08:29:23.511            65.805                Sumatra          2056.406
       463   06 Jun 2027 08:42:05.033   06 Jun 2027 08:42:25.067            20.034                Novosib           626.062
       464   06 Jun 2027 08:42:38.448   06 Jun 2027 08:42:58.049            19.601                Irkutsk           612.531
       465   06 Jun 2027 08:43:14.664   06 Jun 2027 08:43:34.953            20.289                Irkutsk           634.031
       466   06 Jun 2027 08:44:37.279   06 Jun 2027 08:45:47.036            69.757                Novosib          2179.906
       467   06 Jun 2027 10:04:15.892   06 Jun 2027 10:06:28.116           132.224                  Delhi          4132.000
       468   06 Jun 2027 10:19:24.113   06 Jun 2027 10:19:25.315             1.202                Novosib            37.563
       469   06 Jun 2027 10:20:42.320   06 Jun 2027 10:21:51.345            69.025                Novosib          2157.031
       470   06 Jun 2027 12:00:22.108   06 Jun 2027 12:00:48.994            26.886                Norilsk           840.187
       471   06 Jun 2027 12:03:44.767   06 Jun 2027 12:03:49.559             4.792              Murmansk1           149.750
       472   06 Jun 2027 13:26:27.209   06 Jun 2027 13:27:21.970            54.761                 Moscow          1711.281
       473   06 Jun 2027 13:28:31.795   06 Jun 2027 13:29:52.199            80.404                 Moscow          2512.625
       474   06 Jun 2027 13:29:59.122   06 Jun 2027 13:30:35.774            36.652              Murmansk2          1145.375
       475   06 Jun 2027 13:32:03.509   06 Jun 2027 13:32:09.285             5.776              Murmansk2           180.500
       476   06 Jun 2027 13:32:30.381   06 Jun 2027 13:32:49.470            19.089              Murmansk2           596.531
       477   06 Jun 2027 13:34:43.690   06 Jun 2027 13:34:59.698            16.008              Murmansk2           500.250
       478   06 Jun 2027 13:35:47.595   06 Jun 2027 13:36:13.195            25.600              Murmansk2           800.000
       479   06 Jun 2027 13:36:28.995   06 Jun 2027 13:37:44.786            75.791              Murmansk2          2368.469
       480   06 Jun 2027 13:40:08.992   06 Jun 2027 13:40:24.890            15.898              Murmansk2           496.812
       481   06 Jun 2027 13:42:25.976   06 Jun 2027 13:43:28.544            62.568                Anadyr2          1955.250
       482   06 Jun 2027 13:44:03.182   06 Jun 2027 13:44:28.954            25.772                Anadyr2           805.375
