uniorb/output/strategy_4/Drop/Drop_KinoSat_111001.txt

KinoSat_111001
-------------------------
    Access    *     Start Time (UTCG)     *     Stop Time (UTCG)  *   Duration (s)        *       Station  *  Data (Mbytes)
         1   01 Jun 2027 04:07:12.318   01 Jun 2027 04:07:18.878             6.560               Magadan1           205.000
         2   01 Jun 2027 04:07:21.802   01 Jun 2027 04:08:37.981            76.179                Anadyr2          2380.594
         3   01 Jun 2027 04:09:25.399   01 Jun 2027 04:10:23.040            57.641                Anadyr1          1801.281
         4   01 Jun 2027 04:10:33.298   01 Jun 2027 04:10:42.595             9.297               Magadan1           290.531
         5   01 Jun 2027 04:11:30.003   01 Jun 2027 04:11:37.005             7.002               Magadan1           218.813
         6   01 Jun 2027 04:11:37.005   01 Jun 2027 04:11:49.704            12.699               Magadan2           396.844
         7   01 Jun 2027 04:11:49.704   01 Jun 2027 04:12:03.810            14.106               Magadan1           440.812
         8   01 Jun 2027 05:43:52.014   01 Jun 2027 05:44:42.122            50.108                Irkutsk          1565.875
         9   01 Jun 2027 05:44:51.892   01 Jun 2027 05:47:47.502           175.610                Anadyr1          5487.812
        10   01 Jun 2027 05:47:47.502   01 Jun 2027 05:47:59.117            11.615                Anadyr2           362.969
        11   01 Jun 2027 07:19:38.456   01 Jun 2027 07:23:40.846           242.390                Irkutsk          7574.687
        12   01 Jun 2027 07:23:49.007   01 Jun 2027 07:24:45.387            56.380              Murmansk2          1761.875
        13   01 Jun 2027 07:58:35.837   01 Jun 2027 07:59:24.122            48.285            RioGallegos          1508.906
        14   01 Jun 2027 08:00:12.878   01 Jun 2027 08:01:02.069            49.191            RioGallegos          1537.219
        15   01 Jun 2027 08:34:27.289   01 Jun 2027 08:35:04.577            37.288                Sumatra          1165.250
        16   01 Jun 2027 08:35:39.477   01 Jun 2027 08:36:36.534            57.057                Sumatra          1783.031
        17   01 Jun 2027 08:56:25.361   01 Jun 2027 08:57:45.267            79.906                Irkutsk          2497.063
        18   01 Jun 2027 08:57:59.700   01 Jun 2027 08:59:51.265           111.565                Irkutsk          3486.406
        19   01 Jun 2027 08:59:53.868   01 Jun 2027 09:00:56.522            62.654                Novosib          1957.938
        20   01 Jun 2027 10:09:59.288   01 Jun 2027 10:11:14.777            75.489                Sumatra          2359.031
        21   01 Jun 2027 10:32:07.368   01 Jun 2027 10:32:40.611            33.243                Irkutsk          1038.844
        22   01 Jun 2027 10:33:47.512   01 Jun 2027 10:34:47.256            59.744                Irkutsk          1867.000
        23   01 Jun 2027 10:34:50.197   01 Jun 2027 10:35:55.046            64.849                Novosib          2026.531
        24   01 Jun 2027 10:36:04.965   01 Jun 2027 10:38:05.004           120.039                Norilsk          3751.219
        25   01 Jun 2027 11:54:58.514   01 Jun 2027 11:59:49.358           290.844                  Delhi          9088.875
        26   01 Jun 2027 12:05:49.457   01 Jun 2027 12:06:10.023            20.566                Novosib           642.688
        27   01 Jun 2027 12:06:27.252   01 Jun 2027 12:07:31.460            64.208                Novosib          2006.500
        28   01 Jun 2027 13:44:47.399   01 Jun 2027 13:45:26.334            38.935              Murmansk1          1216.719
        29   01 Jun 2027 13:45:37.412   01 Jun 2027 13:46:09.274            31.862              Murmansk2           995.687
        30   01 Jun 2027 13:46:36.655   01 Jun 2027 13:47:08.404            31.749              Murmansk2           992.156
        31   01 Jun 2027 13:47:26.932   01 Jun 2027 13:47:27.928             0.996              Murmansk2            31.125
        32   01 Jun 2027 13:48:22.358   01 Jun 2027 13:49:18.726            56.368              Murmansk1          1761.500
        33   01 Jun 2027 13:49:34.976   01 Jun 2027 13:51:06.109            91.133                Norilsk          2847.906
        34   01 Jun 2027 13:57:35.278   01 Jun 2027 13:58:58.977            83.699                Anadyr2          2615.594
        35   01 Jun 2027 13:59:48.434   01 Jun 2027 14:00:48.313            59.879                Anadyr1          1871.219
        36   01 Jun 2027 14:02:15.400   01 Jun 2027 14:02:27.696            12.296                Anadyr2           384.250
        37   01 Jun 2027 15:22:55.250   01 Jun 2027 15:23:19.971            24.721              Murmansk2           772.531
        38   01 Jun 2027 15:24:36.494   01 Jun 2027 15:24:44.219             7.725              Murmansk2           241.406
        39   01 Jun 2027 15:24:53.364   01 Jun 2027 15:25:37.155            43.791              Murmansk2          1368.469
        40   01 Jun 2027 15:26:41.397   01 Jun 2027 15:27:04.407            23.010              Murmansk1           719.063
        41   01 Jun 2027 15:28:43.022   01 Jun 2027 15:29:10.052            27.030              Murmansk2           844.688
        42   01 Jun 2027 15:32:48.114   01 Jun 2027 15:33:01.871            13.757                Anadyr2           429.906
        43   01 Jun 2027 15:33:22.042   01 Jun 2027 15:33:42.038            19.996                Anadyr2           624.875
        44   01 Jun 2027 15:33:51.943   01 Jun 2027 15:34:24.867            32.924                Anadyr1          1028.875
        45   01 Jun 2027 15:37:01.591   01 Jun 2027 15:37:28.664            27.073                Anadyr1           846.031
        46   01 Jun 2027 15:37:59.412   01 Jun 2027 15:38:01.672             2.260                Anadyr2            70.625
        47   01 Jun 2027 15:38:22.498   01 Jun 2027 15:38:33.010            10.512                Anadyr2           328.500
        48   01 Jun 2027 15:41:02.124   01 Jun 2027 15:42:20.674            78.550                Anadyr1          2454.688
        49   01 Jun 2027 16:38:29.167   01 Jun 2027 16:38:29.524             0.357               CapeTown            11.156
        50   01 Jun 2027 17:00:37.079   01 Jun 2027 17:04:15.238           218.159              Murmansk1          6817.469
        51   01 Jun 2027 17:11:20.251   01 Jun 2027 17:12:00.647            40.396                Anadyr2          1262.375
        52   01 Jun 2027 17:13:06.787   01 Jun 2027 17:13:31.943            25.156               Magadan1           786.125
        53   01 Jun 2027 17:14:27.833   01 Jun 2027 17:15:07.139            39.306               Magadan2          1228.313
        54   01 Jun 2027 17:16:32.781   01 Jun 2027 17:16:40.998             8.217               Magadan2           256.781
        55   01 Jun 2027 17:18:24.846   01 Jun 2027 17:18:56.283            31.437               Magadan1           982.406
        56   01 Jun 2027 17:20:31.223   01 Jun 2027 17:21:20.155            48.932               Magadan2          1529.125
        57   01 Jun 2027 18:43:56.652   01 Jun 2027 18:47:25.958           209.306                Anadyr1          6540.812
        58   01 Jun 2027 18:47:49.767   01 Jun 2027 18:48:48.328            58.561               Magadan2          1830.031
        59   01 Jun 2027 18:50:33.383   01 Jun 2027 18:50:38.592             5.209               Magadan1           162.781
        60   01 Jun 2027 18:50:59.989   01 Jun 2027 18:51:08.641             8.652               Magadan1           270.375
        61   01 Jun 2027 18:51:46.416   01 Jun 2027 18:52:26.196            39.780               Magadan2          1243.125
        62   01 Jun 2027 18:53:30.634   01 Jun 2027 18:53:52.361            21.727               Magadan2           678.969
        63   01 Jun 2027 18:56:04.900   01 Jun 2027 18:56:34.947            30.047               Magadan2           938.969
        64   01 Jun 2027 18:57:18.768   01 Jun 2027 18:57:24.820             6.052               Magadan2           189.125
        65   01 Jun 2027 18:57:47.588   01 Jun 2027 18:58:03.869            16.281               Magadan2           508.781
        66   01 Jun 2027 18:58:33.417   01 Jun 2027 18:59:07.689            34.272               Magadan1          1071.000
        67   01 Jun 2027 19:38:50.810   01 Jun 2027 19:39:35.163            44.353            RioGallegos          1386.031
        68   01 Jun 2027 19:41:40.112   01 Jun 2027 19:42:24.090            43.978            RioGallegos          1374.313
        69   01 Jun 2027 19:43:34.744   01 Jun 2027 19:44:22.881            48.137            RioGallegos          1504.281
        70   01 Jun 2027 19:47:55.679   01 Jun 2027 19:48:06.776            11.097            RioGallegos           346.781
        71   01 Jun 2027 20:19:38.753   01 Jun 2027 20:20:01.869            23.116                Anadyr1           722.375
        72   01 Jun 2027 20:21:49.387   01 Jun 2027 20:23:36.620           107.233                Norilsk          3351.031
        73   01 Jun 2027 20:25:02.984   01 Jun 2027 20:25:15.305            12.321               Magadan2           385.031
        74   01 Jun 2027 20:25:51.659   01 Jun 2027 20:25:52.261             0.602               Magadan1            18.813
        75   01 Jun 2027 20:26:13.005   01 Jun 2027 20:28:00.018           107.013                Irkutsk          3344.156
        76   01 Jun 2027 20:28:18.127   01 Jun 2027 20:29:34.819            76.692                Irkutsk          2396.625
        77   01 Jun 2027 20:31:44.561   01 Jun 2027 20:32:14.643            30.082                Irkutsk           940.063
        78   01 Jun 2027 20:34:41.444   01 Jun 2027 20:35:35.856            54.412                Irkutsk          1700.375
        79   01 Jun 2027 20:42:48.311   01 Jun 2027 20:43:31.572            43.261                Sumatra          1351.906
        80   01 Jun 2027 20:44:31.851   01 Jun 2027 20:46:17.174           105.323                Sumatra          3291.344
        81   01 Jun 2027 21:58:19.944   01 Jun 2027 21:58:54.136            34.192                Norilsk          1068.500
        82   01 Jun 2027 21:59:58.854   01 Jun 2027 22:00:08.086             9.232                Norilsk           288.500
        83   01 Jun 2027 22:00:19.164   01 Jun 2027 22:00:38.014            18.850               Magadan2           589.062
        84   01 Jun 2027 22:00:51.558   01 Jun 2027 22:01:23.250            31.692                Norilsk           990.375
        85   01 Jun 2027 22:02:39.594   01 Jun 2027 22:03:12.833            33.239                Novosib          1038.719
        86   01 Jun 2027 22:04:52.450   01 Jun 2027 22:05:43.866            51.416                Novosib          1606.750
        87   01 Jun 2027 22:08:22.988   01 Jun 2027 22:08:23.144             0.156                Novosib             4.875
        88   01 Jun 2027 22:09:01.058   01 Jun 2027 22:11:09.768           128.710                Novosib          4022.188
        89   01 Jun 2027 22:15:33.684   01 Jun 2027 22:16:58.236            84.552                  Delhi          2642.250
        90   01 Jun 2027 23:28:58.039   01 Jun 2027 23:29:58.922            60.883                Anadyr1          1902.594
        91   01 Jun 2027 23:33:16.463   01 Jun 2027 23:33:28.762            12.299                Anadyr2           384.344
        92   01 Jun 2027 23:33:42.740   01 Jun 2027 23:34:16.450            33.710                Norilsk          1053.437
        93   01 Jun 2027 23:34:21.612   01 Jun 2027 23:35:29.375            67.763                Norilsk          2117.594
        94   01 Jun 2027 23:36:00.000   01 Jun 2027 23:36:40.170            40.171               Magadan2          1255.344
        95   01 Jun 2027 23:37:13.854   01 Jun 2027 23:39:18.223           124.369              Murmansk2          3886.531
        96   01 Jun 2027 23:42:02.105   01 Jun 2027 23:42:10.472             8.367              Murmansk2           261.469
        97   01 Jun 2027 23:42:33.213   01 Jun 2027 23:43:09.292            36.079                 Moscow          1127.469
        98   01 Jun 2027 23:44:00.090   01 Jun 2027 23:45:09.672            69.582                 Moscow          2174.437
        99   01 Jun 2027 23:57:05.159   01 Jun 2027 23:57:16.907            11.748                  Delhi           367.125
       100   02 Jun 2027 01:01:41.017   02 Jun 2027 01:02:41.415            60.398                Anadyr1          1887.438
       101   02 Jun 2027 01:03:13.989   02 Jun 2027 01:03:54.568            40.579                Anadyr2          1268.094
       102   02 Jun 2027 01:04:23.452   02 Jun 2027 01:04:53.011            29.559                Anadyr1           923.719
       103   02 Jun 2027 01:06:44.263   02 Jun 2027 01:07:08.795            24.532                Anadyr1           766.625
       104   02 Jun 2027 01:07:12.848   02 Jun 2027 01:08:35.792            82.944               Magadan1          2592.000
       105   02 Jun 2027 01:08:53.984   02 Jun 2027 01:09:03.268             9.284               Magadan1           290.125
       106   02 Jun 2027 01:09:15.173   02 Jun 2027 01:09:34.958            19.785               Magadan1           618.281
       107   02 Jun 2027 01:09:45.727   02 Jun 2027 01:09:46.004             0.277                Norilsk             8.656
       108   02 Jun 2027 01:10:20.650   02 Jun 2027 01:10:28.077             7.427               Magadan2           232.094
       109   02 Jun 2027 01:10:36.338   02 Jun 2027 01:10:59.740            23.402               Magadan2           731.312
       110   02 Jun 2027 01:11:39.101   02 Jun 2027 01:11:46.762             7.661                Norilsk           239.406
       111   02 Jun 2027 01:11:50.982   02 Jun 2027 01:13:38.577           107.595              Murmansk2          3362.344
       112   02 Jun 2027 01:15:11.384   02 Jun 2027 01:15:20.871             9.487                Novosib           296.469
       113   02 Jun 2027 01:16:56.398   02 Jun 2027 01:17:32.816            36.418              Murmansk2          1138.062
       114   02 Jun 2027 01:20:35.845   02 Jun 2027 01:21:05.797            29.952                Novosib           936.000
       115   02 Jun 2027 01:22:12.364   02 Jun 2027 01:22:40.091            27.727              Murmansk2           866.469
       116   02 Jun 2027 01:26:41.834   02 Jun 2027 01:26:55.182            13.348                 Moscow           417.125
       117   02 Jun 2027 01:40:40.146   02 Jun 2027 01:41:33.135            52.989               CapeTown          1655.906
       118   02 Jun 2027 01:47:21.005   02 Jun 2027 01:48:16.846            55.841               CapeTown          1745.031
       119   02 Jun 2027 02:35:55.370   02 Jun 2027 02:37:31.074            95.704                Anadyr2          2990.750
       120   02 Jun 2027 02:38:54.262   02 Jun 2027 02:39:57.986            63.724               Magadan1          1991.375
       121   02 Jun 2027 02:39:57.986   02 Jun 2027 02:40:17.305            19.319               Magadan2           603.719
       122   02 Jun 2027 02:40:30.535   02 Jun 2027 02:40:49.295            18.760               Magadan1           586.250
       123   02 Jun 2027 02:45:01.384   02 Jun 2027 02:45:11.594            10.210                Norilsk           319.062
       124   02 Jun 2027 02:45:16.728   02 Jun 2027 02:45:45.374            28.646                Norilsk           895.187
       125   02 Jun 2027 02:47:48.639   02 Jun 2027 02:47:56.016             7.377              Murmansk1           230.531
       126   02 Jun 2027 02:47:56.493   02 Jun 2027 02:48:51.780            55.287              Murmansk2          1727.719
       127   02 Jun 2027 02:49:23.143   02 Jun 2027 02:49:56.141            32.998              Murmansk2          1031.187
       128   02 Jun 2027 02:50:57.886   02 Jun 2027 02:51:04.755             6.869                Novosib           214.656
       129   02 Jun 2027 02:51:50.970   02 Jun 2027 02:51:53.769             2.799                Novosib            87.469
       130   02 Jun 2027 02:53:04.426   02 Jun 2027 02:53:33.289            28.863                Novosib           901.969
       131   02 Jun 2027 02:59:56.614   02 Jun 2027 03:00:00.625             4.011                 Moscow           125.344
       132   02 Jun 2027 03:15:11.890   02 Jun 2027 03:15:50.059            38.169               CapeTown          1192.781
       133   02 Jun 2027 04:18:05.064   02 Jun 2027 04:18:48.177            43.113               Magadan1          1347.281
       134   02 Jun 2027 04:18:51.169   02 Jun 2027 04:19:19.080            27.911                Anadyr2           872.219
       135   02 Jun 2027 04:19:24.581   02 Jun 2027 04:21:26.751           122.170               Magadan1          3817.812
       136   02 Jun 2027 05:56:53.644   02 Jun 2027 05:58:23.045            89.401                Anadyr1          2793.781
       137   02 Jun 2027 05:58:30.408   02 Jun 2027 05:58:34.128             3.720                Irkutsk           116.250
       138   02 Jun 2027 05:58:51.984   02 Jun 2027 06:00:04.295            72.311               Magadan1          2259.719
       139   02 Jun 2027 07:32:47.623   02 Jun 2027 07:33:07.804            20.181                Irkutsk           630.656
       140   02 Jun 2027 07:33:27.347   02 Jun 2027 07:35:26.973           119.626                Irkutsk          3738.313
       141   02 Jun 2027 07:35:33.330   02 Jun 2027 07:35:51.001            17.671              Murmansk2           552.219
       142   02 Jun 2027 07:36:00.588   02 Jun 2027 07:36:53.718            53.130                Novosib          1660.312
       143   02 Jun 2027 08:46:03.510   02 Jun 2027 08:48:06.182           122.672                Sumatra          3833.500
       144   02 Jun 2027 09:08:37.776   02 Jun 2027 09:08:45.434             7.658                Irkutsk           239.313
       145   02 Jun 2027 09:09:21.194   02 Jun 2027 09:10:30.240            69.046                Novosib          2157.688
       146   02 Jun 2027 09:10:31.376   02 Jun 2027 09:11:50.689            79.313                Irkutsk          2478.531
       147   02 Jun 2027 09:48:16.415   02 Jun 2027 09:48:37.816            21.401            RioGallegos           668.781
       148   02 Jun 2027 09:51:32.188   02 Jun 2027 09:51:57.764            25.576            RioGallegos           799.250
       149   02 Jun 2027 10:22:28.230   02 Jun 2027 10:23:14.730            46.500                Sumatra          1453.125
       150   02 Jun 2027 10:25:08.566   02 Jun 2027 10:27:26.625           138.059                Sumatra          4314.344
       151   02 Jun 2027 10:45:27.209   02 Jun 2027 10:46:06.407            39.198                Novosib          1224.937
       152   02 Jun 2027 10:46:27.286   02 Jun 2027 10:46:39.198            11.912                Novosib           372.250
       153   02 Jun 2027 10:46:42.814   02 Jun 2027 10:46:57.684            14.870              Murmansk2           464.687
       154   02 Jun 2027 10:47:01.254   02 Jun 2027 10:47:12.554            11.300                Novosib           353.125
       155   02 Jun 2027 10:47:13.908   02 Jun 2027 10:47:35.771            21.863              Murmansk2           683.219
       156   02 Jun 2027 12:07:43.466   02 Jun 2027 12:09:39.773           116.307                  Delhi          3634.594
       157   02 Jun 2027 12:10:31.187   02 Jun 2027 12:11:22.447            51.260                  Delhi          1601.875
       158   02 Jun 2027 12:16:15.398   02 Jun 2027 12:16:29.580            14.182                Novosib           443.188
       159   02 Jun 2027 12:16:49.346   02 Jun 2027 12:17:13.537            24.191                Novosib           755.969
       160   02 Jun 2027 12:18:24.643   02 Jun 2027 12:19:32.988            68.345                Novosib          2135.781
       161   02 Jun 2027 12:26:46.528   02 Jun 2027 12:26:50.819             4.291                Norilsk           134.094
       162   02 Jun 2027 12:27:07.922   02 Jun 2027 12:27:39.130            31.208                Norilsk           975.250
       163   02 Jun 2027 13:31:40.447   02 Jun 2027 13:32:59.331            78.884               CapeTown          2465.125
       164   02 Jun 2027 13:34:33.504   02 Jun 2027 13:34:44.186            10.682               CapeTown           333.812
       165   02 Jun 2027 13:35:14.659   02 Jun 2027 13:35:23.898             9.239               CapeTown           288.719
       166   02 Jun 2027 13:50:23.469   02 Jun 2027 13:51:50.448            86.979                 Moscow          2718.094
       167   02 Jun 2027 13:53:52.448   02 Jun 2027 13:55:56.462           124.014              Murmansk2          3875.437
       168   02 Jun 2027 13:56:49.162   02 Jun 2027 13:56:57.444             8.282              Murmansk2           258.812
       169   02 Jun 2027 13:57:33.054   02 Jun 2027 13:58:13.522            40.468              Murmansk2          1264.625
       170   02 Jun 2027 14:09:13.810   02 Jun 2027 14:12:40.286           206.476                Anadyr1          6452.375
       171   02 Jun 2027 15:11:27.756   02 Jun 2027 15:11:55.081            27.325               CapeTown           853.906
       172   02 Jun 2027 15:31:26.335   02 Jun 2027 15:31:55.189            28.854                 Moscow           901.688
       173   02 Jun 2027 15:32:09.650   02 Jun 2027 15:33:19.016            69.366              Murmansk2          2167.687
       174   02 Jun 2027 15:36:36.283   02 Jun 2027 15:36:54.169            17.886              Murmansk2           558.937
       175   02 Jun 2027 15:38:43.293   02 Jun 2027 15:39:41.965            58.672              Murmansk2          1833.500
       176   02 Jun 2027 15:44:12.774   02 Jun 2027 15:44:48.087            35.313                Anadyr2          1103.531
       177   02 Jun 2027 15:44:48.087   02 Jun 2027 15:45:22.378            34.291                Anadyr1          1071.594
       178   02 Jun 2027 15:45:39.633   02 Jun 2027 15:46:01.421            21.788                Anadyr2           680.875
       179   02 Jun 2027 15:46:05.034   02 Jun 2027 15:46:46.523            41.489                Anadyr1          1296.531
       180   02 Jun 2027 16:44:17.579   02 Jun 2027 16:45:36.969            79.390               CapeTown          2480.938
       181   02 Jun 2027 17:13:46.033   02 Jun 2027 17:16:14.387           148.354              Murmansk1          4636.062
       182   02 Jun 2027 17:20:02.630   02 Jun 2027 17:21:38.129            95.499                Anadyr2          2984.344
       183   02 Jun 2027 17:22:38.066   02 Jun 2027 17:23:48.015            69.949               Magadan1          2185.906
       184   02 Jun 2027 17:23:56.376   02 Jun 2027 17:24:07.505            11.129               Magadan1           347.781
       185   02 Jun 2027 17:24:45.841   02 Jun 2027 17:25:12.699            26.858               Magadan2           839.313
       186   02 Jun 2027 17:28:17.109   02 Jun 2027 17:28:39.736            22.627               Magadan2           707.094
       187   02 Jun 2027 17:33:43.936   02 Jun 2027 17:33:51.532             7.596               Magadan1           237.375
       188   02 Jun 2027 18:55:57.501   02 Jun 2027 18:59:16.961           199.460                Anadyr2          6233.125
       189   02 Jun 2027 18:59:18.173   02 Jun 2027 19:02:07.204           169.031                Norilsk          5282.219
       190   02 Jun 2027 19:09:24.555   02 Jun 2027 19:09:38.624            14.069               Magadan1           439.656
       191   02 Jun 2027 19:50:34.506   02 Jun 2027 19:54:03.984           209.478            RioGallegos          6546.187
       192   02 Jun 2027 20:33:33.403   02 Jun 2027 20:33:38.119             4.716                Anadyr1           147.375
       193   02 Jun 2027 20:33:49.196   02 Jun 2027 20:35:52.085           122.889                Norilsk          3840.281
       194   02 Jun 2027 20:37:21.333   02 Jun 2027 20:37:26.437             5.104               Magadan2           159.500
       195   02 Jun 2027 20:37:43.107   02 Jun 2027 20:38:17.777            34.670               Magadan2          1083.438
       196   02 Jun 2027 20:38:26.169   02 Jun 2027 20:38:52.317            26.148                Norilsk           817.125
       197   02 Jun 2027 20:39:20.881   02 Jun 2027 20:39:29.782             8.901                Irkutsk           278.156
       198   02 Jun 2027 20:40:19.736   02 Jun 2027 20:41:02.329            42.593                Irkutsk          1331.031
       199   02 Jun 2027 20:41:35.721   02 Jun 2027 20:44:05.804           150.083                Novosib          4690.094
       200   02 Jun 2027 20:52:24.358   02 Jun 2027 20:52:53.186            28.828                Sumatra           900.875
       201   02 Jun 2027 20:54:16.303   02 Jun 2027 20:55:19.112            62.809                Sumatra          1962.781
       202   02 Jun 2027 22:09:44.767   02 Jun 2027 22:10:13.735            28.968                Norilsk           905.250
       203   02 Jun 2027 22:10:22.144   02 Jun 2027 22:11:48.200            86.056               Magadan2          2689.250
       204   02 Jun 2027 22:13:12.417   02 Jun 2027 22:13:24.867            12.450                Norilsk           389.062
       205   02 Jun 2027 22:13:36.185   02 Jun 2027 22:14:39.288            63.103                Irkutsk          1971.969
       206   02 Jun 2027 22:15:19.469   02 Jun 2027 22:17:26.800           127.331                Novosib          3979.094
       207   02 Jun 2027 22:21:46.222   02 Jun 2027 22:22:50.492            64.270                  Delhi          2008.438
       208   02 Jun 2027 22:27:51.559   02 Jun 2027 22:28:06.755            15.196                  Delhi           474.875
       209   02 Jun 2027 22:30:54.342   02 Jun 2027 22:31:05.843            11.501                  Delhi           359.406
       210   02 Jun 2027 23:40:33.043   02 Jun 2027 23:40:58.917            25.874                Anadyr1           808.563
       211   02 Jun 2027 23:41:58.008   02 Jun 2027 23:41:58.827             0.819                Anadyr1            25.594
       212   02 Jun 2027 23:42:13.499   02 Jun 2027 23:42:51.253            37.754                Anadyr2          1179.813
       213   02 Jun 2027 23:45:44.270   02 Jun 2027 23:45:47.370             3.100                Norilsk            96.875
       214   02 Jun 2027 23:45:57.890   02 Jun 2027 23:47:53.941           116.051               Magadan1          3626.594
       215   02 Jun 2027 23:47:53.941   02 Jun 2027 23:49:08.575            74.634               Magadan2          2332.312
       216   02 Jun 2027 23:49:13.201   02 Jun 2027 23:50:51.501            98.300              Murmansk2          3071.875
       217   02 Jun 2027 23:51:51.987   02 Jun 2027 23:52:36.478            44.491              Murmansk2          1390.344
       218   02 Jun 2027 23:52:51.953   02 Jun 2027 23:54:02.461            70.508              Murmansk2          2203.375
       219   02 Jun 2027 23:55:09.913   02 Jun 2027 23:56:15.616            65.703                 Moscow          2053.219
       220   03 Jun 2027 01:13:25.328   03 Jun 2027 01:13:31.170             5.842                Anadyr1           182.563
       221   03 Jun 2027 01:15:13.305   03 Jun 2027 01:16:08.022            54.717                Anadyr2          1709.906
       222   03 Jun 2027 01:16:54.193   03 Jun 2027 01:16:59.739             5.546                Anadyr1           173.313
       223   03 Jun 2027 01:18:41.197   03 Jun 2027 01:20:21.766           100.569               Magadan2          3142.781
       224   03 Jun 2027 01:20:21.766   03 Jun 2027 01:20:28.276             6.510               Magadan1           203.438
       225   03 Jun 2027 01:20:44.615   03 Jun 2027 01:21:05.583            20.968               Magadan1           655.250
       226   03 Jun 2027 01:23:52.216   03 Jun 2027 01:24:30.705            38.489              Murmansk2          1202.781
       227   03 Jun 2027 01:24:35.084   03 Jun 2027 01:25:45.156            70.072              Murmansk1          2189.750
       228   03 Jun 2027 01:25:55.079   03 Jun 2027 01:26:29.049            33.970                Novosib          1061.562
       229   03 Jun 2027 01:27:16.630   03 Jun 2027 01:28:46.044            89.414                 Moscow          2794.188
       230   03 Jun 2027 01:38:29.113   03 Jun 2027 01:38:47.278            18.165                 Moscow           567.656
       231   03 Jun 2027 01:51:46.619   03 Jun 2027 01:52:41.162            54.543               CapeTown          1704.469
       232   03 Jun 2027 01:59:53.292   03 Jun 2027 02:00:04.017            10.725               CapeTown           335.156
       233   03 Jun 2027 02:47:50.657   03 Jun 2027 02:50:14.650           143.993                Anadyr1          4499.781
       234   03 Jun 2027 02:50:28.324   03 Jun 2027 02:50:37.560             9.236               Magadan2           288.625
       235   03 Jun 2027 02:50:50.313   03 Jun 2027 02:51:30.814            40.501               Magadan1          1265.656
       236   03 Jun 2027 02:53:22.016   03 Jun 2027 02:53:22.296             0.280               Magadan1             8.750
       237   03 Jun 2027 02:54:07.426   03 Jun 2027 02:54:25.723            18.297               Magadan2           571.781
       238   03 Jun 2027 02:56:07.968   03 Jun 2027 02:56:59.135            51.167               Magadan1          1598.969
       239   03 Jun 2027 02:59:50.322   03 Jun 2027 03:00:14.780            24.458              Murmansk2           764.313
       240   03 Jun 2027 03:07:24.013   03 Jun 2027 03:07:34.279            10.266                Norilsk           320.812
       241   03 Jun 2027 03:07:50.633   03 Jun 2027 03:08:08.461            17.828                 Moscow           557.125
       242   03 Jun 2027 03:08:39.447   03 Jun 2027 03:11:05.185           145.738              Murmansk2          4554.313
       243   03 Jun 2027 03:27:30.641   03 Jun 2027 03:28:46.700            76.059               CapeTown          2376.844
       244   03 Jun 2027 04:23:50.208   03 Jun 2027 04:24:53.647            63.439               Magadan1          1982.469
       245   03 Jun 2027 04:25:02.708   03 Jun 2027 04:25:30.138            27.430                Anadyr1           857.187
       246   03 Jun 2027 04:30:39.992   03 Jun 2027 04:31:26.067            46.075               Magadan2          1439.844
       247   03 Jun 2027 04:31:59.584   03 Jun 2027 04:34:08.807           129.223               Magadan1          4038.219
       248   03 Jun 2027 04:34:08.807   03 Jun 2027 04:34:26.153            17.346               Magadan2           542.063
       249   03 Jun 2027 04:34:46.097   03 Jun 2027 04:35:21.218            35.121                Norilsk          1097.531
       250   03 Jun 2027 06:08:08.162   03 Jun 2027 06:08:27.657            19.495               Magadan2           609.219
       251   03 Jun 2027 06:08:27.657   03 Jun 2027 06:10:14.798           107.141               Magadan1          3348.156
       252   03 Jun 2027 07:41:09.423   03 Jun 2027 07:41:14.419             4.996               Magadan1           156.125
       253   03 Jun 2027 07:42:25.055   03 Jun 2027 07:42:35.674            10.619               Magadan1           331.844
       254   03 Jun 2027 07:43:44.864   03 Jun 2027 07:43:50.325             5.461               Magadan1           170.656
       255   03 Jun 2027 07:44:32.527   03 Jun 2027 07:44:59.495            26.968               Magadan1           842.750
       256   03 Jun 2027 07:45:09.698   03 Jun 2027 07:45:13.166             3.468                Irkutsk           108.375
       257   03 Jun 2027 07:45:46.774   03 Jun 2027 07:46:01.431            14.657                Irkutsk           458.031
       258   03 Jun 2027 07:46:04.976   03 Jun 2027 07:46:29.879            24.903                Novosib           778.219
       259   03 Jun 2027 07:46:30.581   03 Jun 2027 07:46:42.711            12.130               Magadan2           379.062
       260   03 Jun 2027 07:46:44.127   03 Jun 2027 07:47:08.136            24.009              Murmansk2           750.281
       261   03 Jun 2027 07:47:09.326   03 Jun 2027 07:47:31.596            22.270              Murmansk1           695.937
       262   03 Jun 2027 07:47:37.233   03 Jun 2027 07:47:51.986            14.753                Irkutsk           461.031
       263   03 Jun 2027 07:47:52.861   03 Jun 2027 07:48:32.032            39.171              Murmansk1          1224.094
       264   03 Jun 2027 08:22:35.284   03 Jun 2027 08:23:16.689            41.405            RioGallegos          1293.906
       265   03 Jun 2027 08:30:50.954   03 Jun 2027 08:31:00.268             9.314            RioGallegos           291.062
       266   03 Jun 2027 08:57:47.146   03 Jun 2027 08:58:50.761            63.615                Sumatra          1987.969
       267   03 Jun 2027 09:20:50.790   03 Jun 2027 09:20:56.887             6.097                Irkutsk           190.531
       268   03 Jun 2027 09:21:07.598   03 Jun 2027 09:21:36.024            28.426                Norilsk           888.313
       269   03 Jun 2027 09:21:41.963   03 Jun 2027 09:21:54.640            12.677                Irkutsk           396.156
       270   03 Jun 2027 09:22:04.546   03 Jun 2027 09:22:28.658            24.112                Irkutsk           753.500
       271   03 Jun 2027 09:22:40.431   03 Jun 2027 09:23:44.495            64.064                Irkutsk          2002.000
       272   03 Jun 2027 10:05:10.266   03 Jun 2027 10:05:27.489            17.223            RioGallegos           538.219
       273   03 Jun 2027 10:35:09.540   03 Jun 2027 10:35:20.346            10.806                Sumatra           337.687
       274   03 Jun 2027 10:38:19.724   03 Jun 2027 10:39:48.629            88.905                Sumatra          2778.281
       275   03 Jun 2027 10:55:41.839   03 Jun 2027 10:55:55.847            14.008                Novosib           437.750
       276   03 Jun 2027 10:56:12.233   03 Jun 2027 10:57:27.274            75.041                Novosib          2345.031
       277   03 Jun 2027 10:57:52.890   03 Jun 2027 10:57:55.682             2.792                Norilsk            87.250
       278   03 Jun 2027 10:58:42.897   03 Jun 2027 10:58:57.355            14.458                Novosib           451.813
       279   03 Jun 2027 10:59:04.706   03 Jun 2027 10:59:10.791             6.085                Novosib           190.156
       280   03 Jun 2027 10:59:16.747   03 Jun 2027 10:59:31.002            14.255                Norilsk           445.469
       281   03 Jun 2027 12:20:47.139   03 Jun 2027 12:24:42.027           234.888                  Delhi          7340.250
       282   03 Jun 2027 12:31:31.968   03 Jun 2027 12:32:27.637            55.669                Novosib          1739.656
       283   03 Jun 2027 12:38:33.900   03 Jun 2027 12:38:52.636            18.736                Norilsk           585.500
       284   03 Jun 2027 13:42:14.497   03 Jun 2027 13:44:33.584           139.087               CapeTown          4346.469
       285   03 Jun 2027 13:46:39.241   03 Jun 2027 13:47:52.561            73.320               CapeTown          2291.250
       286   03 Jun 2027 14:06:04.345   03 Jun 2027 14:08:50.889           166.544              Murmansk1          5204.500
       287   03 Jun 2027 14:13:13.900   03 Jun 2027 14:13:57.209            43.309              Murmansk2          1353.406
       288   03 Jun 2027 14:20:59.622   03 Jun 2027 14:22:56.847           117.225                Anadyr1          3663.281
       289   03 Jun 2027 14:23:20.853   03 Jun 2027 14:24:13.754            52.901                Anadyr2          1653.156
       290   03 Jun 2027 14:26:17.041   03 Jun 2027 14:27:10.881            53.840                Anadyr1          1682.500
       291   03 Jun 2027 15:43:56.844   03 Jun 2027 15:43:57.741             0.897                 Moscow            28.031
       292   03 Jun 2027 15:44:39.282   03 Jun 2027 15:45:01.983            22.701              Murmansk1           709.406
       293   03 Jun 2027 15:45:43.862   03 Jun 2027 15:46:05.771            21.909              Murmansk1           684.656
       294   03 Jun 2027 15:46:38.049   03 Jun 2027 15:46:58.673            20.624              Murmansk2           644.500
       295   03 Jun 2027 15:52:17.379   03 Jun 2027 15:52:26.379             9.000              Murmansk2           281.250
       296   03 Jun 2027 15:52:45.977   03 Jun 2027 15:53:13.456            27.479              Murmansk2           858.719
       297   03 Jun 2027 15:56:12.281   03 Jun 2027 15:57:48.260            95.979                Anadyr1          2999.344
       298   03 Jun 2027 15:57:48.260   03 Jun 2027 15:57:57.529             9.269                Anadyr2           289.656
       299   03 Jun 2027 15:58:25.185   03 Jun 2027 15:58:47.837            22.652                Anadyr1           707.875
       300   03 Jun 2027 16:00:55.581   03 Jun 2027 16:04:36.342           220.761               Magadan2          6898.781
       301   03 Jun 2027 17:32:04.050   03 Jun 2027 17:34:41.989           157.939                Anadyr2          4935.594
       302   03 Jun 2027 17:34:54.386   03 Jun 2027 17:35:52.721            58.335               Magadan2          1822.969
       303   03 Jun 2027 17:35:52.721   03 Jun 2027 17:36:09.891            17.170               Magadan1           536.562
       304   03 Jun 2027 17:36:21.909   03 Jun 2027 17:36:23.133             1.224               Magadan1            38.250
       305   03 Jun 2027 17:39:23.744   03 Jun 2027 17:40:19.367            55.623               Magadan1          1738.219
       306   03 Jun 2027 19:07:58.119   03 Jun 2027 19:11:53.682           235.563                Anadyr2          7361.344
       307   03 Jun 2027 19:11:58.822   03 Jun 2027 19:12:09.278            10.456               Magadan2           326.750
       308   03 Jun 2027 19:12:16.006   03 Jun 2027 19:13:35.361            79.355               Magadan1          2479.844
       309   03 Jun 2027 19:13:54.811   03 Jun 2027 19:14:07.686            12.875                Norilsk           402.344
       310   03 Jun 2027 19:18:13.489   03 Jun 2027 19:18:23.871            10.382               Magadan1           324.438
       311   03 Jun 2027 20:02:22.315   03 Jun 2027 20:05:51.719           209.404            RioGallegos          6543.875
       312   03 Jun 2027 20:13:01.638   03 Jun 2027 20:13:16.899            15.261            RioGallegos           476.906
       313   03 Jun 2027 20:45:49.555   03 Jun 2027 20:46:23.484            33.929                Norilsk          1060.281
       314   03 Jun 2027 20:46:31.713   03 Jun 2027 20:47:25.471            53.758               Magadan1          1679.938
       315   03 Jun 2027 20:47:37.223   03 Jun 2027 20:47:48.028            10.805                Anadyr1           337.656
       316   03 Jun 2027 20:48:04.600   03 Jun 2027 20:48:49.576            44.976               Magadan1          1405.500
       317   03 Jun 2027 20:49:48.094   03 Jun 2027 20:50:22.027            33.933                Norilsk          1060.406
       318   03 Jun 2027 20:51:00.288   03 Jun 2027 20:51:32.647            32.359                Norilsk          1011.219
       319   03 Jun 2027 20:51:34.582   03 Jun 2027 20:52:22.141            47.559                Irkutsk          1486.219
       320   03 Jun 2027 20:52:30.632   03 Jun 2027 20:53:48.951            78.319                Novosib          2447.469
       321   03 Jun 2027 20:54:44.983   03 Jun 2027 20:54:54.736             9.753                Novosib           304.781
       322   03 Jun 2027 20:55:42.459   03 Jun 2027 20:55:54.303            11.844                Irkutsk           370.125
       323   03 Jun 2027 20:56:01.109   03 Jun 2027 20:56:12.177            11.068                Novosib           345.875
       324   03 Jun 2027 20:56:40.232   03 Jun 2027 20:57:39.658            59.426                Novosib          1857.063
       325   03 Jun 2027 21:03:41.402   03 Jun 2027 21:04:43.536            62.134                Sumatra          1941.687
       326   03 Jun 2027 21:07:26.525   03 Jun 2027 21:07:29.737             3.212                Sumatra           100.375
       327   03 Jun 2027 21:11:43.359   03 Jun 2027 21:12:11.585            28.226                Sumatra           882.062
       328   03 Jun 2027 22:21:46.752   03 Jun 2027 22:21:56.508             9.756                Norilsk           304.875
       329   03 Jun 2027 22:22:24.089   03 Jun 2027 22:22:26.104             2.015               Magadan2            62.969
       330   03 Jun 2027 22:23:16.567   03 Jun 2027 22:23:52.980            36.413               Magadan1          1137.906
       331   03 Jun 2027 22:24:56.148   03 Jun 2027 22:25:40.166            44.018               Magadan1          1375.563
       332   03 Jun 2027 22:25:45.286   03 Jun 2027 22:27:23.077            97.791                Novosib          3055.969
       333   03 Jun 2027 22:31:24.066   03 Jun 2027 22:32:05.836            41.770                Novosib          1305.313
       334   03 Jun 2027 22:33:28.184   03 Jun 2027 22:35:21.657           113.473                  Delhi          3546.031
       335   03 Jun 2027 22:36:59.202   03 Jun 2027 22:37:51.103            51.901                  Delhi          1621.906
       336   03 Jun 2027 23:52:29.743   03 Jun 2027 23:52:59.960            30.217                Anadyr1           944.281
       337   03 Jun 2027 23:53:57.540   03 Jun 2027 23:54:11.795            14.255                Anadyr2           445.469
       338   03 Jun 2027 23:54:15.098   03 Jun 2027 23:54:28.871            13.773                Anadyr2           430.406
       339   03 Jun 2027 23:57:45.635   03 Jun 2027 23:59:35.346           109.711                Norilsk          3428.469
       340   04 Jun 2027 00:00:07.007   04 Jun 2027 00:02:28.484           141.477              Murmansk2          4421.156
       341   04 Jun 2027 00:02:37.608   04 Jun 2027 00:03:37.872            60.264              Murmansk1          1883.250
       342   04 Jun 2027 00:04:48.649   04 Jun 2027 00:05:59.159            70.510                 Moscow          2203.437
       343   04 Jun 2027 00:07:53.757   04 Jun 2027 00:08:15.224            21.467                 Moscow           670.844
       344   04 Jun 2027 00:09:34.536   04 Jun 2027 00:10:09.771            35.235                 Moscow          1101.094
       345   04 Jun 2027 01:25:10.690   04 Jun 2027 01:25:41.501            30.811                Anadyr1           962.844
       346   04 Jun 2027 01:25:46.453   04 Jun 2027 01:26:32.573            46.120                Anadyr1          1441.250
       347   04 Jun 2027 01:27:32.233   04 Jun 2027 01:27:51.700            19.467                Anadyr2           608.344
       348   04 Jun 2027 01:28:10.435   04 Jun 2027 01:28:16.365             5.930                Anadyr1           185.313
       349   04 Jun 2027 01:28:21.829   04 Jun 2027 01:28:32.893            11.064                Anadyr2           345.750
       350   04 Jun 2027 01:30:09.128   04 Jun 2027 01:31:28.398            79.270               Magadan2          2477.187
       351   04 Jun 2027 01:32:02.369   04 Jun 2027 01:32:54.724            52.355               Magadan1          1636.094
       352   04 Jun 2027 01:33:40.325   04 Jun 2027 01:34:27.463            47.138               Magadan1          1473.062
       353   04 Jun 2027 01:35:53.650   04 Jun 2027 01:36:38.073            44.423              Murmansk2          1388.219
       354   04 Jun 2027 01:37:03.687   04 Jun 2027 01:37:45.424            41.737              Murmansk1          1304.281
       355   04 Jun 2027 01:37:51.216   04 Jun 2027 01:38:01.265            10.049              Murmansk2           314.031
       356   04 Jun 2027 01:38:15.827   04 Jun 2027 01:38:42.874            27.047              Murmansk2           845.219
       357   04 Jun 2027 01:43:07.669   04 Jun 2027 01:44:43.286            95.617                 Moscow          2988.031
       358   04 Jun 2027 02:07:27.805   04 Jun 2027 02:08:22.163            54.358               CapeTown          1698.688
       359   04 Jun 2027 02:59:47.671   04 Jun 2027 03:00:21.616            33.945                Anadyr1          1060.781
       360   04 Jun 2027 03:00:21.616   04 Jun 2027 03:01:10.239            48.623                Anadyr2          1519.469
       361   04 Jun 2027 03:01:33.525   04 Jun 2027 03:01:59.394            25.869                Anadyr2           808.406
       362   04 Jun 2027 03:03:00.490   04 Jun 2027 03:03:25.383            24.893               Magadan1           777.906
       363   04 Jun 2027 03:06:37.775   04 Jun 2027 03:06:58.849            21.074               Magadan1           658.562
       364   04 Jun 2027 03:07:02.140   04 Jun 2027 03:11:08.875           246.735                Anadyr2          7710.469
       365   04 Jun 2027 03:11:20.242   04 Jun 2027 03:11:28.693             8.451               Magadan1           264.094
       366   04 Jun 2027 04:42:54.195   04 Jun 2027 04:43:19.134            24.939                Anadyr2           779.344
       367   04 Jun 2027 04:43:23.381   04 Jun 2027 04:43:27.389             4.008               Magadan2           125.250
       368   04 Jun 2027 04:43:30.049   04 Jun 2027 04:43:56.471            26.422               Magadan2           825.687
       369   04 Jun 2027 04:44:19.975   04 Jun 2027 04:47:42.779           202.804               Magadan1          6337.625
       370   04 Jun 2027 06:17:10.956   04 Jun 2027 06:17:39.790            28.834                Anadyr2           901.062
       371   04 Jun 2027 06:17:52.610   04 Jun 2027 06:18:49.013            56.403                Anadyr1          1762.594
       372   04 Jun 2027 06:19:01.712   04 Jun 2027 06:19:17.851            16.139               Magadan2           504.344
       373   04 Jun 2027 06:19:38.246   04 Jun 2027 06:20:18.780            40.534               Magadan2          1266.687
       374   04 Jun 2027 06:20:26.659   04 Jun 2027 06:20:57.006            30.347                Anadyr2           948.344
       375   04 Jun 2027 06:20:57.006   04 Jun 2027 06:21:39.334            42.328                Anadyr1          1322.750
       376   04 Jun 2027 06:21:44.269   04 Jun 2027 06:22:01.874            17.605                Anadyr1           550.156
       377   04 Jun 2027 06:22:01.874   04 Jun 2027 06:22:31.308            29.434                Anadyr2           919.812
       378   04 Jun 2027 06:22:58.167   04 Jun 2027 06:23:25.893            27.726                Anadyr1           866.438
       379   04 Jun 2027 07:53:14.549   04 Jun 2027 07:54:25.252            70.703               Magadan2          2209.469
       380   04 Jun 2027 07:55:35.888   04 Jun 2027 07:55:43.709             7.821               Magadan1           244.406
       381   04 Jun 2027 07:56:34.392   04 Jun 2027 07:57:05.481            31.089               Magadan2           971.531
       382   04 Jun 2027 07:57:28.248   04 Jun 2027 07:58:25.279            57.031                Irkutsk          1782.219
       383   04 Jun 2027 07:58:33.441   04 Jun 2027 07:59:05.596            32.155               Magadan1          1004.844
       384   04 Jun 2027 07:59:51.227   04 Jun 2027 07:59:56.350             5.123                Irkutsk           160.094
       385   04 Jun 2027 08:00:03.354   04 Jun 2027 08:00:16.926            13.572                Novosib           424.125
       386   04 Jun 2027 08:00:26.453   04 Jun 2027 08:00:58.318            31.865              Murmansk1           995.781
       387   04 Jun 2027 08:34:40.039   04 Jun 2027 08:35:46.586            66.547            RioGallegos          2079.594
       388   04 Jun 2027 09:09:37.154   04 Jun 2027 09:10:34.632            57.478                Sumatra          1796.187
       389   04 Jun 2027 09:32:00.319   04 Jun 2027 09:33:11.188            70.869                Irkutsk          2214.656
       390   04 Jun 2027 09:33:28.499   04 Jun 2027 09:33:45.502            17.003                Irkutsk           531.344
       391   04 Jun 2027 09:33:51.520   04 Jun 2027 09:33:58.170             6.650                Irkutsk           207.812
       392   04 Jun 2027 09:34:16.182   04 Jun 2027 09:34:22.147             5.965                Novosib           186.406
       393   04 Jun 2027 09:34:29.101   04 Jun 2027 09:35:10.670            41.569                Irkutsk          1299.031
       394   04 Jun 2027 09:35:13.464   04 Jun 2027 09:35:40.610            27.146                Novosib           848.313
       395   04 Jun 2027 10:13:39.213   04 Jun 2027 10:13:58.746            19.533            RioGallegos           610.406
       396   04 Jun 2027 10:15:08.079   04 Jun 2027 10:15:24.900            16.821            RioGallegos           525.656
       397   04 Jun 2027 10:48:12.236   04 Jun 2027 10:49:28.533            76.297                Sumatra          2384.281
       398   04 Jun 2027 10:56:54.145   04 Jun 2027 10:58:06.124            71.979                  Delhi          2249.344
       399   04 Jun 2027 11:07:48.556   04 Jun 2027 11:08:03.438            14.882                Norilsk           465.062
       400   04 Jun 2027 11:08:10.271   04 Jun 2027 11:08:47.284            37.013                Novosib          1156.656
       401   04 Jun 2027 11:09:07.151   04 Jun 2027 11:09:28.830            21.679                Norilsk           677.469
       402   04 Jun 2027 11:09:36.878   04 Jun 2027 11:10:50.389            73.511                Novosib          2297.219
       403   04 Jun 2027 11:11:02.287   04 Jun 2027 11:11:15.359            13.072                Novosib           408.500
       404   04 Jun 2027 11:11:19.200   04 Jun 2027 11:11:28.406             9.206                Novosib           287.688
       405   04 Jun 2027 12:34:37.353   04 Jun 2027 12:37:32.966           175.613                  Delhi          5487.906
       406   04 Jun 2027 12:41:24.617   04 Jun 2027 12:41:36.243            11.626                 Moscow           363.312
       407   04 Jun 2027 12:41:39.303   04 Jun 2027 12:42:01.059            21.756              Murmansk2           679.875
       408   04 Jun 2027 12:42:39.071   04 Jun 2027 12:42:55.566            16.495              Murmansk1           515.469
       409   04 Jun 2027 12:43:01.493   04 Jun 2027 12:43:24.060            22.567              Murmansk1           705.219
       410   04 Jun 2027 12:44:10.068   04 Jun 2027 12:45:31.403            81.335                Novosib          2541.719
       411   04 Jun 2027 13:53:26.915   04 Jun 2027 13:56:14.839           167.924               CapeTown          5247.625
       412   04 Jun 2027 14:18:18.150   04 Jun 2027 14:20:52.545           154.395              Murmansk1          4824.844
       413   04 Jun 2027 14:21:26.368   04 Jun 2027 14:21:53.996            27.628              Murmansk1           863.375
       414   04 Jun 2027 14:22:53.375   04 Jun 2027 14:23:00.829             7.454              Murmansk1           232.938
       415   04 Jun 2027 14:32:49.646   04 Jun 2027 14:36:24.672           215.026                Anadyr1          6719.563
       416   04 Jun 2027 15:31:21.063   04 Jun 2027 15:31:44.817            23.754               CapeTown           742.313
       417   04 Jun 2027 15:57:11.756   04 Jun 2027 15:58:04.160            52.404              Murmansk1          1637.625
       418   04 Jun 2027 15:58:39.178   04 Jun 2027 15:58:59.107            19.929              Murmansk2           622.781
       419   04 Jun 2027 15:59:00.582   04 Jun 2027 15:59:34.763            34.181              Murmansk1          1068.156
       420   04 Jun 2027 16:00:42.281   04 Jun 2027 16:00:56.562            14.281              Murmansk1           446.281
       421   04 Jun 2027 16:01:26.312   04 Jun 2027 16:01:59.623            33.311              Murmansk2          1040.969
       422   04 Jun 2027 16:08:12.255   04 Jun 2027 16:09:30.094            77.839                Anadyr1          2432.469
       423   04 Jun 2027 16:09:54.751   04 Jun 2027 16:10:12.457            17.706                Anadyr1           553.312
       424   04 Jun 2027 16:10:40.481   04 Jun 2027 16:10:49.188             8.707                Anadyr2           272.094
       425   04 Jun 2027 16:11:05.910   04 Jun 2027 16:12:39.480            93.570                Anadyr2          2924.063
       426   04 Jun 2027 16:14:09.510   04 Jun 2027 16:15:14.405            64.895               Magadan2          2027.969
       427   04 Jun 2027 16:16:39.041   04 Jun 2027 16:18:04.679            85.638               Magadan1          2676.187
       428   04 Jun 2027 17:44:05.489   04 Jun 2027 17:45:56.297           110.808                Anadyr1          3462.750
       429   04 Jun 2027 17:46:01.511   04 Jun 2027 17:46:29.009            27.498                Anadyr2           859.313
       430   04 Jun 2027 17:46:31.360   04 Jun 2027 17:47:55.284            83.924               Magadan1          2622.625
       431   04 Jun 2027 17:47:55.284   04 Jun 2027 17:48:39.692            44.408               Magadan2          1387.750
       432   04 Jun 2027 17:57:43.901   04 Jun 2027 17:57:48.990             5.089               Magadan2           159.031
       433   04 Jun 2027 19:19:58.455   04 Jun 2027 19:23:52.949           234.494                Anadyr2          7327.938
       434   04 Jun 2027 19:23:54.131   04 Jun 2027 19:26:03.991           129.860                Norilsk          4058.125
       435   04 Jun 2027 19:28:30.893   04 Jun 2027 19:29:10.960            40.067                Irkutsk          1252.094
       436   04 Jun 2027 19:29:46.098   04 Jun 2027 19:30:55.769            69.671                Irkutsk          2177.219
       437   04 Jun 2027 19:32:10.525   04 Jun 2027 19:32:38.902            28.377                Irkutsk           886.781
       438   04 Jun 2027 19:32:45.709   04 Jun 2027 19:33:15.344            29.635                Irkutsk           926.094
       439   04 Jun 2027 20:14:13.169   04 Jun 2027 20:15:28.670            75.501            RioGallegos          2359.406
       440   04 Jun 2027 20:17:13.309   04 Jun 2027 20:17:15.955             2.646            RioGallegos            82.688
       441   04 Jun 2027 20:56:47.841   04 Jun 2027 20:57:32.601            44.760                Anadyr1          1398.750
       442   04 Jun 2027 20:57:50.343   04 Jun 2027 20:58:56.387            66.044                Norilsk          2063.875
       443   04 Jun 2027 20:59:13.156   04 Jun 2027 20:59:41.546            28.390                Norilsk           887.188
       444   04 Jun 2027 21:00:32.417   04 Jun 2027 21:01:10.436            38.019                Norilsk          1188.094
       445   04 Jun 2027 21:01:49.591   04 Jun 2027 21:02:17.140            27.549                Norilsk           860.906
       446   04 Jun 2027 21:03:03.100   04 Jun 2027 21:03:28.127            25.027                Norilsk           782.094
       447   04 Jun 2027 21:03:29.288   04 Jun 2027 21:04:23.908            54.620                Irkutsk          1706.875
       448   04 Jun 2027 21:05:02.842   04 Jun 2027 21:06:31.136            88.294                Novosib          2759.188
       449   04 Jun 2027 21:15:34.358   04 Jun 2027 21:17:20.071           105.713                Sumatra          3303.531
       450   04 Jun 2027 22:33:48.751   04 Jun 2027 22:33:56.288             7.537                Norilsk           235.531
       451   04 Jun 2027 22:34:25.623   04 Jun 2027 22:35:38.027            72.404               Magadan1          2262.625
       452   04 Jun 2027 22:36:47.423   04 Jun 2027 22:36:51.653             4.230                Norilsk           132.187
       453   04 Jun 2027 22:37:17.670   04 Jun 2027 22:37:26.439             8.769               Magadan2           274.031
       454   04 Jun 2027 22:37:42.248   04 Jun 2027 22:37:51.833             9.585               Magadan2           299.531
       455   04 Jun 2027 22:38:16.577   04 Jun 2027 22:38:46.612            30.035                Irkutsk           938.594
       456   04 Jun 2027 22:39:23.771   04 Jun 2027 22:39:58.388            34.617                Novosib          1081.781
       457   04 Jun 2027 22:40:24.446   04 Jun 2027 22:40:30.341             5.895                Irkutsk           184.219
       458   04 Jun 2027 22:40:44.746   04 Jun 2027 22:43:06.629           141.883                Novosib          4433.844
       459   04 Jun 2027 22:45:15.468   04 Jun 2027 22:46:30.883            75.415                  Delhi          2356.719
       460   04 Jun 2027 22:46:47.688   04 Jun 2027 22:47:44.435            56.747                  Delhi          1773.344
       461   04 Jun 2027 22:54:00.632   04 Jun 2027 22:54:42.967            42.335                  Delhi          1322.969
       462   05 Jun 2027 00:05:53.170   05 Jun 2027 00:05:57.461             4.291                Anadyr1           134.094
       463   05 Jun 2027 00:06:05.522   05 Jun 2027 00:06:30.818            25.296                Anadyr1           790.500
       464   05 Jun 2027 00:09:25.537   05 Jun 2027 00:09:32.737             7.200                Anadyr1           225.000
       465   05 Jun 2027 00:09:33.873   05 Jun 2027 00:10:27.276            53.403               Magadan1          1668.844
       466   05 Jun 2027 00:10:27.276   05 Jun 2027 00:10:31.057             3.781               Magadan2           118.156
       467   05 Jun 2027 00:10:52.090   05 Jun 2027 00:11:07.611            15.521               Magadan1           485.031
       468   05 Jun 2027 00:11:23.063   05 Jun 2027 00:12:09.197            46.134               Magadan1          1441.687
       469   05 Jun 2027 00:12:09.872   05 Jun 2027 00:14:39.050           149.178              Murmansk2          4661.813
       470   05 Jun 2027 00:14:55.593   05 Jun 2027 00:15:31.921            36.328              Murmansk1          1135.250
       471   05 Jun 2027 00:16:25.547   05 Jun 2027 00:17:00.258            34.711                 Moscow          1084.719
       472   05 Jun 2027 00:17:41.317   05 Jun 2027 00:17:57.286            15.969                 Moscow           499.031
       473   05 Jun 2027 00:20:12.039   05 Jun 2027 00:20:53.018            40.979                 Moscow          1280.594
       474   05 Jun 2027 00:21:38.305   05 Jun 2027 00:21:56.311            18.006                 Moscow           562.687
       475   05 Jun 2027 00:45:06.144   05 Jun 2027 00:46:03.964            57.820               CapeTown          1806.875
       476   05 Jun 2027 00:47:22.484   05 Jun 2027 00:48:08.896            46.412               CapeTown          1450.375
       477   05 Jun 2027 01:36:57.206   05 Jun 2027 01:36:58.212             1.006                Anadyr1            31.438
       478   05 Jun 2027 01:39:12.868   05 Jun 2027 01:39:36.437            23.569                Anadyr1           736.531
       479   05 Jun 2027 01:40:20.042   05 Jun 2027 01:40:23.412             3.370                Anadyr1           105.313
       480   05 Jun 2027 01:41:37.111   05 Jun 2027 01:43:44.873           127.762               Magadan2          3992.563
       481   05 Jun 2027 01:45:26.619   05 Jun 2027 01:45:43.001            16.382               Magadan1           511.937
       482   05 Jun 2027 01:47:55.220   05 Jun 2027 01:49:38.423           103.203              Murmansk1          3225.094
