uniorb/output/strategy_4/Drop/Drop_KinoSat_111408.txt

KinoSat_111408
-------------------------
    Access    *     Start Time (UTCG)     *     Stop Time (UTCG)  *   Duration (s)        *       Station  *  Data (Mbytes)
         1   01 Jun 2027 04:34:08.098   01 Jun 2027 04:35:06.428            58.330              Murmansk1          1822.813
         2   01 Jun 2027 04:35:06.428   01 Jun 2027 04:35:20.959            14.531              Murmansk2           454.094
         3   01 Jun 2027 04:35:29.865   01 Jun 2027 04:35:38.778             8.913              Murmansk1           278.531
         4   01 Jun 2027 04:36:04.842   01 Jun 2027 04:36:34.856            30.014              Murmansk2           937.937
         5   01 Jun 2027 05:56:05.325   01 Jun 2027 05:56:28.503            23.178                Anadyr2           724.312
         6   01 Jun 2027 05:56:59.516   01 Jun 2027 06:00:16.963           197.447                Anadyr2          6170.219
         7   01 Jun 2027 07:33:31.445   01 Jun 2027 07:33:59.792            28.347                Anadyr1           885.844
         8   01 Jun 2027 07:34:13.553   01 Jun 2027 07:36:11.801           118.248                Anadyr2          3695.250
         9   01 Jun 2027 07:36:26.853   01 Jun 2027 07:36:53.168            26.315               Magadan1           822.344
        10   01 Jun 2027 07:37:28.246   01 Jun 2027 07:37:34.909             6.663                Anadyr2           208.219
        11   01 Jun 2027 09:08:48.215   01 Jun 2027 09:09:29.304            41.089                Novosib          1284.031
        12   01 Jun 2027 09:09:49.242   01 Jun 2027 09:12:58.265           189.023               Magadan2          5906.969
        13   01 Jun 2027 10:45:42.172   01 Jun 2027 10:49:05.013           202.841                Irkutsk          6338.781
        14   01 Jun 2027 11:25:25.378   01 Jun 2027 11:26:28.936            63.558            RioGallegos          1986.187
        15   01 Jun 2027 11:59:38.066   01 Jun 2027 12:03:12.155           214.089                Sumatra          6690.281
        16   01 Jun 2027 12:15:03.881   01 Jun 2027 12:15:13.893            10.012                Irkutsk           312.875
        17   01 Jun 2027 12:16:29.411   01 Jun 2027 12:17:28.803            59.392                Irkutsk          1856.000
        18   01 Jun 2027 12:18:29.377   01 Jun 2027 12:19:44.182            74.805                Irkutsk          2337.656
        19   01 Jun 2027 13:44:45.258   01 Jun 2027 13:49:42.701           297.443                  Delhi          9295.094
        20   01 Jun 2027 13:53:14.659   01 Jun 2027 13:53:22.174             7.515                Novosib           234.844
        21   01 Jun 2027 13:54:06.410   01 Jun 2027 13:54:53.456            47.046                Novosib          1470.187
        22   01 Jun 2027 13:54:58.427   01 Jun 2027 13:55:08.115             9.688              Murmansk1           302.750
        23   01 Jun 2027 13:55:46.413   01 Jun 2027 13:57:11.045            84.632                Novosib          2644.750
        24   01 Jun 2027 13:59:14.420   01 Jun 2027 14:00:00.852            46.432                Norilsk          1451.000
        25   01 Jun 2027 15:27:41.267   01 Jun 2027 15:29:29.343           108.076                 Moscow          3377.375
        26   01 Jun 2027 15:31:11.314   01 Jun 2027 15:32:56.776           105.462              Murmansk1          3295.688
        27   01 Jun 2027 15:34:11.178   01 Jun 2027 15:34:58.827            47.649              Murmansk1          1489.031
        28   01 Jun 2027 15:39:05.193   01 Jun 2027 15:40:21.918            76.725                Norilsk          2397.656
        29   01 Jun 2027 15:46:43.638   01 Jun 2027 15:47:39.947            56.309                Anadyr1          1759.656
        30   01 Jun 2027 15:48:20.236   01 Jun 2027 15:48:27.836             7.600                Anadyr1           237.500
        31   01 Jun 2027 15:48:38.544   01 Jun 2027 15:49:55.381            76.837                Anadyr1          2401.156
        32   01 Jun 2027 16:41:53.930   01 Jun 2027 16:43:08.346            74.416               CapeTown          2325.500
        33   01 Jun 2027 17:07:46.126   01 Jun 2027 17:08:19.543            33.417                 Moscow          1044.281
        34   01 Jun 2027 17:09:15.862   01 Jun 2027 17:11:38.682           142.820                 Moscow          4463.125
        35   01 Jun 2027 17:14:39.177   01 Jun 2027 17:15:00.277            21.100              Murmansk1           659.375
        36   01 Jun 2027 17:17:26.996   01 Jun 2027 17:18:05.531            38.535              Murmansk2          1204.219
        37   01 Jun 2027 17:21:36.298   01 Jun 2027 17:22:29.034            52.736                Anadyr2          1648.000
        38   01 Jun 2027 17:24:07.730   01 Jun 2027 17:24:54.339            46.609                Anadyr1          1456.531
        39   01 Jun 2027 18:17:42.632   01 Jun 2027 18:18:23.385            40.753               CapeTown          1273.531
        40   01 Jun 2027 18:21:02.204   01 Jun 2027 18:21:57.066            54.862               CapeTown          1714.438
        41   01 Jun 2027 18:50:33.224   01 Jun 2027 18:54:25.255           232.031              Murmansk2          7250.969
        42   01 Jun 2027 18:54:30.515   01 Jun 2027 18:54:39.048             8.533              Murmansk1           266.656
        43   01 Jun 2027 18:57:25.720   01 Jun 2027 18:57:28.496             2.776                Anadyr2            86.750
        44   01 Jun 2027 18:58:08.846   01 Jun 2027 18:58:33.482            24.636                Anadyr1           769.875
        45   01 Jun 2027 19:00:03.258   01 Jun 2027 19:01:07.980            64.722               Magadan2          2022.562
        46   01 Jun 2027 19:01:56.928   01 Jun 2027 19:02:22.392            25.464               Magadan1           795.750
        47   01 Jun 2027 19:02:22.392   01 Jun 2027 19:02:50.992            28.600               Magadan2           893.750
        48   01 Jun 2027 19:05:48.145   01 Jun 2027 19:06:06.044            17.899               Magadan1           559.344
        49   01 Jun 2027 20:33:21.320   01 Jun 2027 20:37:04.844           223.524                Anadyr1          6985.125
        50   01 Jun 2027 20:37:08.010   01 Jun 2027 20:38:59.126           111.116                Norilsk          3472.375
        51   01 Jun 2027 20:39:03.886   01 Jun 2027 20:40:01.639            57.753               Magadan2          1804.781
        52   01 Jun 2027 20:40:01.639   01 Jun 2027 20:40:17.470            15.831               Magadan1           494.719
        53   01 Jun 2027 20:41:21.300   01 Jun 2027 20:41:50.581            29.281               Magadan1           915.031
        54   01 Jun 2027 21:28:03.963   01 Jun 2027 21:30:43.797           159.834            RioGallegos          4994.812
        55   01 Jun 2027 21:37:10.071   01 Jun 2027 21:37:27.221            17.150            RioGallegos           535.937
        56   01 Jun 2027 22:09:02.041   01 Jun 2027 22:09:34.518            32.477                Anadyr1          1014.906
        57   01 Jun 2027 22:09:55.925   01 Jun 2027 22:10:00.025             4.100                Anadyr1           128.125
        58   01 Jun 2027 22:10:04.493   01 Jun 2027 22:10:37.922            33.429                Anadyr1          1044.656
        59   01 Jun 2027 22:11:11.884   01 Jun 2027 22:11:19.846             7.962                Norilsk           248.812
        60   01 Jun 2027 22:11:39.262   01 Jun 2027 22:13:53.767           134.505               Magadan1          4203.281
        61   01 Jun 2027 22:14:19.568   01 Jun 2027 22:14:48.607            29.039                Norilsk           907.469
        62   01 Jun 2027 22:15:31.091   01 Jun 2027 22:17:06.890            95.799                Irkutsk          2993.719
        63   01 Jun 2027 22:18:59.791   01 Jun 2027 22:20:19.537            79.746                Novosib          2492.062
        64   01 Jun 2027 22:31:06.775   01 Jun 2027 22:31:30.997            24.222                Sumatra           756.938
        65   01 Jun 2027 22:33:58.350   01 Jun 2027 22:34:14.096            15.746                Sumatra           492.062
        66   01 Jun 2027 22:39:27.928   01 Jun 2027 22:41:00.036            92.108                Sumatra          2878.375
        67   01 Jun 2027 23:43:55.767   01 Jun 2027 23:45:02.844            67.077                Anadyr2          2096.156
        68   01 Jun 2027 23:46:13.470   01 Jun 2027 23:46:27.353            13.883                Anadyr1           433.844
        69   01 Jun 2027 23:47:07.271   01 Jun 2027 23:47:27.595            20.324                Norilsk           635.125
        70   01 Jun 2027 23:47:46.286   01 Jun 2027 23:49:19.406            93.120               Magadan2          2910.000
        71   01 Jun 2027 23:49:19.406   01 Jun 2027 23:50:38.062            78.656               Magadan1          2458.000
        72   01 Jun 2027 23:50:59.092   01 Jun 2027 23:51:36.596            37.504                Irkutsk          1172.000
        73   01 Jun 2027 23:52:04.930   01 Jun 2027 23:53:10.987            66.057                Novosib          2064.281
        74   01 Jun 2027 23:59:19.542   01 Jun 2027 23:59:57.252            37.710                  Delhi          1178.438
        75   02 Jun 2027 00:02:07.457   02 Jun 2027 00:02:22.220            14.763                  Delhi           461.344
        76   02 Jun 2027 00:04:18.814   02 Jun 2027 00:04:28.256             9.442                  Delhi           295.063
        77   02 Jun 2027 00:04:48.792   02 Jun 2027 00:05:52.030            63.238                  Delhi          1976.188
        78   02 Jun 2027 00:44:06.919   02 Jun 2027 00:44:46.329            39.410            RioGallegos          1231.562
        79   02 Jun 2027 01:17:36.248   02 Jun 2027 01:18:30.241            53.993                Anadyr1          1687.281
        80   02 Jun 2027 01:18:58.520   02 Jun 2027 01:19:39.606            41.086                Anadyr1          1283.937
        81   02 Jun 2027 01:19:39.606   02 Jun 2027 01:20:02.186            22.580                Anadyr2           705.625
        82   02 Jun 2027 01:23:07.414   02 Jun 2027 01:23:17.514            10.100                Norilsk           315.625
        83   02 Jun 2027 01:23:28.228   02 Jun 2027 01:24:56.799            88.571               Magadan1          2767.844
        84   02 Jun 2027 01:24:56.799   02 Jun 2027 01:25:42.313            45.514               Magadan2          1422.313
        85   02 Jun 2027 01:26:28.580   02 Jun 2027 01:28:26.413           117.833              Murmansk1          3682.281
        86   02 Jun 2027 01:28:44.055   02 Jun 2027 01:29:09.036            24.981              Murmansk2           780.656
        87   02 Jun 2027 01:31:30.376   02 Jun 2027 01:31:40.904            10.528                 Moscow           329.000
        88   02 Jun 2027 01:34:22.368   02 Jun 2027 01:34:46.126            23.758                  Delhi           742.437
        89   02 Jun 2027 01:38:37.680   02 Jun 2027 01:39:19.248            41.568                  Delhi          1299.000
        90   02 Jun 2027 01:44:23.844   02 Jun 2027 01:44:58.439            34.595                  Delhi          1081.094
        91   02 Jun 2027 02:18:07.430   02 Jun 2027 02:18:51.377            43.947            RioGallegos          1373.344
        92   02 Jun 2027 02:50:56.517   02 Jun 2027 02:51:19.651            23.134                Anadyr1           722.937
        93   02 Jun 2027 02:51:20.564   02 Jun 2027 02:53:51.181           150.617                Anadyr2          4706.781
        94   02 Jun 2027 02:56:21.540   02 Jun 2027 02:57:06.480            44.940               Magadan1          1404.375
        95   02 Jun 2027 03:07:06.069   02 Jun 2027 03:07:18.081            12.012              Murmansk2           375.375
        96   02 Jun 2027 03:07:29.567   02 Jun 2027 03:08:24.457            54.890                Novosib          1715.313
        97   02 Jun 2027 03:08:34.801   02 Jun 2027 03:08:41.088             6.287              Murmansk1           196.469
        98   02 Jun 2027 03:08:53.726   02 Jun 2027 03:09:35.242            41.516                 Moscow          1297.375
        99   02 Jun 2027 03:09:36.351   02 Jun 2027 03:12:15.888           159.537              Murmansk2          4985.531
       100   02 Jun 2027 03:12:57.765   02 Jun 2027 03:13:03.400             5.635              Murmansk2           176.094
       101   02 Jun 2027 03:29:20.534   02 Jun 2027 03:30:17.447            56.913               CapeTown          1778.531
       102   02 Jun 2027 03:31:05.836   02 Jun 2027 03:32:22.635            76.799               CapeTown          2399.969
       103   02 Jun 2027 04:25:16.509   02 Jun 2027 04:26:49.720            93.211                Anadyr2          2912.844
       104   02 Jun 2027 04:46:30.603   02 Jun 2027 04:46:40.420             9.817                 Moscow           306.781
       105   02 Jun 2027 04:46:46.212   02 Jun 2027 04:46:54.814             8.602                 Moscow           268.813
       106   02 Jun 2027 04:48:10.966   02 Jun 2027 04:48:54.302            43.336                 Moscow          1354.250
       107   02 Jun 2027 05:04:45.294   02 Jun 2027 05:06:25.811           100.517               CapeTown          3141.156
       108   02 Jun 2027 06:01:18.932   02 Jun 2027 06:02:34.000            75.068               Magadan1          2345.875
       109   02 Jun 2027 06:02:34.000   02 Jun 2027 06:02:54.803            20.803               Magadan2           650.094
       110   02 Jun 2027 06:03:43.818   02 Jun 2027 06:04:22.344            38.526                Anadyr2          1203.937
       111   02 Jun 2027 06:05:38.784   02 Jun 2027 06:05:58.162            19.378                Anadyr2           605.562
       112   02 Jun 2027 06:07:48.734   02 Jun 2027 06:08:58.792            70.058               Magadan1          2189.312
       113   02 Jun 2027 06:09:38.516   02 Jun 2027 06:10:19.624            41.108                Anadyr2          1284.625
       114   02 Jun 2027 06:10:30.254   02 Jun 2027 06:10:48.776            18.522                Norilsk           578.812
       115   02 Jun 2027 06:11:19.772   02 Jun 2027 06:13:36.972           137.200               Magadan2          4287.500
       116   02 Jun 2027 07:45:46.366   02 Jun 2027 07:47:20.341            93.975               Magadan1          2936.719
       117   02 Jun 2027 07:48:12.388   02 Jun 2027 07:49:30.442            78.054                Anadyr2          2439.187
       118   02 Jun 2027 09:21:06.528   02 Jun 2027 09:24:49.497           222.969               Magadan1          6967.781
       119   02 Jun 2027 09:25:59.104   02 Jun 2027 09:26:20.954            21.850                Novosib           682.813
       120   02 Jun 2027 09:59:58.143   02 Jun 2027 10:01:19.955            81.812            RioGallegos          2556.625
       121   02 Jun 2027 10:35:17.290   02 Jun 2027 10:35:55.422            38.132                Sumatra          1191.625
       122   02 Jun 2027 10:37:15.901   02 Jun 2027 10:37:17.939             2.038                Sumatra            63.688
       123   02 Jun 2027 10:47:58.156   02 Jun 2027 10:48:21.379            23.223                  Delhi           725.719
       124   02 Jun 2027 10:52:25.682   02 Jun 2027 10:53:08.182            42.500                  Delhi          1328.125
       125   02 Jun 2027 10:56:34.609   02 Jun 2027 10:56:41.644             7.035                Novosib           219.844
       126   02 Jun 2027 10:57:00.180   02 Jun 2027 10:57:25.890            25.710                Novosib           803.437
       127   02 Jun 2027 10:57:39.792   02 Jun 2027 10:58:49.287            69.495                Novosib          2171.719
       128   02 Jun 2027 10:58:57.748   02 Jun 2027 10:59:49.268            51.520                Novosib          1610.000
       129   02 Jun 2027 11:00:02.067   02 Jun 2027 11:00:46.628            44.561                Novosib          1392.531
       130   02 Jun 2027 11:00:51.706   02 Jun 2027 11:00:54.976             3.270                Norilsk           102.188
       131   02 Jun 2027 11:37:59.578   02 Jun 2027 11:38:30.530            30.952            RioGallegos           967.250
       132   02 Jun 2027 11:39:26.173   02 Jun 2027 11:40:01.893            35.720            RioGallegos          1116.250
       133   02 Jun 2027 11:47:04.602   02 Jun 2027 11:47:52.410            47.808            RioGallegos          1494.000
       134   02 Jun 2027 12:12:13.579   02 Jun 2027 12:12:16.170             2.591                Sumatra            80.969
       135   02 Jun 2027 12:12:31.678   02 Jun 2027 12:12:49.027            17.349                Sumatra           542.156
       136   02 Jun 2027 12:16:36.405   02 Jun 2027 12:17:17.160            40.755                Sumatra          1273.594
       137   02 Jun 2027 12:26:13.304   02 Jun 2027 12:26:38.709            25.405                Novosib           793.906
       138   02 Jun 2027 12:27:10.211   02 Jun 2027 12:27:30.062            19.851                Novosib           620.344
       139   02 Jun 2027 12:27:54.014   02 Jun 2027 12:28:37.146            43.132                Irkutsk          1347.875
       140   02 Jun 2027 12:30:05.045   02 Jun 2027 12:30:24.624            19.579                Novosib           611.844
       141   02 Jun 2027 12:30:38.574   02 Jun 2027 12:31:21.325            42.751                Norilsk          1335.969
       142   02 Jun 2027 12:34:29.562   02 Jun 2027 12:34:54.795            25.233              Murmansk1           788.531
       143   02 Jun 2027 12:44:02.444   02 Jun 2027 12:44:03.261             0.817              Murmansk2            25.531
       144   02 Jun 2027 13:57:39.442   02 Jun 2027 14:02:16.306           276.864                  Delhi          8652.000
       145   02 Jun 2027 14:06:56.800   02 Jun 2027 14:08:12.422            75.622              Murmansk1          2363.187
       146   02 Jun 2027 14:08:14.148   02 Jun 2027 14:08:40.943            26.795              Murmansk2           837.344
       147   02 Jun 2027 14:09:10.329   02 Jun 2027 14:10:05.253            54.924                Novosib          1716.375
       148   02 Jun 2027 14:11:22.501   02 Jun 2027 14:12:12.713            50.212                Norilsk          1569.125
       149   02 Jun 2027 15:20:06.788   02 Jun 2027 15:22:02.531           115.743               CapeTown          3616.969
       150   02 Jun 2027 15:39:55.413   02 Jun 2027 15:41:02.887            67.474                 Moscow          2108.563
       151   02 Jun 2027 15:43:22.511   02 Jun 2027 15:43:50.392            27.881              Murmansk1           871.281
       152   02 Jun 2027 15:44:12.221   02 Jun 2027 15:44:32.573            20.352              Murmansk1           636.000
       153   02 Jun 2027 15:46:14.381   02 Jun 2027 15:46:29.230            14.849              Murmansk2           464.031
       154   02 Jun 2027 15:47:00.287   02 Jun 2027 15:47:36.044            35.757              Murmansk1          1117.406
       155   02 Jun 2027 15:58:27.329   02 Jun 2027 15:59:31.709            64.380                Anadyr1          2011.875
       156   02 Jun 2027 15:59:34.104   02 Jun 2027 16:00:09.554            35.450                Anadyr2          1107.813
       157   02 Jun 2027 16:00:33.981   02 Jun 2027 16:00:55.772            21.791                Anadyr2           680.969
       158   02 Jun 2027 16:01:00.762   02 Jun 2027 16:01:46.751            45.989                Anadyr2          1437.156
       159   02 Jun 2027 16:53:42.468   02 Jun 2027 16:55:02.927            80.459               CapeTown          2514.344
       160   02 Jun 2027 17:20:38.200   02 Jun 2027 17:21:17.106            38.906                 Moscow          1215.812
       161   02 Jun 2027 17:21:48.964   02 Jun 2027 17:22:03.469            14.505              Murmansk2           453.281
       162   02 Jun 2027 17:22:08.102   02 Jun 2027 17:22:24.510            16.408              Murmansk1           512.750
       163   02 Jun 2027 17:23:19.405   02 Jun 2027 17:24:17.723            58.318              Murmansk2          1822.437
       164   02 Jun 2027 17:25:47.503   02 Jun 2027 17:26:18.568            31.065              Murmansk1           970.781
       165   02 Jun 2027 17:33:35.787   02 Jun 2027 17:34:31.607            55.820                Anadyr1          1744.375
       166   02 Jun 2027 17:34:47.514   02 Jun 2027 17:35:19.337            31.823                Anadyr1           994.469
       167   02 Jun 2027 17:36:30.119   02 Jun 2027 17:36:51.662            21.543                Anadyr1           673.219
       168   02 Jun 2027 17:38:51.438   02 Jun 2027 17:39:59.343            67.905               Magadan1          2122.031
       169   02 Jun 2027 17:40:01.344   02 Jun 2027 17:41:17.329            75.985               Magadan2          2374.531
       170   02 Jun 2027 19:03:56.931   02 Jun 2027 19:06:00.096           123.165              Murmansk2          3848.906
       171   02 Jun 2027 19:09:27.314   02 Jun 2027 19:11:19.159           111.845                Anadyr2          3495.156
       172   02 Jun 2027 19:11:58.983   02 Jun 2027 19:12:28.078            29.095               Magadan1           909.219
       173   02 Jun 2027 19:13:35.218   02 Jun 2027 19:14:23.977            48.759               Magadan2          1523.719
       174   02 Jun 2027 19:16:47.963   02 Jun 2027 19:17:25.676            37.713               Magadan1          1178.531
       175   02 Jun 2027 20:45:22.239   02 Jun 2027 20:49:07.812           225.573                Anadyr1          7049.156
       176   02 Jun 2027 20:49:13.717   02 Jun 2027 20:51:46.059           152.342               Magadan2          4760.688
       177   02 Jun 2027 20:51:46.059   02 Jun 2027 20:52:01.370            15.311               Magadan1           478.469
       178   02 Jun 2027 20:56:17.139   02 Jun 2027 20:56:47.086            29.947               Magadan2           935.844
       179   02 Jun 2027 20:58:24.330   02 Jun 2027 20:58:42.177            17.847               Magadan1           557.719
       180   02 Jun 2027 21:39:50.380   02 Jun 2027 21:42:09.026           138.646            RioGallegos          4332.688
       181   02 Jun 2027 21:42:18.482   02 Jun 2027 21:43:11.432            52.950            RioGallegos          1654.688
       182   02 Jun 2027 22:20:59.196   02 Jun 2027 22:21:42.969            43.773                Anadyr2          1367.906
       183   02 Jun 2027 22:23:12.270   02 Jun 2027 22:23:20.873             8.603                Norilsk           268.844
       184   02 Jun 2027 22:23:42.214   02 Jun 2027 22:25:38.269           116.055               Magadan2          3626.719
       185   02 Jun 2027 22:26:10.740   02 Jun 2027 22:27:04.570            53.830               Magadan1          1682.187
       186   02 Jun 2027 22:27:24.088   02 Jun 2027 22:27:47.032            22.944                Irkutsk           717.000
       187   02 Jun 2027 22:29:11.554   02 Jun 2027 22:29:51.567            40.013                Irkutsk          1250.406
       188   02 Jun 2027 22:29:59.147   02 Jun 2027 22:30:18.978            19.831                Irkutsk           619.719
       189   02 Jun 2027 22:30:51.954   02 Jun 2027 22:31:34.512            42.558                Novosib          1329.938
       190   02 Jun 2027 22:32:42.776   02 Jun 2027 22:33:20.901            38.125                Novosib          1191.406
       191   02 Jun 2027 22:41:10.212   02 Jun 2027 22:41:51.870            41.658                Sumatra          1301.813
       192   02 Jun 2027 22:44:57.599   02 Jun 2027 22:45:11.502            13.903                Sumatra           434.469
       193   02 Jun 2027 22:49:11.464   02 Jun 2027 22:49:29.047            17.583                Sumatra           549.469
       194   02 Jun 2027 23:55:44.141   02 Jun 2027 23:57:21.782            97.641                Anadyr1          3051.281
       195   02 Jun 2027 23:57:54.297   02 Jun 2027 23:58:00.285             5.988                Anadyr2           187.125
       196   02 Jun 2027 23:58:08.697   02 Jun 2027 23:58:28.079            19.382                Anadyr2           605.687
       197   02 Jun 2027 23:59:09.441   03 Jun 2027 00:00:47.861            98.420                Norilsk          3075.625
       198   03 Jun 2027 00:00:50.162   03 Jun 2027 00:01:10.331            20.169               Magadan1           630.281
       199   03 Jun 2027 00:03:01.715   03 Jun 2027 00:03:59.330            57.615                Irkutsk          1800.469
       200   03 Jun 2027 00:04:12.228   03 Jun 2027 00:05:11.213            58.985                Novosib          1843.281
       201   03 Jun 2027 00:07:12.639   03 Jun 2027 00:07:26.774            14.135                Novosib           441.719
       202   03 Jun 2027 00:08:04.274   03 Jun 2027 00:08:54.511            50.237                Novosib          1569.906
       203   03 Jun 2027 00:10:58.889   03 Jun 2027 00:11:28.641            29.752                  Delhi           929.750
       204   03 Jun 2027 00:12:12.075   03 Jun 2027 00:12:33.070            20.995                  Delhi           656.094
       205   03 Jun 2027 00:17:05.325   03 Jun 2027 00:17:26.722            21.397                  Delhi           668.656
       206   03 Jun 2027 00:21:04.601   03 Jun 2027 00:21:39.408            34.807                  Delhi          1087.719
       207   03 Jun 2027 00:54:24.226   03 Jun 2027 00:55:06.525            42.299            RioGallegos          1321.844
       208   03 Jun 2027 01:00:03.063   03 Jun 2027 01:00:54.098            51.035            RioGallegos          1594.844
       209   03 Jun 2027 01:29:45.688   03 Jun 2027 01:30:25.762            40.074                Anadyr1          1252.312
       210   03 Jun 2027 01:31:40.920   03 Jun 2027 01:32:11.485            30.565                Anadyr2           955.156
       211   03 Jun 2027 01:34:30.713   03 Jun 2027 01:34:51.157            20.444                Anadyr2           638.875
       212   03 Jun 2027 01:35:09.042   03 Jun 2027 01:35:19.788            10.746                Norilsk           335.813
       213   03 Jun 2027 01:35:20.179   03 Jun 2027 01:36:59.020            98.841               Magadan1          3088.781
       214   03 Jun 2027 01:37:30.679   03 Jun 2027 01:39:30.554           119.875              Murmansk1          3746.094
       215   03 Jun 2027 01:40:19.293   03 Jun 2027 01:40:51.938            32.645                Novosib          1020.156
       216   03 Jun 2027 01:43:55.688   03 Jun 2027 01:44:32.022            36.334                 Moscow          1135.438
       217   03 Jun 2027 01:48:15.524   03 Jun 2027 01:48:21.869             6.345                  Delhi           198.281
       218   03 Jun 2027 01:48:54.410   03 Jun 2027 01:50:59.693           125.283                  Delhi          3915.094
       219   03 Jun 2027 03:02:41.423   03 Jun 2027 03:03:16.340            34.917                Anadyr2          1091.156
       220   03 Jun 2027 03:04:36.506   03 Jun 2027 03:05:34.278            57.772                Anadyr1          1805.375
       221   03 Jun 2027 03:08:43.188   03 Jun 2027 03:08:58.448            15.260                Anadyr1           476.875
       222   03 Jun 2027 03:10:59.863   03 Jun 2027 03:11:30.454            30.591               Magadan2           955.969
       223   03 Jun 2027 03:21:02.040   03 Jun 2027 03:24:03.767           181.727                 Moscow          5678.969
       224   03 Jun 2027 03:24:41.094   03 Jun 2027 03:25:29.691            48.597                 Moscow          1518.656
       225   03 Jun 2027 03:25:55.785   03 Jun 2027 03:27:14.844            79.059                 Moscow          2470.594
       226   03 Jun 2027 03:40:59.847   03 Jun 2027 03:44:14.519           194.672               CapeTown          6083.500
       227   03 Jun 2027 04:37:12.838   03 Jun 2027 04:42:15.845           303.007                Anadyr1          9468.969
       228   03 Jun 2027 04:44:39.489   03 Jun 2027 04:44:46.464             6.975                Anadyr2           217.969
       229   03 Jun 2027 04:45:23.515   03 Jun 2027 04:46:32.508            68.993               Magadan1          2156.031
       230   03 Jun 2027 04:46:38.486   03 Jun 2027 04:46:45.553             7.067                Anadyr2           220.844
       231   03 Jun 2027 04:48:24.871   03 Jun 2027 04:48:55.684            30.813                Anadyr1           962.906
       232   03 Jun 2027 04:56:59.616   03 Jun 2027 04:57:04.889             5.273                Norilsk           164.781
       233   03 Jun 2027 04:57:59.743   03 Jun 2027 04:58:16.786            17.043                 Moscow           532.594
       234   03 Jun 2027 04:59:23.096   03 Jun 2027 04:59:27.432             4.336                 Moscow           135.500
       235   03 Jun 2027 04:59:33.633   03 Jun 2027 05:00:16.245            42.612                 Moscow          1331.625
       236   03 Jun 2027 05:17:07.963   03 Jun 2027 05:18:26.516            78.553               CapeTown          2454.781
       237   03 Jun 2027 05:22:17.761   03 Jun 2027 05:22:29.388            11.627               CapeTown           363.344
       238   03 Jun 2027 06:18:30.986   03 Jun 2027 06:19:11.549            40.563                Anadyr1          1267.594
       239   03 Jun 2027 06:19:11.549   03 Jun 2027 06:19:38.027            26.478                Anadyr2           827.438
       240   03 Jun 2027 06:19:50.920   03 Jun 2027 06:19:51.976             1.056               Magadan1            33.000
       241   03 Jun 2027 06:19:59.389   03 Jun 2027 06:21:42.302           102.913               Magadan2          3216.031
       242   03 Jun 2027 06:21:52.587   03 Jun 2027 06:22:37.309            44.722               Magadan2          1397.563
       243   03 Jun 2027 06:23:07.055   03 Jun 2027 06:23:09.910             2.855                Anadyr1            89.219
       244   03 Jun 2027 07:53:41.462   03 Jun 2027 07:54:19.352            37.890                Anadyr1          1184.063
       245   03 Jun 2027 07:54:58.384   03 Jun 2027 07:55:16.343            17.959                Anadyr2           561.219
       246   03 Jun 2027 07:55:39.721   03 Jun 2027 07:56:02.640            22.919               Magadan2           716.219
       247   03 Jun 2027 07:56:07.115   03 Jun 2027 07:56:42.466            35.351               Magadan2          1104.719
       248   03 Jun 2027 07:57:49.763   03 Jun 2027 07:57:52.410             2.647               Magadan1            82.719
       249   03 Jun 2027 07:57:55.342   03 Jun 2027 07:58:08.013            12.671                Anadyr1           395.969
       250   03 Jun 2027 07:58:17.367   03 Jun 2027 07:59:08.258            50.891                Anadyr1          1590.344
       251   03 Jun 2027 07:59:16.021   03 Jun 2027 07:59:16.760             0.739               Magadan1            23.094
       252   03 Jun 2027 07:59:16.760   03 Jun 2027 07:59:24.940             8.180               Magadan2           255.625
       253   03 Jun 2027 07:59:57.409   03 Jun 2027 08:00:24.405            26.996               Magadan2           843.625
       254   03 Jun 2027 08:37:21.368   03 Jun 2027 08:37:33.606            12.238            RioGallegos           382.438
       255   03 Jun 2027 08:38:21.687   03 Jun 2027 08:39:01.330            39.643            RioGallegos          1238.844
       256   03 Jun 2027 09:30:35.252   03 Jun 2027 09:32:03.582            88.330               Magadan2          2760.313
       257   03 Jun 2027 09:32:53.612   03 Jun 2027 09:33:21.320            27.708                Irkutsk           865.875
       258   03 Jun 2027 09:33:23.766   03 Jun 2027 09:33:51.988            28.222               Magadan1           881.938
       259   03 Jun 2027 09:33:54.563   03 Jun 2027 09:34:35.235            40.672               Magadan2          1271.000
       260   03 Jun 2027 09:35:10.090   03 Jun 2027 09:35:21.449            11.359                Irkutsk           354.969
       261   03 Jun 2027 09:35:39.065   03 Jun 2027 09:35:46.909             7.844                Irkutsk           245.125
       262   03 Jun 2027 09:36:03.714   03 Jun 2027 09:37:02.007            58.293                Irkutsk          1821.656
       263   03 Jun 2027 10:12:01.491   03 Jun 2027 10:12:54.054            52.563            RioGallegos          1642.594
       264   03 Jun 2027 10:13:26.657   03 Jun 2027 10:14:19.143            52.486            RioGallegos          1640.188
       265   03 Jun 2027 10:47:04.719   03 Jun 2027 10:47:46.837            42.118                Sumatra          1316.187
       266   03 Jun 2027 11:00:30.885   03 Jun 2027 11:00:54.448            23.563                  Delhi           736.344
       267   03 Jun 2027 11:08:28.152   03 Jun 2027 11:08:32.514             4.362                Novosib           136.312
       268   03 Jun 2027 11:09:08.584   03 Jun 2027 11:09:34.154            25.570                Irkutsk           799.062
       269   03 Jun 2027 11:09:59.306   03 Jun 2027 11:10:46.116            46.810                Novosib          1462.812
       270   03 Jun 2027 11:11:02.063   03 Jun 2027 11:11:11.498             9.435                Novosib           294.844
       271   03 Jun 2027 11:11:21.262   03 Jun 2027 11:11:38.588            17.326                Irkutsk           541.438
       272   03 Jun 2027 11:11:42.462   03 Jun 2027 11:12:49.237            66.775                Novosib          2086.719
       273   03 Jun 2027 11:13:39.508   03 Jun 2027 11:13:45.654             6.146                Novosib           192.062
       274   03 Jun 2027 11:50:41.273   03 Jun 2027 11:51:29.504            48.231            RioGallegos          1507.219
       275   03 Jun 2027 11:52:57.523   03 Jun 2027 11:54:08.161            70.638            RioGallegos          2207.438
       276   03 Jun 2027 12:25:05.389   03 Jun 2027 12:25:25.112            19.723                Sumatra           616.344
       277   03 Jun 2027 12:34:41.523   03 Jun 2027 12:35:02.763            21.240                  Delhi           663.750
       278   03 Jun 2027 12:38:28.195   03 Jun 2027 12:39:32.873            64.678                Novosib          2021.187
       279   03 Jun 2027 12:40:58.381   03 Jun 2027 12:42:20.355            81.974                Irkutsk          2561.687
       280   03 Jun 2027 12:42:31.736   03 Jun 2027 12:42:59.185            27.449                Norilsk           857.781
       281   03 Jun 2027 12:44:28.242   03 Jun 2027 12:44:42.353            14.111                Norilsk           440.969
       282   03 Jun 2027 14:11:01.544   03 Jun 2027 14:13:50.158           168.614                  Delhi          5269.188
       283   03 Jun 2027 14:16:45.496   03 Jun 2027 14:17:41.841            56.345                 Moscow          1760.781
       284   03 Jun 2027 14:18:56.576   03 Jun 2027 14:20:31.257            94.681              Murmansk2          2958.781
       285   03 Jun 2027 14:20:41.812   03 Jun 2027 14:21:13.802            31.990              Murmansk1           999.688
       286   03 Jun 2027 14:21:48.869   03 Jun 2027 14:22:39.576            50.707                Norilsk          1584.594
       287   03 Jun 2027 14:24:09.169   03 Jun 2027 14:24:46.903            37.734                Norilsk          1179.187
       288   03 Jun 2027 15:31:08.251   03 Jun 2027 15:33:38.809           150.558               CapeTown          4704.938
       289   03 Jun 2027 15:52:15.422   03 Jun 2027 15:53:05.271            49.849                 Moscow          1557.781
       290   03 Jun 2027 15:55:35.605   03 Jun 2027 15:56:13.403            37.798              Murmansk1          1181.187
       291   03 Jun 2027 15:56:34.465   03 Jun 2027 15:58:05.112            90.647              Murmansk1          2832.719
       292   03 Jun 2027 16:10:16.147   03 Jun 2027 16:11:43.803            87.656                Anadyr1          2739.250
       293   03 Jun 2027 16:12:45.371   03 Jun 2027 16:14:01.775            76.404                Anadyr1          2387.625
       294   03 Jun 2027 17:04:56.477   03 Jun 2027 17:07:25.867           149.390               CapeTown          4668.438
       295   03 Jun 2027 17:34:20.270   03 Jun 2027 17:34:46.194            25.924              Murmansk2           810.125
       296   03 Jun 2027 17:35:40.922   03 Jun 2027 17:36:19.110            38.188              Murmansk2          1193.375
       297   03 Jun 2027 17:37:44.882   03 Jun 2027 17:38:20.673            35.791              Murmansk1          1118.469
       298   03 Jun 2027 17:38:44.486   03 Jun 2027 17:39:28.262            43.776              Murmansk2          1368.000
       299   03 Jun 2027 17:45:35.784   03 Jun 2027 17:45:38.972             3.188                Anadyr1            99.625
       300   03 Jun 2027 17:46:05.347   03 Jun 2027 17:46:40.735            35.388                Anadyr2          1105.875
       301   03 Jun 2027 17:47:03.844   03 Jun 2027 17:47:25.090            21.246                Anadyr2           663.937
       302   03 Jun 2027 17:49:11.343   03 Jun 2027 17:49:19.198             7.855                Anadyr2           245.469
       303   03 Jun 2027 17:49:48.573   03 Jun 2027 17:51:18.083            89.510               Magadan2          2797.188
       304   03 Jun 2027 17:51:42.256   03 Jun 2027 17:53:53.475           131.219               Magadan2          4100.594
       305   03 Jun 2027 19:21:28.950   03 Jun 2027 19:25:14.553           225.603                Anadyr1          7050.094
       306   03 Jun 2027 19:25:39.226   03 Jun 2027 19:26:17.589            38.363               Magadan1          1198.844
       307   03 Jun 2027 19:26:52.321   03 Jun 2027 19:27:00.601             8.280               Magadan1           258.750
       308   03 Jun 2027 19:28:51.973   03 Jun 2027 19:29:05.471            13.498               Magadan2           421.812
       309   03 Jun 2027 20:57:22.899   03 Jun 2027 21:01:04.796           221.897                Anadyr1          6934.281
       310   03 Jun 2027 21:01:07.057   03 Jun 2027 21:03:15.753           128.696                Norilsk          4021.750
       311   03 Jun 2027 21:03:18.986   03 Jun 2027 21:03:44.657            25.671               Magadan1           802.219
       312   03 Jun 2027 21:03:44.657   03 Jun 2027 21:04:05.534            20.877               Magadan2           652.406
       313   03 Jun 2027 21:06:25.900   03 Jun 2027 21:08:21.978           116.078                Irkutsk          3627.437
       314   03 Jun 2027 21:51:40.243   03 Jun 2027 21:53:29.545           109.302            RioGallegos          3415.688
       315   03 Jun 2027 22:01:01.375   03 Jun 2027 22:01:08.455             7.080            RioGallegos           221.250
       316   03 Jun 2027 22:32:55.538   03 Jun 2027 22:33:37.624            42.086                Anadyr1          1315.187
       317   03 Jun 2027 22:35:13.127   03 Jun 2027 22:37:02.818           109.691                Norilsk          3427.844
       318   03 Jun 2027 22:37:07.641   03 Jun 2027 22:39:04.139           116.498               Magadan1          3640.563
       319   03 Jun 2027 22:40:11.465   03 Jun 2027 22:41:36.295            84.830                Irkutsk          2650.937
       320   03 Jun 2027 22:43:10.810   03 Jun 2027 22:43:15.477             4.667                Novosib           145.844
       321   03 Jun 2027 22:43:29.050   03 Jun 2027 22:44:27.506            58.456                Novosib          1826.750
       322   03 Jun 2027 22:56:06.152   03 Jun 2027 22:56:27.074            20.922                Sumatra           653.813
       323   03 Jun 2027 23:01:33.908   03 Jun 2027 23:02:31.747            57.839                Sumatra          1807.469
       324   04 Jun 2027 00:07:31.216   04 Jun 2027 00:08:58.316            87.100                Anadyr1          2721.875
       325   04 Jun 2027 00:10:10.361   04 Jun 2027 00:10:22.887            12.526                Anadyr1           391.438
       326   04 Jun 2027 00:11:11.640   04 Jun 2027 00:13:02.397           110.757                Norilsk          3461.156
       327   04 Jun 2027 00:13:03.451   04 Jun 2027 00:13:16.470            13.019               Magadan1           406.844
       328   04 Jun 2027 00:14:45.736   04 Jun 2027 00:15:20.572            34.836               Magadan2          1088.625
       329   04 Jun 2027 00:16:11.251   04 Jun 2027 00:16:15.627             4.376               Magadan1           136.750
       330   04 Jun 2027 00:16:16.467   04 Jun 2027 00:17:27.321            70.854                Novosib          2214.188
       331   04 Jun 2027 00:17:49.807   04 Jun 2027 00:18:17.495            27.688                Novosib           865.250
       332   04 Jun 2027 00:20:01.358   04 Jun 2027 00:20:32.108            30.750                Novosib           960.938
       333   04 Jun 2027 00:22:44.180   04 Jun 2027 00:23:30.018            45.838                  Delhi          1432.438
       334   04 Jun 2027 00:26:08.967   04 Jun 2027 00:26:57.304            48.337                  Delhi          1510.531
       335   04 Jun 2027 00:33:01.732   04 Jun 2027 00:34:05.605            63.873                  Delhi          1996.031
       336   04 Jun 2027 01:10:25.957   04 Jun 2027 01:10:39.437            13.480            RioGallegos           421.250
       337   04 Jun 2027 01:12:31.645   04 Jun 2027 01:12:54.878            23.233            RioGallegos           726.031
       338   04 Jun 2027 01:40:58.433   04 Jun 2027 01:41:20.509            22.076                Anadyr1           689.875
       339   04 Jun 2027 01:42:19.611   04 Jun 2027 01:42:58.724            39.113                Anadyr2          1222.281
       340   04 Jun 2027 01:43:27.169   04 Jun 2027 01:43:42.176            15.007                Anadyr1           468.969
       341   04 Jun 2027 01:43:42.176   04 Jun 2027 01:43:43.984             1.808                Anadyr2            56.500
       342   04 Jun 2027 01:43:58.734   04 Jun 2027 01:44:17.226            18.492                Anadyr2           577.875
       343   04 Jun 2027 01:46:22.354   04 Jun 2027 01:46:36.574            14.220                Anadyr1           444.375
       344   04 Jun 2027 01:47:08.282   04 Jun 2027 01:48:27.228            78.946               Magadan1          2467.062
       345   04 Jun 2027 01:48:38.085   04 Jun 2027 01:48:41.724             3.639                Norilsk           113.719
       346   04 Jun 2027 01:48:58.882   04 Jun 2027 01:49:08.986            10.104                Norilsk           315.750
       347   04 Jun 2027 01:49:28.848   04 Jun 2027 01:51:32.882           124.034              Murmansk2          3876.062
       348   04 Jun 2027 01:51:48.074   04 Jun 2027 01:52:04.264            16.190                Irkutsk           505.937
       349   04 Jun 2027 01:53:16.691   04 Jun 2027 01:54:32.100            75.409                Irkutsk          2356.531
       350   04 Jun 2027 02:00:33.434   04 Jun 2027 02:02:45.902           132.468                  Delhi          4139.625
       351   04 Jun 2027 03:19:17.010   04 Jun 2027 03:19:43.382            26.372               Magadan1           824.125
       352   04 Jun 2027 03:20:53.726   04 Jun 2027 03:21:26.239            32.513               Magadan1          1016.031
       353   04 Jun 2027 03:34:12.111   04 Jun 2027 03:34:58.766            46.655                Norilsk          1457.969
       354   04 Jun 2027 03:35:50.012   04 Jun 2027 03:36:18.626            28.614                Novosib           894.188
       355   04 Jun 2027 03:36:21.412   04 Jun 2027 03:37:01.450            40.038                 Moscow          1251.188
       356   04 Jun 2027 03:37:06.530   04 Jun 2027 03:38:29.827            83.297                 Moscow          2603.031
       357   04 Jun 2027 03:39:22.299   04 Jun 2027 03:41:15.121           112.822                 Moscow          3525.687
       358   04 Jun 2027 03:52:44.753   04 Jun 2027 03:54:44.146           119.393               CapeTown          3731.031
       359   04 Jun 2027 04:01:37.057   04 Jun 2027 04:02:06.365            29.308               CapeTown           915.875
       360   04 Jun 2027 04:03:05.328   04 Jun 2027 04:03:30.309            24.981               CapeTown           780.656
       361   04 Jun 2027 04:04:43.758   04 Jun 2027 04:04:57.704            13.946               CapeTown           435.813
       362   04 Jun 2027 04:49:10.941   04 Jun 2027 04:50:27.289            76.348                Anadyr1          2385.875
       363   04 Jun 2027 04:52:27.855   04 Jun 2027 04:54:08.762           100.907                Anadyr1          3153.344
       364   04 Jun 2027 04:55:48.558   04 Jun 2027 04:58:33.463           164.905               Magadan2          5153.281
       365   04 Jun 2027 04:59:01.195   04 Jun 2027 04:59:17.654            16.459               Magadan2           514.344
       366   04 Jun 2027 05:00:27.135   04 Jun 2027 05:00:32.752             5.617               Magadan2           175.531
       367   04 Jun 2027 05:08:40.267   04 Jun 2027 05:09:25.907            45.640                 Moscow          1426.250
       368   04 Jun 2027 05:29:38.403   04 Jun 2027 05:29:45.375             6.972               CapeTown           217.875
       369   04 Jun 2027 05:30:48.806   04 Jun 2027 05:31:15.690            26.884               CapeTown           840.125
       370   04 Jun 2027 06:29:53.520   04 Jun 2027 06:30:07.573            14.053               Magadan1           439.156
       371   04 Jun 2027 06:30:12.642   04 Jun 2027 06:30:17.939             5.297                Anadyr2           165.531
       372   04 Jun 2027 06:30:32.541   04 Jun 2027 06:31:22.767            50.226                Anadyr2          1569.562
       373   04 Jun 2027 06:31:45.165   04 Jun 2027 06:31:52.866             7.701               Magadan2           240.656
       374   04 Jun 2027 06:31:52.866   04 Jun 2027 06:32:02.667             9.801               Magadan1           306.281
       375   04 Jun 2027 06:32:05.290   04 Jun 2027 06:33:02.717            57.427                Anadyr2          1794.594
       376   04 Jun 2027 06:33:21.725   04 Jun 2027 06:35:04.430           102.705                Anadyr1          3209.531
       377   04 Jun 2027 08:05:32.797   04 Jun 2027 08:05:34.120             1.323               Magadan1            41.344
       378   04 Jun 2027 08:05:56.761   04 Jun 2027 08:06:17.926            21.165                Anadyr1           661.406
       379   04 Jun 2027 08:06:46.489   04 Jun 2027 08:07:37.665            51.176               Magadan1          1599.250
       380   04 Jun 2027 08:07:46.369   04 Jun 2027 08:08:09.835            23.466               Magadan2           733.313
       381   04 Jun 2027 08:08:25.114   04 Jun 2027 08:08:40.789            15.675               Magadan2           489.844
       382   04 Jun 2027 08:09:51.418   04 Jun 2027 08:10:11.179            19.761                Anadyr2           617.531
       383   04 Jun 2027 08:10:19.152   04 Jun 2027 08:10:28.215             9.063                Anadyr2           283.219
       384   04 Jun 2027 08:10:57.249   04 Jun 2027 08:11:05.123             7.874               Magadan1           246.062
       385   04 Jun 2027 08:11:11.580   04 Jun 2027 08:12:02.702            51.122                Irkutsk          1597.563
       386   04 Jun 2027 08:12:12.235   04 Jun 2027 08:13:15.546            63.311                Anadyr1          1978.469
       387   04 Jun 2027 09:44:04.822   04 Jun 2027 09:44:06.210             1.388                Irkutsk            43.375
       388   04 Jun 2027 09:45:17.291   04 Jun 2027 09:45:30.448            13.157                Irkutsk           411.156
       389   04 Jun 2027 09:45:31.457   04 Jun 2027 09:45:44.366            12.909               Magadan2           403.406
       390   04 Jun 2027 09:45:56.469   04 Jun 2027 09:46:43.436            46.967               Magadan1          1467.719
       391   04 Jun 2027 09:47:07.232   04 Jun 2027 09:47:09.616             2.384                Norilsk            74.500
       392   04 Jun 2027 09:47:11.915   04 Jun 2027 09:47:22.347            10.432                Irkutsk           326.000
       393   04 Jun 2027 09:47:44.185   04 Jun 2027 09:48:21.286            37.101               Magadan1          1159.406
       394   04 Jun 2027 09:48:48.022   04 Jun 2027 09:49:27.103            39.081                Novosib          1221.281
       395   04 Jun 2027 10:24:08.316   04 Jun 2027 10:24:54.537            46.221            RioGallegos          1444.406
       396   04 Jun 2027 10:58:58.202   04 Jun 2027 10:59:18.159            19.957                Sumatra           623.656
       397   04 Jun 2027 11:02:04.204   04 Jun 2027 11:02:28.955            24.751                Sumatra           773.469
       398   04 Jun 2027 11:12:00.887   04 Jun 2027 11:12:11.902            11.015                  Delhi           344.219
       399   04 Jun 2027 11:12:59.275   04 Jun 2027 11:13:01.104             1.829                  Delhi            57.156
       400   04 Jun 2027 11:20:59.473   04 Jun 2027 11:21:04.097             4.624                Novosib           144.500
       401   04 Jun 2027 11:21:17.701   04 Jun 2027 11:21:33.621            15.920                Irkutsk           497.500
       402   04 Jun 2027 11:21:41.843   04 Jun 2027 11:22:14.142            32.299                Novosib          1009.344
       403   04 Jun 2027 11:22:25.844   04 Jun 2027 11:22:37.013            11.169                Irkutsk           349.031
       404   04 Jun 2027 11:22:41.603   04 Jun 2027 11:23:05.893            24.290                Novosib           759.062
       405   04 Jun 2027 11:23:13.434   04 Jun 2027 11:23:20.556             7.122                Norilsk           222.562
       406   04 Jun 2027 11:23:38.403   04 Jun 2027 11:24:49.268            70.865                Novosib          2214.531
       407   04 Jun 2027 11:24:55.171   04 Jun 2027 11:24:57.618             2.447                Norilsk            76.469
       408   04 Jun 2027 11:24:59.163   04 Jun 2027 11:26:01.382            62.219                Novosib          1944.344
       409   04 Jun 2027 12:04:05.862   04 Jun 2027 12:04:13.268             7.406            RioGallegos           231.437
       410   04 Jun 2027 12:07:20.862   04 Jun 2027 12:08:11.514            50.652            RioGallegos          1582.875
       411   04 Jun 2027 12:38:33.277   04 Jun 2027 12:39:01.511            28.234                Sumatra           882.312
       412   04 Jun 2027 12:45:39.345   04 Jun 2027 12:46:03.683            24.338                  Delhi           760.562
       413   04 Jun 2027 12:50:46.801   04 Jun 2027 12:52:07.060            80.259                Novosib          2508.094
       414   04 Jun 2027 12:53:25.364   04 Jun 2027 12:54:10.289            44.925                Novosib          1403.906
       415   04 Jun 2027 12:55:40.802   04 Jun 2027 12:56:06.750            25.948                Irkutsk           810.875
       416   04 Jun 2027 12:56:55.670   04 Jun 2027 12:58:27.295            91.625                Norilsk          2863.281
       417   04 Jun 2027 14:27:34.687   04 Jun 2027 14:28:38.271            63.584                 Moscow          1987.000
       418   04 Jun 2027 14:29:57.551   04 Jun 2027 14:31:18.118            80.567                 Moscow          2517.719
       419   04 Jun 2027 14:32:17.806   04 Jun 2027 14:33:47.707            89.901              Murmansk1          2809.406
       420   04 Jun 2027 14:34:27.643   04 Jun 2027 14:35:42.301            74.658                Norilsk          2333.062
       421   04 Jun 2027 14:36:03.547   04 Jun 2027 14:36:49.077            45.530                Norilsk          1422.812
       422   04 Jun 2027 14:38:27.947   04 Jun 2027 14:39:13.776            45.829                Norilsk          1432.156
       423   04 Jun 2027 15:42:30.650   04 Jun 2027 15:43:40.736            70.086               CapeTown          2190.188
       424   04 Jun 2027 15:46:49.238   04 Jun 2027 15:47:05.459            16.221               CapeTown           506.906
       425   04 Jun 2027 15:47:35.544   04 Jun 2027 15:48:42.542            66.998               CapeTown          2093.687
       426   04 Jun 2027 16:04:42.841   04 Jun 2027 16:05:07.082            24.241                 Moscow           757.531
       427   04 Jun 2027 16:07:50.647   04 Jun 2027 16:09:59.590           128.943              Murmansk2          4029.469
       428   04 Jun 2027 16:22:08.191   04 Jun 2027 16:23:30.272            82.081                Anadyr1          2565.031
       429   04 Jun 2027 16:23:31.915   04 Jun 2027 16:23:57.640            25.725                Anadyr2           803.906
       430   04 Jun 2027 16:24:42.251   04 Jun 2027 16:24:54.508            12.257                Anadyr2           383.031
       431   04 Jun 2027 17:16:59.151   04 Jun 2027 17:19:16.812           137.661               CapeTown          4301.906
       432   04 Jun 2027 17:46:54.564   04 Jun 2027 17:47:40.989            46.425              Murmansk2          1450.781
       433   04 Jun 2027 17:47:56.389   04 Jun 2027 17:49:40.791           104.402              Murmansk1          3262.562
       434   04 Jun 2027 17:52:01.736   04 Jun 2027 17:52:09.849             8.113              Murmansk2           253.531
       435   04 Jun 2027 17:55:36.197   04 Jun 2027 17:55:39.351             3.154              Murmansk2            98.562
       436   04 Jun 2027 17:57:36.194   04 Jun 2027 17:57:40.198             4.004                Anadyr2           125.125
       437   04 Jun 2027 17:57:51.605   04 Jun 2027 17:58:22.228            30.623                Anadyr1           956.969
       438   04 Jun 2027 17:59:10.960   04 Jun 2027 17:59:19.298             8.338                Anadyr1           260.562
       439   04 Jun 2027 17:59:49.210   04 Jun 2027 18:00:15.839            26.629                Anadyr2           832.156
       440   04 Jun 2027 18:00:41.171   04 Jun 2027 18:01:02.046            20.875                Anadyr2           652.344
       441   04 Jun 2027 18:01:17.619   04 Jun 2027 18:03:21.324           123.705               Magadan1          3865.781
       442   04 Jun 2027 18:07:03.095   04 Jun 2027 18:08:05.874            62.779               Magadan1          1961.844
       443   04 Jun 2027 19:33:30.588   04 Jun 2027 19:35:16.338           105.750                Anadyr1          3304.688
       444   04 Jun 2027 19:35:36.383   04 Jun 2027 19:37:16.016            99.633                Anadyr2          3113.531
       445   04 Jun 2027 19:37:24.645   04 Jun 2027 19:38:20.017            55.372               Magadan1          1730.375
       446   04 Jun 2027 19:38:25.485   04 Jun 2027 19:40:03.060            97.575               Magadan2          3049.219
       447   04 Jun 2027 19:45:20.331   04 Jun 2027 19:46:37.090            76.759               Magadan1          2398.719
       448   04 Jun 2027 21:09:23.245   04 Jun 2027 21:11:32.935           129.690                Anadyr1          4052.813
       449   04 Jun 2027 21:11:40.334   04 Jun 2027 21:15:31.705           231.371                Norilsk          7230.344
       450   04 Jun 2027 21:15:56.776   04 Jun 2027 21:17:01.232            64.456                Norilsk          2014.250
       451   04 Jun 2027 21:18:33.697   04 Jun 2027 21:18:51.723            18.026                Irkutsk           563.312
       452   04 Jun 2027 21:19:09.501   04 Jun 2027 21:19:23.113            13.612                Irkutsk           425.375
       453   04 Jun 2027 21:23:13.575   04 Jun 2027 21:23:15.048             1.473                Irkutsk            46.031
       454   04 Jun 2027 21:34:30.649   04 Jun 2027 21:37:12.151           161.502                Sumatra          5046.938
       455   04 Jun 2027 22:44:50.973   04 Jun 2027 22:45:31.443            40.470                Anadyr2          1264.688
       456   04 Jun 2027 22:47:14.355   04 Jun 2027 22:49:04.842           110.487                Norilsk          3452.719
       457   04 Jun 2027 22:49:05.530   04 Jun 2027 22:49:27.937            22.407               Magadan1           700.219
       458   04 Jun 2027 22:52:08.510   04 Jun 2027 22:52:20.558            12.048               Magadan1           376.500
       459   04 Jun 2027 22:52:22.172   04 Jun 2027 22:53:03.242            41.070                Novosib          1283.438
       460   04 Jun 2027 22:53:04.483   04 Jun 2027 22:53:17.927            13.444                Irkutsk           420.125
       461   04 Jun 2027 22:54:18.699   04 Jun 2027 22:55:34.865            76.166                Novosib          2380.188
       462   04 Jun 2027 23:04:57.091   04 Jun 2027 23:05:48.145            51.054                Sumatra          1595.437
       463   04 Jun 2027 23:07:44.768   04 Jun 2027 23:07:57.584            12.816                Sumatra           400.500
       464   04 Jun 2027 23:08:56.913   04 Jun 2027 23:09:21.344            24.431                Sumatra           763.469
       465   04 Jun 2027 23:13:48.910   04 Jun 2027 23:14:06.397            17.487                Sumatra           546.469
       466   05 Jun 2027 00:19:17.034   05 Jun 2027 00:20:55.102            98.068                Anadyr2          3064.625
       467   05 Jun 2027 00:21:32.929   05 Jun 2027 00:21:52.071            19.142                Anadyr2           598.188
       468   05 Jun 2027 00:23:13.831   05 Jun 2027 00:25:03.794           109.963                Norilsk          3436.344
       469   05 Jun 2027 00:25:24.137   05 Jun 2027 00:26:03.053            38.916               Magadan1          1216.125
       470   05 Jun 2027 00:26:29.328   05 Jun 2027 00:26:49.249            19.921               Magadan1           622.531
       471   05 Jun 2027 00:27:06.108   05 Jun 2027 00:28:17.758            71.650                Novosib          2239.062
       472   05 Jun 2027 00:28:33.544   05 Jun 2027 00:29:19.028            45.484              Murmansk2          1421.375
       473   05 Jun 2027 00:31:02.042   05 Jun 2027 00:31:16.646            14.604                Novosib           456.375
       474   05 Jun 2027 00:32:07.029   05 Jun 2027 00:34:04.810           117.781                Novosib          3680.656
       475   05 Jun 2027 01:15:51.079   05 Jun 2027 01:16:18.360            27.281            RioGallegos           852.531
       476   05 Jun 2027 01:17:48.694   05 Jun 2027 01:18:38.901            50.207            RioGallegos          1568.969
       477   05 Jun 2027 01:23:09.612   05 Jun 2027 01:24:01.576            51.964            RioGallegos          1623.875
       478   05 Jun 2027 01:52:39.508   05 Jun 2027 01:52:41.051             1.543                Anadyr1            48.219
       479   05 Jun 2027 01:54:11.162   05 Jun 2027 01:54:58.179            47.017                Anadyr1          1469.281
       480   05 Jun 2027 01:55:35.750   05 Jun 2027 01:55:38.034             2.284                Anadyr2            71.375
       481   05 Jun 2027 01:55:43.321   05 Jun 2027 01:55:47.302             3.981                Anadyr1           124.406
       482   05 Jun 2027 01:57:40.776   05 Jun 2027 01:58:22.954            42.178                Anadyr2          1318.062
