uniorb/output/strategy_4/Drop/Drop_KinoSat_110704.txt

KinoSat_110704
-------------------------
    Access    *     Start Time (UTCG)     *     Stop Time (UTCG)  *   Duration (s)        *       Station  *  Data (Mbytes)
         1   01 Jun 2027 03:50:49.847   01 Jun 2027 03:51:00.027            10.180               Magadan2           318.125
         2   01 Jun 2027 03:51:08.349   01 Jun 2027 03:51:24.088            15.739                Anadyr1           491.844
         3   01 Jun 2027 03:51:24.088   01 Jun 2027 03:51:54.597            30.509                Anadyr2           953.406
         4   01 Jun 2027 03:52:00.395   01 Jun 2027 03:54:12.533           132.138                Anadyr1          4129.312
         5   01 Jun 2027 03:54:22.028   01 Jun 2027 03:55:11.665            49.637                Anadyr1          1551.156
         6   01 Jun 2027 05:24:59.593   01 Jun 2027 05:25:39.051            39.458               Magadan1          1233.063
         7   01 Jun 2027 05:25:40.504   01 Jun 2027 05:27:19.929            99.425                Anadyr2          3107.031
         8   01 Jun 2027 05:27:19.929   01 Jun 2027 05:28:24.151            64.222                Anadyr1          2006.938
         9   01 Jun 2027 05:28:25.867   01 Jun 2027 05:29:34.787            68.920                Anadyr2          2153.750
        10   01 Jun 2027 05:29:44.999   01 Jun 2027 05:30:45.352            60.353               Magadan1          1886.031
        11   01 Jun 2027 05:30:54.886   01 Jun 2027 05:31:22.350            27.464               Magadan1           858.250
        12   01 Jun 2027 06:06:23.693   01 Jun 2027 06:07:07.431            43.738            RioGallegos          1366.812
        13   01 Jun 2027 06:08:26.772   01 Jun 2027 06:09:18.073            51.301            RioGallegos          1603.156
        14   01 Jun 2027 06:43:16.646   01 Jun 2027 06:44:58.105           101.459                Sumatra          3170.594
        15   01 Jun 2027 07:00:39.866   01 Jun 2027 07:00:50.615            10.749                Novosib           335.906
        16   01 Jun 2027 07:02:20.829   01 Jun 2027 07:03:34.982            74.153                Novosib          2317.281
        17   01 Jun 2027 07:03:41.125   01 Jun 2027 07:04:22.722            41.597                Novosib          1299.906
        18   01 Jun 2027 07:04:44.148   01 Jun 2027 07:08:33.550           229.402              Murmansk2          7168.812
        19   01 Jun 2027 07:09:29.268   01 Jun 2027 07:09:46.135            16.867              Murmansk2           527.094
        20   01 Jun 2027 07:10:13.551   01 Jun 2027 07:10:28.778            15.227              Murmansk2           475.844
        21   01 Jun 2027 07:42:37.889   01 Jun 2027 07:42:38.862             0.973            RioGallegos            30.406
        22   01 Jun 2027 07:43:00.881   01 Jun 2027 07:43:20.570            19.689            RioGallegos           615.281
        23   01 Jun 2027 07:44:06.522   01 Jun 2027 07:44:50.589            44.067            RioGallegos          1377.094
        24   01 Jun 2027 08:17:02.414   01 Jun 2027 08:18:48.428           106.014                Sumatra          3312.938
        25   01 Jun 2027 08:20:54.877   01 Jun 2027 08:22:20.822            85.945                Sumatra          2685.781
        26   01 Jun 2027 08:26:10.708   01 Jun 2027 08:26:59.205            48.497                  Delhi          1515.531
        27   01 Jun 2027 08:27:28.599   01 Jun 2027 08:29:35.492           126.893                  Delhi          3965.406
        28   01 Jun 2027 08:39:29.122   01 Jun 2027 08:39:55.471            26.349                Novosib           823.406
        29   01 Jun 2027 08:40:24.481   01 Jun 2027 08:40:28.340             3.859                 Moscow           120.594
        30   01 Jun 2027 08:40:31.795   01 Jun 2027 08:41:44.790            72.995                Norilsk          2281.094
        31   01 Jun 2027 08:41:47.441   01 Jun 2027 08:42:24.675            37.234                Irkutsk          1163.562
        32   01 Jun 2027 08:42:27.127   01 Jun 2027 08:43:53.971            86.844              Murmansk2          2713.875
        33   01 Jun 2027 08:43:53.971   01 Jun 2027 08:44:22.662            28.691              Murmansk1           896.594
        34   01 Jun 2027 08:44:47.271   01 Jun 2027 08:45:07.918            20.647                 Moscow           645.219
        35   01 Jun 2027 10:01:38.481   01 Jun 2027 10:02:34.222            55.741                  Delhi          1741.906
        36   01 Jun 2027 10:05:36.251   01 Jun 2027 10:05:54.947            18.696                  Delhi           584.250
        37   01 Jun 2027 10:16:51.767   01 Jun 2027 10:21:20.604           268.837              Murmansk2          8401.156
        38   01 Jun 2027 10:21:36.496   01 Jun 2027 10:22:13.461            36.965                 Moscow          1155.156
        39   01 Jun 2027 11:52:51.863   01 Jun 2027 11:53:38.545            46.682              Murmansk2          1458.813
        40   01 Jun 2027 11:53:43.722   01 Jun 2027 11:53:52.707             8.985              Murmansk1           280.781
        41   01 Jun 2027 11:54:02.797   01 Jun 2027 11:54:25.541            22.744                 Moscow           710.750
        42   01 Jun 2027 11:54:38.452   01 Jun 2027 11:55:08.602            30.150              Murmansk1           942.187
        43   01 Jun 2027 11:55:37.420   01 Jun 2027 11:55:44.075             6.655                 Moscow           207.969
        44   01 Jun 2027 11:57:03.246   01 Jun 2027 11:57:21.283            18.037                Norilsk           563.656
        45   01 Jun 2027 12:59:33.823   01 Jun 2027 13:03:08.350           214.527               CapeTown          6703.969
        46   01 Jun 2027 13:10:47.397   01 Jun 2027 13:11:17.325            29.928               CapeTown           935.250
        47   01 Jun 2027 13:26:33.650   01 Jun 2027 13:26:40.155             6.505              Murmansk1           203.281
        48   01 Jun 2027 13:27:14.647   01 Jun 2027 13:29:29.582           134.935              Murmansk2          4216.719
        49   01 Jun 2027 13:30:15.843   01 Jun 2027 13:31:16.190            60.347              Murmansk2          1885.844
        50   01 Jun 2027 13:32:04.869   01 Jun 2027 13:33:13.735            68.866              Murmansk2          2152.063
        51   01 Jun 2027 13:33:39.518   01 Jun 2027 13:33:55.124            15.606              Murmansk2           487.688
        52   01 Jun 2027 13:34:45.017   01 Jun 2027 13:35:55.017            70.000              Murmansk2          2187.500
        53   01 Jun 2027 13:36:07.158   01 Jun 2027 13:36:24.106            16.948              Murmansk1           529.625
        54   01 Jun 2027 13:36:47.118   01 Jun 2027 13:37:33.597            46.479              Murmansk2          1452.469
        55   01 Jun 2027 13:37:34.976   01 Jun 2027 13:37:51.916            16.940              Murmansk2           529.375
        56   01 Jun 2027 13:39:53.779   01 Jun 2027 13:41:59.306           125.527                Anadyr1          3922.719
        57   01 Jun 2027 13:43:04.564   01 Jun 2027 13:45:31.084           146.520                Anadyr1          4578.750
        58   01 Jun 2027 13:45:58.132   01 Jun 2027 13:46:30.431            32.299                Anadyr2          1009.344
        59   01 Jun 2027 13:47:54.340   01 Jun 2027 13:50:22.657           148.317                Anadyr1          4634.906
        60   01 Jun 2027 15:11:08.122   01 Jun 2027 15:11:15.144             7.022              Murmansk2           219.438
        61   01 Jun 2027 15:11:27.768   01 Jun 2027 15:12:24.634            56.866              Murmansk1          1777.062
        62   01 Jun 2027 15:12:59.380   01 Jun 2027 15:13:19.796            20.416              Murmansk1           638.000
        63   01 Jun 2027 15:13:19.796   01 Jun 2027 15:13:20.957             1.161              Murmansk2            36.281
        64   01 Jun 2027 15:16:38.787   01 Jun 2027 15:16:59.474            20.687                Anadyr1           646.469
        65   01 Jun 2027 15:17:16.254   01 Jun 2027 15:17:58.244            41.990                Anadyr2          1312.187
        66   01 Jun 2027 15:18:34.930   01 Jun 2027 15:27:57.711           562.781               Magadan2         17586.906
        67   01 Jun 2027 16:57:50.344   01 Jun 2027 16:58:03.506            13.162               Magadan2           411.312
        68   01 Jun 2027 16:59:17.448   01 Jun 2027 16:59:29.306            11.858               Magadan2           370.562
        69   01 Jun 2027 17:00:51.717   01 Jun 2027 17:01:14.456            22.739               Magadan2           710.594
        70   01 Jun 2027 17:01:48.029   01 Jun 2027 17:02:10.678            22.649               Magadan1           707.781
        71   01 Jun 2027 17:05:37.744   01 Jun 2027 17:05:55.012            17.268               Magadan2           539.625
        72   01 Jun 2027 17:47:17.857   01 Jun 2027 17:50:20.839           182.982            RioGallegos          5718.188
        73   01 Jun 2027 17:52:03.020   01 Jun 2027 17:53:33.161            90.141            RioGallegos          2816.906
        74   01 Jun 2027 18:29:27.985   01 Jun 2027 18:30:50.864            82.879                Norilsk          2589.969
        75   01 Jun 2027 18:31:25.435   01 Jun 2027 18:33:36.920           131.485                Norilsk          4108.906
        76   01 Jun 2027 18:34:13.670   01 Jun 2027 18:35:01.893            48.223                Irkutsk          1506.969
        77   01 Jun 2027 18:36:38.256   01 Jun 2027 18:38:57.824           139.568                Irkutsk          4361.500
        78   01 Jun 2027 18:41:31.309   01 Jun 2027 18:41:58.521            27.212                Irkutsk           850.375
        79   01 Jun 2027 18:48:52.522   01 Jun 2027 18:53:15.236           262.714                Sumatra          8209.813
        80   01 Jun 2027 18:55:34.726   01 Jun 2027 18:56:56.329            81.603                Sumatra          2550.094
        81   01 Jun 2027 20:12:43.001   01 Jun 2027 20:13:36.917            53.916                Novosib          1684.875
        82   01 Jun 2027 20:19:07.501   01 Jun 2027 20:21:30.920           143.419                  Delhi          4481.844
        83   01 Jun 2027 20:25:13.386   01 Jun 2027 20:26:11.453            58.067                  Delhi          1814.594
        84   01 Jun 2027 21:44:05.236   01 Jun 2027 21:49:59.799           354.563              Murmansk1         11080.094
        85   01 Jun 2027 23:15:43.600   01 Jun 2027 23:17:36.454           112.854               Magadan1          3526.688
        86   01 Jun 2027 23:18:36.443   01 Jun 2027 23:18:47.384            10.941               Magadan2           341.906
        87   01 Jun 2027 23:19:25.077   01 Jun 2027 23:20:56.384            91.307              Murmansk2          2853.344
        88   01 Jun 2027 23:21:03.740   01 Jun 2027 23:22:51.957           108.217              Murmansk1          3381.781
        89   01 Jun 2027 23:23:07.444   01 Jun 2027 23:26:06.719           179.275                 Moscow          5602.344
        90   01 Jun 2027 23:48:50.992   01 Jun 2027 23:50:17.164            86.172               CapeTown          2692.875
        91   01 Jun 2027 23:53:16.874   01 Jun 2027 23:54:21.136            64.262               CapeTown          2008.187
        92   01 Jun 2027 23:55:14.717   01 Jun 2027 23:56:11.122            56.405               CapeTown          1762.656
        93   02 Jun 2027 00:54:50.713   02 Jun 2027 00:55:06.399            15.686               Magadan2           490.187
        94   02 Jun 2027 00:55:10.805   02 Jun 2027 00:55:22.472            11.667               Magadan1           364.594
        95   02 Jun 2027 00:55:28.237   02 Jun 2027 00:57:06.150            97.913              Murmansk2          3059.781
        96   02 Jun 2027 00:57:57.294   02 Jun 2027 00:58:25.691            28.397                Novosib           887.406
        97   02 Jun 2027 00:58:33.328   02 Jun 2027 00:59:16.753            43.425                 Moscow          1357.031
        98   02 Jun 2027 00:59:50.328   02 Jun 2027 01:00:17.388            27.060                 Moscow           845.625
        99   02 Jun 2027 01:02:14.640   02 Jun 2027 01:02:31.036            16.396                 Moscow           512.375
       100   02 Jun 2027 01:06:36.013   02 Jun 2027 01:07:09.037            33.024                 Moscow          1032.000
       101   02 Jun 2027 01:22:27.809   02 Jun 2027 01:22:57.765            29.956               CapeTown           936.125
       102   02 Jun 2027 01:23:33.097   02 Jun 2027 01:24:31.358            58.261               CapeTown          1820.656
       103   02 Jun 2027 01:31:42.487   02 Jun 2027 01:32:08.029            25.542               CapeTown           798.188
       104   02 Jun 2027 02:19:14.916   02 Jun 2027 02:20:36.941            82.025                Anadyr1          2563.281
       105   02 Jun 2027 02:20:50.539   02 Jun 2027 02:22:11.514            80.975               Magadan1          2530.469
       106   02 Jun 2027 02:22:32.913   02 Jun 2027 02:23:18.998            46.085               Magadan1          1440.156
       107   02 Jun 2027 02:27:43.206   02 Jun 2027 02:28:02.540            19.334                Norilsk           604.188
       108   02 Jun 2027 02:31:17.067   02 Jun 2027 02:32:37.134            80.067              Murmansk2          2502.094
       109   02 Jun 2027 02:33:37.527   02 Jun 2027 02:34:04.516            26.989              Murmansk2           843.406
       110   02 Jun 2027 02:34:44.198   02 Jun 2027 02:35:50.731            66.533                 Moscow          2079.156
       111   02 Jun 2027 02:42:14.225   02 Jun 2027 02:42:27.613            13.388                 Moscow           418.375
       112   02 Jun 2027 03:03:37.836   02 Jun 2027 03:04:20.136            42.300               CapeTown          1321.875
       113   02 Jun 2027 03:04:37.121   02 Jun 2027 03:05:26.825            49.704               CapeTown          1553.250
       114   02 Jun 2027 04:01:49.074   02 Jun 2027 04:03:46.665           117.591                Anadyr2          3674.719
       115   02 Jun 2027 04:03:53.312   02 Jun 2027 04:03:58.593             5.281                Anadyr2           165.031
       116   02 Jun 2027 04:03:58.593   02 Jun 2027 04:05:22.402            83.809                Anadyr1          2619.031
       117   02 Jun 2027 05:38:11.614   02 Jun 2027 05:39:27.706            76.092               Magadan1          2377.875
       118   02 Jun 2027 05:39:35.209   02 Jun 2027 05:39:43.553             8.344                Anadyr2           260.750
       119   02 Jun 2027 05:39:43.553   02 Jun 2027 05:40:39.795            56.242                Anadyr1          1757.563
       120   02 Jun 2027 05:40:54.326   02 Jun 2027 05:43:17.848           143.522               Magadan2          4485.062
       121   02 Jun 2027 05:43:36.641   02 Jun 2027 05:44:11.646            35.005                Novosib          1093.906
       122   02 Jun 2027 07:16:08.735   02 Jun 2027 07:19:26.276           197.541                Irkutsk          6173.156
       123   02 Jun 2027 07:25:55.946   02 Jun 2027 07:26:15.224            19.278              Murmansk2           602.438
       124   02 Jun 2027 08:32:10.660   02 Jun 2027 08:33:12.574            61.914                Sumatra          1934.812
       125   02 Jun 2027 08:39:06.499   02 Jun 2027 08:39:59.111            52.612                Sumatra          1644.125
       126   02 Jun 2027 08:52:42.189   02 Jun 2027 08:53:22.379            40.190                Irkutsk          1255.937
       127   02 Jun 2027 08:54:23.174   02 Jun 2027 08:54:35.450            12.276                Irkutsk           383.625
       128   02 Jun 2027 08:57:37.173   02 Jun 2027 08:58:55.104            77.931                Norilsk          2435.344
       129   02 Jun 2027 10:14:03.508   02 Jun 2027 10:15:43.462            99.954                  Delhi          3123.562
       130   02 Jun 2027 10:16:34.799   02 Jun 2027 10:17:22.487            47.688                  Delhi          1490.250
       131   02 Jun 2027 10:21:36.150   02 Jun 2027 10:23:00.265            84.115                  Delhi          2628.594
       132   02 Jun 2027 10:28:11.809   02 Jun 2027 10:28:25.440            13.631              Murmansk2           425.969
       133   02 Jun 2027 10:29:32.293   02 Jun 2027 10:29:42.820            10.527                Norilsk           328.969
       134   02 Jun 2027 10:30:01.457   02 Jun 2027 10:30:28.608            27.151                Norilsk           848.469
       135   02 Jun 2027 10:30:56.825   02 Jun 2027 10:31:38.630            41.805                Norilsk          1306.406
       136   02 Jun 2027 12:03:41.730   02 Jun 2027 12:03:54.166            12.436              Murmansk2           388.625
       137   02 Jun 2027 12:04:21.042   02 Jun 2027 12:04:45.275            24.233              Murmansk2           757.281
       138   02 Jun 2027 12:05:50.229   02 Jun 2027 12:05:55.944             5.715              Murmansk2           178.594
       139   02 Jun 2027 12:07:19.371   02 Jun 2027 12:08:23.819            64.448                Norilsk          2014.000
       140   02 Jun 2027 12:09:32.359   02 Jun 2027 12:10:42.777            70.418                Norilsk          2200.562
       141   02 Jun 2027 12:13:19.900   02 Jun 2027 12:13:51.723            31.823              Murmansk1           994.469
       142   02 Jun 2027 12:17:45.869   02 Jun 2027 12:20:46.763           180.894                Anadyr2          5652.938
       143   02 Jun 2027 12:21:01.828   02 Jun 2027 12:21:09.056             7.228                Anadyr1           225.875
       144   02 Jun 2027 13:22:00.940   02 Jun 2027 13:23:35.420            94.480               CapeTown          2952.500
       145   02 Jun 2027 13:39:26.857   02 Jun 2027 13:40:00.443            33.586              Murmansk1          1049.563
       146   02 Jun 2027 13:43:17.889   02 Jun 2027 13:43:37.780            19.891              Murmansk1           621.594
       147   02 Jun 2027 13:45:42.829   02 Jun 2027 13:45:52.898            10.069              Murmansk2           314.656
       148   02 Jun 2027 13:48:04.174   02 Jun 2027 13:48:37.673            33.499              Murmansk2          1046.844
       149   02 Jun 2027 13:51:51.096   02 Jun 2027 13:53:45.504           114.408                Anadyr2          3575.250
       150   02 Jun 2027 13:54:53.241   02 Jun 2027 13:57:13.663           140.422                Anadyr1          4388.188
       151   02 Jun 2027 15:19:22.737   02 Jun 2027 15:21:12.993           110.256              Murmansk1          3445.500
       152   02 Jun 2027 15:27:35.557   02 Jun 2027 15:28:58.987            83.430                Anadyr1          2607.188
       153   02 Jun 2027 15:30:19.559   02 Jun 2027 15:30:41.663            22.104                Anadyr2           690.750
       154   02 Jun 2027 15:30:41.663   02 Jun 2027 15:30:48.956             7.293                Anadyr1           227.906
       155   02 Jun 2027 15:31:46.927   02 Jun 2027 15:33:37.331           110.404               Magadan1          3450.125
       156   02 Jun 2027 15:36:06.565   02 Jun 2027 15:38:08.617           122.052               Magadan1          3814.125
       157   02 Jun 2027 15:38:37.068   02 Jun 2027 15:39:56.329            79.261               Magadan1          2476.906
       158   02 Jun 2027 17:03:47.462   02 Jun 2027 17:04:06.721            19.259                Anadyr1           601.844
       159   02 Jun 2027 17:05:48.323   02 Jun 2027 17:08:02.048           133.725               Magadan1          4178.906
       160   02 Jun 2027 17:09:10.593   02 Jun 2027 17:09:25.691            15.098               Magadan2           471.813
       161   02 Jun 2027 17:14:21.292   02 Jun 2027 17:14:31.167             9.875               Magadan1           308.594
       162   02 Jun 2027 17:15:28.185   02 Jun 2027 17:15:53.004            24.819               Magadan1           775.594
       163   02 Jun 2027 17:58:46.583   02 Jun 2027 18:02:09.243           202.660            RioGallegos          6333.125
       164   02 Jun 2027 18:04:10.585   02 Jun 2027 18:05:35.842            85.257            RioGallegos          2664.281
       165   02 Jun 2027 18:41:26.084   02 Jun 2027 18:41:54.499            28.415                Norilsk           887.969
       166   02 Jun 2027 18:43:02.202   02 Jun 2027 18:45:38.856           156.654                Norilsk          4895.438
       167   02 Jun 2027 18:45:58.830   02 Jun 2027 18:46:54.336            55.506                Irkutsk          1734.562
       168   02 Jun 2027 18:47:23.494   02 Jun 2027 18:48:50.791            87.297                Irkutsk          2728.031
       169   02 Jun 2027 18:49:53.419   02 Jun 2027 18:52:05.058           131.639                Irkutsk          4113.719
       170   02 Jun 2027 19:03:28.189   02 Jun 2027 19:04:20.411            52.222                Sumatra          1631.937
       171   02 Jun 2027 19:04:52.362   02 Jun 2027 19:06:07.501            75.139                Sumatra          2348.094
       172   02 Jun 2027 20:21:08.502   02 Jun 2027 20:21:32.866            24.364                Irkutsk           761.375
       173   02 Jun 2027 20:21:35.074   02 Jun 2027 20:24:45.518           190.444                Novosib          5951.375
       174   02 Jun 2027 20:30:17.879   02 Jun 2027 20:33:14.012           176.133                  Delhi          5504.156
       175   02 Jun 2027 20:37:10.424   02 Jun 2027 20:38:29.033            78.609                  Delhi          2456.531
       176   02 Jun 2027 21:55:55.824   02 Jun 2027 21:59:55.887           240.063              Murmansk2          7501.969
       177   02 Jun 2027 22:00:57.785   02 Jun 2027 22:01:50.276            52.491              Murmansk1          1640.344
       178   02 Jun 2027 23:27:14.703   02 Jun 2027 23:27:33.300            18.597               Magadan1           581.156
       179   02 Jun 2027 23:29:10.179   02 Jun 2027 23:29:50.171            39.992               Magadan1          1249.750
       180   02 Jun 2027 23:30:24.466   02 Jun 2027 23:30:29.626             5.160               Magadan2           161.250
       181   02 Jun 2027 23:31:25.686   02 Jun 2027 23:32:53.667            87.981              Murmansk1          2749.406
       182   02 Jun 2027 23:32:53.922   02 Jun 2027 23:35:08.731           134.809              Murmansk2          4212.781
       183   02 Jun 2027 23:36:07.685   02 Jun 2027 23:37:33.117            85.432                 Moscow          2669.750
       184   02 Jun 2027 23:38:22.875   02 Jun 2027 23:39:02.597            39.722                 Moscow          1241.313
       185   02 Jun 2027 23:42:46.287   02 Jun 2027 23:43:03.065            16.778                 Moscow           524.313
       186   02 Jun 2027 23:43:21.347   02 Jun 2027 23:43:36.174            14.827                 Moscow           463.344
       187   03 Jun 2027 00:00:13.271   03 Jun 2027 00:02:30.658           137.387               CapeTown          4293.344
       188   03 Jun 2027 00:05:51.994   03 Jun 2027 00:07:14.289            82.295               CapeTown          2571.719
       189   03 Jun 2027 01:07:22.456   03 Jun 2027 01:08:40.495            78.039              Murmansk2          2438.719
       190   03 Jun 2027 01:10:32.380   03 Jun 2027 01:10:59.214            26.834              Murmansk1           838.562
       191   03 Jun 2027 01:14:10.072   03 Jun 2027 01:14:37.112            27.040                 Moscow           845.000
       192   03 Jun 2027 01:17:48.921   03 Jun 2027 01:18:01.761            12.840                 Moscow           401.250
       193   03 Jun 2027 01:19:33.044   03 Jun 2027 01:19:39.761             6.717                 Moscow           209.906
       194   03 Jun 2027 01:19:58.619   03 Jun 2027 01:20:10.806            12.187                 Moscow           380.844
       195   03 Jun 2027 01:34:35.470   03 Jun 2027 01:36:13.663            98.193               CapeTown          3068.531
       196   03 Jun 2027 01:44:01.191   03 Jun 2027 01:44:20.048            18.857               CapeTown           589.281
       197   03 Jun 2027 02:31:21.665   03 Jun 2027 02:32:00.814            39.149                Anadyr1          1223.406
       198   03 Jun 2027 02:32:01.430   03 Jun 2027 02:33:39.879            98.449               Magadan2          3076.531
       199   03 Jun 2027 02:34:38.487   03 Jun 2027 02:34:48.354             9.867               Magadan2           308.344
       200   03 Jun 2027 02:35:42.472   03 Jun 2027 02:36:06.172            23.700               Magadan2           740.625
       201   03 Jun 2027 02:39:34.577   03 Jun 2027 02:39:53.696            19.119                Norilsk           597.469
       202   03 Jun 2027 02:40:08.383   03 Jun 2027 02:40:38.587            30.204                Norilsk           943.875
       203   03 Jun 2027 02:42:34.942   03 Jun 2027 02:43:15.524            40.582                Norilsk          1268.188
       204   03 Jun 2027 02:43:52.832   03 Jun 2027 02:44:29.963            37.131              Murmansk2          1160.344
       205   03 Jun 2027 02:45:59.169   03 Jun 2027 02:46:26.907            27.738              Murmansk2           866.813
       206   03 Jun 2027 02:46:49.661   03 Jun 2027 02:47:07.688            18.027                 Moscow           563.344
       207   03 Jun 2027 02:49:32.064   03 Jun 2027 02:49:43.781            11.717                 Moscow           366.156
       208   03 Jun 2027 02:50:52.115   03 Jun 2027 02:50:55.545             3.430                 Moscow           107.187
       209   03 Jun 2027 02:52:15.852   03 Jun 2027 02:52:50.396            34.544                 Moscow          1079.500
       210   03 Jun 2027 04:13:59.484   03 Jun 2027 04:14:13.519            14.035                Anadyr1           438.594
       211   03 Jun 2027 04:14:23.647   03 Jun 2027 04:16:30.235           126.588               Magadan2          3955.875
       212   03 Jun 2027 04:16:49.751   03 Jun 2027 04:19:44.643           174.892               Magadan2          5465.375
       213   03 Jun 2027 04:56:34.335   03 Jun 2027 04:59:32.621           178.286            RioGallegos          5571.438
       214   03 Jun 2027 05:03:08.538   03 Jun 2027 05:03:15.970             7.432            RioGallegos           232.250
       215   03 Jun 2027 05:50:08.230   03 Jun 2027 05:50:46.807            38.577                Irkutsk          1205.531
       216   03 Jun 2027 05:51:21.584   03 Jun 2027 05:53:57.188           155.604                Irkutsk          4862.625
       217   03 Jun 2027 05:54:38.581   03 Jun 2027 05:55:16.982            38.401                Irkutsk          1200.031
       218   03 Jun 2027 07:27:41.152   03 Jun 2027 07:28:22.934            41.782                Novosib          1305.688
       219   03 Jun 2027 07:28:34.326   03 Jun 2027 07:28:49.019            14.693                Novosib           459.156
       220   03 Jun 2027 07:29:47.781   03 Jun 2027 07:30:50.002            62.221                Irkutsk          1944.406
       221   03 Jun 2027 07:32:37.029   03 Jun 2027 07:33:28.377            51.348              Murmansk2          1604.625
       222   03 Jun 2027 08:07:23.934   03 Jun 2027 08:07:27.261             3.327            RioGallegos           103.969
       223   03 Jun 2027 08:08:20.624   03 Jun 2027 08:08:54.072            33.448            RioGallegos          1045.250
       224   03 Jun 2027 08:41:36.800   03 Jun 2027 08:42:23.173            46.373                Sumatra          1449.156
       225   03 Jun 2027 08:43:25.002   03 Jun 2027 08:45:18.068           113.066                Sumatra          3533.313
       226   03 Jun 2027 09:03:27.538   03 Jun 2027 09:03:40.706            13.168                Novosib           411.500
       227   03 Jun 2027 09:04:42.194   03 Jun 2027 09:05:43.732            61.538                Irkutsk          1923.063
       228   03 Jun 2027 09:06:00.383   03 Jun 2027 09:06:12.081            11.698                Irkutsk           365.563
       229   03 Jun 2027 09:06:36.324   03 Jun 2027 09:06:50.818            14.494                Novosib           452.938
       230   03 Jun 2027 09:10:51.428   03 Jun 2027 09:11:07.913            16.485                Norilsk           515.156
       231   03 Jun 2027 10:26:37.526   03 Jun 2027 10:28:57.507           139.981                  Delhi          4374.406
       232   03 Jun 2027 10:33:40.179   03 Jun 2027 10:35:14.885            94.706                  Delhi          2959.562
       233   03 Jun 2027 10:43:11.148   03 Jun 2027 10:43:40.431            29.283                Norilsk           915.094
       234   03 Jun 2027 12:17:48.301   03 Jun 2027 12:18:10.088            21.787              Murmansk2           680.844
       235   03 Jun 2027 12:20:34.947   03 Jun 2027 12:22:53.692           138.745                Norilsk          4335.781
       236   03 Jun 2027 12:23:17.514   03 Jun 2027 12:23:44.729            27.215              Murmansk1           850.469
       237   03 Jun 2027 12:24:27.369   03 Jun 2027 12:24:41.070            13.701              Murmansk1           428.156
       238   03 Jun 2027 12:29:09.222   03 Jun 2027 12:34:26.135           316.913                Anadyr1          9903.531
       239   03 Jun 2027 13:51:20.653   03 Jun 2027 13:52:18.026            57.373              Murmansk1          1792.906
       240   03 Jun 2027 13:52:48.750   03 Jun 2027 13:53:30.637            41.887              Murmansk2          1308.969
       241   03 Jun 2027 14:00:37.661   03 Jun 2027 14:01:04.246            26.585              Murmansk2           830.781
       242   03 Jun 2027 14:03:49.287   03 Jun 2027 14:07:06.761           197.474                Anadyr2          6171.062
       243   03 Jun 2027 15:04:36.272   03 Jun 2027 15:05:39.952            63.680               CapeTown          1990.000
       244   03 Jun 2027 15:32:19.362   03 Jun 2027 15:33:35.060            75.698              Murmansk2          2365.562
       245   03 Jun 2027 15:34:01.695   03 Jun 2027 15:35:08.808            67.113              Murmansk1          2097.281
       246   03 Jun 2027 15:39:36.720   03 Jun 2027 15:41:50.385           133.665                Anadyr2          4177.031
       247   03 Jun 2027 15:42:18.464   03 Jun 2027 15:47:11.354           292.890               Magadan1          9152.813
       248   03 Jun 2027 17:17:48.850   03 Jun 2027 17:19:17.855            89.005               Magadan2          2781.406
       249   03 Jun 2027 17:21:12.830   03 Jun 2027 17:21:29.349            16.519               Magadan2           516.219
       250   03 Jun 2027 17:23:41.175   03 Jun 2027 17:23:50.815             9.640               Magadan2           301.250
       251   03 Jun 2027 17:26:22.441   03 Jun 2027 17:26:27.392             4.951               Magadan2           154.719
       252   03 Jun 2027 17:26:33.435   03 Jun 2027 17:27:06.875            33.440               Magadan2          1045.000
       253   03 Jun 2027 18:10:24.799   03 Jun 2027 18:15:00.320           275.521            RioGallegos          8610.031
       254   03 Jun 2027 18:15:42.201   03 Jun 2027 18:16:51.660            69.459            RioGallegos          2170.594
       255   03 Jun 2027 18:53:25.120   03 Jun 2027 18:54:15.855            50.735                Norilsk          1585.469
       256   03 Jun 2027 18:55:11.825   03 Jun 2027 18:56:52.799           100.974                Norilsk          3155.437
       257   03 Jun 2027 18:57:47.679   03 Jun 2027 18:59:32.852           105.173                Irkutsk          3286.656
       258   03 Jun 2027 19:00:52.757   03 Jun 2027 19:01:12.425            19.668                Irkutsk           614.625
       259   03 Jun 2027 19:11:47.529   03 Jun 2027 19:15:22.267           214.738                Sumatra          6710.562
       260   03 Jun 2027 19:17:35.477   03 Jun 2027 19:18:27.420            51.943                Sumatra          1623.219
       261   03 Jun 2027 20:33:28.577   03 Jun 2027 20:34:34.437            65.860                Novosib          2058.125
       262   03 Jun 2027 20:35:10.716   03 Jun 2027 20:36:47.622            96.906                Novosib          3028.312
       263   03 Jun 2027 20:41:44.033   03 Jun 2027 20:42:47.641            63.608                  Delhi          1987.750
       264   03 Jun 2027 20:44:20.497   03 Jun 2027 20:45:02.170            41.673                  Delhi          1302.281
       265   03 Jun 2027 20:47:36.888   03 Jun 2027 20:48:45.463            68.575                  Delhi          2142.969
       266   03 Jun 2027 22:07:49.531   03 Jun 2027 22:14:14.262           384.731              Murmansk2         12022.844
       267   03 Jun 2027 22:14:32.650   03 Jun 2027 22:16:57.220           144.570                 Moscow          4517.812
       268   03 Jun 2027 23:43:26.607   03 Jun 2027 23:44:52.023            85.416              Murmansk1          2669.250
       269   03 Jun 2027 23:46:55.417   03 Jun 2027 23:47:30.372            34.955                 Moscow          1092.344
       270   03 Jun 2027 23:49:00.186   03 Jun 2027 23:50:20.434            80.248                 Moscow          2507.750
       271   03 Jun 2027 23:53:25.214   03 Jun 2027 23:54:03.424            38.210                 Moscow          1194.063
       272   03 Jun 2027 23:55:07.330   03 Jun 2027 23:55:40.590            33.260                 Moscow          1039.375
       273   04 Jun 2027 00:11:43.298   04 Jun 2027 00:14:50.290           186.992               CapeTown          5843.500
       274   04 Jun 2027 01:18:08.258   04 Jun 2027 01:18:29.563            21.305               Magadan1           665.781
       275   04 Jun 2027 01:19:24.102   04 Jun 2027 01:21:46.238           142.136              Murmansk1          4441.750
       276   04 Jun 2027 01:22:36.723   04 Jun 2027 01:23:44.854            68.131                 Moscow          2129.094
       277   04 Jun 2027 01:31:50.823   04 Jun 2027 01:32:03.989            13.166                 Moscow           411.437
       278   04 Jun 2027 01:46:48.641   04 Jun 2027 01:48:01.292            72.651               CapeTown          2270.344
       279   04 Jun 2027 01:56:24.604   04 Jun 2027 01:56:38.033            13.429               CapeTown           419.656
       280   04 Jun 2027 02:43:30.573   04 Jun 2027 02:44:33.049            62.476                Anadyr2          1952.375
       281   04 Jun 2027 02:44:40.739   04 Jun 2027 02:46:46.716           125.977               Magadan1          3936.781
       282   04 Jun 2027 02:50:57.815   04 Jun 2027 02:51:21.622            23.807               Magadan1           743.969
       283   04 Jun 2027 02:53:39.686   04 Jun 2027 02:54:14.600            34.914                Norilsk          1091.062
       284   04 Jun 2027 02:55:18.131   04 Jun 2027 02:55:58.539            40.408              Murmansk1          1262.750
       285   04 Jun 2027 02:56:13.101   04 Jun 2027 02:56:32.546            19.445              Murmansk1           607.656
       286   04 Jun 2027 02:57:19.060   04 Jun 2027 02:57:22.905             3.845              Murmansk1           120.156
       287   04 Jun 2027 02:58:21.628   04 Jun 2027 02:58:23.195             1.567              Murmansk2            48.969
       288   04 Jun 2027 02:58:30.583   04 Jun 2027 02:58:40.103             9.520              Murmansk2           297.500
       289   04 Jun 2027 02:58:55.715   04 Jun 2027 02:59:38.173            42.458                 Moscow          1326.812
       290   04 Jun 2027 04:27:03.443   04 Jun 2027 04:27:10.888             7.445                Norilsk           232.656
       291   04 Jun 2027 04:27:18.827   04 Jun 2027 04:28:32.713            73.886               Magadan1          2308.937
       292   04 Jun 2027 04:28:40.446   04 Jun 2027 04:30:25.160           104.714                Norilsk          3272.312
       293   04 Jun 2027 05:08:06.458   04 Jun 2027 05:11:15.444           188.986            RioGallegos          5905.812
       294   04 Jun 2027 05:59:50.799   04 Jun 2027 06:00:08.662            17.863                Novosib           558.219
       295   04 Jun 2027 06:03:52.920   04 Jun 2027 06:05:43.517           110.597                Novosib          3456.156
       296   04 Jun 2027 06:05:51.117   04 Jun 2027 06:07:22.773            91.656                Irkutsk          2864.250
       297   04 Jun 2027 06:07:47.321   04 Jun 2027 06:08:03.156            15.835                Novosib           494.844
       298   04 Jun 2027 07:38:48.050   04 Jun 2027 07:38:50.477             2.427                Norilsk            75.844
       299   04 Jun 2027 07:39:06.782   04 Jun 2027 07:39:19.482            12.700                Norilsk           396.875
       300   04 Jun 2027 07:39:38.023   04 Jun 2027 07:39:48.286            10.263                Norilsk           320.719
       301   04 Jun 2027 07:39:55.593   04 Jun 2027 07:40:11.806            16.213                Norilsk           506.656
       302   04 Jun 2027 07:40:55.300   04 Jun 2027 07:41:08.563            13.263                Norilsk           414.469
       303   04 Jun 2027 07:42:33.001   04 Jun 2027 07:42:33.928             0.927                Norilsk            28.969
       304   04 Jun 2027 07:44:21.887   04 Jun 2027 07:44:38.490            16.603              Murmansk1           518.844
       305   04 Jun 2027 08:19:55.005   04 Jun 2027 08:20:44.491            49.486            RioGallegos          1546.438
       306   04 Jun 2027 08:22:06.241   04 Jun 2027 08:22:38.511            32.270            RioGallegos          1008.438
       307   04 Jun 2027 08:54:06.570   04 Jun 2027 08:54:19.472            12.902                Sumatra           403.188
       308   04 Jun 2027 08:54:58.439   04 Jun 2027 08:55:28.899            30.460                Sumatra           951.875
       309   04 Jun 2027 09:02:23.825   04 Jun 2027 09:02:52.982            29.157                Sumatra           911.156
       310   04 Jun 2027 09:15:22.882   04 Jun 2027 09:15:26.829             3.947                Novosib           123.344
       311   04 Jun 2027 09:15:54.389   04 Jun 2027 09:16:46.193            51.804                Novosib          1618.875
       312   04 Jun 2027 09:17:30.008   04 Jun 2027 09:17:56.272            26.264                Novosib           820.750
       313   04 Jun 2027 09:18:03.889   04 Jun 2027 09:18:14.937            11.048                Novosib           345.250
       314   04 Jun 2027 09:18:50.819   04 Jun 2027 09:19:08.844            18.025                Norilsk           563.281
       315   04 Jun 2027 10:39:23.752   04 Jun 2027 10:41:39.543           135.791                  Delhi          4243.469
       316   04 Jun 2027 10:43:11.460   04 Jun 2027 10:43:26.197            14.737                  Delhi           460.531
       317   04 Jun 2027 10:47:52.909   04 Jun 2027 10:48:00.620             7.711                  Delhi           240.969
       318   04 Jun 2027 10:51:57.283   04 Jun 2027 10:52:02.434             5.151                Novosib           160.969
       319   04 Jun 2027 10:56:46.611   04 Jun 2027 10:57:21.083            34.472                Norilsk          1077.250
       320   04 Jun 2027 12:25:28.783   04 Jun 2027 12:27:19.988           111.205              Murmansk2          3475.156
       321   04 Jun 2027 12:28:34.369   04 Jun 2027 12:28:40.193             5.824              Murmansk2           182.000
       322   04 Jun 2027 12:30:16.498   04 Jun 2027 12:30:40.148            23.650              Murmansk1           739.062
       323   04 Jun 2027 12:30:59.815   04 Jun 2027 12:31:57.990            58.175              Murmansk1          1817.969
       324   04 Jun 2027 12:32:42.733   04 Jun 2027 12:33:14.904            32.171              Murmansk2          1005.344
       325   04 Jun 2027 12:33:27.186   04 Jun 2027 12:33:48.184            20.998              Murmansk2           656.188
       326   04 Jun 2027 12:34:32.834   04 Jun 2027 12:35:12.750            39.916              Murmansk1          1247.375
       327   04 Jun 2027 12:40:48.352   04 Jun 2027 12:44:30.378           222.026                Anadyr2          6938.313
       328   04 Jun 2027 12:45:43.980   04 Jun 2027 12:47:22.427            98.447                Anadyr1          3076.469
       329   04 Jun 2027 14:03:47.821   04 Jun 2027 14:04:18.106            30.285              Murmansk2           946.406
       330   04 Jun 2027 14:05:32.597   04 Jun 2027 14:06:06.611            34.014              Murmansk2          1062.938
       331   04 Jun 2027 14:15:48.178   04 Jun 2027 14:17:28.703           100.525                Anadyr1          3141.406
       332   04 Jun 2027 14:17:35.050   04 Jun 2027 14:19:07.608            92.558                Anadyr2          2892.437
       333   04 Jun 2027 14:19:20.464   04 Jun 2027 14:20:01.478            41.014                Anadyr2          1281.688
       334   04 Jun 2027 14:24:55.027   04 Jun 2027 14:25:43.310            48.283                Anadyr2          1508.844
       335   04 Jun 2027 15:45:31.030   04 Jun 2027 15:47:08.392            97.362              Murmansk1          3042.563
       336   04 Jun 2027 15:51:37.989   04 Jun 2027 15:53:43.944           125.955                Anadyr2          3936.094
       337   04 Jun 2027 15:54:13.164   04 Jun 2027 15:57:25.727           192.563               Magadan2          6017.594
       338   04 Jun 2027 15:57:25.727   04 Jun 2027 15:58:17.992            52.265               Magadan1          1633.281
       339   04 Jun 2027 16:02:22.569   04 Jun 2027 16:02:37.043            14.474               Magadan2           452.312
       340   04 Jun 2027 17:27:32.596   04 Jun 2027 17:27:42.509             9.913                Anadyr1           309.781
       341   04 Jun 2027 17:27:48.087   04 Jun 2027 17:28:14.959            26.872                Anadyr2           839.750
       342   04 Jun 2027 17:28:52.120   04 Jun 2027 17:29:38.863            46.743                Anadyr1          1460.719
       343   04 Jun 2027 17:29:49.781   04 Jun 2027 17:31:16.033            86.252               Magadan2          2695.375
       344   04 Jun 2027 17:31:45.652   04 Jun 2027 17:32:31.828            46.176               Magadan1          1443.000
       345   04 Jun 2027 18:22:08.814   04 Jun 2027 18:28:18.211           369.397            RioGallegos         11543.656
       346   04 Jun 2027 19:06:35.157   04 Jun 2027 19:07:19.788            44.631                Norilsk          1394.719
       347   04 Jun 2027 19:07:27.087   04 Jun 2027 19:10:53.594           206.507                Norilsk          6453.344
       348   04 Jun 2027 19:11:17.821   04 Jun 2027 19:12:27.678            69.857                Irkutsk          2183.031
       349   04 Jun 2027 19:12:40.831   04 Jun 2027 19:15:34.892           174.061                Novosib          5439.406
       350   04 Jun 2027 19:25:53.237   04 Jun 2027 19:27:21.958            88.721                Sumatra          2772.531
       351   04 Jun 2027 20:47:33.846   04 Jun 2027 20:48:59.261            85.415                Novosib          2669.219
       352   04 Jun 2027 20:52:05.394   04 Jun 2027 20:52:34.184            28.790                Novosib           899.687
       353   04 Jun 2027 20:53:19.719   04 Jun 2027 20:54:48.012            88.293                  Delhi          2759.156
       354   04 Jun 2027 20:56:33.791   04 Jun 2027 20:56:54.541            20.750                  Delhi           648.437
       355   04 Jun 2027 20:58:07.031   04 Jun 2027 20:59:52.046           105.015                  Delhi          3281.719
       356   04 Jun 2027 22:19:45.289   04 Jun 2027 22:22:10.948           145.659              Murmansk2          4551.844
       357   04 Jun 2027 22:23:00.326   04 Jun 2027 22:23:53.422            53.096              Murmansk1          1659.250
       358   04 Jun 2027 22:24:55.786   04 Jun 2027 22:30:36.251           340.465                 Moscow         10639.531
       359   04 Jun 2027 23:55:27.767   04 Jun 2027 23:55:28.479             0.712              Murmansk2            22.250
       360   04 Jun 2027 23:56:02.071   04 Jun 2027 23:57:01.502            59.431              Murmansk1          1857.219
       361   04 Jun 2027 23:57:29.029   04 Jun 2027 23:57:46.098            17.069              Murmansk1           533.406
       362   04 Jun 2027 23:58:51.727   05 Jun 2027 00:00:19.634            87.907                 Moscow          2747.094
       363   05 Jun 2027 00:02:56.712   05 Jun 2027 00:04:15.394            78.682                 Moscow          2458.813
       364   05 Jun 2027 00:23:19.838   05 Jun 2027 00:24:31.255            71.417               CapeTown          2231.781
       365   05 Jun 2027 00:24:51.505   05 Jun 2027 00:25:25.682            34.177               CapeTown          1068.031
       366   05 Jun 2027 00:26:55.427   05 Jun 2027 00:27:17.060            21.633               CapeTown           676.031
       367   05 Jun 2027 01:22:37.047   05 Jun 2027 01:22:56.302            19.255               Magadan2           601.719
       368   05 Jun 2027 01:25:45.665   05 Jun 2027 01:25:49.063             3.398               Magadan1           106.188
       369   05 Jun 2027 01:25:57.399   05 Jun 2027 01:26:29.652            32.253               Magadan2          1007.906
       370   05 Jun 2027 01:27:30.000   05 Jun 2027 01:28:07.841            37.841               Magadan2          1182.531
       371   05 Jun 2027 01:31:25.692   05 Jun 2027 01:32:43.676            77.984              Murmansk1          2437.000
       372   05 Jun 2027 01:34:26.405   05 Jun 2027 01:34:45.621            19.216              Murmansk2           600.500
       373   05 Jun 2027 01:34:45.621   05 Jun 2027 01:34:59.064            13.443              Murmansk1           420.094
       374   05 Jun 2027 01:35:12.827   05 Jun 2027 01:35:26.170            13.343                Novosib           416.969
       375   05 Jun 2027 01:35:57.664   05 Jun 2027 01:37:06.127            68.463                Novosib          2139.469
       376   05 Jun 2027 01:59:07.915   05 Jun 2027 01:59:53.985            46.070               CapeTown          1439.688
       377   05 Jun 2027 02:02:55.808   05 Jun 2027 02:04:00.675            64.867               CapeTown          2027.094
       378   05 Jun 2027 02:55:24.385   05 Jun 2027 02:58:05.143           160.758               Magadan2          5023.688
       379   05 Jun 2027 03:01:36.507   05 Jun 2027 03:02:09.910            33.403                Anadyr1          1043.844
       380   05 Jun 2027 03:02:12.802   05 Jun 2027 03:02:47.321            34.519                Anadyr1          1078.719
       381   05 Jun 2027 03:02:47.321   05 Jun 2027 03:02:55.417             8.096                Anadyr2           253.000
       382   05 Jun 2027 03:02:58.319   05 Jun 2027 03:03:35.903            37.584               Magadan2          1174.500
       383   05 Jun 2027 03:03:35.951   05 Jun 2027 03:03:59.228            23.277                Anadyr2           727.406
       384   05 Jun 2027 03:04:21.639   05 Jun 2027 03:08:08.532           226.893                Anadyr1          7090.406
       385   05 Jun 2027 04:38:42.361   05 Jun 2027 04:39:02.320            19.959                Irkutsk           623.719
       386   05 Jun 2027 04:40:13.117   05 Jun 2027 04:42:28.571           135.454                Irkutsk          4232.938
       387   05 Jun 2027 06:14:05.808   05 Jun 2027 06:14:40.146            34.338               Magadan1          1073.062
       388   05 Jun 2027 06:15:00.120   05 Jun 2027 06:15:02.780             2.660                Norilsk            83.125
       389   05 Jun 2027 06:15:06.777   05 Jun 2027 06:16:58.778           112.001               Magadan2          3500.031
       390   05 Jun 2027 06:17:08.460   05 Jun 2027 06:17:56.439            47.979               Magadan1          1499.344
       391   05 Jun 2027 06:17:57.019   05 Jun 2027 06:18:48.539            51.520               Magadan2          1610.000
       392   05 Jun 2027 06:23:38.176   05 Jun 2027 06:23:49.133            10.957                Norilsk           342.406
       393   05 Jun 2027 07:52:33.356   05 Jun 2027 07:52:44.891            11.535                Irkutsk           360.469
       394   05 Jun 2027 07:55:06.124   05 Jun 2027 07:55:11.179             5.055                Novosib           157.969
       395   05 Jun 2027 08:32:32.821   05 Jun 2027 08:33:08.945            36.124            RioGallegos          1128.875
       396   05 Jun 2027 08:34:15.136   05 Jun 2027 08:34:55.945            40.809            RioGallegos          1275.281
       397   05 Jun 2027 09:06:49.168   05 Jun 2027 09:08:45.946           116.778                Sumatra          3649.313
       398   05 Jun 2027 09:27:17.089   05 Jun 2027 09:27:17.289             0.200                Novosib             6.250
       399   05 Jun 2027 09:28:46.354   05 Jun 2027 09:29:41.152            54.798                Novosib          1712.437
       400   05 Jun 2027 09:29:56.478   05 Jun 2027 09:30:17.899            21.421                Novosib           669.406
       401   05 Jun 2027 09:30:39.545   05 Jun 2027 09:31:10.190            30.645                Norilsk           957.656
       402   05 Jun 2027 10:52:29.785   05 Jun 2027 10:55:21.052           171.267                  Delhi          5352.094
       403   05 Jun 2027 11:06:47.695   05 Jun 2027 11:07:44.367            56.672                Norilsk          1771.000
       404   05 Jun 2027 11:11:08.687   05 Jun 2027 11:11:33.145            24.458                Norilsk           764.313
       405   05 Jun 2027 12:34:15.926   05 Jun 2027 12:34:22.081             6.155                 Moscow           192.344
       406   05 Jun 2027 12:37:30.954   05 Jun 2027 12:38:15.027            44.073                 Moscow          1377.281
       407   05 Jun 2027 12:38:24.885   05 Jun 2027 12:39:17.720            52.835              Murmansk2          1651.094
       408   05 Jun 2027 12:39:17.720   05 Jun 2027 12:41:23.183           125.463              Murmansk1          3920.719
       409   05 Jun 2027 12:41:44.132   05 Jun 2027 12:42:54.987            70.855              Murmansk1          2214.219
       410   05 Jun 2027 12:47:20.148   05 Jun 2027 12:47:40.921            20.773              Murmansk1           649.156
       411   05 Jun 2027 12:52:34.435   05 Jun 2027 12:58:40.880           366.445                Anadyr1         11451.406
       412   05 Jun 2027 14:16:17.642   05 Jun 2027 14:17:34.019            76.377              Murmansk2          2386.781
       413   05 Jun 2027 14:27:47.634   05 Jun 2027 14:31:08.230           200.596                Anadyr1          6268.625
       414   05 Jun 2027 14:32:26.691   05 Jun 2027 14:36:02.550           215.859               Magadan1          6745.594
       415   05 Jun 2027 14:36:02.550   05 Jun 2027 14:36:26.211            23.661               Magadan2           739.406
       416   05 Jun 2027 16:03:39.321   05 Jun 2027 16:04:59.951            80.630                Anadyr1          2519.687
       417   05 Jun 2027 16:06:09.252   05 Jun 2027 16:08:13.291           124.039               Magadan1          3876.219
       418   05 Jun 2027 16:09:28.389   05 Jun 2027 16:10:11.357            42.968               Magadan2          1342.750
       419   05 Jun 2027 16:12:50.314   05 Jun 2027 16:14:15.076            84.762               Magadan2          2648.813
       420   05 Jun 2027 17:39:33.103   05 Jun 2027 17:39:35.722             2.619                Anadyr2            81.844
       421   05 Jun 2027 17:40:16.119   05 Jun 2027 17:40:36.300            20.181                Anadyr1           630.656
       422   05 Jun 2027 17:41:51.047   05 Jun 2027 17:43:34.229           103.182               Magadan1          3224.438
       423   05 Jun 2027 17:44:02.884   05 Jun 2027 17:45:10.528            67.644               Magadan1          2113.875
       424   05 Jun 2027 17:45:36.824   05 Jun 2027 17:46:52.409            75.585                Norilsk          2362.031
       425   05 Jun 2027 18:33:56.831   05 Jun 2027 18:37:00.346           183.515            RioGallegos          5734.844
       426   05 Jun 2027 18:44:11.140   05 Jun 2027 18:44:54.473            43.333            RioGallegos          1354.156
       427   05 Jun 2027 19:18:26.332   05 Jun 2027 19:18:38.776            12.444               Magadan1           388.875
       428   05 Jun 2027 19:18:52.468   05 Jun 2027 19:18:56.997             4.529                Norilsk           141.531
       429   05 Jun 2027 19:19:25.971   05 Jun 2027 19:19:44.669            18.698               Magadan1           584.313
       430   05 Jun 2027 19:21:05.300   05 Jun 2027 19:21:42.002            36.702                Norilsk          1146.937
       431   05 Jun 2027 19:22:03.771   05 Jun 2027 19:23:41.340            97.569                Irkutsk          3049.031
       432   05 Jun 2027 19:24:43.269   05 Jun 2027 19:29:20.671           277.402                Novosib          8668.813
       433   05 Jun 2027 19:36:36.393   05 Jun 2027 19:38:07.394            91.001                Sumatra          2843.781
       434   05 Jun 2027 19:45:49.642   05 Jun 2027 19:46:42.388            52.746                Sumatra          1648.312
       435   05 Jun 2027 20:57:20.346   05 Jun 2027 20:58:04.700            44.354                Novosib          1386.062
       436   05 Jun 2027 20:58:57.941   05 Jun 2027 20:59:21.007            23.066                Novosib           720.813
       437   05 Jun 2027 21:00:53.345   05 Jun 2027 21:01:05.914            12.569                Novosib           392.781
       438   05 Jun 2027 21:03:44.199   05 Jun 2027 21:03:56.345            12.146                Novosib           379.563
       439   05 Jun 2027 21:05:02.136   05 Jun 2027 21:08:50.605           228.469                  Delhi          7139.656
       440   05 Jun 2027 22:31:04.695   05 Jun 2027 22:31:12.938             8.243               Magadan2           257.594
       441   05 Jun 2027 22:31:42.493   05 Jun 2027 22:37:49.410           366.917              Murmansk1         11466.156
       442   05 Jun 2027 22:38:16.329   05 Jun 2027 22:43:41.820           325.491                 Moscow         10171.594
       443   06 Jun 2027 00:09:52.294   06 Jun 2027 00:10:45.529            53.235              Murmansk1          1663.594
       444   06 Jun 2027 00:13:36.080   06 Jun 2027 00:14:26.925            50.845                 Moscow          1588.906
       445   06 Jun 2027 00:35:02.139   06 Jun 2027 00:38:12.692           190.553               CapeTown          5954.781
       446   06 Jun 2027 00:38:53.611   06 Jun 2027 00:39:04.261            10.650               CapeTown           332.813
       447   06 Jun 2027 01:33:36.669   06 Jun 2027 01:34:10.375            33.706               Magadan2          1053.312
       448   06 Jun 2027 01:36:56.450   06 Jun 2027 01:37:13.377            16.927               Magadan1           528.969
       449   06 Jun 2027 01:38:32.336   06 Jun 2027 01:38:56.949            24.613               Magadan2           769.156
       450   06 Jun 2027 01:43:27.191   06 Jun 2027 01:44:15.719            48.528              Murmansk1          1516.500
       451   06 Jun 2027 01:45:37.819   06 Jun 2027 01:46:22.506            44.687              Murmansk2          1396.469
       452   06 Jun 2027 01:46:42.213   06 Jun 2027 01:47:46.982            64.769                 Moscow          2024.031
       453   06 Jun 2027 01:49:48.943   06 Jun 2027 01:49:52.450             3.507                 Moscow           109.594
       454   06 Jun 2027 01:51:08.130   06 Jun 2027 01:51:15.528             7.398                 Moscow           231.188
       455   06 Jun 2027 01:52:11.078   06 Jun 2027 01:52:24.368            13.290                 Moscow           415.312
       456   06 Jun 2027 01:55:17.901   06 Jun 2027 01:55:46.851            28.950                 Moscow           904.688
       457   06 Jun 2027 01:58:55.564   06 Jun 2027 01:59:02.656             7.092                 Moscow           221.625
       458   06 Jun 2027 02:11:36.820   06 Jun 2027 02:11:51.629            14.809               CapeTown           462.781
       459   06 Jun 2027 02:15:05.295   06 Jun 2027 02:15:54.520            49.225               CapeTown          1538.281
       460   06 Jun 2027 02:21:05.170   06 Jun 2027 02:21:27.818            22.648               CapeTown           707.750
       461   06 Jun 2027 03:07:26.775   06 Jun 2027 03:07:38.130            11.355               Magadan1           354.844
       462   06 Jun 2027 03:07:40.021   06 Jun 2027 03:08:03.600            23.579               Magadan1           736.844
       463   06 Jun 2027 03:08:13.030   06 Jun 2027 03:08:36.614            23.584                Anadyr2           737.000
       464   06 Jun 2027 03:12:20.593   06 Jun 2027 03:13:12.523            51.930               Magadan1          1622.813
       465   06 Jun 2027 03:13:24.336   06 Jun 2027 03:13:44.820            20.484                Anadyr1           640.125
       466   06 Jun 2027 03:13:50.231   06 Jun 2027 03:17:13.130           202.899               Magadan1          6340.594
       467   06 Jun 2027 03:18:13.501   06 Jun 2027 03:18:48.578            35.077               Magadan1          1096.156
       468   06 Jun 2027 04:51:03.443   06 Jun 2027 04:54:01.947           178.504                Anadyr2          5578.250
       469   06 Jun 2027 04:54:18.934   06 Jun 2027 04:54:21.064             2.130               Magadan2            66.563
       470   06 Jun 2027 04:54:21.200   06 Jun 2027 04:54:46.012            24.812                Irkutsk           775.375
       471   06 Jun 2027 04:55:18.942   06 Jun 2027 04:55:28.923             9.981                Anadyr1           311.906
       472   06 Jun 2027 06:26:37.296   06 Jun 2027 06:26:42.865             5.569               Magadan1           174.031
       473   06 Jun 2027 06:27:04.534   06 Jun 2027 06:27:08.944             4.410               Magadan2           137.812
       474   06 Jun 2027 06:27:18.673   06 Jun 2027 06:27:37.949            19.276               Magadan2           602.375
       475   06 Jun 2027 06:28:59.777   06 Jun 2027 06:30:31.636            91.859               Magadan2          2870.594
       476   06 Jun 2027 06:38:17.741   06 Jun 2027 06:38:24.596             6.855              Murmansk2           214.219
       477   06 Jun 2027 08:03:19.378   06 Jun 2027 08:03:27.675             8.297                Irkutsk           259.281
       478   06 Jun 2027 08:03:56.742   06 Jun 2027 08:04:19.543            22.801              Murmansk2           712.531
       479   06 Jun 2027 08:04:42.952   06 Jun 2027 08:05:15.350            32.398              Murmansk1          1012.438
       480   06 Jun 2027 08:05:22.632   06 Jun 2027 08:05:33.606            10.974                Irkutsk           342.938
       481   06 Jun 2027 08:06:22.614   06 Jun 2027 08:06:46.588            23.974                Irkutsk           749.187
       482   06 Jun 2027 08:06:54.602   06 Jun 2027 08:07:20.459            25.857                Novosib           808.031
