uniorb/output/strategy_4/Drop/Drop_KinoSat_111907.txt

KinoSat_111907
-------------------------
    Access    *     Start Time (UTCG)     *     Stop Time (UTCG)  *   Duration (s)        *       Station  *  Data (Mbytes)
         1   01 Jun 2027 04:21:42.107   01 Jun 2027 04:25:31.957           229.850                Novosib          7182.812
         2   01 Jun 2027 04:25:58.224   01 Jun 2027 04:32:40.671           402.447                  Delhi         12576.469
         3   01 Jun 2027 05:59:57.335   01 Jun 2027 06:01:00.087            62.752                Norilsk          1961.000
         4   01 Jun 2027 06:01:02.462   01 Jun 2027 06:02:23.899            81.437              Murmansk2          2544.906
         5   01 Jun 2027 06:02:41.693   01 Jun 2027 06:04:22.667           100.974              Murmansk2          3155.438
         6   01 Jun 2027 06:04:35.547   01 Jun 2027 06:06:18.181           102.634                 Moscow          3207.312
         7   01 Jun 2027 06:22:06.283   01 Jun 2027 06:22:50.591            44.308               CapeTown          1384.625
         8   01 Jun 2027 07:23:25.167   01 Jun 2027 07:23:37.553            12.386               Magadan1           387.062
         9   01 Jun 2027 07:23:46.042   01 Jun 2027 07:24:37.802            51.760                Anadyr1          1617.500
        10   01 Jun 2027 07:26:15.974   01 Jun 2027 07:27:05.843            49.869               Magadan1          1558.406
        11   01 Jun 2027 07:57:25.660   01 Jun 2027 07:57:42.388            16.728               CapeTown           522.750
        12   01 Jun 2027 08:56:08.188   01 Jun 2027 08:57:37.037            88.849                Anadyr1          2776.531
        13   01 Jun 2027 08:59:17.875   01 Jun 2027 09:04:23.789           305.914                Anadyr2          9559.812
        14   01 Jun 2027 10:32:53.153   01 Jun 2027 10:33:18.807            25.654               Magadan1           801.687
        15   01 Jun 2027 10:33:24.245   01 Jun 2027 10:39:17.619           353.374                Anadyr2         11042.937
        16   01 Jun 2027 12:09:06.662   01 Jun 2027 12:13:57.350           290.688               Magadan1          9084.000
        17   01 Jun 2027 14:32:20.640   01 Jun 2027 14:36:08.549           227.909            RioGallegos          7122.156
        18   01 Jun 2027 17:02:16.946   01 Jun 2027 17:08:21.441           364.495                Norilsk         11390.469
        19   01 Jun 2027 19:52:16.538   01 Jun 2027 19:52:48.921            32.383               CapeTown          1011.969
        20   01 Jun 2027 20:14:28.341   01 Jun 2027 20:20:17.635           349.294              Murmansk2         10915.438
        21   01 Jun 2027 20:20:34.918   01 Jun 2027 20:22:00.042            85.124              Murmansk1          2660.125
        22   01 Jun 2027 21:59:58.904   01 Jun 2027 22:01:17.122            78.218                Anadyr1          2444.313
        23   01 Jun 2027 22:02:12.316   01 Jun 2027 22:03:04.571            52.255                Anadyr2          1632.969
        24   01 Jun 2027 22:03:38.012   01 Jun 2027 22:04:32.916            54.904               Magadan2          1715.750
        25   01 Jun 2027 22:05:12.053   01 Jun 2027 22:06:22.451            70.398               Magadan1          2199.938
        26   01 Jun 2027 22:09:22.057   01 Jun 2027 22:09:29.022             6.965               Magadan1           217.656
        27   01 Jun 2027 22:09:59.832   01 Jun 2027 22:10:19.140            19.308               Magadan1           603.375
        28   01 Jun 2027 22:10:27.802   01 Jun 2027 22:10:37.313             9.511               Magadan1           297.219
        29   01 Jun 2027 22:10:43.174   01 Jun 2027 22:11:12.640            29.466               Magadan1           920.813
        30   01 Jun 2027 22:56:13.002   01 Jun 2027 22:57:56.082           103.080            RioGallegos          3221.250
        31   01 Jun 2027 22:58:43.327   01 Jun 2027 22:58:51.084             7.757            RioGallegos           242.406
        32   01 Jun 2027 22:59:32.724   01 Jun 2027 23:00:30.771            58.047            RioGallegos          1813.969
        33   01 Jun 2027 23:35:48.988   01 Jun 2027 23:37:23.658            94.670                Anadyr2          2958.437
        34   01 Jun 2027 23:37:41.381   01 Jun 2027 23:37:51.812            10.431                Anadyr2           325.969
        35   01 Jun 2027 23:37:54.892   01 Jun 2027 23:39:38.779           103.887                Norilsk          3246.469
        36   01 Jun 2027 23:39:53.671   01 Jun 2027 23:39:54.566             0.895               Magadan2            27.969
        37   01 Jun 2027 23:40:11.293   01 Jun 2027 23:41:12.330            61.037               Magadan1          1907.406
        38   01 Jun 2027 23:42:52.941   01 Jun 2027 23:43:40.644            47.703                Irkutsk          1490.719
        39   01 Jun 2027 23:44:57.811   01 Jun 2027 23:45:21.620            23.809                Irkutsk           744.031
        40   01 Jun 2027 23:48:12.926   01 Jun 2027 23:49:27.097            74.171                Irkutsk          2317.844
        41   01 Jun 2027 23:57:56.049   01 Jun 2027 23:59:53.859           117.810                Sumatra          3681.562
        42   02 Jun 2027 00:37:20.018   02 Jun 2027 00:37:36.407            16.389            RioGallegos           512.156
        43   02 Jun 2027 00:38:54.019   02 Jun 2027 00:39:20.806            26.787            RioGallegos           837.094
        44   02 Jun 2027 00:41:10.010   02 Jun 2027 00:42:15.620            65.610            RioGallegos          2050.312
        45   02 Jun 2027 01:11:06.851   02 Jun 2027 01:11:14.209             7.358                Anadyr1           229.937
        46   02 Jun 2027 01:12:47.884   02 Jun 2027 01:13:21.917            34.033                Anadyr1          1063.531
        47   02 Jun 2027 01:13:41.582   02 Jun 2027 01:14:22.579            40.997                Norilsk          1281.156
        48   02 Jun 2027 01:14:33.462   02 Jun 2027 01:15:35.861            62.399                Norilsk          1949.969
        49   02 Jun 2027 01:15:44.836   02 Jun 2027 01:17:20.677            95.841               Magadan1          2995.031
        50   02 Jun 2027 01:17:37.569   02 Jun 2027 01:18:51.804            74.235                Irkutsk          2319.844
        51   02 Jun 2027 01:23:12.696   02 Jun 2027 01:23:23.896            11.200                Novosib           350.000
        52   02 Jun 2027 01:24:27.559   02 Jun 2027 01:24:58.514            30.955                Novosib           967.344
        53   02 Jun 2027 01:28:21.563   02 Jun 2027 01:29:10.878            49.315                Irkutsk          1541.094
        54   02 Jun 2027 01:31:30.177   02 Jun 2027 01:34:27.103           176.926                Sumatra          5528.937
        55   02 Jun 2027 02:14:27.112   02 Jun 2027 02:15:01.603            34.491            RioGallegos          1077.844
        56   02 Jun 2027 02:47:50.397   02 Jun 2027 02:47:54.403             4.006                Anadyr1           125.188
        57   02 Jun 2027 02:48:37.881   02 Jun 2027 02:48:57.955            20.074                Anadyr2           627.312
        58   02 Jun 2027 02:49:42.672   02 Jun 2027 02:50:51.713            69.041                Norilsk          2157.531
        59   02 Jun 2027 02:52:36.521   02 Jun 2027 02:53:32.954            56.433              Murmansk1          1763.531
        60   02 Jun 2027 02:53:33.289   02 Jun 2027 02:54:43.865            70.576                Novosib          2205.500
        61   02 Jun 2027 02:55:29.128   02 Jun 2027 02:56:29.393            60.265                Irkutsk          1883.281
        62   02 Jun 2027 03:00:39.145   02 Jun 2027 03:02:55.644           136.499                Novosib          4265.594
        63   02 Jun 2027 03:06:09.391   02 Jun 2027 03:07:45.149            95.758                  Delhi          2992.438
        64   02 Jun 2027 03:42:46.028   02 Jun 2027 03:43:56.109            70.081            RioGallegos          2190.031
        65   02 Jun 2027 03:47:42.204   02 Jun 2027 03:47:47.455             5.251            RioGallegos           164.094
        66   02 Jun 2027 04:34:00.748   02 Jun 2027 04:35:09.289            68.541                Norilsk          2141.906
        67   02 Jun 2027 04:35:12.168   02 Jun 2027 04:37:29.703           137.535                Novosib          4297.969
        68   02 Jun 2027 04:38:35.768   02 Jun 2027 04:43:19.947           284.179                  Delhi          8880.594
        69   02 Jun 2027 06:18:25.961   02 Jun 2027 06:18:38.488            12.527                 Moscow           391.469
        70   02 Jun 2027 06:34:41.455   02 Jun 2027 06:34:54.640            13.185               CapeTown           412.031
        71   02 Jun 2027 06:36:37.957   02 Jun 2027 06:36:42.876             4.919               CapeTown           153.719
        72   02 Jun 2027 07:29:28.250   02 Jun 2027 07:30:24.366            56.116               Magadan2          1753.625
        73   02 Jun 2027 07:34:07.015   02 Jun 2027 07:36:09.456           122.441               Magadan2          3826.281
        74   02 Jun 2027 09:12:08.605   02 Jun 2027 09:12:52.975            44.370               Magadan1          1386.562
        75   02 Jun 2027 10:42:20.835   02 Jun 2027 10:43:30.038            69.203               Magadan1          2162.594
        76   02 Jun 2027 10:44:23.419   02 Jun 2027 10:45:57.225            93.806               Magadan1          2931.438
        77   02 Jun 2027 10:46:26.606   02 Jun 2027 10:46:46.389            19.783               Magadan2           618.219
        78   02 Jun 2027 10:47:31.753   02 Jun 2027 10:48:34.441            62.688                Anadyr1          1959.000
        79   02 Jun 2027 10:49:18.763   02 Jun 2027 10:50:21.237            62.474               Magadan2          1952.313
        80   02 Jun 2027 10:50:31.478   02 Jun 2027 10:50:50.363            18.885                Norilsk           590.156
        81   02 Jun 2027 10:51:17.506   02 Jun 2027 10:51:19.860             2.354                Norilsk            73.562
        82   02 Jun 2027 10:51:32.767   02 Jun 2027 10:52:13.183            40.416                Norilsk          1263.000
        83   02 Jun 2027 11:26:50.864   02 Jun 2027 11:27:56.377            65.513            RioGallegos          2047.281
        84   02 Jun 2027 12:05:25.471   02 Jun 2027 12:05:58.243            32.772                Sumatra          1024.125
        85   02 Jun 2027 12:15:02.929   02 Jun 2027 12:17:03.883           120.954                Irkutsk          3779.813
        86   02 Jun 2027 12:20:37.200   02 Jun 2027 12:21:02.975            25.775                Norilsk           805.469
        87   02 Jun 2027 12:23:06.326   02 Jun 2027 12:24:37.768            91.442               Magadan1          2857.562
        88   02 Jun 2027 13:03:12.782   02 Jun 2027 13:03:17.488             4.706            RioGallegos           147.063
        89   02 Jun 2027 13:05:35.907   02 Jun 2027 13:08:04.861           148.954            RioGallegos          4654.812
        90   02 Jun 2027 13:37:35.885   02 Jun 2027 13:37:41.630             5.745                Sumatra           179.531
        91   02 Jun 2027 13:40:22.645   02 Jun 2027 13:42:18.154           115.509                Sumatra          3609.656
        92   02 Jun 2027 13:46:15.033   02 Jun 2027 13:47:22.528            67.495                Sumatra          2109.219
        93   02 Jun 2027 13:57:06.423   02 Jun 2027 13:57:24.639            18.216                Irkutsk           569.250
        94   02 Jun 2027 14:02:40.066   02 Jun 2027 14:03:08.501            28.435                Norilsk           888.594
        95   02 Jun 2027 14:08:34.363   02 Jun 2027 14:08:51.605            17.242                Norilsk           538.812
        96   02 Jun 2027 15:22:14.938   02 Jun 2027 15:24:24.717           129.779                  Delhi          4055.594
        97   02 Jun 2027 15:27:21.811   02 Jun 2027 15:27:30.505             8.694                  Delhi           271.687
        98   02 Jun 2027 15:30:23.554   02 Jun 2027 15:32:10.724           107.170                  Delhi          3349.062
        99   02 Jun 2027 15:34:19.801   02 Jun 2027 15:35:07.811            48.010                Norilsk          1500.312
       100   02 Jun 2027 15:35:17.812   02 Jun 2027 15:36:00.319            42.507                Novosib          1328.344
       101   02 Jun 2027 15:36:50.666   02 Jun 2027 15:37:46.629            55.963                Norilsk          1748.844
       102   02 Jun 2027 15:38:07.781   02 Jun 2027 15:38:25.831            18.050                Norilsk           564.062
       103   02 Jun 2027 15:39:04.787   02 Jun 2027 15:39:44.072            39.285                Norilsk          1227.656
       104   02 Jun 2027 15:42:35.141   02 Jun 2027 15:42:47.498            12.357                Norilsk           386.156
       105   02 Jun 2027 15:43:52.544   02 Jun 2027 15:44:32.684            40.140                Norilsk          1254.375
       106   02 Jun 2027 17:06:03.772   02 Jun 2027 17:06:28.741            24.969                 Moscow           780.281
       107   02 Jun 2027 17:07:40.725   02 Jun 2027 17:09:19.710            98.985                 Moscow          3093.281
       108   02 Jun 2027 17:13:43.841   02 Jun 2027 17:13:46.033             2.192              Murmansk1            68.500
       109   02 Jun 2027 17:13:53.234   02 Jun 2027 17:14:42.145            48.911              Murmansk2          1528.469
       110   02 Jun 2027 17:15:00.977   02 Jun 2027 17:19:16.922           255.945                Norilsk          7998.281
       111   02 Jun 2027 18:44:26.259   02 Jun 2027 18:47:42.899           196.640                 Moscow          6145.000
       112   02 Jun 2027 18:51:23.907   02 Jun 2027 18:52:15.869            51.962              Murmansk2          1623.813
       113   02 Jun 2027 19:55:47.961   02 Jun 2027 19:58:02.260           134.299               CapeTown          4196.844
       114   02 Jun 2027 19:59:09.087   02 Jun 2027 19:59:56.258            47.171               CapeTown          1474.094
       115   02 Jun 2027 20:27:13.300   02 Jun 2027 20:33:22.384           369.084              Murmansk2         11533.875
       116   02 Jun 2027 22:12:00.643   02 Jun 2027 22:15:51.290           230.647                Anadyr2          7207.719
       117   02 Jun 2027 22:16:01.811   02 Jun 2027 22:18:18.952           137.141               Magadan1          4285.656
       118   02 Jun 2027 22:18:24.545   02 Jun 2027 22:18:26.528             1.983               Magadan2            61.969
       119   02 Jun 2027 22:18:37.305   02 Jun 2027 22:19:11.796            34.491               Magadan1          1077.844
       120   02 Jun 2027 22:20:57.494   02 Jun 2027 22:21:26.612            29.118               Magadan1           909.937
       121   02 Jun 2027 22:23:29.009   02 Jun 2027 22:23:42.214            13.205               Magadan2           412.656
       122   02 Jun 2027 23:07:31.974   02 Jun 2027 23:10:17.002           165.028            RioGallegos          5157.125
       123   02 Jun 2027 23:13:09.034   02 Jun 2027 23:13:47.623            38.589            RioGallegos          1205.906
       124   02 Jun 2027 23:47:48.402   02 Jun 2027 23:48:49.163            60.761                Anadyr1          1898.781
       125   02 Jun 2027 23:48:49.163   02 Jun 2027 23:49:05.765            16.602                Anadyr2           518.813
       126   02 Jun 2027 23:49:21.913   02 Jun 2027 23:49:22.478             0.565                Anadyr1            17.656
       127   02 Jun 2027 23:49:53.091   02 Jun 2027 23:50:44.314            51.223                Norilsk          1600.719
       128   02 Jun 2027 23:50:51.118   02 Jun 2027 23:51:40.712            49.594               Magadan1          1549.813
       129   02 Jun 2027 23:52:08.143   02 Jun 2027 23:52:59.148            51.005               Magadan2          1593.906
       130   02 Jun 2027 23:54:32.732   02 Jun 2027 23:54:36.281             3.549               Magadan2           110.906
       131   02 Jun 2027 23:54:43.443   02 Jun 2027 23:55:10.791            27.348               Magadan2           854.625
       132   02 Jun 2027 23:56:40.803   02 Jun 2027 23:57:00.978            20.175                Irkutsk           630.469
       133   02 Jun 2027 23:58:37.404   02 Jun 2027 23:59:15.863            38.459                Irkutsk          1201.844
       134   03 Jun 2027 00:00:08.932   03 Jun 2027 00:00:53.875            44.943                Irkutsk          1404.469
       135   03 Jun 2027 00:09:08.489   03 Jun 2027 00:09:22.422            13.933                Sumatra           435.406
       136   03 Jun 2027 00:10:50.430   03 Jun 2027 00:11:48.960            58.530                Sumatra          1829.062
       137   03 Jun 2027 00:14:07.042   03 Jun 2027 00:14:47.598            40.556                Sumatra          1267.375
       138   03 Jun 2027 00:41:46.623   03 Jun 2027 00:43:01.976            75.353            RioGallegos          2354.781
       139   03 Jun 2027 00:52:33.745   03 Jun 2027 00:53:14.803            41.058            RioGallegos          1283.062
       140   03 Jun 2027 01:22:59.440   03 Jun 2027 01:24:07.680            68.240                Anadyr1          2132.500
       141   03 Jun 2027 01:25:09.767   03 Jun 2027 01:25:29.264            19.497                Anadyr1           609.281
       142   03 Jun 2027 01:25:43.750   03 Jun 2027 01:27:37.725           113.975                Norilsk          3561.719
       143   03 Jun 2027 01:29:37.758   03 Jun 2027 01:31:37.731           119.973                Irkutsk          3749.156
       144   03 Jun 2027 01:32:53.286   03 Jun 2027 01:33:29.216            35.930                Irkutsk          1122.813
       145   03 Jun 2027 01:38:21.190   03 Jun 2027 01:38:31.497            10.307                Irkutsk           322.094
       146   03 Jun 2027 01:38:50.259   03 Jun 2027 01:39:12.819            22.560                Irkutsk           705.000
       147   03 Jun 2027 01:42:19.445   03 Jun 2027 01:42:30.852            11.407                Irkutsk           356.469
       148   03 Jun 2027 01:42:39.966   03 Jun 2027 01:42:50.043            10.077                  Delhi           314.906
       149   03 Jun 2027 01:43:43.224   03 Jun 2027 01:44:17.343            34.119                Sumatra          1066.219
       150   03 Jun 2027 01:46:16.641   03 Jun 2027 01:48:36.584           139.943                Sumatra          4373.219
       151   03 Jun 2027 02:23:17.946   03 Jun 2027 02:25:06.893           108.947            RioGallegos          3404.594
       152   03 Jun 2027 03:05:56.025   03 Jun 2027 03:07:19.616            83.591               Magadan1          2612.219
       153   03 Jun 2027 03:07:53.687   03 Jun 2027 03:09:33.361            99.674                Irkutsk          3114.812
       154   03 Jun 2027 03:09:44.518   03 Jun 2027 03:10:27.613            43.095                Irkutsk          1346.719
       155   03 Jun 2027 03:10:57.018   03 Jun 2027 03:11:34.504            37.486                Norilsk          1171.437
       156   03 Jun 2027 03:11:49.848   03 Jun 2027 03:12:19.470            29.622                Norilsk           925.688
       157   03 Jun 2027 03:12:27.134   03 Jun 2027 03:13:47.480            80.346                Novosib          2510.812
       158   03 Jun 2027 03:13:51.909   03 Jun 2027 03:15:16.543            84.634                Irkutsk          2644.813
       159   03 Jun 2027 03:15:38.448   03 Jun 2027 03:16:10.935            32.487                  Delhi          1015.219
       160   03 Jun 2027 03:55:08.129   03 Jun 2027 04:00:15.934           307.805            RioGallegos          9618.906
       161   03 Jun 2027 04:45:55.019   03 Jun 2027 04:47:04.163            69.144                Irkutsk          2160.750
       162   03 Jun 2027 04:47:20.999   03 Jun 2027 04:47:21.978             0.979                Irkutsk            30.594
       163   03 Jun 2027 04:48:26.160   03 Jun 2027 04:51:16.518           170.358                Novosib          5323.688
       164   03 Jun 2027 04:51:33.792   03 Jun 2027 04:55:49.080           255.288                  Delhi          7977.750
       165   03 Jun 2027 06:25:37.877   03 Jun 2027 06:25:49.643            11.766              Murmansk2           367.688
       166   03 Jun 2027 06:26:03.441   03 Jun 2027 06:26:05.589             2.148                 Moscow            67.125
       167   03 Jun 2027 06:30:32.893   03 Jun 2027 06:30:43.701            10.808                 Moscow           337.750
       168   03 Jun 2027 06:31:10.810   03 Jun 2027 06:31:56.631            45.821                 Moscow          1431.906
       169   03 Jun 2027 06:42:59.525   03 Jun 2027 06:46:08.482           188.957               CapeTown          5904.906
       170   03 Jun 2027 07:45:50.628   03 Jun 2027 07:47:37.551           106.923                Anadyr1          3341.344
       171   03 Jun 2027 07:47:57.328   03 Jun 2027 07:48:12.872            15.544               Magadan2           485.750
       172   03 Jun 2027 07:48:41.676   03 Jun 2027 07:48:57.092            15.416                Anadyr2           481.750
       173   03 Jun 2027 07:50:38.179   03 Jun 2027 07:51:54.953            76.774                Anadyr2          2399.188
       174   03 Jun 2027 08:25:41.563   03 Jun 2027 08:25:55.985            14.422               CapeTown           450.687
       175   03 Jun 2027 09:22:28.742   03 Jun 2027 09:22:36.798             8.056                Anadyr2           251.750
       176   03 Jun 2027 09:22:41.516   03 Jun 2027 09:23:33.616            52.100                Anadyr2          1628.125
       177   03 Jun 2027 09:23:42.922   03 Jun 2027 09:25:36.584           113.662                Anadyr1          3551.937
       178   03 Jun 2027 10:54:29.474   03 Jun 2027 10:57:53.473           203.999               Magadan1          6374.969
       179   03 Jun 2027 10:59:52.012   03 Jun 2027 11:02:49.834           177.822               Magadan2          5556.937
       180   03 Jun 2027 11:03:20.569   03 Jun 2027 11:03:42.466            21.897                Norilsk           684.281
       181   03 Jun 2027 11:03:52.676   03 Jun 2027 11:04:52.688            60.012                Norilsk          1875.375
       182   03 Jun 2027 11:38:44.001   03 Jun 2027 11:39:56.489            72.488            RioGallegos          2265.250
       183   03 Jun 2027 12:18:23.506   03 Jun 2027 12:19:22.552            59.046                Sumatra          1845.187
       184   03 Jun 2027 12:27:03.106   03 Jun 2027 12:28:44.800           101.694                Irkutsk          3177.937
       185   03 Jun 2027 12:33:04.415   03 Jun 2027 12:33:23.142            18.727                Norilsk           585.219
       186   03 Jun 2027 12:40:42.429   03 Jun 2027 12:40:56.584            14.155                Norilsk           442.344
       187   03 Jun 2027 13:15:35.226   03 Jun 2027 13:16:51.302            76.076            RioGallegos          2377.375
       188   03 Jun 2027 13:17:30.763   03 Jun 2027 13:20:41.548           190.785            RioGallegos          5962.031
       189   03 Jun 2027 13:49:52.317   03 Jun 2027 13:51:06.814            74.497                Sumatra          2328.031
       190   03 Jun 2027 14:04:34.522   03 Jun 2027 14:05:41.899            67.377                Novosib          2105.531
       191   03 Jun 2027 14:07:45.723   03 Jun 2027 14:08:07.131            21.408                Novosib           669.000
       192   03 Jun 2027 14:08:46.857   03 Jun 2027 14:09:48.039            61.182                Irkutsk          1911.937
       193   03 Jun 2027 15:34:43.102   03 Jun 2027 15:40:31.979           348.877                  Delhi         10902.406
       194   03 Jun 2027 15:43:04.236   03 Jun 2027 15:45:39.097           154.861                Novosib          4839.406
       195   03 Jun 2027 15:56:45.004   03 Jun 2027 15:56:51.691             6.687                Norilsk           208.969
       196   03 Jun 2027 17:19:09.451   03 Jun 2027 17:21:20.249           130.798                 Moscow          4087.437
       197   03 Jun 2027 17:28:00.479   03 Jun 2027 17:30:40.740           160.261                Norilsk          5008.156
       198   03 Jun 2027 17:31:00.766   03 Jun 2027 17:31:39.496            38.730                Norilsk          1210.313
       199   03 Jun 2027 18:37:52.007   03 Jun 2027 18:37:54.851             2.844               CapeTown            88.875
       200   03 Jun 2027 18:38:55.779   03 Jun 2027 18:39:16.845            21.066               CapeTown           658.313
       201   03 Jun 2027 18:41:27.509   03 Jun 2027 18:42:17.958            50.449               CapeTown          1576.531
       202   03 Jun 2027 18:57:09.215   03 Jun 2027 19:01:41.105           271.890                 Moscow          8496.562
       203   03 Jun 2027 19:22:40.219   03 Jun 2027 19:23:03.649            23.430                Anadyr2           732.188
       204   03 Jun 2027 20:08:02.997   03 Jun 2027 20:09:40.614            97.617               CapeTown          3050.531
       205   03 Jun 2027 20:10:45.815   03 Jun 2027 20:11:16.265            30.450               CapeTown           951.562
       206   03 Jun 2027 20:12:04.403   03 Jun 2027 20:12:50.380            45.977               CapeTown          1436.781
       207   03 Jun 2027 20:40:03.791   03 Jun 2027 20:45:44.250           340.459              Murmansk1         10639.344
       208   03 Jun 2027 22:24:02.240   03 Jun 2027 22:27:52.348           230.108                Anadyr2          7190.875
       209   03 Jun 2027 22:27:53.236   03 Jun 2027 22:28:49.952            56.716                Anadyr1          1772.375
       210   03 Jun 2027 22:29:31.884   03 Jun 2027 22:31:01.798            89.914               Magadan2          2809.813
       211   03 Jun 2027 22:31:48.171   03 Jun 2027 22:31:59.837            11.666               Magadan1           364.563
       212   03 Jun 2027 22:34:58.172   03 Jun 2027 22:35:16.338            18.166               Magadan1           567.687
       213   03 Jun 2027 22:35:47.135   03 Jun 2027 22:35:56.202             9.067               Magadan1           283.344
       214   03 Jun 2027 23:19:05.448   03 Jun 2027 23:21:23.584           138.136            RioGallegos          4316.750
       215   03 Jun 2027 23:23:51.350   03 Jun 2027 23:24:10.778            19.428            RioGallegos           607.125
       216   03 Jun 2027 23:25:14.321   03 Jun 2027 23:25:41.886            27.565            RioGallegos           861.406
       217   03 Jun 2027 23:59:47.260   04 Jun 2027 00:00:58.846            71.586                Anadyr2          2237.063
       218   04 Jun 2027 00:01:03.488   04 Jun 2027 00:01:15.855            12.367                Anadyr1           386.469
       219   04 Jun 2027 00:01:22.500   04 Jun 2027 00:02:03.525            41.025                Anadyr1          1282.031
       220   04 Jun 2027 00:02:18.388   04 Jun 2027 00:04:46.476           148.088               Magadan2          4627.750
       221   04 Jun 2027 00:04:53.230   04 Jun 2027 00:05:29.210            35.980               Magadan2          1124.375
       222   04 Jun 2027 00:06:22.737   04 Jun 2027 00:06:56.806            34.069                Irkutsk          1064.656
       223   04 Jun 2027 00:08:37.013   04 Jun 2027 00:09:50.940            73.927                Irkutsk          2310.219
       224   04 Jun 2027 00:20:34.617   04 Jun 2027 00:21:32.102            57.485                Sumatra          1796.406
       225   04 Jun 2027 00:26:01.199   04 Jun 2027 00:26:02.626             1.427                Sumatra            44.594
       226   04 Jun 2027 00:26:23.150   04 Jun 2027 00:27:11.846            48.696                Sumatra          1521.750
       227   04 Jun 2027 00:31:18.669   04 Jun 2027 00:31:38.951            20.282                Sumatra           633.812
       228   04 Jun 2027 00:56:36.984   04 Jun 2027 00:56:54.716            17.732            RioGallegos           554.125
       229   04 Jun 2027 00:58:05.623   04 Jun 2027 00:58:19.617            13.994            RioGallegos           437.312
       230   04 Jun 2027 01:00:52.628   04 Jun 2027 01:01:22.344            29.716            RioGallegos           928.625
       231   04 Jun 2027 01:04:27.664   04 Jun 2027 01:05:20.499            52.835            RioGallegos          1651.094
       232   04 Jun 2027 01:34:50.776   04 Jun 2027 01:35:08.293            17.517                Anadyr2           547.406
       233   04 Jun 2027 01:35:13.539   04 Jun 2027 01:35:28.291            14.752                Anadyr2           461.000
       234   04 Jun 2027 01:36:05.520   04 Jun 2027 01:36:45.708            40.188                Anadyr2          1255.875
       235   04 Jun 2027 01:37:13.771   04 Jun 2027 01:37:36.749            22.978                Anadyr2           718.062
       236   04 Jun 2027 01:37:46.047   04 Jun 2027 01:39:13.469            87.422                Norilsk          2731.937
       237   04 Jun 2027 01:40:37.742   04 Jun 2027 01:40:47.403             9.661               Magadan2           301.906
       238   04 Jun 2027 01:41:29.841   04 Jun 2027 01:41:49.981            20.140               Magadan1           629.375
       239   04 Jun 2027 01:41:59.108   04 Jun 2027 01:44:16.901           137.793                Irkutsk          4306.031
       240   04 Jun 2027 01:49:05.329   04 Jun 2027 01:49:35.743            30.414                Novosib           950.437
       241   04 Jun 2027 01:50:33.667   04 Jun 2027 01:50:47.597            13.930                  Delhi           435.312
       242   04 Jun 2027 01:52:23.707   04 Jun 2027 01:53:22.139            58.432                  Delhi          1826.000
       243   04 Jun 2027 01:56:03.341   04 Jun 2027 01:57:59.579           116.238                Sumatra          3632.438
       244   04 Jun 2027 02:00:26.522   04 Jun 2027 02:01:15.854            49.332                Sumatra          1541.625
       245   04 Jun 2027 03:17:49.869   04 Jun 2027 03:18:47.903            58.034               Magadan2          1813.562
       246   04 Jun 2027 03:22:27.580   04 Jun 2027 03:27:52.119           324.539                Novosib         10141.844
       247   04 Jun 2027 03:28:01.272   04 Jun 2027 03:31:17.225           195.953                  Delhi          6123.531
       248   04 Jun 2027 03:33:46.177   04 Jun 2027 03:37:29.274           223.097                  Delhi          6971.781
       249   04 Jun 2027 04:07:39.576   04 Jun 2027 04:11:59.921           260.345            RioGallegos          8135.781
       250   04 Jun 2027 04:57:56.755   04 Jun 2027 04:58:03.480             6.725                Novosib           210.156
       251   04 Jun 2027 04:59:21.697   04 Jun 2027 05:00:06.099            44.402                Novosib          1387.563
       252   04 Jun 2027 05:00:28.003   04 Jun 2027 05:01:58.379            90.376                Novosib          2824.250
       253   04 Jun 2027 05:02:06.733   04 Jun 2027 05:02:34.327            27.594                 Moscow           862.313
       254   04 Jun 2027 05:03:27.788   04 Jun 2027 05:04:12.998            45.210                Novosib          1412.812
       255   04 Jun 2027 05:20:33.706   04 Jun 2027 05:20:52.988            19.282               CapeTown           602.562
       256   04 Jun 2027 05:26:17.212   04 Jun 2027 05:26:44.659            27.447               CapeTown           857.719
       257   04 Jun 2027 06:37:33.560   04 Jun 2027 06:37:36.866             3.306              Murmansk2           103.313
       258   04 Jun 2027 06:37:49.604   04 Jun 2027 06:38:33.325            43.721              Murmansk2          1366.281
       259   04 Jun 2027 06:57:19.343   04 Jun 2027 06:59:46.736           147.393               CapeTown          4606.031
       260   04 Jun 2027 07:57:47.731   04 Jun 2027 07:58:04.970            17.239               Magadan2           538.719
       261   04 Jun 2027 07:58:24.853   04 Jun 2027 07:58:33.441             8.588               Magadan2           268.375
       262   04 Jun 2027 07:58:53.316   04 Jun 2027 08:00:09.043            75.727                Anadyr2          2366.469
       263   04 Jun 2027 08:00:16.262   04 Jun 2027 08:00:18.234             1.972               Magadan2            61.625
       264   04 Jun 2027 08:00:20.299   04 Jun 2027 08:00:43.540            23.241                Anadyr1           726.281
       265   04 Jun 2027 08:01:36.199   04 Jun 2027 08:02:38.255            62.056                Anadyr2          1939.250
       266   04 Jun 2027 09:35:27.023   04 Jun 2027 09:35:44.081            17.058               Magadan2           533.063
       267   04 Jun 2027 09:35:53.472   04 Jun 2027 09:36:20.780            27.308               Magadan1           853.375
       268   04 Jun 2027 09:36:32.632   04 Jun 2027 09:36:35.563             2.931                Anadyr2            91.594
       269   04 Jun 2027 09:37:02.493   04 Jun 2027 09:38:11.548            69.055               Magadan1          2157.969
       270   04 Jun 2027 09:38:40.259   04 Jun 2027 09:40:04.963            84.704                Anadyr1          2647.000
       271   04 Jun 2027 11:09:39.851   04 Jun 2027 11:10:15.930            36.079               Magadan2          1127.469
       272   04 Jun 2027 11:10:15.930   04 Jun 2027 11:10:44.227            28.297               Magadan1           884.281
       273   04 Jun 2027 11:11:30.432   04 Jun 2027 11:11:45.393            14.961                Norilsk           467.531
       274   04 Jun 2027 11:11:59.787   04 Jun 2027 11:12:30.863            31.076                Irkutsk           971.125
       275   04 Jun 2027 11:12:40.199   04 Jun 2027 11:15:23.017           162.818               Magadan1          5088.063
       276   04 Jun 2027 11:15:36.994   04 Jun 2027 11:15:47.906            10.912                Irkutsk           341.000
       277   04 Jun 2027 11:15:49.313   04 Jun 2027 11:15:53.892             4.579                Norilsk           143.094
       278   04 Jun 2027 11:50:40.388   04 Jun 2027 11:51:55.465            75.077            RioGallegos          2346.156
       279   04 Jun 2027 12:26:21.455   04 Jun 2027 12:27:39.322            77.867                Sumatra          2433.344
       280   04 Jun 2027 12:39:06.570   04 Jun 2027 12:42:22.653           196.083                Irkutsk          6127.594
       281   04 Jun 2027 13:28:02.794   04 Jun 2027 13:29:14.999            72.205            RioGallegos          2256.406
       282   04 Jun 2027 13:32:39.472   04 Jun 2027 13:33:00.726            21.254            RioGallegos           664.187
       283   04 Jun 2027 14:02:16.529   04 Jun 2027 14:07:22.323           305.794                Sumatra          9556.062
       284   04 Jun 2027 14:17:39.128   04 Jun 2027 14:20:18.865           159.737                Irkutsk          4991.781
       285   04 Jun 2027 15:47:21.165   04 Jun 2027 15:49:52.403           151.238                  Delhi          4726.187
       286   04 Jun 2027 15:54:04.983   04 Jun 2027 15:54:13.337             8.354                  Delhi           261.063
       287   04 Jun 2027 15:55:48.924   04 Jun 2027 16:00:18.063           269.139                Novosib          8410.594
       288   04 Jun 2027 17:33:20.002   04 Jun 2027 17:34:43.289            83.287                 Moscow          2602.719
       289   04 Jun 2027 17:34:59.640   04 Jun 2027 17:36:33.167            93.527              Murmansk1          2922.719
       290   04 Jun 2027 17:41:19.448   04 Jun 2027 17:43:25.896           126.448                Norilsk          3951.500
       291   04 Jun 2027 18:43:41.875   04 Jun 2027 18:44:41.958            60.083               CapeTown          1877.594
       292   04 Jun 2027 19:10:01.440   04 Jun 2027 19:14:18.584           257.144                 Moscow          8035.750
       293   04 Jun 2027 19:16:48.151   04 Jun 2027 19:17:22.310            34.159                 Moscow          1067.469
       294   04 Jun 2027 19:22:12.229   04 Jun 2027 19:22:25.682            13.453              Murmansk2           420.406
       295   04 Jun 2027 20:20:22.640   04 Jun 2027 20:23:13.644           171.004               CapeTown          5343.875
       296   04 Jun 2027 20:23:59.872   04 Jun 2027 20:25:32.537            92.665               CapeTown          2895.781
       297   04 Jun 2027 20:53:02.454   04 Jun 2027 20:57:28.562           266.108              Murmansk1          8315.875
       298   04 Jun 2027 22:36:03.674   04 Jun 2027 22:39:53.121           229.447                Anadyr2          7170.219
       299   04 Jun 2027 22:39:54.493   04 Jun 2027 22:41:37.130           102.637                Norilsk          3207.406
       300   04 Jun 2027 22:41:37.693   04 Jun 2027 22:43:38.339           120.646               Magadan1          3770.187
       301   04 Jun 2027 23:30:46.696   04 Jun 2027 23:33:23.343           156.647            RioGallegos          4895.219
       302   04 Jun 2027 23:36:14.167   04 Jun 2027 23:36:40.621            26.454            RioGallegos           826.687
       303   05 Jun 2027 00:11:45.484   05 Jun 2027 00:14:02.041           136.557                Anadyr1          4267.406
       304   05 Jun 2027 00:14:21.526   05 Jun 2027 00:16:20.481           118.955               Magadan2          3717.344
       305   05 Jun 2027 00:16:36.328   05 Jun 2027 00:17:04.905            28.577               Magadan1           893.031
       306   05 Jun 2027 00:18:13.252   05 Jun 2027 00:19:34.539            81.287                Irkutsk          2540.219
       307   05 Jun 2027 00:20:55.296   05 Jun 2027 00:21:46.720            51.424                Irkutsk          1607.000
       308   05 Jun 2027 00:32:10.406   05 Jun 2027 00:33:48.284            97.878                Sumatra          3058.688
       309   05 Jun 2027 00:36:05.292   05 Jun 2027 00:38:32.758           147.466                Sumatra          4608.313
       310   05 Jun 2027 01:46:40.797   05 Jun 2027 01:47:14.774            33.977                Anadyr2          1061.781
       311   05 Jun 2027 01:47:39.441   05 Jun 2027 01:48:05.176            25.735                Anadyr2           804.219
       312   05 Jun 2027 01:48:05.176   05 Jun 2027 01:48:23.143            17.967                Anadyr1           561.469
       313   05 Jun 2027 01:48:47.976   05 Jun 2027 01:48:59.443            11.467                Anadyr2           358.344
       314   05 Jun 2027 01:49:13.919   05 Jun 2027 01:49:19.773             5.854                Anadyr2           182.937
       315   05 Jun 2027 01:49:32.361   05 Jun 2027 01:49:50.643            18.282                Anadyr1           571.313
       316   05 Jun 2027 01:50:10.078   05 Jun 2027 01:51:05.524            55.446                Norilsk          1732.687
       317   05 Jun 2027 01:51:22.718   05 Jun 2027 01:51:32.307             9.589                Norilsk           299.656
       318   05 Jun 2027 01:51:48.998   05 Jun 2027 01:52:07.178            18.180               Magadan1           568.125
       319   05 Jun 2027 01:53:40.904   05 Jun 2027 01:56:52.239           191.335                Irkutsk          5979.219
       320   05 Jun 2027 02:02:49.770   05 Jun 2027 02:02:53.944             4.174                  Delhi           130.437
       321   05 Jun 2027 02:05:09.390   05 Jun 2027 02:05:59.763            50.373                  Delhi          1574.156
       322   05 Jun 2027 02:08:32.220   05 Jun 2027 02:11:28.264           176.044                Sumatra          5501.375
       323   05 Jun 2027 02:44:45.944   05 Jun 2027 02:45:16.348            30.404            RioGallegos           950.125
       324   05 Jun 2027 03:30:14.266   05 Jun 2027 03:30:17.725             3.459               Magadan2           108.094
       325   05 Jun 2027 03:32:51.668   05 Jun 2027 03:33:23.992            32.324                Irkutsk          1010.125
       326   05 Jun 2027 03:33:51.779   05 Jun 2027 03:35:15.378            83.599                Novosib          2612.469
       327   05 Jun 2027 03:35:18.929   05 Jun 2027 03:35:41.099            22.170              Murmansk1           692.813
       328   05 Jun 2027 03:35:46.126   05 Jun 2027 03:36:18.704            32.578              Murmansk1          1018.062
       329   05 Jun 2027 03:36:21.829   05 Jun 2027 03:38:52.033           150.204                Irkutsk          4693.875
       330   05 Jun 2027 03:39:12.310   05 Jun 2027 03:39:57.603            45.293                Novosib          1415.406
       331   05 Jun 2027 03:42:40.686   05 Jun 2027 03:42:54.012            13.326                  Delhi           416.438
       332   05 Jun 2027 03:44:57.789   05 Jun 2027 03:45:09.689            11.900                  Delhi           371.875
       333   05 Jun 2027 03:45:47.066   05 Jun 2027 03:49:16.385           209.319                  Delhi          6541.219
       334   05 Jun 2027 04:20:42.998   05 Jun 2027 04:22:23.334           100.336            RioGallegos          3135.500
       335   05 Jun 2027 05:11:27.231   05 Jun 2027 05:11:47.790            20.559                Novosib           642.469
       336   05 Jun 2027 05:12:35.550   05 Jun 2027 05:14:36.873           121.323                Novosib          3791.344
       337   05 Jun 2027 05:15:33.937   05 Jun 2027 05:16:02.156            28.219                Novosib           881.844
       338   05 Jun 2027 05:16:37.306   05 Jun 2027 05:16:55.342            18.036                 Moscow           563.625
       339   05 Jun 2027 05:32:05.898   05 Jun 2027 05:32:59.916            54.018               CapeTown          1688.062
       340   05 Jun 2027 05:33:45.105   05 Jun 2027 05:35:10.351            85.246               CapeTown          2663.938
       341   05 Jun 2027 06:46:18.799   05 Jun 2027 06:46:31.726            12.927                 Moscow           403.969
       342   05 Jun 2027 06:46:34.827   05 Jun 2027 06:46:41.498             6.671                 Moscow           208.469
       343   05 Jun 2027 06:49:29.888   05 Jun 2027 06:49:30.880             0.992              Murmansk1            31.000
       344   05 Jun 2027 06:49:37.256   05 Jun 2027 06:50:48.747            71.491              Murmansk1          2234.094
       345   05 Jun 2027 07:07:24.864   05 Jun 2027 07:09:58.955           154.091               CapeTown          4815.344
       346   05 Jun 2027 08:10:36.118   05 Jun 2027 08:10:46.072             9.954               Magadan2           311.063
       347   05 Jun 2027 08:10:54.024   05 Jun 2027 08:12:16.081            82.057                Anadyr1          2564.281
       348   05 Jun 2027 08:12:44.493   05 Jun 2027 08:13:47.996            63.503                Anadyr2          1984.469
       349   05 Jun 2027 09:40:36.890   05 Jun 2027 09:41:22.835            45.945               Magadan1          1435.781
       350   05 Jun 2027 09:42:38.579   05 Jun 2027 09:42:43.666             5.087                Anadyr2           158.969
       351   05 Jun 2027 09:46:16.573   05 Jun 2027 09:48:31.237           134.664                Anadyr2          4208.250
       352   05 Jun 2027 09:49:11.263   05 Jun 2027 09:50:09.360            58.097               Magadan1          1815.531
       353   05 Jun 2027 10:28:29.930   05 Jun 2027 10:28:38.001             8.071            RioGallegos           252.219
       354   05 Jun 2027 10:30:46.690   05 Jun 2027 10:30:50.302             3.612            RioGallegos           112.875
       355   05 Jun 2027 11:17:56.357   05 Jun 2027 11:18:06.678            10.321               Magadan2           322.531
       356   05 Jun 2027 11:21:26.131   05 Jun 2027 11:24:00.091           153.960               Magadan2          4811.250
       357   05 Jun 2027 11:24:03.137   05 Jun 2027 11:27:21.415           198.278               Magadan2          6196.188
       358   05 Jun 2027 11:28:01.306   05 Jun 2027 11:28:07.104             5.798                Norilsk           181.187
       359   05 Jun 2027 12:02:40.073   05 Jun 2027 12:03:53.171            73.098            RioGallegos          2284.312
       360   05 Jun 2027 12:04:16.367   05 Jun 2027 12:05:44.537            88.170            RioGallegos          2755.312
       361   05 Jun 2027 12:51:13.426   05 Jun 2027 12:54:22.954           189.528                Irkutsk          5922.750
       362   05 Jun 2027 13:40:36.322   05 Jun 2027 13:42:56.985           140.663            RioGallegos          4395.719
       363   05 Jun 2027 14:14:50.909   05 Jun 2027 14:19:40.467           289.558                Sumatra          9048.687
       364   05 Jun 2027 14:30:27.939   05 Jun 2027 14:31:22.987            55.048                Irkutsk          1720.250
       365   05 Jun 2027 14:31:34.120   05 Jun 2027 14:33:41.055           126.935                Irkutsk          3966.719
       366   05 Jun 2027 16:00:13.266   05 Jun 2027 16:04:34.162           260.896                  Delhi          8153.000
       367   05 Jun 2027 16:05:48.343   05 Jun 2027 16:08:18.594           150.251                  Delhi          4695.344
       368   05 Jun 2027 16:12:43.134   05 Jun 2027 16:12:56.966            13.832                Novosib           432.250
       369   05 Jun 2027 16:15:06.991   05 Jun 2027 16:15:45.902            38.911                Novosib          1215.969
       370   05 Jun 2027 17:45:18.841   05 Jun 2027 17:46:10.602            51.761                 Moscow          1617.531
       371   05 Jun 2027 17:48:31.846   05 Jun 2027 17:48:47.897            16.051              Murmansk2           501.594
       372   05 Jun 2027 17:48:56.728   05 Jun 2027 17:49:41.152            44.424              Murmansk1          1388.250
       373   05 Jun 2027 18:01:36.098   05 Jun 2027 18:01:48.040            11.942                Anadyr2           373.187
       374   05 Jun 2027 18:02:44.476   05 Jun 2027 18:02:53.267             8.791                Anadyr1           274.719
       375   05 Jun 2027 18:03:05.246   05 Jun 2027 18:03:25.812            20.566                Anadyr1           642.688
       376   05 Jun 2027 18:55:38.792   05 Jun 2027 18:58:07.686           148.894               CapeTown          4652.937
       377   05 Jun 2027 19:23:07.993   05 Jun 2027 19:27:03.437           235.444                 Moscow          7357.625
       378   05 Jun 2027 19:28:07.583   05 Jun 2027 19:28:48.988            41.405                 Moscow          1293.906
       379   05 Jun 2027 19:28:53.739   05 Jun 2027 19:29:35.716            41.977              Murmansk2          1311.781
       380   05 Jun 2027 19:41:40.722   05 Jun 2027 19:42:29.083            48.361               Magadan2          1511.281
       381   05 Jun 2027 20:32:48.519   05 Jun 2027 20:37:50.473           301.954               CapeTown          9436.062
       382   05 Jun 2027 21:06:18.069   05 Jun 2027 21:08:57.994           159.925              Murmansk2          4997.656
       383   05 Jun 2027 21:20:54.985   05 Jun 2027 21:21:05.468            10.483               Magadan1           327.594
       384   05 Jun 2027 21:22:20.999   05 Jun 2027 21:22:44.519            23.520               Magadan2           735.000
       385   05 Jun 2027 22:48:04.885   05 Jun 2027 22:51:53.554           228.669                Anadyr2          7145.906
       386   05 Jun 2027 22:51:54.924   05 Jun 2027 22:52:28.281            33.357                Anadyr1          1042.406
       387   05 Jun 2027 22:52:36.992   05 Jun 2027 22:53:26.203            49.211                Norilsk          1537.844
       388   05 Jun 2027 22:53:37.648   05 Jun 2027 22:55:21.912           104.264               Magadan2          3258.250
       389   05 Jun 2027 23:00:53.180   05 Jun 2027 23:01:12.870            19.690               Magadan2           615.313
       390   05 Jun 2027 23:42:32.945   05 Jun 2027 23:45:28.338           175.393            RioGallegos          5481.031
       391   05 Jun 2027 23:47:03.610   05 Jun 2027 23:47:25.418            21.808            RioGallegos           681.500
       392   05 Jun 2027 23:48:17.421   05 Jun 2027 23:48:43.611            26.190            RioGallegos           818.438
       393   06 Jun 2027 00:23:42.982   06 Jun 2027 00:24:42.993            60.011                Anadyr2          1875.344
       394   06 Jun 2027 00:24:57.985   06 Jun 2027 00:25:09.523            11.538                Anadyr2           360.563
       395   06 Jun 2027 00:25:16.893   06 Jun 2027 00:25:59.743            42.850                Anadyr2          1339.063
       396   06 Jun 2027 00:26:03.337   06 Jun 2027 00:27:43.749           100.412                Norilsk          3137.875
       397   06 Jun 2027 00:27:44.205   06 Jun 2027 00:28:25.545            41.340               Magadan2          1291.875
       398   06 Jun 2027 00:29:08.494   06 Jun 2027 00:29:59.505            51.011               Magadan2          1594.094
       399   06 Jun 2027 00:31:01.689   06 Jun 2027 00:31:35.945            34.256                Irkutsk          1070.500
       400   06 Jun 2027 00:32:10.661   06 Jun 2027 00:33:11.180            60.519                Novosib          1891.219
       401   06 Jun 2027 00:34:19.740   06 Jun 2027 00:36:31.281           131.541                Novosib          4110.656
       402   06 Jun 2027 00:49:58.961   06 Jun 2027 00:50:11.501            12.540                Sumatra           391.875
       403   06 Jun 2027 00:51:30.842   06 Jun 2027 00:51:32.279             1.437                Sumatra            44.906
       404   06 Jun 2027 00:51:36.630   06 Jun 2027 00:53:19.648           103.018                Sumatra          3219.313
       405   06 Jun 2027 01:29:42.845   06 Jun 2027 01:30:04.376            21.531            RioGallegos           672.844
       406   06 Jun 2027 01:58:29.482   06 Jun 2027 01:58:52.028            22.546                Anadyr1           704.562
       407   06 Jun 2027 01:59:16.091   06 Jun 2027 01:59:52.937            36.846                Anadyr2          1151.437
       408   06 Jun 2027 02:00:48.624   06 Jun 2027 02:01:23.896            35.272                Anadyr1          1102.250
       409   06 Jun 2027 02:02:07.081   06 Jun 2027 02:02:26.965            19.884                Norilsk           621.375
       410   06 Jun 2027 02:02:32.505   06 Jun 2027 02:03:00.383            27.878               Magadan2           871.188
       411   06 Jun 2027 02:03:12.840   06 Jun 2027 02:03:44.372            31.532                Norilsk           985.375
       412   06 Jun 2027 02:05:43.731   06 Jun 2027 02:08:55.092           191.361                Irkutsk          5980.031
       413   06 Jun 2027 02:17:54.014   06 Jun 2027 02:18:55.183            61.169                  Delhi          1911.531
       414   06 Jun 2027 02:21:13.319   06 Jun 2027 02:25:52.483           279.164                Sumatra          8723.875
       415   06 Jun 2027 03:45:34.914   06 Jun 2027 03:47:17.302           102.388                Novosib          3199.625
       416   06 Jun 2027 03:47:19.653   06 Jun 2027 03:47:42.675            23.022                Norilsk           719.438
       417   06 Jun 2027 03:47:43.666   06 Jun 2027 03:50:29.474           165.808                Irkutsk          5181.500
       418   06 Jun 2027 03:57:43.091   06 Jun 2027 04:00:57.542           194.451                  Delhi          6076.594
       419   06 Jun 2027 05:23:16.141   06 Jun 2027 05:24:03.709            47.568                Norilsk          1486.500
       420   06 Jun 2027 05:24:37.678   06 Jun 2027 05:27:16.417           158.739                Novosib          4960.594
       421   06 Jun 2027 05:27:42.833   06 Jun 2027 05:28:41.827            58.994                 Moscow          1843.562
       422   06 Jun 2027 05:43:44.481   06 Jun 2027 05:45:12.343            87.862               CapeTown          2745.688
       423   06 Jun 2027 05:50:08.964   06 Jun 2027 05:50:09.998             1.034               CapeTown            32.312
       424   06 Jun 2027 06:47:29.914   06 Jun 2027 06:47:34.767             4.853                Anadyr1           151.656
       425   06 Jun 2027 06:48:05.771   06 Jun 2027 06:48:14.413             8.642               Magadan2           270.063
       426   06 Jun 2027 06:48:18.489   06 Jun 2027 06:48:24.239             5.750               Magadan2           179.687
       427   06 Jun 2027 06:48:42.933   06 Jun 2027 06:50:06.527            83.594                Anadyr1          2612.313
       428   06 Jun 2027 07:01:26.812   06 Jun 2027 07:01:32.899             6.087              Murmansk2           190.219
       429   06 Jun 2027 07:06:24.595   06 Jun 2027 07:06:49.791            25.196                 Moscow           787.375
       430   06 Jun 2027 07:07:21.980   06 Jun 2027 07:07:40.211            18.231                 Moscow           569.719
       431   06 Jun 2027 07:19:46.885   06 Jun 2027 07:21:08.825            81.940               CapeTown          2560.625
       432   06 Jun 2027 07:24:48.517   06 Jun 2027 07:24:55.657             7.140               CapeTown           223.125
       433   06 Jun 2027 08:21:39.633   06 Jun 2027 08:22:54.338            74.705                Anadyr1          2334.531
       434   06 Jun 2027 08:24:10.170   06 Jun 2027 08:24:46.923            36.753                Anadyr1          1148.531
       435   06 Jun 2027 08:25:20.651   06 Jun 2027 08:25:27.483             6.832               Magadan1           213.500
       436   06 Jun 2027 08:25:44.951   06 Jun 2027 08:26:27.447            42.496               Magadan2          1328.000
       437   06 Jun 2027 08:33:34.439   06 Jun 2027 08:33:56.913            22.474                 Moscow           702.312
       438   06 Jun 2027 09:58:28.194   06 Jun 2027 09:59:24.333            56.139               Magadan2          1754.344
       439   06 Jun 2027 09:59:55.770   06 Jun 2027 10:00:53.834            58.064                Anadyr1          1814.500
       440   06 Jun 2027 10:00:59.429   06 Jun 2027 10:01:17.633            18.204                Anadyr1           568.875
       441   06 Jun 2027 10:01:22.871   06 Jun 2027 10:02:06.087            43.216               Magadan1          1350.500
       442   06 Jun 2027 10:02:16.846   06 Jun 2027 10:04:16.595           119.749               Magadan2          3742.156
       443   06 Jun 2027 11:30:36.166   06 Jun 2027 11:33:06.692           150.526               Magadan2          4703.937
       444   06 Jun 2027 11:33:06.692   06 Jun 2027 11:36:37.600           210.908               Magadan1          6590.875
       445   06 Jun 2027 11:37:16.960   06 Jun 2027 11:37:28.893            11.933                Norilsk           372.906
       446   06 Jun 2027 11:37:39.309   06 Jun 2027 11:38:01.624            22.315                Irkutsk           697.344
       447   06 Jun 2027 11:38:09.902   06 Jun 2027 11:38:46.051            36.149                Irkutsk          1129.656
       448   06 Jun 2027 11:38:50.288   06 Jun 2027 11:39:23.332            33.044               Magadan2          1032.625
       449   06 Jun 2027 11:39:27.812   06 Jun 2027 11:39:59.503            31.691                Irkutsk           990.344
       450   06 Jun 2027 11:40:36.683   06 Jun 2027 11:40:57.259            20.576                Norilsk           643.000
       451   06 Jun 2027 12:14:43.132   06 Jun 2027 12:15:47.005            63.873            RioGallegos          1996.031
       452   06 Jun 2027 12:49:48.071   06 Jun 2027 12:52:27.690           159.619                Sumatra          4988.094
       453   06 Jun 2027 13:03:23.843   06 Jun 2027 13:03:34.372            10.529                Irkutsk           329.031
       454   06 Jun 2027 13:04:56.718   06 Jun 2027 13:05:40.281            43.563                Novosib          1361.344
       455   06 Jun 2027 13:07:14.473   06 Jun 2027 13:07:53.290            38.817                Irkutsk          1213.031
       456   06 Jun 2027 13:13:17.309   06 Jun 2027 13:13:41.926            24.617                Norilsk           769.281
       457   06 Jun 2027 13:53:17.126   06 Jun 2027 13:55:47.680           150.554            RioGallegos          4704.813
       458   06 Jun 2027 14:27:40.679   06 Jun 2027 14:32:06.813           266.134                Sumatra          8316.688
       459   06 Jun 2027 14:35:23.804   06 Jun 2027 14:35:27.435             3.631                Sumatra           113.469
       460   06 Jun 2027 14:43:29.946   06 Jun 2027 14:47:32.689           242.743                Irkutsk          7585.719
       461   06 Jun 2027 16:13:30.436   06 Jun 2027 16:19:15.232           344.796                  Delhi         10774.875
       462   06 Jun 2027 16:21:54.595   06 Jun 2027 16:27:08.812           314.217                Novosib          9819.281
       463   06 Jun 2027 19:07:38.647   06 Jun 2027 19:10:29.791           171.144               CapeTown          5348.250
       464   06 Jun 2027 19:36:48.467   06 Jun 2027 19:39:44.926           176.459                 Moscow          5514.344
       465   06 Jun 2027 19:39:55.881   06 Jun 2027 19:42:14.648           138.767              Murmansk2          4336.469
       466   06 Jun 2027 20:45:23.998   06 Jun 2027 20:50:11.452           287.454               CapeTown          8982.937
       467   06 Jun 2027 20:50:48.271   06 Jun 2027 20:52:08.379            80.108               CapeTown          2503.375
       468   06 Jun 2027 21:27:31.105   06 Jun 2027 21:27:39.111             8.006               Magadan2           250.187
       469   06 Jun 2027 21:29:16.581   06 Jun 2027 21:30:32.844            76.263               Magadan1          2383.219
       470   06 Jun 2027 23:00:05.840   06 Jun 2027 23:05:17.671           311.831                Anadyr2          9744.719
       471   06 Jun 2027 23:05:28.128   06 Jun 2027 23:06:01.310            33.182                Norilsk          1036.937
       472   06 Jun 2027 23:06:29.798   06 Jun 2027 23:06:51.326            21.528               Magadan2           672.750
       473   06 Jun 2027 23:07:09.328   06 Jun 2027 23:07:28.649            19.321                Norilsk           603.781
       474   06 Jun 2027 23:07:48.249   06 Jun 2027 23:08:00.719            12.470               Magadan2           389.688
       475   06 Jun 2027 23:08:44.718   06 Jun 2027 23:09:20.112            35.394               Magadan2          1106.062
       476   06 Jun 2027 23:09:40.544   06 Jun 2027 23:11:07.864            87.320                Irkutsk          2728.750
       477   06 Jun 2027 23:54:22.763   06 Jun 2027 23:57:34.241           191.478            RioGallegos          5983.687
       478   07 Jun 2027 00:35:39.673   07 Jun 2027 00:37:48.259           128.586                Anadyr2          4018.312
       479   07 Jun 2027 00:37:54.188   07 Jun 2027 00:38:03.577             9.389                Norilsk           293.406
       480   07 Jun 2027 00:38:28.072   07 Jun 2027 00:39:14.505            46.433               Magadan2          1451.031
       481   07 Jun 2027 00:39:16.145   07 Jun 2027 00:40:05.325            49.180               Magadan1          1536.875
       482   07 Jun 2027 00:40:25.266   07 Jun 2027 00:40:35.265             9.999               Magadan1           312.469
