uniorb/output/strategy_4/Drop/Drop_KinoSat_110501.txt

KinoSat_110501
-------------------------
    Access    *     Start Time (UTCG)     *     Stop Time (UTCG)  *   Duration (s)        *       Station  *  Data (Mbytes)
         1   01 Jun 2027 04:26:34.203   01 Jun 2027 04:27:21.644            47.441               Magadan1          5930.125
         2   01 Jun 2027 04:28:02.762   01 Jun 2027 04:29:35.410            92.648               Magadan1         11581.000
         3   01 Jun 2027 04:29:46.529   01 Jun 2027 04:30:02.398            15.869                Anadyr1          1983.625
         4   01 Jun 2027 04:30:02.398   01 Jun 2027 04:30:13.762            11.364                Anadyr2          1420.500
         5   01 Jun 2027 04:30:14.773   01 Jun 2027 04:30:43.718            28.945                Anadyr2          3618.125
         6   01 Jun 2027 04:30:44.770   01 Jun 2027 04:30:53.167             8.397                Novosib          1049.625
         7   01 Jun 2027 04:30:57.673   01 Jun 2027 04:31:16.190            18.517               Magadan1          2314.625
         8   01 Jun 2027 04:31:38.672   01 Jun 2027 04:32:19.562            40.890               Magadan2          5111.250
         9   01 Jun 2027 04:32:34.500   01 Jun 2027 04:32:41.139             6.639                Irkutsk           829.875
        10   01 Jun 2027 04:32:43.507   01 Jun 2027 04:33:23.479            39.972                Norilsk          4996.500
        11   01 Jun 2027 04:33:41.088   01 Jun 2027 04:33:41.856             0.768                Novosib            96.000
        12   01 Jun 2027 04:34:16.554   01 Jun 2027 04:34:17.115             0.561                Norilsk            70.125
        13   01 Jun 2027 04:34:23.372   01 Jun 2027 04:34:25.771             2.399                Norilsk           299.875
        14   01 Jun 2027 04:34:47.298   01 Jun 2027 04:35:00.999            13.701              Murmansk2          1712.625
        15   01 Jun 2027 05:07:49.101   01 Jun 2027 05:08:58.421            69.320            RioGallegos          8665.000
        16   01 Jun 2027 05:44:11.722   01 Jun 2027 05:47:17.456           185.734                Sumatra         23216.750
        17   01 Jun 2027 06:05:11.626   01 Jun 2027 06:08:03.823           172.197                Novosib         21524.625
        18   01 Jun 2027 06:08:43.061   01 Jun 2027 06:09:31.489            48.428                Norilsk          6053.500
        19   01 Jun 2027 06:09:45.724   01 Jun 2027 06:10:05.663            19.939                Novosib          2492.375
        20   01 Jun 2027 06:44:26.385   01 Jun 2027 06:44:27.298             0.913            RioGallegos           114.125
        21   01 Jun 2027 06:45:40.426   01 Jun 2027 06:46:04.886            24.460            RioGallegos          3057.500
        22   01 Jun 2027 07:18:45.080   01 Jun 2027 07:19:51.505            66.425                Sumatra          8303.125
        23   01 Jun 2027 07:29:35.198   01 Jun 2027 07:31:16.709           101.511                  Delhi         12688.875
        24   01 Jun 2027 07:42:15.012   01 Jun 2027 07:42:43.000            27.988                 Moscow          3498.500
        25   01 Jun 2027 07:42:47.130   01 Jun 2027 07:44:23.634            96.504                 Moscow         12063.000
        26   01 Jun 2027 09:03:30.279   01 Jun 2027 09:03:39.516             9.237                  Delhi          1154.625
        27   01 Jun 2027 09:05:18.825   01 Jun 2027 09:05:38.427            19.602                  Delhi          2450.250
        28   01 Jun 2027 09:18:13.247   01 Jun 2027 09:18:39.799            26.552                Novosib          3319.000
        29   01 Jun 2027 09:19:49.452   01 Jun 2027 09:21:32.539           103.087                Novosib         12885.875
        30   01 Jun 2027 09:21:34.921   01 Jun 2027 09:25:50.724           255.803                Norilsk         31975.375
        31   01 Jun 2027 09:25:57.547   01 Jun 2027 09:27:32.565            95.018              Murmansk1         11877.250
        32   01 Jun 2027 10:50:21.885   01 Jun 2027 10:54:10.218           228.333                 Moscow         28541.625
        33   01 Jun 2027 10:54:55.838   01 Jun 2027 10:56:50.465           114.627                 Moscow         14328.375
        34   01 Jun 2027 10:57:00.109   01 Jun 2027 10:58:01.252            61.143              Murmansk2          7642.875
        35   01 Jun 2027 11:07:29.776   01 Jun 2027 11:10:21.514           171.738                Anadyr1         21467.250
        36   01 Jun 2027 12:41:23.769   01 Jun 2027 12:43:03.332            99.563                Anadyr1         12445.375
        37   01 Jun 2027 12:46:14.132   01 Jun 2027 12:46:47.409            33.277                Anadyr2          4159.625
        38   01 Jun 2027 14:19:59.371   01 Jun 2027 14:28:35.408           516.037               Magadan2         64504.625
        39   01 Jun 2027 16:48:23.928   01 Jun 2027 16:51:53.563           209.635            RioGallegos         26204.375
        40   01 Jun 2027 16:54:26.249   01 Jun 2027 16:56:04.352            98.103            RioGallegos         12262.875
        41   01 Jun 2027 17:38:37.616   01 Jun 2027 17:39:30.991            53.375                Irkutsk          6671.875
        42   01 Jun 2027 17:41:46.441   01 Jun 2027 17:42:19.475            33.034                Irkutsk          4129.250
        43   01 Jun 2027 17:52:30.075   01 Jun 2027 17:54:40.954           130.879                Sumatra         16359.875
        44   01 Jun 2027 17:56:09.160   01 Jun 2027 17:57:22.595            73.435                Sumatra          9179.375
        45   01 Jun 2027 19:19:58.066   01 Jun 2027 19:22:57.801           179.735                  Delhi         21880.001
        46   02 Jun 2027 04:43:04.181   02 Jun 2027 04:43:18.882            14.701               Magadan1          1837.625
        47   02 Jun 2027 04:43:25.100   02 Jun 2027 04:44:07.109            42.009               Magadan1          5251.125
        48   02 Jun 2027 04:44:59.306   02 Jun 2027 04:49:34.253           274.947                Norilsk         34368.375
        49   02 Jun 2027 04:49:46.051   02 Jun 2027 04:51:21.281            95.230              Murmansk1         11903.750
        50   02 Jun 2027 04:51:21.281   02 Jun 2027 04:54:06.720           165.439              Murmansk2         20679.875
        51   02 Jun 2027 05:19:43.614   02 Jun 2027 05:19:52.322             8.708            RioGallegos          1088.500
        52   02 Jun 2027 05:21:55.980   02 Jun 2027 05:22:19.238            23.258            RioGallegos          2907.250
        53   02 Jun 2027 05:22:56.651   02 Jun 2027 05:23:29.396            32.745            RioGallegos          4093.125
        54   02 Jun 2027 06:19:49.837   02 Jun 2027 06:20:34.609            44.772                Novosib          5596.500
        55   02 Jun 2027 06:20:52.843   02 Jun 2027 06:25:56.595           303.752                Norilsk         37969.000
        56   02 Jun 2027 06:26:10.989   02 Jun 2027 06:28:35.953           144.964              Murmansk1         18120.500
        57   02 Jun 2027 06:56:50.846   02 Jun 2027 07:01:31.320           280.474            RioGallegos         35059.250
        58   02 Jun 2027 07:01:56.173   02 Jun 2027 07:03:31.975            95.802            RioGallegos         11975.250
        59   02 Jun 2027 07:31:04.346   02 Jun 2027 07:38:17.114           432.768                Sumatra         54096.000
        60   02 Jun 2027 07:46:21.258   02 Jun 2027 07:46:52.602            31.344                Irkutsk          3918.000
        61   02 Jun 2027 07:56:34.742   02 Jun 2027 08:01:55.970           321.228                Norilsk         40153.500
        62   02 Jun 2027 08:03:13.016   02 Jun 2027 08:03:49.442            36.426              Murmansk1          4553.250
        63   02 Jun 2027 09:16:02.376   02 Jun 2027 09:26:10.524           608.148                  Delhi         76018.500
        64   02 Jun 2027 09:26:20.954   02 Jun 2027 09:27:55.173            94.219                Novosib         11777.375
        65   02 Jun 2027 09:32:21.514   02 Jun 2027 09:32:25.335             3.821                 Moscow           477.625
        66   02 Jun 2027 09:32:36.319   02 Jun 2027 09:33:17.391            41.072                Novosib          5134.000
        67   02 Jun 2027 09:33:26.984   02 Jun 2027 09:37:50.856           263.872                Norilsk         32984.000
        68   02 Jun 2027 11:02:49.042   02 Jun 2027 11:03:48.276            59.234              Murmansk1          7404.250
        69   02 Jun 2027 11:04:14.050   02 Jun 2027 11:05:08.775            54.725              Murmansk2          6840.625
        70   02 Jun 2027 11:06:17.633   02 Jun 2027 11:06:46.616            28.983              Murmansk2          3622.875
        71   02 Jun 2027 11:07:07.494   02 Jun 2027 11:07:25.933            18.439              Murmansk2          2304.875
        72   02 Jun 2027 11:07:46.434   02 Jun 2027 11:07:57.745            11.311              Murmansk2          1413.875
        73   02 Jun 2027 11:08:09.017   02 Jun 2027 11:08:41.429            32.412              Murmansk2          4051.500
        74   02 Jun 2027 11:09:50.353   02 Jun 2027 11:12:33.962           163.609                Norilsk         20451.125
        75   02 Jun 2027 11:13:00.660   02 Jun 2027 11:13:40.575            39.915              Murmansk1          4989.375
        76   02 Jun 2027 11:18:46.881   02 Jun 2027 11:23:45.291           298.410                Anadyr2         37301.250
        77   02 Jun 2027 12:12:47.341   02 Jun 2027 12:14:50.284           122.943               CapeTown         15367.875
        78   02 Jun 2027 14:31:51.884   02 Jun 2027 14:34:34.199           162.315               Magadan2         20289.375
        79   02 Jun 2027 14:39:02.275   02 Jun 2027 14:40:35.945            93.670               Magadan2         11708.750
        80   02 Jun 2027 17:00:50.006   02 Jun 2027 17:06:27.754           337.748            RioGallegos         42218.500
        81   02 Jun 2027 17:45:08.389   02 Jun 2027 17:45:52.795            44.406                Norilsk          5550.750
        82   02 Jun 2027 18:06:21.927   02 Jun 2027 18:08:12.438           110.511                Sumatra         13813.875
        83   02 Jun 2027 19:31:21.851   02 Jun 2027 19:34:46.557           204.706                  Delhi         25588.250
        84   02 Jun 2027 19:36:52.100   02 Jun 2027 19:37:24.790            32.690                  Delhi          4086.250
        85   02 Jun 2027 20:57:45.587   02 Jun 2027 20:58:10.373            24.786              Murmansk1          3098.250
        86   02 Jun 2027 20:58:47.306   02 Jun 2027 20:59:36.634            49.328              Murmansk2          6166.000
        87   02 Jun 2027 21:01:22.117   02 Jun 2027 21:01:39.730            17.613              Murmansk2          2201.625
        88   02 Jun 2027 21:02:02.622   02 Jun 2027 21:02:08.418             5.796              Murmansk1           724.500
        89   02 Jun 2027 21:03:57.496   02 Jun 2027 21:04:42.837            45.341                 Moscow          5667.625
        90   02 Jun 2027 23:06:46.274   02 Jun 2027 23:08:08.126            81.852               CapeTown         10231.500
        91   03 Jun 2027 04:56:54.810   03 Jun 2027 04:58:00.906            66.096                Novosib          8262.000
        92   03 Jun 2027 04:58:18.213   03 Jun 2027 04:59:10.535            52.322                Norilsk          6540.250
        93   03 Jun 2027 04:59:42.262   03 Jun 2027 05:01:26.289           104.027                Norilsk         13003.375
        94   03 Jun 2027 05:02:12.450   03 Jun 2027 05:02:55.532            43.082              Murmansk1          5385.250
        95   03 Jun 2027 05:04:21.988   03 Jun 2027 05:05:54.973            92.985              Murmansk2         11623.125
        96   03 Jun 2027 06:20:11.154   03 Jun 2027 06:24:13.072           241.918                Irkutsk         30239.750
        97   03 Jun 2027 06:25:07.114   03 Jun 2027 06:25:21.995            14.881                Irkutsk          1860.125
        98   03 Jun 2027 06:32:28.640   03 Jun 2027 06:36:52.579           263.939              Murmansk1         32992.375
        99   03 Jun 2027 06:36:52.579   03 Jun 2027 06:40:29.642           217.063              Murmansk2         27132.875
       100   03 Jun 2027 07:09:20.757   03 Jun 2027 07:16:35.253           434.496            RioGallegos         54312.000
       101   03 Jun 2027 07:44:36.342   03 Jun 2027 07:53:37.154           540.812                Sumatra         67601.500
       102   03 Jun 2027 07:59:04.822   03 Jun 2027 08:04:05.836           301.014                Irkutsk         37626.750
       103   03 Jun 2027 08:08:44.705   03 Jun 2027 08:10:29.544           104.839                 Moscow         13104.875
       104   03 Jun 2027 08:10:38.726   03 Jun 2027 08:12:33.620           114.894              Murmansk1         14361.750
       105   03 Jun 2027 08:13:01.369   03 Jun 2027 08:13:57.789            56.420                Norilsk          7052.500
       106   03 Jun 2027 08:15:20.868   03 Jun 2027 08:15:47.995            27.127              Murmansk2          3390.875
       107   03 Jun 2027 09:28:45.873   03 Jun 2027 09:37:40.664           534.791                  Delhi         66848.875
       108   03 Jun 2027 09:37:48.116   03 Jun 2027 09:40:27.856           159.740                Novosib         19967.500
       109   03 Jun 2027 09:45:07.504   03 Jun 2027 09:51:34.471           386.967              Murmansk1         48370.875
       110   03 Jun 2027 11:14:58.854   03 Jun 2027 11:17:07.853           128.999              Murmansk1         16124.875
       111   03 Jun 2027 11:17:07.853   03 Jun 2027 11:19:48.308           160.455              Murmansk2         20056.875
       112   03 Jun 2027 11:20:09.328   03 Jun 2027 11:20:36.535            27.207              Murmansk2          3400.875
       113   03 Jun 2027 11:21:58.263   03 Jun 2027 11:25:30.008           211.745              Murmansk2         26468.125
       114   03 Jun 2027 11:26:37.516   03 Jun 2027 11:26:41.547             4.031              Murmansk2           503.875
       115   03 Jun 2027 11:30:23.980   03 Jun 2027 11:32:00.424            96.444                Anadyr1         12055.500
       116   03 Jun 2027 11:33:39.265   03 Jun 2027 11:34:15.234            35.969                Anadyr2          4496.125
       117   03 Jun 2027 11:36:09.663   03 Jun 2027 11:36:46.539            36.876                Anadyr1          4609.500
       118   03 Jun 2027 12:25:59.693   03 Jun 2027 12:27:10.142            70.449               CapeTown          8806.125
       119   03 Jun 2027 12:28:49.323   03 Jun 2027 12:29:12.784            23.461               CapeTown          2932.625
       120   03 Jun 2027 12:32:13.973   03 Jun 2027 12:34:14.451           120.478               CapeTown         15059.750
       121   03 Jun 2027 14:43:46.258   03 Jun 2027 14:45:56.846           130.588               Magadan2         16323.500
       122   03 Jun 2027 14:48:51.084   03 Jun 2027 14:49:18.029            26.945               Magadan1          3368.125
       123   03 Jun 2027 14:52:15.711   03 Jun 2027 14:53:17.364            61.653               Magadan2          7706.625
       124   03 Jun 2027 17:14:37.913   03 Jun 2027 17:17:52.693           194.780            RioGallegos         24347.500
       125   03 Jun 2027 17:56:54.841   03 Jun 2027 17:59:17.077           142.236                Norilsk         17779.500
       126   03 Jun 2027 18:02:00.024   03 Jun 2027 18:05:00.431           180.407                Novosib         22550.875
       127   03 Jun 2027 18:19:19.948   03 Jun 2027 18:19:25.224             5.276                Sumatra           659.500
       128   03 Jun 2027 19:46:43.798   03 Jun 2027 19:49:35.283           171.485                  Delhi         21435.625
       129   03 Jun 2027 21:10:38.588   03 Jun 2027 21:11:42.578            63.990              Murmansk1          7998.750
       130   03 Jun 2027 21:11:46.384   03 Jun 2027 21:14:48.256           181.872              Murmansk2         22734.000
       131   03 Jun 2027 21:15:11.860   03 Jun 2027 21:16:41.207            89.347                 Moscow         11168.375
       132   04 Jun 2027 05:09:10.912   04 Jun 2027 05:15:27.110           376.198              Murmansk2         47024.750
       133   04 Jun 2027 05:15:27.110   04 Jun 2027 05:17:41.278           134.168              Murmansk1         16771.000
       134   04 Jun 2027 05:43:42.316   04 Jun 2027 05:44:39.053            56.737            RioGallegos          7092.125
       135   04 Jun 2027 05:46:06.616   04 Jun 2027 05:46:33.916            27.300            RioGallegos          3412.500
       136   04 Jun 2027 05:46:59.898   04 Jun 2027 05:47:42.679            42.781            RioGallegos          5347.625
       137   04 Jun 2027 06:18:55.853   04 Jun 2027 06:20:36.533           100.680                Sumatra         12585.000
       138   04 Jun 2027 06:22:20.929   04 Jun 2027 06:23:10.276            49.347                Sumatra          6168.375
       139   04 Jun 2027 06:31:09.182   04 Jun 2027 06:31:16.066             6.884                  Delhi           860.500
       140   04 Jun 2027 06:32:19.327   04 Jun 2027 06:37:19.509           300.182                Irkutsk         37522.750
       141   04 Jun 2027 06:44:42.414   04 Jun 2027 06:49:27.347           284.933              Murmansk1         35616.625
       142   04 Jun 2027 06:49:27.347   04 Jun 2027 06:52:24.056           176.709              Murmansk2         22088.625
       143   04 Jun 2027 07:21:57.155   04 Jun 2027 07:30:08.875           491.720            RioGallegos         61465.000
       144   04 Jun 2027 07:56:11.801   04 Jun 2027 08:04:59.330           527.529                Sumatra         65941.125
       145   04 Jun 2027 08:11:32.629   04 Jun 2027 08:12:10.805            38.176                Novosib          4772.000
       146   04 Jun 2027 08:12:30.997   04 Jun 2027 08:16:46.455           255.458                Irkutsk         31932.250
       147   04 Jun 2027 08:20:33.271   04 Jun 2027 08:20:54.100            20.829                Norilsk          2603.625
       148   04 Jun 2027 08:20:55.981   04 Jun 2027 08:25:59.529           303.548                Norilsk         37943.500
       149   04 Jun 2027 09:41:47.040   04 Jun 2027 09:48:51.054           424.014                  Delhi         53001.750
       150   04 Jun 2027 09:50:19.430   04 Jun 2027 09:52:15.594           116.164                Novosib         14520.500
       151   04 Jun 2027 09:56:15.348   04 Jun 2027 09:56:26.157            10.809                Novosib          1351.125
       152   04 Jun 2027 09:57:30.313   04 Jun 2027 10:01:49.174           258.861                Norilsk         32357.625
       153   04 Jun 2027 11:27:10.488   04 Jun 2027 11:33:50.936           400.448              Murmansk2         50056.000
       154   04 Jun 2027 11:34:29.778   04 Jun 2027 11:38:29.964           240.186              Murmansk1         30023.250
       155   04 Jun 2027 11:42:08.991   04 Jun 2027 11:44:08.378           119.387                Anadyr2         14923.375
       156   04 Jun 2027 11:48:17.475   04 Jun 2027 11:48:24.755             7.280                Anadyr2           910.000
       157   04 Jun 2027 12:36:39.673   04 Jun 2027 12:38:52.844           133.171               CapeTown         16646.375
       158   04 Jun 2027 12:39:42.229   04 Jun 2027 12:41:20.058            97.829               CapeTown         12228.625
       159   04 Jun 2027 12:44:39.544   04 Jun 2027 12:45:28.644            49.100               CapeTown          6137.500
       160   04 Jun 2027 12:46:14.384   04 Jun 2027 12:46:50.283            35.899               CapeTown          4487.375
       161   04 Jun 2027 12:47:12.268   04 Jun 2027 12:47:57.161            44.893               CapeTown          5611.625
       162   04 Jun 2027 13:22:11.645   04 Jun 2027 13:23:58.113           106.468               Magadan2         13308.500
       163   04 Jun 2027 14:55:42.087   04 Jun 2027 14:57:47.684           125.597               Magadan1         15699.625
       164   04 Jun 2027 17:27:45.368   04 Jun 2027 17:29:25.128            99.760            RioGallegos         12470.000
       165   04 Jun 2027 18:08:28.000   04 Jun 2027 18:08:58.900            30.900                Norilsk          3862.500
       166   04 Jun 2027 18:12:56.677   04 Jun 2027 18:18:38.607           341.930                Novosib         42741.250
       167   04 Jun 2027 19:59:58.521   04 Jun 2027 20:00:51.931            53.410                  Delhi          6676.250
       168   04 Jun 2027 21:22:24.550   04 Jun 2027 21:23:12.015            47.465              Murmansk2          5933.125
       169   04 Jun 2027 21:23:37.821   04 Jun 2027 21:26:39.995           182.174              Murmansk1         22771.750
       170   04 Jun 2027 21:26:43.857   04 Jun 2027 21:28:12.113            88.256              Murmansk2         11032.000
       171   04 Jun 2027 21:28:40.468   04 Jun 2027 21:31:49.817           189.349                 Moscow         23668.625
       172   05 Jun 2027 03:43:25.849   05 Jun 2027 03:45:16.319           110.470               Magadan1         13808.750
       173   05 Jun 2027 03:45:17.553   05 Jun 2027 03:46:07.690            50.137                Norilsk          6267.125
       174   05 Jun 2027 05:21:05.243   05 Jun 2027 05:26:06.837           301.594                Norilsk         37699.250
       175   05 Jun 2027 05:26:13.318   05 Jun 2027 05:29:33.123           199.805              Murmansk1         24975.625
       176   05 Jun 2027 05:55:46.664   05 Jun 2027 06:00:56.808           310.144            RioGallegos         38768.000
       177   05 Jun 2027 06:03:06.324   05 Jun 2027 06:04:56.536           110.212            RioGallegos         13776.500
       178   05 Jun 2027 06:30:45.173   05 Jun 2027 06:31:22.219            37.046                Sumatra          4630.750
       179   05 Jun 2027 06:33:42.595   05 Jun 2027 06:35:19.279            96.684                Sumatra         12085.500
       180   05 Jun 2027 06:42:01.048   05 Jun 2027 06:43:26.615            85.567                  Delhi         10695.875
       181   05 Jun 2027 06:44:31.087   05 Jun 2027 06:49:22.684           291.597                Irkutsk         36449.625
       182   05 Jun 2027 06:49:31.596   05 Jun 2027 06:50:04.020            32.424                Norilsk          4053.000
       183   05 Jun 2027 06:56:29.039   05 Jun 2027 06:56:43.181            14.142              Murmansk2          1767.750
       184   05 Jun 2027 06:56:49.733   05 Jun 2027 07:01:27.146           277.413                Norilsk         34676.625
       185   05 Jun 2027 07:01:33.339   05 Jun 2027 07:04:19.170           165.831              Murmansk2         20728.875
       186   05 Jun 2027 07:35:42.208   05 Jun 2027 07:43:08.044           445.836            RioGallegos         55729.500
       187   05 Jun 2027 08:09:11.295   05 Jun 2027 08:15:53.727           402.432                Sumatra         50304.000
       188   05 Jun 2027 08:22:53.807   05 Jun 2027 08:24:20.457            86.650                Novosib         10831.250
       189   05 Jun 2027 08:24:46.496   05 Jun 2027 08:25:13.458            26.962                Novosib          3370.250
       190   05 Jun 2027 08:25:36.382   05 Jun 2027 08:28:54.661           198.279                Irkutsk         24784.875
       191   05 Jun 2027 08:32:32.482   05 Jun 2027 08:34:18.208           105.726                Novosib         13215.750
       192   05 Jun 2027 08:34:25.596   05 Jun 2027 08:36:28.530           122.934              Murmansk1         15366.750
       193   05 Jun 2027 08:36:28.530   05 Jun 2027 08:37:00.662            32.132              Murmansk2          4016.500
       194   05 Jun 2027 09:55:28.718   05 Jun 2027 09:59:22.898           234.180                  Delhi         29272.500
       195   05 Jun 2027 10:08:12.587   05 Jun 2027 10:08:35.198            22.611                Norilsk          2826.375
       196   05 Jun 2027 10:09:41.034   05 Jun 2027 10:15:37.052           356.018              Murmansk1         44502.250
       197   05 Jun 2027 11:14:38.630   05 Jun 2027 11:23:12.211           513.581               CapeTown         64197.625
       198   05 Jun 2027 11:36:03.642   05 Jun 2027 11:42:10.463           366.821                 Moscow         45852.625
       199   05 Jun 2027 11:42:11.805   05 Jun 2027 11:50:17.218           485.413              Murmansk2         60676.625
       200   05 Jun 2027 11:51:01.221   05 Jun 2027 11:51:35.091            33.870              Murmansk2          4233.750
       201   05 Jun 2027 11:53:58.474   05 Jun 2027 11:54:56.674            58.200                Anadyr1          7275.000
       202   05 Jun 2027 11:54:56.674   05 Jun 2027 11:57:41.609           164.935                Anadyr2         20616.875
       203   05 Jun 2027 11:58:46.566   05 Jun 2027 11:59:47.857            61.291                Anadyr2          7661.375
       204   05 Jun 2027 12:00:37.442   05 Jun 2027 12:02:21.265           103.823                Anadyr1         12977.875
       205   05 Jun 2027 12:48:40.164   05 Jun 2027 12:49:20.898            40.734               CapeTown          5091.750
       206   05 Jun 2027 12:51:32.177   05 Jun 2027 12:51:53.405            21.228               CapeTown          2653.500
       207   05 Jun 2027 12:53:30.426   05 Jun 2027 12:55:16.503           106.077               CapeTown         13259.625
       208   05 Jun 2027 13:33:23.068   05 Jun 2027 13:35:56.893           153.825               Magadan2         19228.125
       209   05 Jun 2027 15:14:01.068   05 Jun 2027 15:14:54.605            53.537               Magadan1          6692.125
       210   05 Jun 2027 16:49:46.370   05 Jun 2027 16:54:11.228           264.858                Irkutsk         33107.250
       211   05 Jun 2027 18:24:23.104   05 Jun 2027 18:31:43.910           440.806                Novosib         55100.750
       212   05 Jun 2027 21:33:58.711   05 Jun 2027 21:34:49.408            50.697              Murmansk2          6337.125
       213   05 Jun 2027 21:36:23.211   05 Jun 2027 21:38:34.431           131.220              Murmansk2         16402.500
       214   05 Jun 2027 21:39:09.811   05 Jun 2027 21:43:56.429           286.618                 Moscow         35827.250
       215   05 Jun 2027 22:06:27.534   05 Jun 2027 22:07:46.757            79.223               CapeTown          9902.875
       216   06 Jun 2027 03:55:45.724   06 Jun 2027 03:56:25.098            39.374                Norilsk          4921.750
       217   06 Jun 2027 03:56:43.314   06 Jun 2027 03:57:14.992            31.678               Magadan1          3959.750
       218   06 Jun 2027 03:57:16.036   06 Jun 2027 04:01:27.533           251.497                Norilsk         31437.125
       219   06 Jun 2027 05:13:17.238   06 Jun 2027 05:13:54.407            37.169                Sumatra          4646.125
       220   06 Jun 2027 05:33:08.098   06 Jun 2027 05:41:23.151           495.053              Murmansk2         61881.625
       221   06 Jun 2027 06:07:54.507   06 Jun 2027 06:12:24.920           270.413            RioGallegos         33801.625
       222   06 Jun 2027 06:12:47.369   06 Jun 2027 06:13:18.616            31.247            RioGallegos          3905.875
       223   06 Jun 2027 06:16:07.276   06 Jun 2027 06:17:09.117            61.841            RioGallegos          7730.125
       224   06 Jun 2027 06:42:40.321   06 Jun 2027 06:44:05.970            85.649                Sumatra         10706.125
       225   06 Jun 2027 06:49:53.293   06 Jun 2027 06:50:36.482            43.189                Sumatra          5398.625
       226   06 Jun 2027 06:53:10.933   06 Jun 2027 06:55:43.343           152.410                  Delhi         19051.250
       227   06 Jun 2027 06:56:46.680   06 Jun 2027 07:02:39.925           353.245                Irkutsk         44155.625
       228   06 Jun 2027 07:08:42.496   06 Jun 2027 07:08:47.598             5.102              Murmansk2           637.750
       229   06 Jun 2027 07:09:08.295   06 Jun 2027 07:14:03.125           294.830                Norilsk         36853.750
       230   06 Jun 2027 07:14:07.588   06 Jun 2027 07:16:14.950           127.362              Murmansk2         15920.250
       231   06 Jun 2027 07:47:37.854   06 Jun 2027 07:54:38.899           421.045            RioGallegos         52630.625
       232   06 Jun 2027 08:23:10.793   06 Jun 2027 08:25:47.040           156.247                Sumatra         19530.875
       233   06 Jun 2027 08:34:37.256   06 Jun 2027 08:34:59.017            21.761                Novosib          2720.125
       234   06 Jun 2027 08:36:42.826   06 Jun 2027 08:39:24.312           161.486                Novosib         20185.750
       235   06 Jun 2027 08:39:25.086   06 Jun 2027 08:40:44.228            79.142                Irkutsk          9892.750
       236   06 Jun 2027 08:44:50.345   06 Jun 2027 08:51:46.130           415.785              Murmansk1         51973.125
       237   06 Jun 2027 10:20:13.433   06 Jun 2027 10:21:30.313            76.880                Norilsk          9610.000
       238   06 Jun 2027 10:21:33.903   06 Jun 2027 10:24:09.563           155.660                 Moscow         19457.500
       239   06 Jun 2027 10:24:10.360   06 Jun 2027 10:25:43.314            92.954                Norilsk         11619.250
       240   06 Jun 2027 10:26:08.370   06 Jun 2027 10:27:38.526            90.156              Murmansk1         11269.500
       241   06 Jun 2027 11:26:04.995   06 Jun 2027 11:35:58.921           593.926               CapeTown         74240.750
       242   06 Jun 2027 11:48:26.611   06 Jun 2027 11:59:04.015           637.404                 Moscow         79675.500
       243   06 Jun 2027 11:59:11.293   06 Jun 2027 12:03:36.436           265.143              Murmansk1         33142.875
       244   06 Jun 2027 12:05:50.858   06 Jun 2027 12:14:35.179           524.321                Anadyr1         65540.125
       245   06 Jun 2027 13:00:43.376   06 Jun 2027 13:01:51.814            68.438               CapeTown          8554.750
       246   06 Jun 2027 13:44:55.665   06 Jun 2027 13:47:56.337           180.672               Magadan1         22584.000
       247   06 Jun 2027 13:50:56.559   06 Jun 2027 13:52:05.606            69.047               Magadan1          8630.875
       248   06 Jun 2027 17:00:55.752   06 Jun 2027 17:07:33.232           397.480                Irkutsk         49685.000
       249   06 Jun 2027 17:17:17.342   06 Jun 2027 17:20:00.362           163.020                Sumatra         20377.500
       250   06 Jun 2027 18:36:00.642   06 Jun 2027 18:41:04.673           304.031                Novosib         38003.875
       251   06 Jun 2027 21:45:12.163   06 Jun 2027 21:46:35.788            83.625              Murmansk2         10453.125
       252   06 Jun 2027 21:49:04.052   06 Jun 2027 21:51:13.719           129.667              Murmansk1         16208.375
       253   06 Jun 2027 21:52:41.232   06 Jun 2027 21:53:12.936            31.704                 Moscow          3963.000
       254   06 Jun 2027 21:54:56.806   06 Jun 2027 21:57:35.524           158.718                 Moscow         19839.750
       255   06 Jun 2027 22:16:41.469   06 Jun 2027 22:18:18.511            97.042               CapeTown          7568.128
       256   07 Jun 2027 04:03:58.804   07 Jun 2027 04:04:15.874            17.070                Irkutsk          2133.750
       257   07 Jun 2027 04:07:55.754   07 Jun 2027 04:08:29.978            34.224                Anadyr2          4278.000
       258   07 Jun 2027 04:09:14.823   07 Jun 2027 04:09:28.895            14.072                Novosib          1759.000
       259   07 Jun 2027 04:09:30.950   07 Jun 2027 04:16:06.634           395.684              Murmansk2         49460.500
       260   07 Jun 2027 05:22:23.534   07 Jun 2027 05:23:21.581            58.047                Sumatra          7255.875
       261   07 Jun 2027 05:45:17.257   07 Jun 2027 05:53:13.878           476.621              Murmansk1         59577.625
       262   07 Jun 2027 06:20:06.032   07 Jun 2027 06:25:45.464           339.432            RioGallegos         42429.000
       263   07 Jun 2027 06:27:24.773   07 Jun 2027 06:28:14.383            49.610            RioGallegos          6201.250
       264   07 Jun 2027 06:29:14.486   07 Jun 2027 06:29:48.501            34.015            RioGallegos          4251.875
       265   07 Jun 2027 06:54:41.060   07 Jun 2027 06:57:13.829           152.769                Sumatra         19096.125
       266   07 Jun 2027 06:57:49.168   07 Jun 2027 06:59:57.554           128.386                Sumatra         16048.250
       267   07 Jun 2027 07:05:43.304   07 Jun 2027 07:07:43.615           120.311                  Delhi         15038.875
       268   07 Jun 2027 07:09:06.445   07 Jun 2027 07:14:27.699           321.254                Irkutsk         40156.750
       269   07 Jun 2027 07:20:08.941   07 Jun 2027 07:20:43.978            35.037                Novosib          4379.625
       270   07 Jun 2027 07:21:12.074   07 Jun 2027 07:26:14.598           302.524              Murmansk1         37815.500
       271   07 Jun 2027 07:27:23.569   07 Jun 2027 07:28:11.371            47.802              Murmansk2          5975.250
       272   07 Jun 2027 08:00:54.025   07 Jun 2027 08:05:52.761           298.736            RioGallegos         37342.000
       273   07 Jun 2027 08:39:05.068   07 Jun 2027 08:40:17.851            72.783                  Delhi          9097.875
       274   07 Jun 2027 08:41:30.594   07 Jun 2027 08:42:41.213            70.619                  Delhi          8827.375
       275   07 Jun 2027 08:47:01.123   07 Jun 2027 08:51:23.675           262.552                Novosib         32819.000
       276   07 Jun 2027 08:51:54.898   07 Jun 2027 08:52:20.901            26.003                Norilsk          3250.375
       277   07 Jun 2027 08:56:41.578   07 Jun 2027 08:58:06.961            85.383                Novosib         10672.875
       278   07 Jun 2027 08:58:19.990   07 Jun 2027 09:01:29.946           189.956              Murmansk1         23744.500
       279   07 Jun 2027 09:01:29.946   07 Jun 2027 09:01:55.046            25.100              Murmansk2          3137.500
       280   07 Jun 2027 09:03:18.444   07 Jun 2027 09:03:46.205            27.761              Murmansk1          3470.125
       281   07 Jun 2027 10:23:16.349   07 Jun 2027 10:23:50.241            33.892                 Moscow          4236.500
       282   07 Jun 2027 10:27:46.704   07 Jun 2027 10:28:33.451            46.747              Murmansk2          5843.375
       283   07 Jun 2027 10:31:53.966   07 Jun 2027 10:39:40.091           466.125              Murmansk1         58265.625
       284   07 Jun 2027 11:37:40.860   07 Jun 2027 11:47:00.890           560.030               CapeTown         70003.750
       285   07 Jun 2027 12:00:54.144   07 Jun 2027 12:10:54.393           600.249                 Moscow         75031.125
       286   07 Jun 2027 12:11:12.893   07 Jun 2027 12:15:37.592           264.699              Murmansk1         33087.375
       287   07 Jun 2027 12:17:45.295   07 Jun 2027 12:20:19.855           154.560                Anadyr2         19320.000
       288   07 Jun 2027 12:21:03.641   07 Jun 2027 12:22:02.835            59.194                Anadyr2          7399.250
       289   07 Jun 2027 13:56:37.162   07 Jun 2027 14:00:30.817           233.655               Magadan1         29206.875
       290   07 Jun 2027 14:01:26.673   07 Jun 2027 14:03:06.036            99.363               Magadan2         12420.375
       291   07 Jun 2027 16:26:10.239   07 Jun 2027 16:28:34.020           143.781            RioGallegos         17972.625
       292   07 Jun 2027 17:12:25.061   07 Jun 2027 17:15:59.122           214.061                Irkutsk         26757.625
       293   07 Jun 2027 17:17:10.650   07 Jun 2027 17:18:33.725            83.075                Irkutsk         10384.375
       294   07 Jun 2027 17:27:44.332   07 Jun 2027 17:29:55.594           131.262                Sumatra         16407.750
       295   07 Jun 2027 17:33:55.599   07 Jun 2027 17:35:16.690            81.091                Sumatra         10136.375
       296   07 Jun 2027 18:49:55.929   07 Jun 2027 18:51:10.701            74.772                Novosib          9346.500
       297   07 Jun 2027 18:53:31.102   07 Jun 2027 18:56:04.531           153.429                Novosib         19178.625
       298   07 Jun 2027 18:58:51.251   07 Jun 2027 18:59:50.718            59.467                  Delhi          7433.375
       299   07 Jun 2027 20:23:48.016   07 Jun 2027 20:24:19.538            31.522              Murmansk2          3940.250
       300   07 Jun 2027 22:01:05.396   07 Jun 2027 22:02:56.706           111.310                 Moscow         13913.750
       301   07 Jun 2027 22:04:24.919   07 Jun 2027 22:05:08.208            43.289                 Moscow          5411.125
       302   07 Jun 2027 22:07:19.675   07 Jun 2027 22:08:00.694            41.019                 Moscow          5127.375
       303   07 Jun 2027 22:27:35.295   07 Jun 2027 22:28:42.021            66.726               CapeTown          2750.125
       304   08 Jun 2027 04:21:14.262   08 Jun 2027 04:26:24.413           310.151                Norilsk         38768.875
       305   08 Jun 2027 04:26:25.825   08 Jun 2027 04:28:52.298           146.473              Murmansk1         18309.125
       306   08 Jun 2027 05:33:13.178   08 Jun 2027 05:35:41.181           148.003                Sumatra         18500.375
       307   08 Jun 2027 05:57:04.726   08 Jun 2027 06:02:08.819           304.093                Norilsk         38011.625
       308   08 Jun 2027 06:02:13.273   08 Jun 2027 06:05:05.334           172.061              Murmansk1         21507.625
       309   08 Jun 2027 06:32:21.504   08 Jun 2027 06:37:04.525           283.021            RioGallegos         35377.625
       310   08 Jun 2027 06:38:07.846   08 Jun 2027 06:38:18.175            10.329            RioGallegos          1291.125
       311   08 Jun 2027 06:41:18.969   08 Jun 2027 06:42:10.237            51.268            RioGallegos          6408.500
       312   08 Jun 2027 07:06:47.446   08 Jun 2027 07:09:44.048           176.602                Sumatra         22075.250
       313   08 Jun 2027 07:11:56.198   08 Jun 2027 07:12:30.198            34.000                Sumatra          4250.000
       314   08 Jun 2027 07:17:33.337   08 Jun 2027 07:19:34.821           121.484                  Delhi         15185.500
       315   08 Jun 2027 07:21:30.832   08 Jun 2027 07:28:09.659           398.827                Irkutsk         49853.375
       316   08 Jun 2027 07:32:58.457   08 Jun 2027 07:35:25.053           146.596                 Moscow         18324.500
       317   08 Jun 2027 07:36:00.170   08 Jun 2027 07:36:54.937            54.767              Murmansk1          6845.875
       318   08 Jun 2027 07:36:54.937   08 Jun 2027 07:37:48.988            54.051              Murmansk2          6756.375
       319   08 Jun 2027 07:39:25.018   08 Jun 2027 07:40:08.381            43.363              Murmansk2          5420.375
       320   08 Jun 2027 08:51:21.617   08 Jun 2027 08:55:51.624           270.007                  Delhi         33750.875
       321   08 Jun 2027 08:56:05.960   08 Jun 2027 08:57:52.638           106.678                  Delhi         13334.750
       322   08 Jun 2027 08:58:09.883   08 Jun 2027 08:59:16.212            66.329                  Delhi          8291.125
       323   08 Jun 2027 09:00:30.882   08 Jun 2027 09:03:55.266           204.384                Novosib         25548.000
       324   08 Jun 2027 09:08:39.296   08 Jun 2027 09:13:26.281           286.985              Murmansk1         35873.125
       325   08 Jun 2027 09:13:26.281   08 Jun 2027 09:14:22.065            55.784              Murmansk2          6973.000
       326   08 Jun 2027 09:14:39.792   08 Jun 2027 09:14:47.766             7.974              Murmansk2           996.750
       327   08 Jun 2027 09:15:19.961   08 Jun 2027 09:15:46.567            26.606              Murmansk2          3325.750
       328   08 Jun 2027 10:38:49.352   08 Jun 2027 10:39:07.375            18.023              Murmansk1          2252.875
       329   08 Jun 2027 10:39:43.271   08 Jun 2027 10:40:56.046            72.775              Murmansk1          9096.875
       330   08 Jun 2027 10:43:46.512   08 Jun 2027 10:48:11.038           264.526                 Moscow         33065.750
       331   08 Jun 2027 10:48:14.284   08 Jun 2027 10:49:28.999            74.715                Norilsk          9339.375
       332   08 Jun 2027 10:50:04.917   08 Jun 2027 10:51:41.716            96.799              Murmansk1         12099.875
       333   08 Jun 2027 11:51:05.291   08 Jun 2027 12:01:00.194           594.903               CapeTown         74362.875
       334   08 Jun 2027 12:13:26.912   08 Jun 2027 12:13:30.867             3.955                 Moscow           494.375
       335   08 Jun 2027 12:13:54.666   08 Jun 2027 12:20:50.182           415.516                 Moscow         51939.500
       336   08 Jun 2027 12:21:00.041   08 Jun 2027 12:21:42.965            42.924              Murmansk2          5365.500
       337   08 Jun 2027 12:29:41.243   08 Jun 2027 12:31:47.796           126.553                Anadyr2         15819.125
       338   08 Jun 2027 14:08:23.812   08 Jun 2027 14:13:54.773           330.961               Magadan1         41370.125
       339   08 Jun 2027 16:37:11.957   08 Jun 2027 16:40:19.209           187.252            RioGallegos         23406.500
       340   08 Jun 2027 17:25:18.743   08 Jun 2027 17:29:38.509           259.766                Irkutsk         32470.750
       341   08 Jun 2027 17:38:47.478   08 Jun 2027 17:41:38.187           170.709                Sumatra         21338.625
       342   08 Jun 2027 17:43:24.924   08 Jun 2027 17:45:59.502           154.578                Sumatra         19322.250
       343   08 Jun 2027 19:09:05.969   08 Jun 2027 19:11:28.376           142.407                  Delhi         17800.875
       344   08 Jun 2027 20:35:26.869   08 Jun 2027 20:36:29.111            62.242              Murmansk1          7780.250
       345   08 Jun 2027 22:11:44.708   08 Jun 2027 22:13:31.933           107.225              Murmansk2         13403.125
       346   08 Jun 2027 22:14:14.909   08 Jun 2027 22:15:53.599            98.690              Murmansk2          6622.875
       347   09 Jun 2027 04:32:33.362   09 Jun 2027 04:32:49.541            16.179                Irkutsk          2022.375
       348   09 Jun 2027 04:32:51.313   09 Jun 2027 04:32:55.848             4.535                Irkutsk           566.875
       349   09 Jun 2027 04:33:08.823   09 Jun 2027 04:36:50.313           221.490              Murmansk2         27686.250
       350   09 Jun 2027 05:44:25.861   09 Jun 2027 05:47:31.954           186.093                Sumatra         23261.625
       351   09 Jun 2027 06:08:57.927   09 Jun 2027 06:13:37.274           279.347                Norilsk         34918.375
       352   09 Jun 2027 06:13:52.465   09 Jun 2027 06:16:50.502           178.037              Murmansk1         22254.625
       353   09 Jun 2027 06:16:50.502   09 Jun 2027 06:16:57.539             7.037              Murmansk2           879.625
       354   09 Jun 2027 06:44:41.268   09 Jun 2027 06:49:14.256           272.988            RioGallegos         34123.500
       355   09 Jun 2027 06:50:14.710   09 Jun 2027 06:50:58.032            43.322            RioGallegos          5415.250
       356   09 Jun 2027 07:18:59.881   09 Jun 2027 07:23:54.258           294.377                Sumatra         36797.125
       357   09 Jun 2027 07:24:23.668   09 Jun 2027 07:25:17.335            53.667                Sumatra          6708.375
       358   09 Jun 2027 07:33:48.837   09 Jun 2027 07:34:49.146            60.309                Novosib          7538.625
       359   09 Jun 2027 07:34:54.919   09 Jun 2027 07:38:33.105           218.186                Irkutsk         27273.250
       360   09 Jun 2027 07:44:11.711   09 Jun 2027 07:44:24.417            12.706                Irkutsk          1588.250
       361   09 Jun 2027 07:44:32.342   09 Jun 2027 07:47:55.770           203.428              Murmansk1         25428.500
       362   09 Jun 2027 07:47:55.770   09 Jun 2027 07:49:40.783           105.013              Murmansk2         13126.625
       363   09 Jun 2027 07:51:27.283   09 Jun 2027 07:52:05.956            38.673              Murmansk2          4834.125
       364   09 Jun 2027 09:03:45.227   09 Jun 2027 09:11:06.778           441.551                  Delhi         55193.875
       365   09 Jun 2027 09:12:03.640   09 Jun 2027 09:16:03.331           239.691                Novosib         29961.375
       366   09 Jun 2027 09:20:39.735   09 Jun 2027 09:21:46.997            67.262                Novosib          8407.750
       367   09 Jun 2027 09:21:50.985   09 Jun 2027 09:24:07.157           136.172                Norilsk         17021.500
       368   09 Jun 2027 09:24:46.179   09 Jun 2027 09:25:18.254            32.075              Murmansk1          4009.375
       369   09 Jun 2027 09:25:18.254   09 Jun 2027 09:27:47.197           148.943              Murmansk2         18617.875
       370   09 Jun 2027 10:50:55.706   09 Jun 2027 10:52:30.190            94.484              Murmansk2         11810.500
       371   09 Jun 2027 10:52:30.190   09 Jun 2027 10:52:43.547            13.357              Murmansk1          1669.625
       372   09 Jun 2027 10:54:07.510   09 Jun 2027 10:54:36.268            28.758              Murmansk2          3594.750
       373   09 Jun 2027 10:55:42.961   09 Jun 2027 11:00:36.543           293.582              Murmansk1         36697.750
       374   09 Jun 2027 11:00:43.135   09 Jun 2027 11:01:14.900            31.765                Norilsk          3970.625
       375   09 Jun 2027 11:01:14.987   09 Jun 2027 11:01:56.053            41.066              Murmansk2          5133.250
       376   09 Jun 2027 11:07:43.610   09 Jun 2027 11:10:37.415           173.805                Anadyr1         21725.625
       377   09 Jun 2027 12:03:30.056   09 Jun 2027 12:05:21.280           111.224               CapeTown         13903.000
       378   09 Jun 2027 12:07:05.655   09 Jun 2027 12:08:34.920            89.265               CapeTown         11158.125
       379   09 Jun 2027 12:10:11.057   09 Jun 2027 12:12:42.694           151.637               CapeTown         18954.625
       380   09 Jun 2027 12:41:38.358   09 Jun 2027 12:42:35.492            57.134                Anadyr1          7141.750
       381   09 Jun 2027 14:20:13.893   09 Jun 2027 14:26:18.850           364.957               Magadan1         45619.625
       382   09 Jun 2027 16:48:38.222   09 Jun 2027 16:52:08.075           209.853            RioGallegos         26231.625
       383   09 Jun 2027 16:54:41.128   09 Jun 2027 16:56:19.426            98.298            RioGallegos         12287.250
       384   09 Jun 2027 17:38:53.185   09 Jun 2027 17:39:45.565            52.380                Irkutsk          6547.500
       385   09 Jun 2027 17:42:01.339   09 Jun 2027 17:42:34.250            32.911                Irkutsk          4113.875
       386   09 Jun 2027 17:52:47.229   09 Jun 2027 17:53:27.242            40.013                Sumatra          5001.625
       387   09 Jun 2027 17:54:27.718   09 Jun 2027 17:56:23.917           116.199                Sumatra         14524.875
       388   09 Jun 2027 19:20:12.170   09 Jun 2027 19:23:12.270           180.100                  Delhi         22512.500
       389   09 Jun 2027 19:27:24.001   09 Jun 2027 19:28:23.545            59.544                  Delhi          7443.000
       390   09 Jun 2027 20:47:10.340   09 Jun 2027 20:49:06.399           116.059              Murmansk1         14507.375
       391   09 Jun 2027 22:55:30.534   09 Jun 2027 22:57:18.739           108.205               CapeTown         13525.625
       392   10 Jun 2027 04:45:13.943   10 Jun 2027 04:49:49.254           275.311                Norilsk         34413.875
       393   10 Jun 2027 04:52:44.176   10 Jun 2027 04:53:01.349            17.173              Murmansk1          2146.625
       394   10 Jun 2027 04:53:15.793   10 Jun 2027 04:54:21.197            65.404              Murmansk1          8175.500
       395   10 Jun 2027 05:19:58.185   10 Jun 2027 05:20:07.295             9.110            RioGallegos          1138.750
       396   10 Jun 2027 05:55:51.865   10 Jun 2027 05:57:22.796            90.931                Sumatra         11366.375
       397   10 Jun 2027 06:08:21.053   10 Jun 2027 06:12:23.209           242.156                Irkutsk         30269.500
       398   10 Jun 2027 06:13:09.770   10 Jun 2027 06:13:19.430             9.660                Irkutsk          1207.500
       399   10 Jun 2027 06:21:07.941   10 Jun 2027 06:26:11.229           303.288                Norilsk         37911.000
       400   10 Jun 2027 06:26:26.053   10 Jun 2027 06:28:50.493           144.440              Murmansk2         18055.000
       401   10 Jun 2027 06:57:05.790   10 Jun 2027 07:03:47.303           401.513            RioGallegos         50189.125
       402   10 Jun 2027 07:31:19.245   10 Jun 2027 07:38:33.043           433.798                Sumatra         54224.750
       403   10 Jun 2027 07:45:54.850   10 Jun 2027 07:46:49.931            55.081                Novosib          6885.125
       404   10 Jun 2027 07:47:08.684   10 Jun 2027 07:52:24.828           316.144                Irkutsk         39518.000
       405   10 Jun 2027 07:56:51.578   10 Jun 2027 08:01:02.975           251.397                Norilsk         31424.625
       406   10 Jun 2027 08:01:46.082   10 Jun 2027 08:02:10.608            24.526                Norilsk          3065.750
       407   10 Jun 2027 08:03:27.732   10 Jun 2027 08:04:04.042            36.310              Murmansk1          4538.750
       408   10 Jun 2027 09:16:17.441   10 Jun 2027 09:19:02.506           165.065                  Delhi         20633.125
       409   10 Jun 2027 09:19:08.618   10 Jun 2027 09:26:25.713           437.095                  Delhi         54636.875
       410   10 Jun 2027 09:26:37.696   10 Jun 2027 09:28:29.557           111.861                Novosib         13982.625
       411   10 Jun 2027 09:32:36.168   10 Jun 2027 09:33:34.730            58.562              Murmansk1          7320.250
       412   10 Jun 2027 09:33:43.103   10 Jun 2027 09:38:05.468           262.365                Norilsk         32795.625
       413   10 Jun 2027 09:39:27.231   10 Jun 2027 09:39:48.046            20.815              Murmansk1          2601.875
       414   10 Jun 2027 11:03:03.767   10 Jun 2027 11:05:23.635           139.868              Murmansk1         17483.500
       415   10 Jun 2027 11:10:06.015   10 Jun 2027 11:12:48.072           162.057                Norilsk         20257.125
       416   10 Jun 2027 11:19:01.162   10 Jun 2027 11:22:36.395           215.233                Anadyr1         26904.125
       417   10 Jun 2027 12:13:01.873   10 Jun 2027 12:16:06.451           184.578               CapeTown         23072.250
       418   10 Jun 2027 12:38:53.016   10 Jun 2027 12:40:48.268           115.252                 Moscow         14406.500
       419   10 Jun 2027 14:32:06.428   10 Jun 2027 14:34:48.239           161.811               Magadan2         20226.375
       420   10 Jun 2027 14:36:22.193   10 Jun 2027 14:38:39.291           137.098               Magadan1         17137.250
       421   10 Jun 2027 14:40:50.652   10 Jun 2027 14:40:52.671             2.019               Magadan2           252.375
       422   10 Jun 2027 17:01:06.702   10 Jun 2027 17:06:49.241           342.539            RioGallegos         42817.375
       423   10 Jun 2027 17:45:25.230   10 Jun 2027 17:46:07.965            42.735                Norilsk          5341.875
       424   10 Jun 2027 18:06:37.498   10 Jun 2027 18:08:26.376           108.878                Sumatra         13609.750
       425   10 Jun 2027 19:31:36.109   10 Jun 2027 19:35:01.082           204.973                  Delhi         25621.625
       426   10 Jun 2027 19:37:06.579   10 Jun 2027 19:37:39.638            33.059                  Delhi          4132.375
       427   10 Jun 2027 20:58:01.051   10 Jun 2027 20:58:34.523            33.472              Murmansk1          4184.000
       428   10 Jun 2027 20:59:04.482   10 Jun 2027 21:01:36.964           152.482              Murmansk2         19060.250
       429   10 Jun 2027 21:04:10.164   10 Jun 2027 21:04:57.621            47.457                 Moscow          5932.125
       430   10 Jun 2027 23:07:01.428   10 Jun 2027 23:08:22.139            80.711               CapeTown         10088.875
       431   11 Jun 2027 04:57:13.188   11 Jun 2027 04:58:15.628            62.440                Novosib          7805.000
       432   11 Jun 2027 04:59:34.744   11 Jun 2027 04:59:59.359            24.615                Norilsk          3076.875
       433   11 Jun 2027 05:00:33.663   11 Jun 2027 05:02:28.830           115.167              Murmansk1         14395.875
       434   11 Jun 2027 05:04:36.589   11 Jun 2027 05:06:09.456            92.867              Murmansk2         11608.375
       435   11 Jun 2027 06:20:25.849   11 Jun 2027 06:24:27.855           242.006                Irkutsk         30250.750
       436   11 Jun 2027 06:25:22.329   11 Jun 2027 06:25:36.878            14.549                Irkutsk          1818.625
       437   11 Jun 2027 06:32:44.242   11 Jun 2027 06:39:46.405           422.163              Murmansk1         52770.375
       438   11 Jun 2027 06:39:46.405   11 Jun 2027 06:40:44.191            57.786              Murmansk2          7223.250
       439   11 Jun 2027 07:09:35.772   11 Jun 2027 07:12:00.638           144.866            RioGallegos         18108.250
       440   11 Jun 2027 07:13:18.720   11 Jun 2027 07:16:50.815           212.095            RioGallegos         26511.875
       441   11 Jun 2027 07:43:47.173   11 Jun 2027 07:44:50.605            63.432                Sumatra          7929.000
       442   11 Jun 2027 07:45:53.445   11 Jun 2027 07:53:52.297           478.852                Sumatra         59856.500
       443   11 Jun 2027 07:59:20.022   11 Jun 2027 08:04:20.831           300.809                Irkutsk         37601.125
       444   11 Jun 2027 08:08:59.722   11 Jun 2027 08:09:30.153            30.431                 Moscow          3803.875
       445   11 Jun 2027 08:09:33.116   11 Jun 2027 08:13:22.839           229.723                Norilsk         28715.375
       446   11 Jun 2027 08:15:29.913   11 Jun 2027 08:16:02.599            32.686              Murmansk2          4085.750
       447   11 Jun 2027 09:29:01.101   11 Jun 2027 09:37:54.794           533.693                  Delhi         66711.625
       448   11 Jun 2027 09:38:03.239   11 Jun 2027 09:40:21.829           138.590                Novosib         17323.750
       449   11 Jun 2027 09:45:24.438   11 Jun 2027 09:51:49.102           384.664              Murmansk1         48083.000
       450   11 Jun 2027 11:15:13.601   11 Jun 2027 11:26:03.008           649.407              Murmansk1         81175.875
       451   11 Jun 2027 11:26:20.001   11 Jun 2027 11:26:48.534            28.533              Murmansk1          3566.625
       452   11 Jun 2027 11:30:38.391   11 Jun 2027 11:32:15.598            97.207                Anadyr1         12150.875
       453   11 Jun 2027 11:33:54.379   11 Jun 2027 11:34:29.801            35.422                Anadyr1          4427.750
       454   11 Jun 2027 12:24:56.567   11 Jun 2027 12:26:15.306            78.739               CapeTown          9842.375
       455   11 Jun 2027 12:27:24.372   11 Jun 2027 12:27:59.975            35.603               CapeTown          4450.375
       456   11 Jun 2027 12:29:03.162   11 Jun 2027 12:29:27.496            24.334               CapeTown          3041.750
       457   11 Jun 2027 12:30:30.379   11 Jun 2027 12:31:20.087            49.708               CapeTown          6213.500
       458   11 Jun 2027 12:32:28.511   11 Jun 2027 12:34:29.051           120.540               CapeTown         15067.500
       459   11 Jun 2027 14:44:00.820   11 Jun 2027 14:46:12.472           131.652               Magadan2         16456.500
       460   11 Jun 2027 14:49:06.232   11 Jun 2027 14:49:32.559            26.327               Magadan2          3290.875
       461   11 Jun 2027 14:52:31.311   11 Jun 2027 14:53:31.936            60.625               Magadan1          7578.125
       462   11 Jun 2027 17:14:53.544   11 Jun 2027 17:18:06.935           193.391            RioGallegos         24173.875
       463   11 Jun 2027 18:02:13.431   11 Jun 2027 18:05:16.696           183.265                Novosib         22908.125
       464   11 Jun 2027 18:07:49.199   11 Jun 2027 18:08:56.518            67.319                Irkutsk          8414.875
       465   11 Jun 2027 18:19:35.182   11 Jun 2027 18:19:39.368             4.186                Sumatra           523.250
       466   11 Jun 2027 19:46:59.636   11 Jun 2027 19:49:49.270           169.634                  Delhi         21204.250
       467   11 Jun 2027 21:10:55.379   11 Jun 2027 21:12:14.899            79.520              Murmansk1          9940.000
       468   11 Jun 2027 21:12:58.434   11 Jun 2027 21:15:02.796           124.362              Murmansk2         15545.250
       469   11 Jun 2027 21:15:26.880   11 Jun 2027 21:17:53.604           146.724                 Moscow         18340.500
       470   11 Jun 2027 21:19:55.060   11 Jun 2027 21:20:08.704            13.644                 Moscow          1705.500
       471   11 Jun 2027 22:45:57.615   11 Jun 2027 22:47:18.179            80.564              Murmansk2         10070.500
       472   11 Jun 2027 22:50:07.143   11 Jun 2027 22:50:26.345            19.202              Murmansk2          2400.250
       473   12 Jun 2027 05:09:18.660   12 Jun 2027 05:10:23.350            64.690                Novosib          8086.250
       474   12 Jun 2027 05:10:30.991   12 Jun 2027 05:13:52.670           201.679                Norilsk         25209.875
       475   12 Jun 2027 05:14:16.571   12 Jun 2027 05:15:15.210            58.639              Murmansk1          7329.875
       476   12 Jun 2027 05:15:15.210   12 Jun 2027 05:17:58.241           163.031              Murmansk2         20378.875
       477   12 Jun 2027 05:43:56.964   12 Jun 2027 05:44:54.166            57.202            RioGallegos          7150.250
       478   12 Jun 2027 05:46:47.841   12 Jun 2027 05:47:14.523            26.682            RioGallegos          3335.250
       479   12 Jun 2027 05:48:41.304   12 Jun 2027 05:48:54.312            13.008            RioGallegos          1626.000
       480   12 Jun 2027 06:19:10.306   12 Jun 2027 06:20:50.917           100.611                Sumatra         12576.375
       481   12 Jun 2027 06:22:34.154   12 Jun 2027 06:23:24.991            50.837                Sumatra          6354.625
       482   12 Jun 2027 06:31:22.813   12 Jun 2027 06:31:31.023             8.210                  Delhi          1026.250
