uniorb/output/strategy_4/Drop/Drop_KinoSat_111605.txt

KinoSat_111605
-------------------------
    Access    *     Start Time (UTCG)     *     Stop Time (UTCG)  *   Duration (s)        *       Station  *  Data (Mbytes)
         1   01 Jun 2027 03:16:04.417   01 Jun 2027 03:16:13.615             9.198                Norilsk           287.438
         2   01 Jun 2027 03:16:23.561   01 Jun 2027 03:19:04.748           161.187              Murmansk2          5037.094
         3   01 Jun 2027 03:19:08.447   01 Jun 2027 03:19:50.787            42.340                Novosib          1323.125
         4   01 Jun 2027 03:19:56.090   01 Jun 2027 03:20:38.112            42.022                Norilsk          1313.187
         5   01 Jun 2027 03:21:08.849   01 Jun 2027 03:24:11.223           182.374                  Delhi          5699.188
         6   01 Jun 2027 04:54:11.507   01 Jun 2027 04:54:20.563             9.056              Murmansk1           283.000
         7   01 Jun 2027 04:54:22.449   01 Jun 2027 04:54:30.903             8.454                Norilsk           264.187
         8   01 Jun 2027 04:54:34.886   01 Jun 2027 04:54:56.023            21.137                Novosib           660.531
         9   01 Jun 2027 04:55:02.198   01 Jun 2027 04:55:32.250            30.052              Murmansk1           939.125
        10   01 Jun 2027 04:55:44.599   01 Jun 2027 04:57:20.278            95.679              Murmansk2          2989.969
        11   01 Jun 2027 04:57:28.891   01 Jun 2027 04:58:03.210            34.319              Murmansk1          1072.469
        12   01 Jun 2027 05:13:34.234   01 Jun 2027 05:16:17.308           163.074               CapeTown          5096.063
        13   01 Jun 2027 06:17:23.410   01 Jun 2027 06:18:24.744            61.334                Anadyr2          1916.688
        14   01 Jun 2027 06:18:40.806   01 Jun 2027 06:20:44.539           123.733               Magadan1          3866.656
        15   01 Jun 2027 06:20:44.539   01 Jun 2027 06:21:18.826            34.287               Magadan2          1071.469
        16   01 Jun 2027 06:22:36.700   01 Jun 2027 06:22:48.587            11.887               Magadan2           371.469
        17   01 Jun 2027 07:54:37.646   01 Jun 2027 07:54:57.863            20.217                Norilsk           631.781
        18   01 Jun 2027 07:55:05.014   01 Jun 2027 07:57:52.808           167.794               Magadan2          5243.562
        19   01 Jun 2027 07:58:09.942   01 Jun 2027 07:58:54.564            44.622              Murmansk1          1394.438
        20   01 Jun 2027 09:28:24.781   01 Jun 2027 09:34:31.888           367.107               Magadan2         11472.094
        21   01 Jun 2027 11:05:25.908   01 Jun 2027 11:05:38.326            12.418               Magadan2           388.063
        22   01 Jun 2027 11:05:38.326   01 Jun 2027 11:07:31.222           112.896               Magadan1          3528.000
        23   01 Jun 2027 11:08:21.722   01 Jun 2027 11:08:26.240             4.518                Irkutsk           141.188
        24   01 Jun 2027 11:09:03.130   01 Jun 2027 11:10:34.361            91.231                Irkutsk          2850.969
        25   01 Jun 2027 11:10:34.992   01 Jun 2027 11:11:10.485            35.493              Murmansk1          1109.156
        26   01 Jun 2027 11:11:44.147   01 Jun 2027 11:11:55.008            10.861                Novosib           339.406
        27   01 Jun 2027 11:45:49.783   01 Jun 2027 11:46:36.683            46.900            RioGallegos          1465.625
        28   01 Jun 2027 11:47:12.273   01 Jun 2027 11:48:15.424            63.151            RioGallegos          1973.469
        29   01 Jun 2027 11:49:20.383   01 Jun 2027 11:50:29.117            68.734            RioGallegos          2147.938
        30   01 Jun 2027 12:22:19.613   01 Jun 2027 12:24:34.946           135.333                Sumatra          4229.156
        31   01 Jun 2027 12:29:03.415   01 Jun 2027 12:29:59.468            56.053                Sumatra          1751.656
        32   01 Jun 2027 12:35:02.214   01 Jun 2027 12:35:51.824            49.610                Irkutsk          1550.313
        33   01 Jun 2027 12:36:28.007   01 Jun 2027 12:37:29.615            61.608                Irkutsk          1925.250
        34   01 Jun 2027 12:38:52.203   01 Jun 2027 12:40:08.438            76.235                Irkutsk          2382.344
        35   01 Jun 2027 12:44:39.691   01 Jun 2027 12:45:01.450            21.759                Irkutsk           679.969
        36   01 Jun 2027 14:04:51.323   01 Jun 2027 14:05:31.388            40.065                  Delhi          1252.031
        37   01 Jun 2027 14:06:18.537   01 Jun 2027 14:07:05.327            46.790                  Delhi          1462.188
        38   01 Jun 2027 14:09:30.528   01 Jun 2027 14:09:50.029            19.501                  Delhi           609.406
        39   01 Jun 2027 14:12:01.993   01 Jun 2027 14:13:11.330            69.337                  Delhi          2166.781
        40   01 Jun 2027 14:13:35.542   01 Jun 2027 14:18:19.476           283.934                Novosib          8872.937
        41   01 Jun 2027 14:21:36.733   01 Jun 2027 14:22:10.724            33.991                Norilsk          1062.219
        42   01 Jun 2027 14:25:35.682   01 Jun 2027 14:26:51.919            76.237                Norilsk          2382.406
        43   01 Jun 2027 15:48:42.429   01 Jun 2027 15:51:50.188           187.759                 Moscow          5867.469
        44   01 Jun 2027 15:53:15.797   01 Jun 2027 15:53:38.404            22.607              Murmansk1           706.469
        45   01 Jun 2027 15:54:08.668   01 Jun 2027 15:54:57.383            48.715              Murmansk1          1522.344
        46   01 Jun 2027 15:57:35.301   01 Jun 2027 16:02:52.760           317.459                Norilsk          9920.594
        47   01 Jun 2027 17:27:01.131   01 Jun 2027 17:28:42.829           101.698                 Moscow          3178.062
        48   01 Jun 2027 17:29:45.572   01 Jun 2027 17:30:43.576            58.004              Murmansk2          1812.625
        49   01 Jun 2027 17:31:27.198   01 Jun 2027 17:31:58.170            30.972              Murmansk2           967.875
        50   01 Jun 2027 17:32:00.991   01 Jun 2027 17:32:31.862            30.871                 Moscow           964.719
        51   01 Jun 2027 17:34:06.827   01 Jun 2027 17:34:20.721            13.894              Murmansk2           434.188
        52   01 Jun 2027 17:35:15.085   01 Jun 2027 17:36:10.340            55.255              Murmansk1          1726.719
        53   01 Jun 2027 18:38:25.345   01 Jun 2027 18:40:43.961           138.616               CapeTown          4331.750
        54   01 Jun 2027 18:45:58.076   01 Jun 2027 18:46:57.519            59.443               CapeTown          1857.594
        55   01 Jun 2027 19:09:47.919   01 Jun 2027 19:16:32.558           404.639              Murmansk2         12644.969
        56   01 Jun 2027 20:54:39.531   01 Jun 2027 20:56:13.743            94.212                Anadyr1          2944.125
        57   01 Jun 2027 20:56:28.422   01 Jun 2027 20:57:45.565            77.143                Anadyr2          2410.719
        58   01 Jun 2027 20:58:06.854   01 Jun 2027 21:02:07.149           240.295               Magadan1          7509.219
        59   01 Jun 2027 21:05:04.351   01 Jun 2027 21:05:08.043             3.692               Magadan1           115.375
        60   01 Jun 2027 21:05:15.956   01 Jun 2027 21:05:34.196            18.240               Magadan1           570.000
        61   01 Jun 2027 21:07:40.490   01 Jun 2027 21:08:11.758            31.268               Magadan2           977.125
        62   01 Jun 2027 21:50:16.729   01 Jun 2027 21:52:51.105           154.376            RioGallegos          4824.250
        63   01 Jun 2027 21:56:08.283   01 Jun 2027 21:56:20.188            11.905            RioGallegos           372.031
        64   01 Jun 2027 22:30:27.253   01 Jun 2027 22:31:49.202            81.949                Anadyr1          2560.906
        65   01 Jun 2027 22:32:15.048   01 Jun 2027 22:33:28.828            73.780                Anadyr1          2305.625
        66   01 Jun 2027 22:33:29.677   01 Jun 2027 22:34:06.621            36.944                Norilsk          1154.500
        67   01 Jun 2027 22:34:17.056   01 Jun 2027 22:34:59.272            42.216               Magadan2          1319.250
        68   01 Jun 2027 22:35:36.712   01 Jun 2027 22:35:44.522             7.810               Magadan2           244.062
        69   01 Jun 2027 22:36:27.437   01 Jun 2027 22:36:42.983            15.546               Magadan2           485.812
        70   01 Jun 2027 22:36:56.405   01 Jun 2027 22:37:50.063            53.658               Magadan1          1676.813
        71   01 Jun 2027 22:39:18.655   01 Jun 2027 22:39:56.665            38.010                Irkutsk          1187.812
        72   01 Jun 2027 22:42:35.769   01 Jun 2027 22:42:54.580            18.811                Irkutsk           587.844
        73   01 Jun 2027 22:45:04.697   01 Jun 2027 22:46:12.938            68.241                Irkutsk          2132.531
        74   01 Jun 2027 22:53:30.610   01 Jun 2027 22:54:26.964            56.354                Sumatra          1761.062
        75   01 Jun 2027 22:57:41.777   01 Jun 2027 22:57:43.796             2.019                Sumatra            63.094
        76   01 Jun 2027 22:58:17.295   01 Jun 2027 22:59:12.358            55.063                Sumatra          1720.719
        77   01 Jun 2027 23:33:15.457   01 Jun 2027 23:33:59.531            44.074            RioGallegos          1377.312
        78   02 Jun 2027 00:05:38.853   02 Jun 2027 00:06:46.529            67.676                Anadyr1          2114.875
        79   02 Jun 2027 00:06:53.808   02 Jun 2027 00:07:19.520            25.712                Anadyr1           803.500
        80   02 Jun 2027 00:08:07.626   02 Jun 2027 00:08:09.889             2.263                Anadyr1            70.719
        81   02 Jun 2027 00:08:15.590   02 Jun 2027 00:08:21.596             6.006                Anadyr2           187.687
        82   02 Jun 2027 00:08:23.194   02 Jun 2027 00:09:07.129            43.935                Norilsk          1372.969
        83   02 Jun 2027 00:09:09.443   02 Jun 2027 00:10:04.717            55.274               Magadan2          1727.312
        84   02 Jun 2027 00:10:42.421   02 Jun 2027 00:11:19.438            37.017               Magadan2          1156.781
        85   02 Jun 2027 00:12:17.053   02 Jun 2027 00:13:10.203            53.150                Irkutsk          1660.937
        86   02 Jun 2027 00:13:26.731   02 Jun 2027 00:13:50.006            23.275                Novosib           727.344
        87   02 Jun 2027 00:15:11.791   02 Jun 2027 00:15:50.500            38.709                Novosib          1209.656
        88   02 Jun 2027 00:18:38.625   02 Jun 2027 00:18:58.670            20.045                Novosib           626.406
        89   02 Jun 2027 00:19:27.006   02 Jun 2027 00:21:00.607            93.601                Novosib          2925.031
        90   02 Jun 2027 00:27:15.929   02 Jun 2027 00:27:22.948             7.019                  Delhi           219.344
        91   02 Jun 2027 00:28:12.402   02 Jun 2027 00:29:09.086            56.684                  Delhi          1771.375
        92   02 Jun 2027 00:37:44.652   02 Jun 2027 00:38:19.488            34.836                Sumatra          1088.625
        93   02 Jun 2027 01:07:04.685   02 Jun 2027 01:07:27.473            22.788            RioGallegos           712.125
        94   02 Jun 2027 01:10:57.990   02 Jun 2027 01:11:19.391            21.401            RioGallegos           668.781
        95   02 Jun 2027 01:11:55.055   02 Jun 2027 01:12:08.027            12.972            RioGallegos           405.375
        96   02 Jun 2027 01:39:38.931   02 Jun 2027 01:39:50.285            11.354                Anadyr2           354.813
        97   02 Jun 2027 01:39:57.557   02 Jun 2027 01:40:16.050            18.493                Anadyr2           577.906
        98   02 Jun 2027 01:40:48.746   02 Jun 2027 01:41:26.001            37.255                Anadyr2          1164.219
        99   02 Jun 2027 01:41:40.058   02 Jun 2027 01:41:51.001            10.943                Anadyr2           341.969
       100   02 Jun 2027 01:44:08.620   02 Jun 2027 01:44:57.060            48.440                Anadyr2          1513.750
       101   02 Jun 2027 01:44:57.627   02 Jun 2027 01:46:20.407            82.780                Norilsk          2586.875
       102   02 Jun 2027 01:47:07.730   02 Jun 2027 01:48:43.806            96.076              Murmansk2          3002.375
       103   02 Jun 2027 01:49:05.499   02 Jun 2027 01:51:29.062           143.563                Novosib          4486.344
       104   02 Jun 2027 02:07:21.961   02 Jun 2027 02:07:24.739             2.778                  Delhi            86.812
       105   02 Jun 2027 02:07:57.161   02 Jun 2027 02:08:16.400            19.239                  Delhi           601.219
       106   02 Jun 2027 02:37:42.713   02 Jun 2027 02:41:37.167           234.454            RioGallegos          7326.688
       107   02 Jun 2027 03:27:54.604   02 Jun 2027 03:28:14.660            20.056                Irkutsk           626.750
       108   02 Jun 2027 03:29:03.902   02 Jun 2027 03:29:11.660             7.758                Novosib           242.438
       109   02 Jun 2027 03:29:17.382   02 Jun 2027 03:30:51.234            93.852                Novosib          2932.875
       110   02 Jun 2027 03:31:13.005   02 Jun 2027 03:33:24.953           131.948              Murmansk2          4123.375
       111   02 Jun 2027 03:33:49.509   02 Jun 2027 03:33:59.382             9.873                Novosib           308.531
       112   02 Jun 2027 03:34:02.458   02 Jun 2027 03:39:40.685           338.227                  Delhi         10569.594
       113   02 Jun 2027 05:09:17.886   02 Jun 2027 05:14:36.057           318.171                 Moscow          9942.844
       114   02 Jun 2027 05:25:37.934   02 Jun 2027 05:28:00.732           142.798               CapeTown          4462.437
       115   02 Jun 2027 05:31:26.545   02 Jun 2027 05:31:51.509            24.964               CapeTown           780.125
       116   02 Jun 2027 05:34:18.870   02 Jun 2027 05:34:35.691            16.821               CapeTown           525.656
       117   02 Jun 2027 05:35:18.911   02 Jun 2027 05:36:04.763            45.852               CapeTown          1432.875
       118   02 Jun 2027 05:37:25.682   02 Jun 2027 05:37:52.317            26.635               CapeTown           832.344
       119   02 Jun 2027 06:22:24.976   02 Jun 2027 06:24:23.582           118.606                Anadyr1          3706.438
       120   02 Jun 2027 06:28:35.032   02 Jun 2027 06:35:16.035           401.003                Anadyr1         12531.344
       121   02 Jun 2027 08:08:28.214   02 Jun 2027 08:11:00.112           151.898                Anadyr1          4746.812
       122   02 Jun 2027 09:40:24.061   02 Jun 2027 09:40:43.961            19.900               Magadan1           621.875
       123   02 Jun 2027 09:41:04.130   02 Jun 2027 09:41:47.833            43.703               Magadan1          1365.719
       124   02 Jun 2027 09:42:53.695   02 Jun 2027 09:44:58.651           124.956               Magadan1          3904.875
       125   02 Jun 2027 09:45:25.558   02 Jun 2027 09:45:51.977            26.419               Magadan1           825.594
       126   02 Jun 2027 09:46:04.807   02 Jun 2027 09:46:11.556             6.749               Magadan2           210.906
       127   02 Jun 2027 09:46:16.863   02 Jun 2027 09:46:19.524             2.661                Irkutsk            83.156
       128   02 Jun 2027 09:46:23.456   02 Jun 2027 09:46:35.877            12.421                Norilsk           388.156
       129   02 Jun 2027 10:21:23.866   02 Jun 2027 10:22:09.202            45.336            RioGallegos          1416.750
       130   02 Jun 2027 10:22:25.862   02 Jun 2027 10:23:05.408            39.546            RioGallegos          1235.813
       131   02 Jun 2027 10:57:34.008   02 Jun 2027 10:57:52.377            18.369                Sumatra           574.031
       132   02 Jun 2027 10:58:42.645   02 Jun 2027 11:00:18.420            95.775                Sumatra          2992.969
       133   02 Jun 2027 11:17:40.280   02 Jun 2027 11:17:47.452             7.172                Irkutsk           224.125
       134   02 Jun 2027 11:18:19.690   02 Jun 2027 11:18:49.014            29.324                Irkutsk           916.375
       135   02 Jun 2027 11:19:18.513   02 Jun 2027 11:20:18.848            60.335                Irkutsk          1885.469
       136   02 Jun 2027 11:20:24.841   02 Jun 2027 11:20:31.205             6.364                Norilsk           198.875
       137   02 Jun 2027 11:20:33.021   02 Jun 2027 11:20:39.081             6.060                Irkutsk           189.375
       138   02 Jun 2027 11:20:42.099   02 Jun 2027 11:21:38.472            56.373                Norilsk          1761.656
       139   02 Jun 2027 11:21:42.159   02 Jun 2027 11:21:57.146            14.987                Norilsk           468.344
       140   02 Jun 2027 11:22:01.449   02 Jun 2027 11:22:24.647            23.198                Novosib           724.937
       141   02 Jun 2027 11:58:11.510   02 Jun 2027 11:58:19.051             7.541            RioGallegos           235.656
       142   02 Jun 2027 11:58:39.504   02 Jun 2027 11:59:18.236            38.732            RioGallegos          1210.375
       143   02 Jun 2027 12:08:06.597   02 Jun 2027 12:08:14.398             7.801            RioGallegos           243.781
       144   02 Jun 2027 12:32:28.899   02 Jun 2027 12:32:58.438            29.539                Sumatra           923.094
       145   02 Jun 2027 12:34:50.230   02 Jun 2027 12:37:14.659           144.429                Sumatra          4513.406
       146   02 Jun 2027 12:47:13.003   02 Jun 2027 12:48:12.021            59.018                Novosib          1844.312
       147   02 Jun 2027 12:48:44.843   02 Jun 2027 12:50:14.599            89.756                Novosib          2804.875
       148   02 Jun 2027 14:17:18.251   02 Jun 2027 14:19:39.357           141.106                  Delhi          4409.562
       149   02 Jun 2027 14:22:08.726   02 Jun 2027 14:22:31.921            23.195                  Delhi           724.844
       150   02 Jun 2027 14:25:38.767   02 Jun 2027 14:28:15.656           156.889                Novosib          4902.781
       151   02 Jun 2027 14:28:23.458   02 Jun 2027 14:28:26.528             3.070              Murmansk1            95.938
       152   02 Jun 2027 14:28:45.514   02 Jun 2027 14:30:36.741           111.227                Novosib          3475.844
       153   02 Jun 2027 14:34:31.923   02 Jun 2027 14:34:34.314             2.391                Norilsk            74.719
       154   02 Jun 2027 14:37:40.080   02 Jun 2027 14:38:18.546            38.466                Norilsk          1202.062
       155   02 Jun 2027 16:00:49.172   02 Jun 2027 16:02:47.906           118.734                 Moscow          3710.438
       156   02 Jun 2027 16:03:59.294   02 Jun 2027 16:04:58.443            59.149                 Moscow          1848.406
       157   02 Jun 2027 16:05:11.097   02 Jun 2027 16:06:09.609            58.512              Murmansk2          1828.500
       158   02 Jun 2027 16:10:33.911   02 Jun 2027 16:13:35.045           181.134                Norilsk          5660.437
       159   02 Jun 2027 17:14:28.718   02 Jun 2027 17:16:02.914            94.196               CapeTown          2943.625
       160   02 Jun 2027 17:21:40.846   02 Jun 2027 17:21:44.029             3.183               CapeTown            99.469
       161   02 Jun 2027 17:39:43.033   02 Jun 2027 17:40:33.617            50.584                 Moscow          1580.750
       162   02 Jun 2027 17:41:43.483   02 Jun 2027 17:43:46.049           122.566                 Moscow          3830.187
       163   02 Jun 2027 17:47:10.496   02 Jun 2027 17:47:25.856            15.360              Murmansk1           480.000
       164   02 Jun 2027 17:50:21.382   02 Jun 2027 17:50:49.016            27.634              Murmansk2           863.563
       165   02 Jun 2027 17:54:58.413   02 Jun 2027 17:55:52.825            54.412                Anadyr1          1700.375
       166   02 Jun 2027 17:56:50.272   02 Jun 2027 17:56:52.537             2.265                Anadyr1            70.781
       167   02 Jun 2027 17:57:03.224   02 Jun 2027 17:57:20.943            17.719                Anadyr2           553.719
       168   02 Jun 2027 18:50:39.624   02 Jun 2027 18:52:10.502            90.878               CapeTown          2839.937
       169   02 Jun 2027 18:54:17.498   02 Jun 2027 18:54:49.640            32.142               CapeTown          1004.437
       170   02 Jun 2027 19:22:37.708   02 Jun 2027 19:27:14.529           276.821              Murmansk2          8650.656
       171   02 Jun 2027 19:27:16.558   02 Jun 2027 19:28:23.073            66.515              Murmansk1          2078.594
       172   02 Jun 2027 19:33:31.419   02 Jun 2027 19:33:48.167            16.748               Magadan2           523.375
       173   02 Jun 2027 19:34:11.206   02 Jun 2027 19:34:24.321            13.115               Magadan2           409.844
       174   02 Jun 2027 19:43:22.925   02 Jun 2027 19:43:38.671            15.746               Magadan2           492.063
       175   02 Jun 2027 21:06:41.000   02 Jun 2027 21:11:53.690           312.690                Anadyr1          9771.563
       176   02 Jun 2027 21:12:07.921   02 Jun 2027 21:13:19.135            71.214               Magadan1          2225.437
       177   02 Jun 2027 21:13:19.135   02 Jun 2027 21:13:25.699             6.564               Magadan2           205.125
       178   02 Jun 2027 21:13:26.352   02 Jun 2027 21:13:37.023            10.671               Magadan1           333.469
       179   02 Jun 2027 21:13:46.859   02 Jun 2027 21:13:57.672            10.813               Magadan2           337.906
       180   02 Jun 2027 21:14:08.028   02 Jun 2027 21:15:23.495            75.467               Magadan2          2358.344
       181   02 Jun 2027 22:01:48.545   02 Jun 2027 22:03:26.204            97.659            RioGallegos          3051.844
       182   02 Jun 2027 22:03:51.719   02 Jun 2027 22:04:20.500            28.781            RioGallegos           899.406
       183   02 Jun 2027 22:07:08.623   02 Jun 2027 22:07:31.475            22.852            RioGallegos           714.125
       184   02 Jun 2027 22:08:13.525   02 Jun 2027 22:08:29.998            16.473            RioGallegos           514.781
       185   02 Jun 2027 22:42:26.034   02 Jun 2027 22:44:00.064            94.030                Anadyr1          2938.438
       186   02 Jun 2027 22:44:32.558   02 Jun 2027 22:46:08.289            95.731                Norilsk          2991.594
       187   02 Jun 2027 22:46:21.880   02 Jun 2027 22:46:52.703            30.823               Magadan2           963.219
       188   02 Jun 2027 22:47:34.112   02 Jun 2027 22:48:18.975            44.863               Magadan1          1401.969
       189   02 Jun 2027 22:49:04.034   02 Jun 2027 22:49:30.726            26.692                Irkutsk           834.125
       190   02 Jun 2027 22:51:14.529   02 Jun 2027 22:52:46.025            91.496                Irkutsk          2859.250
       191   02 Jun 2027 23:03:17.766   02 Jun 2027 23:04:16.629            58.863                Sumatra          1839.469
       192   02 Jun 2027 23:08:25.315   02 Jun 2027 23:08:52.230            26.915                Sumatra           841.094
       193   02 Jun 2027 23:08:55.762   02 Jun 2027 23:09:40.304            44.542                Sumatra          1391.937
       194   03 Jun 2027 00:17:30.246   03 Jun 2027 00:18:44.741            74.495                Anadyr1          2327.969
       195   03 Jun 2027 00:18:54.806   03 Jun 2027 00:19:51.792            56.986                Anadyr1          1780.812
       196   03 Jun 2027 00:20:25.315   03 Jun 2027 00:22:08.619           103.304                Norilsk          3228.250
       197   03 Jun 2027 00:23:19.905   03 Jun 2027 00:23:58.455            38.550               Magadan1          1204.688
       198   03 Jun 2027 00:24:17.909   03 Jun 2027 00:25:09.775            51.866                Irkutsk          1620.812
       199   03 Jun 2027 00:25:17.598   03 Jun 2027 00:25:58.904            41.306                Novosib          1290.812
       200   03 Jun 2027 00:27:26.505   03 Jun 2027 00:27:38.782            12.277                Novosib           383.656
       201   03 Jun 2027 00:28:38.780   03 Jun 2027 00:29:11.485            32.705                Novosib          1022.031
       202   03 Jun 2027 00:33:18.149   03 Jun 2027 00:33:56.435            38.286                  Delhi          1196.437
       203   03 Jun 2027 00:35:30.210   03 Jun 2027 00:36:19.582            49.372                  Delhi          1542.875
       204   03 Jun 2027 00:42:07.052   03 Jun 2027 00:42:26.828            19.776                  Delhi           618.000
       205   03 Jun 2027 00:48:34.504   03 Jun 2027 00:48:48.826            14.322                Sumatra           447.562
       206   03 Jun 2027 01:14:27.698   03 Jun 2027 01:14:41.921            14.223            RioGallegos           444.469
       207   03 Jun 2027 01:16:11.750   03 Jun 2027 01:16:32.297            20.547            RioGallegos           642.094
       208   03 Jun 2027 01:19:03.335   03 Jun 2027 01:19:16.861            13.526            RioGallegos           422.688
       209   03 Jun 2027 01:22:14.254   03 Jun 2027 01:23:22.269            68.015            RioGallegos          2125.469
       210   03 Jun 2027 01:51:47.696   03 Jun 2027 01:51:58.830            11.134                Anadyr2           347.938
       211   03 Jun 2027 01:52:28.122   03 Jun 2027 01:53:31.632            63.510                Anadyr2          1984.687
       212   03 Jun 2027 01:56:26.099   03 Jun 2027 01:57:38.215            72.116                Norilsk          2253.625
       213   03 Jun 2027 01:57:42.928   03 Jun 2027 01:57:52.972            10.044               Magadan1           313.875
       214   03 Jun 2027 01:59:00.010   03 Jun 2027 02:00:18.846            78.836              Murmansk1          2463.625
       215   03 Jun 2027 02:00:22.304   03 Jun 2027 02:01:00.660            38.356                Novosib          1198.625
       216   03 Jun 2027 02:01:39.805   03 Jun 2027 02:02:26.895            47.090                Irkutsk          1471.562
       217   03 Jun 2027 02:07:34.405   03 Jun 2027 02:09:37.208           122.803                  Delhi          3837.594
       218   03 Jun 2027 02:50:11.707   03 Jun 2027 02:53:12.002           180.295            RioGallegos          5634.219
       219   03 Jun 2027 02:54:23.093   03 Jun 2027 02:54:32.856             9.763            RioGallegos           305.094
       220   03 Jun 2027 03:41:18.225   03 Jun 2027 03:41:53.299            35.074                Norilsk          1096.063
       221   03 Jun 2027 03:42:01.573   03 Jun 2027 03:42:29.294            27.721                Norilsk           866.281
       222   03 Jun 2027 03:43:07.751   03 Jun 2027 03:45:20.373           132.622                Novosib          4144.437
       223   03 Jun 2027 03:45:21.156   03 Jun 2027 03:46:00.205            39.049              Murmansk2          1220.281
       224   03 Jun 2027 04:12:22.678   03 Jun 2027 04:12:58.584            35.906               CapeTown          1122.063
       225   03 Jun 2027 04:13:28.376   03 Jun 2027 04:13:52.914            24.538               CapeTown           766.812
       226   03 Jun 2027 05:07:12.220   03 Jun 2027 05:08:14.304            62.084                Anadyr1          1940.125
       227   03 Jun 2027 05:08:54.756   03 Jun 2027 05:09:02.787             8.031               Magadan2           250.969
       228   03 Jun 2027 05:09:15.341   03 Jun 2027 05:09:34.917            19.576                Anadyr1           611.750
       229   03 Jun 2027 05:17:23.474   03 Jun 2027 05:17:44.705            21.231                Novosib           663.469
       230   03 Jun 2027 05:19:31.265   03 Jun 2027 05:20:20.749            49.484                 Moscow          1546.375
       231   03 Jun 2027 05:20:31.327   03 Jun 2027 05:21:22.109            50.782                 Moscow          1586.937
       232   03 Jun 2027 05:37:46.898   03 Jun 2027 05:39:49.522           122.624               CapeTown          3832.000
       233   03 Jun 2027 06:40:23.097   03 Jun 2027 06:41:31.796            68.699                Anadyr2          2146.844
       234   03 Jun 2027 06:41:37.908   03 Jun 2027 06:42:11.004            33.096               Magadan2          1034.250
       235   03 Jun 2027 06:42:12.039   03 Jun 2027 06:42:31.681            19.642                Anadyr1           613.813
       236   03 Jun 2027 06:42:49.498   03 Jun 2027 06:43:05.238            15.740               Magadan1           491.875
       237   03 Jun 2027 06:43:30.864   03 Jun 2027 06:43:46.409            15.545               Magadan2           485.781
       238   03 Jun 2027 06:45:07.154   03 Jun 2027 06:45:27.432            20.278                Anadyr2           633.687
       239   03 Jun 2027 06:45:58.345   03 Jun 2027 06:46:25.736            27.391                Anadyr1           855.969
       240   03 Jun 2027 06:57:29.397   03 Jun 2027 06:57:46.944            17.547                 Moscow           548.344
       241   03 Jun 2027 08:16:57.093   03 Jun 2027 08:17:28.551            31.458                Anadyr2           983.062
       242   03 Jun 2027 08:17:42.214   03 Jun 2027 08:18:35.705            53.491                Anadyr2          1671.594
       243   03 Jun 2027 08:19:09.226   03 Jun 2027 08:19:25.810            16.584               Magadan1           518.250
       244   03 Jun 2027 08:19:40.753   03 Jun 2027 08:20:41.040            60.287               Magadan1          1883.969
       245   03 Jun 2027 08:21:22.973   03 Jun 2027 08:22:40.325            77.352                Anadyr1          2417.250
       246   03 Jun 2027 09:52:14.796   03 Jun 2027 09:53:04.938            50.142               Magadan2          1566.937
       247   03 Jun 2027 09:54:31.303   03 Jun 2027 09:55:32.854            61.551                Irkutsk          1923.469
       248   03 Jun 2027 09:55:54.459   03 Jun 2027 09:56:19.224            24.765                Irkutsk           773.906
       249   03 Jun 2027 09:56:33.237   03 Jun 2027 09:57:02.489            29.252                Irkutsk           914.125
       250   03 Jun 2027 09:57:53.426   03 Jun 2027 09:58:14.514            21.088                Irkutsk           659.000
       251   03 Jun 2027 10:03:37.615   03 Jun 2027 10:03:40.730             3.115                Norilsk            97.344
       252   03 Jun 2027 10:33:19.768   03 Jun 2027 10:34:25.080            65.312            RioGallegos          2041.000
       253   03 Jun 2027 10:35:15.994   03 Jun 2027 10:35:41.070            25.076            RioGallegos           783.625
       254   03 Jun 2027 11:09:03.983   03 Jun 2027 11:10:02.704            58.721                Sumatra          1835.031
       255   03 Jun 2027 11:30:04.958   03 Jun 2027 11:30:07.675             2.717                Irkutsk            84.906
       256   03 Jun 2027 11:30:12.988   03 Jun 2027 11:30:51.571            38.583                Irkutsk          1205.719
       257   03 Jun 2027 11:31:40.539   03 Jun 2027 11:32:01.536            20.997                Norilsk           656.156
       258   03 Jun 2027 11:32:03.792   03 Jun 2027 11:32:20.063            16.271                Norilsk           508.469
       259   03 Jun 2027 11:32:29.527   03 Jun 2027 11:32:56.009            26.482                Norilsk           827.562
       260   03 Jun 2027 11:33:21.403   03 Jun 2027 11:33:22.908             1.505                Novosib            47.031
       261   03 Jun 2027 11:33:29.049   03 Jun 2027 11:34:36.200            67.151                Irkutsk          2098.469
       262   03 Jun 2027 12:10:38.264   03 Jun 2027 12:11:18.986            40.722            RioGallegos          1272.562
       263   03 Jun 2027 12:44:51.783   03 Jun 2027 12:46:09.442            77.659                Sumatra          2426.844
       264   03 Jun 2027 12:59:20.406   03 Jun 2027 13:00:08.357            47.951                Novosib          1498.469
       265   03 Jun 2027 13:00:13.051   03 Jun 2027 13:01:30.701            77.650                Irkutsk          2426.563
       266   03 Jun 2027 13:03:54.141   03 Jun 2027 13:04:05.326            11.185                Norilsk           349.531
       267   03 Jun 2027 13:04:48.190   03 Jun 2027 13:05:42.837            54.647                Irkutsk          1707.719
       268   03 Jun 2027 14:29:54.701   03 Jun 2027 14:34:54.523           299.822                  Delhi          9369.438
       269   03 Jun 2027 14:40:12.051   03 Jun 2027 14:42:15.634           123.583                Novosib          3861.969
       270   03 Jun 2027 14:42:47.424   03 Jun 2027 14:43:07.626            20.202                Norilsk           631.313
       271   03 Jun 2027 16:12:59.102   03 Jun 2027 16:14:45.957           106.855                 Moscow          3339.219
       272   03 Jun 2027 16:15:58.982   03 Jun 2027 16:16:57.461            58.479                 Moscow          1827.469
       273   03 Jun 2027 16:17:04.096   03 Jun 2027 16:18:12.073            67.977              Murmansk2          2124.281
       274   03 Jun 2027 16:19:09.782   03 Jun 2027 16:19:33.122            23.340              Murmansk2           729.375
       275   03 Jun 2027 16:23:18.662   03 Jun 2027 16:23:55.904            37.242              Murmansk1          1163.812
       276   03 Jun 2027 16:24:05.442   03 Jun 2027 16:26:06.680           121.238                Norilsk          3788.687
       277   03 Jun 2027 16:32:08.897   03 Jun 2027 16:32:46.511            37.614                Anadyr1          1175.438
       278   03 Jun 2027 17:26:21.796   03 Jun 2027 17:27:49.645            87.849               CapeTown          2745.281
       279   03 Jun 2027 17:52:33.835   03 Jun 2027 17:53:38.696            64.861                 Moscow          2026.906
       280   03 Jun 2027 17:54:34.024   03 Jun 2027 17:55:29.301            55.277              Murmansk1          1727.406
       281   03 Jun 2027 17:55:46.166   03 Jun 2027 17:57:02.634            76.468                 Moscow          2389.625
       282   03 Jun 2027 17:59:10.136   03 Jun 2027 17:59:47.517            37.381              Murmansk2          1168.156
       283   03 Jun 2027 18:03:16.179   03 Jun 2027 18:04:30.688            74.509              Murmansk1          2328.406
       284   03 Jun 2027 18:10:25.339   03 Jun 2027 18:10:37.824            12.485                Anadyr2           390.156
       285   03 Jun 2027 18:12:06.342   03 Jun 2027 18:12:17.011            10.669                Anadyr2           333.406
       286   03 Jun 2027 18:14:14.036   03 Jun 2027 18:14:25.175            11.139                Anadyr2           348.094
       287   03 Jun 2027 19:02:58.319   03 Jun 2027 19:04:15.453            77.134               CapeTown          2410.437
       288   03 Jun 2027 19:06:20.761   03 Jun 2027 19:07:16.770            56.009               CapeTown          1750.281
       289   03 Jun 2027 19:35:35.380   03 Jun 2027 19:39:19.803           224.423              Murmansk1          7013.219
       290   03 Jun 2027 19:40:04.447   03 Jun 2027 19:40:07.787             3.340              Murmansk2           104.375
       291   03 Jun 2027 19:45:25.240   03 Jun 2027 19:46:21.418            56.178               Magadan2          1755.563
       292   03 Jun 2027 19:47:27.537   03 Jun 2027 19:48:02.128            34.591               Magadan1          1080.969
       293   03 Jun 2027 19:49:49.621   03 Jun 2027 19:49:55.816             6.195               Magadan1           193.594
       294   03 Jun 2027 19:50:40.398   03 Jun 2027 19:51:02.548            22.150               Magadan1           692.187
       295   03 Jun 2027 19:54:08.507   03 Jun 2027 19:54:42.679            34.172               Magadan2          1067.875
       296   03 Jun 2027 21:18:42.308   03 Jun 2027 21:22:25.236           222.928                Anadyr1          6966.500
       297   03 Jun 2027 21:22:26.920   03 Jun 2027 21:24:45.774           138.854               Magadan2          4339.188
       298   03 Jun 2027 21:24:45.774   03 Jun 2027 21:25:12.683            26.909               Magadan1           840.906
       299   03 Jun 2027 21:25:24.762   03 Jun 2027 21:25:26.494             1.732               Magadan2            54.125
       300   03 Jun 2027 21:25:28.190   03 Jun 2027 21:25:44.007            15.817               Magadan2           494.281
       301   03 Jun 2027 21:25:55.976   03 Jun 2027 21:26:00.416             4.440               Magadan1           138.750
       302   03 Jun 2027 21:26:52.406   03 Jun 2027 21:27:28.068            35.662               Magadan1          1114.438
       303   03 Jun 2027 21:28:09.185   03 Jun 2027 21:28:21.047            11.862               Magadan1           370.688
       304   03 Jun 2027 22:13:28.735   03 Jun 2027 22:15:56.079           147.344            RioGallegos          4604.500
       305   03 Jun 2027 22:18:04.076   03 Jun 2027 22:18:28.557            24.481            RioGallegos           765.031
       306   03 Jun 2027 22:22:39.966   03 Jun 2027 22:22:51.175            11.209            RioGallegos           350.281
       307   03 Jun 2027 22:54:24.201   03 Jun 2027 22:55:44.005            79.804                Anadyr2          2493.875
       308   03 Jun 2027 22:55:51.851   03 Jun 2027 22:56:25.577            33.726                Anadyr2          1053.938
       309   03 Jun 2027 22:56:32.311   03 Jun 2027 22:57:55.368            83.057                Norilsk          2595.531
       310   03 Jun 2027 22:58:08.590   03 Jun 2027 22:58:24.142            15.552               Magadan1           486.000
       311   03 Jun 2027 22:58:24.142   03 Jun 2027 22:58:42.887            18.745               Magadan2           585.781
       312   03 Jun 2027 22:59:53.195   03 Jun 2027 23:00:13.430            20.235               Magadan2           632.344
       313   03 Jun 2027 23:00:53.979   03 Jun 2027 23:02:03.193            69.214                Irkutsk          2162.938
       314   03 Jun 2027 23:04:06.100   03 Jun 2027 23:04:07.420             1.320                Irkutsk            41.250
       315   03 Jun 2027 23:07:01.044   03 Jun 2027 23:07:02.974             1.930                Irkutsk            60.312
       316   03 Jun 2027 23:09:30.517   03 Jun 2027 23:10:22.193            51.676                Irkutsk          1614.875
       317   03 Jun 2027 23:14:52.361   03 Jun 2027 23:15:15.536            23.175                Sumatra           724.219
       318   03 Jun 2027 23:16:45.878   03 Jun 2027 23:18:02.492            76.614                Sumatra          2394.187
       319   03 Jun 2027 23:53:07.315   03 Jun 2027 23:53:15.486             8.171            RioGallegos           255.344
       320   03 Jun 2027 23:59:53.036   04 Jun 2027 00:00:11.559            18.523            RioGallegos           578.844
       321   04 Jun 2027 00:29:20.347   04 Jun 2027 00:30:42.077            81.730                Anadyr2          2554.063
       322   04 Jun 2027 00:30:55.601   04 Jun 2027 00:31:22.124            26.523                Anadyr1           828.844
       323   04 Jun 2027 00:31:22.124   04 Jun 2027 00:31:37.066            14.942                Anadyr2           466.937
       324   04 Jun 2027 00:32:11.217   04 Jun 2027 00:32:16.494             5.277                Anadyr2           164.906
       325   04 Jun 2027 00:32:27.531   04 Jun 2027 00:33:00.494            32.963                Norilsk          1030.094
       326   04 Jun 2027 00:33:07.400   04 Jun 2027 00:34:42.105            94.705               Magadan2          2959.531
       327   04 Jun 2027 00:34:49.762   04 Jun 2027 00:35:23.301            33.539               Magadan1          1048.094
       328   04 Jun 2027 00:36:19.632   04 Jun 2027 00:38:16.621           116.989                Irkutsk          3655.906
       329   04 Jun 2027 00:44:46.893   04 Jun 2027 00:47:56.147           189.254                  Delhi          5914.188
       330   04 Jun 2027 01:31:20.202   04 Jun 2027 01:31:25.267             5.065            RioGallegos           158.281
       331   04 Jun 2027 01:32:06.559   04 Jun 2027 01:32:24.737            18.178            RioGallegos           568.062
       332   04 Jun 2027 01:33:23.239   04 Jun 2027 01:34:21.061            57.822            RioGallegos          1806.937
       333   04 Jun 2027 02:03:45.794   04 Jun 2027 02:03:55.766             9.972                Anadyr1           311.625
       334   04 Jun 2027 02:04:00.171   04 Jun 2027 02:04:42.574            42.403                Anadyr2          1325.094
       335   04 Jun 2027 02:08:28.023   04 Jun 2027 02:09:57.246            89.223                Norilsk          2788.219
       336   04 Jun 2027 02:10:54.964   04 Jun 2027 02:12:52.787           117.823              Murmansk2          3681.969
       337   04 Jun 2027 02:13:02.378   04 Jun 2027 02:14:07.410            65.032                Novosib          2032.250
       338   04 Jun 2027 02:19:41.231   04 Jun 2027 02:20:05.537            24.306                  Delhi           759.562
       339   04 Jun 2027 02:27:56.336   04 Jun 2027 02:28:35.048            38.712                  Delhi          1209.750
       340   04 Jun 2027 02:31:13.385   04 Jun 2027 02:31:57.528            44.143                  Delhi          1379.469
       341   04 Jun 2027 03:03:03.595   04 Jun 2027 03:03:14.884            11.289            RioGallegos           352.781
       342   04 Jun 2027 03:04:25.271   04 Jun 2027 03:05:13.110            47.839            RioGallegos          1494.969
       343   04 Jun 2027 03:55:09.405   04 Jun 2027 03:56:39.462            90.057                Norilsk          2814.281
       344   04 Jun 2027 03:56:44.456   04 Jun 2027 03:58:19.924            95.468              Murmansk2          2983.375
       345   04 Jun 2027 03:59:35.044   04 Jun 2027 04:02:04.647           149.603                 Moscow          4675.094
       346   04 Jun 2027 04:15:25.612   04 Jun 2027 04:16:14.464            48.852               CapeTown          1526.625
       347   04 Jun 2027 04:17:46.190   04 Jun 2027 04:18:25.192            39.002               CapeTown          1218.813
       348   04 Jun 2027 04:19:43.828   04 Jun 2027 04:20:52.829            69.001               CapeTown          2156.281
       349   04 Jun 2027 04:21:12.667   04 Jun 2027 04:21:28.170            15.503               CapeTown           484.469
       350   04 Jun 2027 04:22:02.018   04 Jun 2027 04:24:04.315           122.297               CapeTown          3821.781
       351   04 Jun 2027 05:11:41.302   04 Jun 2027 05:12:00.750            19.448                Anadyr1           607.750
       352   04 Jun 2027 05:12:12.622   04 Jun 2027 05:12:40.620            27.998                Anadyr1           874.937
       353   04 Jun 2027 05:15:02.032   04 Jun 2027 05:15:08.914             6.882               Magadan1           215.062
       354   04 Jun 2027 05:15:30.323   04 Jun 2027 05:16:05.421            35.098               Magadan1          1096.813
       355   04 Jun 2027 05:16:13.609   04 Jun 2027 05:16:19.031             5.422                Anadyr1           169.437
       356   04 Jun 2027 05:16:24.740   04 Jun 2027 05:16:40.900            16.160                Anadyr1           505.000
       357   04 Jun 2027 05:17:01.537   04 Jun 2027 05:17:29.499            27.962               Magadan1           873.813
       358   04 Jun 2027 05:17:32.218   04 Jun 2027 05:18:55.140            82.922                Anadyr1          2591.313
       359   04 Jun 2027 05:21:16.941   04 Jun 2027 05:21:35.352            18.411                Anadyr1           575.344
       360   04 Jun 2027 05:21:53.083   04 Jun 2027 05:22:45.075            51.992                Anadyr1          1624.750
       361   04 Jun 2027 05:31:01.392   04 Jun 2027 05:31:35.693            34.301                 Moscow          1071.906
       362   04 Jun 2027 05:31:41.587   04 Jun 2027 05:32:21.957            40.370                 Moscow          1261.563
       363   04 Jun 2027 05:35:49.060   04 Jun 2027 05:35:55.472             6.412                 Moscow           200.375
       364   04 Jun 2027 05:50:01.534   04 Jun 2027 05:51:43.430           101.896               CapeTown          3184.250
       365   04 Jun 2027 06:00:29.638   04 Jun 2027 06:01:16.433            46.795               CapeTown          1462.344
       366   04 Jun 2027 06:53:26.166   04 Jun 2027 06:53:33.538             7.372                Anadyr2           230.375
       367   04 Jun 2027 06:53:35.788   04 Jun 2027 06:54:49.991            74.203               Magadan2          2318.844
       368   04 Jun 2027 06:55:05.825   04 Jun 2027 06:55:19.954            14.129                Anadyr1           441.531
       369   04 Jun 2027 06:55:33.500   04 Jun 2027 06:56:25.495            51.995                Anadyr2          1624.844
       370   04 Jun 2027 08:28:50.380   04 Jun 2027 08:30:17.219            86.839                Anadyr1          2713.719
       371   04 Jun 2027 08:30:25.710   04 Jun 2027 08:30:36.133            10.423               Magadan1           325.719
       372   04 Jun 2027 08:30:50.804   04 Jun 2027 08:31:18.947            28.143                Anadyr2           879.469
       373   04 Jun 2027 08:31:49.069   04 Jun 2027 08:32:39.011            49.942               Magadan1          1560.687
       374   04 Jun 2027 08:34:25.063   04 Jun 2027 08:34:53.485            28.422                Anadyr1           888.187
       375   04 Jun 2027 10:04:02.010   04 Jun 2027 10:05:07.158            65.148               Magadan2          2035.875
       376   04 Jun 2027 10:05:33.211   04 Jun 2027 10:05:53.174            19.963               Magadan2           623.844
       377   04 Jun 2027 10:06:10.660   04 Jun 2027 10:06:46.186            35.526               Magadan1          1110.187
       378   04 Jun 2027 10:06:47.372   04 Jun 2027 10:08:59.222           131.850               Magadan2          4120.313
       379   04 Jun 2027 10:09:21.300   04 Jun 2027 10:09:42.441            21.141                Norilsk           660.656
       380   04 Jun 2027 10:09:51.058   04 Jun 2027 10:10:16.923            25.865                Norilsk           808.281
       381   04 Jun 2027 10:10:29.735   04 Jun 2027 10:11:09.822            40.087                Norilsk          1252.719
       382   04 Jun 2027 10:45:18.943   04 Jun 2027 10:45:23.834             4.891            RioGallegos           152.844
       383   04 Jun 2027 10:46:23.085   04 Jun 2027 10:46:56.155            33.070            RioGallegos          1033.438
       384   04 Jun 2027 11:20:42.680   04 Jun 2027 11:21:56.504            73.824                Sumatra          2307.000
       385   04 Jun 2027 11:41:04.923   04 Jun 2027 11:41:53.354            48.431                Irkutsk          1513.469
       386   04 Jun 2027 11:42:29.546   04 Jun 2027 11:43:05.979            36.433                Norilsk          1138.531
       387   04 Jun 2027 11:43:07.761   04 Jun 2027 11:43:33.203            25.442                Irkutsk           795.063
       388   04 Jun 2027 11:43:35.810   04 Jun 2027 11:43:56.474            20.664                Novosib           645.750
       389   04 Jun 2027 11:44:02.423   04 Jun 2027 11:44:02.577             0.154                Norilsk             4.813
       390   04 Jun 2027 11:44:08.342   04 Jun 2027 11:44:43.992            35.650                Irkutsk          1114.063
       391   04 Jun 2027 11:45:00.970   04 Jun 2027 11:45:12.704            11.734                Novosib           366.688
       392   04 Jun 2027 11:45:25.124   04 Jun 2027 11:46:35.665            70.541                Irkutsk          2204.406
       393   04 Jun 2027 12:23:10.836   04 Jun 2027 12:23:41.243            30.407            RioGallegos           950.219
       394   04 Jun 2027 12:57:24.353   04 Jun 2027 12:59:44.523           140.170                Sumatra          4380.312
       395   04 Jun 2027 13:12:39.886   04 Jun 2027 13:14:28.217           108.331                Novosib          3385.344
       396   04 Jun 2027 13:18:01.105   04 Jun 2027 13:18:25.255            24.150                Norilsk           754.687
       397   04 Jun 2027 13:21:47.012   04 Jun 2027 13:21:53.075             6.063                Norilsk           189.469
       398   04 Jun 2027 13:23:24.109   04 Jun 2027 13:23:49.912            25.803                Norilsk           806.344
       399   04 Jun 2027 14:42:44.402   04 Jun 2027 14:47:20.608           276.206                  Delhi          8631.438
       400   04 Jun 2027 14:51:29.237   04 Jun 2027 14:52:06.909            37.672                Novosib          1177.250
       401   04 Jun 2027 14:52:18.253   04 Jun 2027 14:52:39.622            21.369              Murmansk2           667.781
       402   04 Jun 2027 14:54:15.580   04 Jun 2027 14:55:46.856            91.276                Novosib          2852.375
       403   04 Jun 2027 14:56:51.747   04 Jun 2027 14:57:11.917            20.170                Norilsk           630.312
       404   04 Jun 2027 14:57:47.835   04 Jun 2027 14:59:28.345           100.510                Norilsk          3140.937
       405   04 Jun 2027 16:06:30.993   04 Jun 2027 16:06:50.430            19.437               CapeTown           607.406
       406   04 Jun 2027 16:25:12.405   04 Jun 2027 16:25:24.003            11.598                 Moscow           362.438
       407   04 Jun 2027 16:26:12.949   04 Jun 2027 16:27:57.787           104.838                 Moscow          3276.188
       408   04 Jun 2027 16:28:44.256   04 Jun 2027 16:29:38.586            54.330                 Moscow          1697.812
       409   04 Jun 2027 16:36:58.055   04 Jun 2027 16:37:17.983            19.928              Murmansk1           622.750
       410   04 Jun 2027 16:40:41.008   04 Jun 2027 16:41:11.115            30.107              Murmansk2           940.844
       411   04 Jun 2027 16:43:51.046   04 Jun 2027 16:44:44.514            53.468                Anadyr1          1670.875
       412   04 Jun 2027 16:45:19.327   04 Jun 2027 16:45:46.976            27.649                Anadyr2           864.031
       413   04 Jun 2027 16:46:01.271   04 Jun 2027 16:46:05.013             3.742                Anadyr2           116.938
       414   04 Jun 2027 16:46:33.599   04 Jun 2027 16:47:09.609            36.010                Anadyr1          1125.313
       415   04 Jun 2027 17:38:18.132   04 Jun 2027 17:39:04.547            46.415               CapeTown          1450.469
       416   04 Jun 2027 17:40:47.286   04 Jun 2027 17:41:01.504            14.218               CapeTown           444.313
       417   04 Jun 2027 17:45:11.284   04 Jun 2027 17:45:29.659            18.375               CapeTown           574.219
       418   04 Jun 2027 17:50:04.147   04 Jun 2027 17:50:18.863            14.716               CapeTown           459.875
       419   04 Jun 2027 18:05:38.100   04 Jun 2027 18:08:48.966           190.866                 Moscow          5964.563
       420   04 Jun 2027 18:11:21.860   04 Jun 2027 18:12:11.774            49.914              Murmansk2          1559.813
       421   04 Jun 2027 18:19:34.001   04 Jun 2027 18:20:28.392            54.391                Anadyr1          1699.719
       422   04 Jun 2027 18:24:53.681   04 Jun 2027 18:25:46.412            52.731               Magadan1          1647.844
       423   04 Jun 2027 19:15:22.905   04 Jun 2027 19:16:23.302            60.397               CapeTown          1887.406
       424   04 Jun 2027 19:19:06.567   04 Jun 2027 19:20:39.791            93.224               CapeTown          2913.250
       425   04 Jun 2027 19:48:48.752   04 Jun 2027 19:51:38.862           170.110              Murmansk2          5315.938
       426   04 Jun 2027 19:57:20.725   04 Jun 2027 19:59:53.817           153.092               Magadan2          4784.125
       427   04 Jun 2027 20:07:05.767   04 Jun 2027 20:07:36.576            30.809               Magadan1           962.781
       428   04 Jun 2027 21:30:43.400   04 Jun 2027 21:32:46.159           122.759                Anadyr2          3836.219
       429   04 Jun 2027 21:32:58.108   04 Jun 2027 21:34:34.443            96.335                Anadyr1          3010.469
       430   04 Jun 2027 21:34:43.810   04 Jun 2027 21:36:41.499           117.689                Norilsk          3677.781
       431   04 Jun 2027 21:36:48.485   04 Jun 2027 21:37:58.498            70.013               Magadan2          2187.906
       432   04 Jun 2027 21:39:27.222   04 Jun 2027 21:39:45.064            17.842               Magadan1           557.562
       433   04 Jun 2027 21:39:59.029   04 Jun 2027 21:40:09.199            10.170               Magadan1           317.812
       434   04 Jun 2027 21:40:26.289   04 Jun 2027 21:40:41.598            15.309               Magadan2           478.406
       435   04 Jun 2027 21:43:19.635   04 Jun 2027 21:43:25.496             5.861               Magadan2           183.156
       436   04 Jun 2027 21:44:54.457   04 Jun 2027 21:44:55.396             0.939               Magadan1            29.344
       437   04 Jun 2027 22:25:14.209   04 Jun 2027 22:27:59.375           165.166            RioGallegos          5161.437
       438   04 Jun 2027 22:33:49.999   04 Jun 2027 22:34:21.995            31.996            RioGallegos           999.875
       439   04 Jun 2027 23:06:21.657   04 Jun 2027 23:07:12.679            51.022                Anadyr2          1594.437
       440   04 Jun 2027 23:07:33.746   04 Jun 2027 23:08:29.149            55.403                Anadyr2          1731.344
       441   04 Jun 2027 23:09:02.890   04 Jun 2027 23:10:29.152            86.262               Magadan2          2695.688
       442   04 Jun 2027 23:12:10.117   04 Jun 2027 23:12:20.615            10.498               Magadan2           328.063
       443   04 Jun 2027 23:12:46.285   04 Jun 2027 23:12:59.784            13.499               Magadan1           421.844
       444   04 Jun 2027 23:13:10.402   04 Jun 2027 23:13:22.637            12.235                Norilsk           382.344
       445   04 Jun 2027 23:13:27.433   04 Jun 2027 23:14:04.090            36.657                Irkutsk          1145.531
       446   04 Jun 2027 23:14:59.211   04 Jun 2027 23:15:22.036            22.825                Irkutsk           713.281
       447   04 Jun 2027 23:15:26.825   04 Jun 2027 23:15:51.622            24.797                Novosib           774.906
       448   04 Jun 2027 23:17:22.717   04 Jun 2027 23:18:25.409            62.692                Novosib          1959.125
       449   04 Jun 2027 23:26:34.769   04 Jun 2027 23:27:12.022            37.253                Sumatra          1164.156
       450   04 Jun 2027 23:29:06.260   04 Jun 2027 23:29:59.252            52.992                Sumatra          1656.000
       451   04 Jun 2027 23:38:27.986   04 Jun 2027 23:38:51.642            23.656                Sumatra           739.250
       452   05 Jun 2027 00:09:28.670   05 Jun 2027 00:09:44.622            15.952            RioGallegos           498.500
       453   05 Jun 2027 00:10:01.523   05 Jun 2027 00:10:28.393            26.870            RioGallegos           839.687
       454   05 Jun 2027 00:12:08.857   05 Jun 2027 00:13:18.742            69.885            RioGallegos          2183.906
       455   05 Jun 2027 00:42:38.287   05 Jun 2027 00:43:23.463            45.176                Anadyr2          1411.750
       456   05 Jun 2027 00:43:31.567   05 Jun 2027 00:43:55.422            23.855                Anadyr2           745.469
       457   05 Jun 2027 00:44:29.811   05 Jun 2027 00:46:05.362            95.551                Norilsk          2985.969
       458   05 Jun 2027 00:48:03.111   05 Jun 2027 00:48:45.496            42.385               Magadan2          1324.531
       459   05 Jun 2027 00:49:11.300   05 Jun 2027 00:50:25.076            73.776                Irkutsk          2305.500
       460   05 Jun 2027 00:50:30.306   05 Jun 2027 00:50:59.008            28.702                Novosib           896.937
       461   05 Jun 2027 00:54:33.577   05 Jun 2027 00:55:06.617            33.040                Novosib          1032.500
       462   05 Jun 2027 00:56:24.501   05 Jun 2027 00:56:44.230            19.729                  Delhi           616.531
       463   05 Jun 2027 00:57:06.847   05 Jun 2027 00:57:21.489            14.642                  Delhi           457.563
       464   05 Jun 2027 01:00:25.511   05 Jun 2027 01:01:21.090            55.579                  Delhi          1736.844
       465   05 Jun 2027 01:07:15.044   05 Jun 2027 01:08:42.705            87.661                Sumatra          2739.406
       466   05 Jun 2027 01:42:47.957   05 Jun 2027 01:43:30.105            42.148            RioGallegos          1317.125
       467   05 Jun 2027 02:14:44.020   05 Jun 2027 02:14:54.482            10.462                Anadyr2           326.937
       468   05 Jun 2027 02:15:44.493   05 Jun 2027 02:16:53.784            69.291                Anadyr1          2165.344
       469   05 Jun 2027 02:20:12.530   05 Jun 2027 02:20:36.068            23.538                Anadyr2           735.563
       470   05 Jun 2027 02:20:45.713   05 Jun 2027 02:21:00.515            14.802               Magadan1           462.562
       471   05 Jun 2027 02:21:06.752   05 Jun 2027 02:21:32.603            25.851                Norilsk           807.844
       472   05 Jun 2027 02:21:41.054   05 Jun 2027 02:21:45.896             4.842                Norilsk           151.312
       473   05 Jun 2027 02:22:04.546   05 Jun 2027 02:22:25.012            20.466                Norilsk           639.562
       474   05 Jun 2027 02:22:51.725   05 Jun 2027 02:24:20.532            88.807              Murmansk2          2775.219
       475   05 Jun 2027 02:24:35.226   05 Jun 2027 02:24:38.316             3.090                Novosib            96.562
       476   05 Jun 2027 02:24:55.238   05 Jun 2027 02:25:29.040            33.802                Irkutsk          1056.312
       477   05 Jun 2027 02:27:06.137   05 Jun 2027 02:27:26.939            20.802                Novosib           650.063
       478   05 Jun 2027 02:27:54.294   05 Jun 2027 02:28:08.494            14.200                Irkutsk           443.750
       479   05 Jun 2027 02:31:22.454   05 Jun 2027 02:31:41.874            19.420                Irkutsk           606.875
       480   05 Jun 2027 02:34:19.979   05 Jun 2027 02:36:14.153           114.174                  Delhi          3567.938
       481   05 Jun 2027 04:05:52.645   05 Jun 2027 04:06:21.459            28.814                Novosib           900.438
       482   05 Jun 2027 04:07:02.436   05 Jun 2027 04:08:45.458           103.022              Murmansk2          3219.438
