uniorb/output/strategy_4/Drop/Drop_KinoSat_110302.txt

KinoSat_110302
-------------------------
    Access    *     Start Time (UTCG)     *     Stop Time (UTCG)  *   Duration (s)        *       Station  *  Data (Mbytes)
         1   01 Jun 2027 04:27:21.644   01 Jun 2027 04:28:02.762            41.118               Magadan2          5139.750
         2   01 Jun 2027 04:28:14.098   01 Jun 2027 04:28:23.880             9.782                Novosib          1222.750
         3   01 Jun 2027 04:28:28.688   01 Jun 2027 04:29:16.393            47.705               Magadan2          5963.125
         4   01 Jun 2027 04:29:25.420   01 Jun 2027 04:29:33.469             8.049                Novosib          1006.125
         5   01 Jun 2027 04:29:35.410   01 Jun 2027 04:30:43.239            67.829               Magadan1          8478.625
         6   01 Jun 2027 04:30:53.167   01 Jun 2027 04:31:11.317            18.150                Novosib          2268.750
         7   01 Jun 2027 04:31:33.565   01 Jun 2027 04:32:45.339            71.774              Murmansk1          8971.750
         8   01 Jun 2027 05:07:35.813   01 Jun 2027 05:07:49.101            13.288            RioGallegos          1661.000
         9   01 Jun 2027 05:08:58.421   01 Jun 2027 05:10:19.587            81.166            RioGallegos         10145.750
        10   01 Jun 2027 05:42:08.435   01 Jun 2027 05:44:04.871           116.436                Sumatra         14554.500
        11   01 Jun 2027 05:53:33.153   01 Jun 2027 05:55:17.409           104.256                  Delhi         13032.000
        12   01 Jun 2027 06:05:25.943   01 Jun 2027 06:06:10.037            44.094                Norilsk          5511.750
        13   01 Jun 2027 06:06:20.720   01 Jun 2027 06:06:52.389            31.669                Norilsk          3958.625
        14   01 Jun 2027 06:06:58.719   01 Jun 2027 06:07:01.314             2.595              Murmansk2           324.375
        15   01 Jun 2027 06:07:14.644   01 Jun 2027 06:07:39.704            25.060              Murmansk1          3132.500
        16   01 Jun 2027 06:07:42.508   01 Jun 2027 06:08:06.545            24.037                Norilsk          3004.625
        17   01 Jun 2027 06:08:09.881   01 Jun 2027 06:08:18.050             8.169              Murmansk2          1021.125
        18   01 Jun 2027 06:08:23.593   01 Jun 2027 06:08:43.061            19.468                Norilsk          2433.500
        19   01 Jun 2027 06:08:48.233   01 Jun 2027 06:09:18.574            30.341                Novosib          3792.625
        20   01 Jun 2027 06:48:45.117   01 Jun 2027 06:48:59.467            14.350            RioGallegos          1793.750
        21   01 Jun 2027 07:26:34.902   01 Jun 2027 07:29:20.120           165.218                  Delhi         20652.250
        22   01 Jun 2027 07:42:18.725   01 Jun 2027 07:42:22.897             4.172              Murmansk2           521.500
        23   01 Jun 2027 07:42:29.893   01 Jun 2027 07:42:55.664            25.771                Norilsk          3221.375
        24   01 Jun 2027 07:42:58.248   01 Jun 2027 07:44:07.434            69.186                Novosib          8648.250
        25   01 Jun 2027 07:45:16.773   01 Jun 2027 07:45:31.433            14.660                Novosib          1832.500
        26   01 Jun 2027 09:15:50.183   01 Jun 2027 09:16:25.267            35.084                 Moscow          4385.500
        27   01 Jun 2027 09:18:41.308   01 Jun 2027 09:23:37.121           295.813                 Moscow         36976.625
        28   01 Jun 2027 09:23:50.469   01 Jun 2027 09:27:06.826           196.357              Murmansk2         24544.625
        29   01 Jun 2027 10:25:02.212   01 Jun 2027 10:26:07.689            65.477               CapeTown          8184.625
        30   01 Jun 2027 10:27:21.994   01 Jun 2027 10:31:30.694           248.700               CapeTown         31087.500
        31   01 Jun 2027 11:05:10.392   01 Jun 2027 11:07:37.805           147.413                Anadyr2         18426.625
        32   01 Jun 2027 11:08:12.801   01 Jun 2027 11:08:17.138             4.337                Anadyr2           542.125
        33   01 Jun 2027 12:40:46.877   01 Jun 2027 12:41:23.769            36.892                Anadyr1          4611.500
        34   01 Jun 2027 12:43:59.644   01 Jun 2027 12:44:29.886            30.242               Magadan1          3780.250
        35   01 Jun 2027 12:45:42.261   01 Jun 2027 12:48:07.164           144.903               Magadan2         18112.875
        36   01 Jun 2027 12:49:22.556   01 Jun 2027 12:52:33.069           190.513               Magadan1         23814.125
        37   01 Jun 2027 14:23:42.874   01 Jun 2027 14:24:07.690            24.816               Magadan1          3102.000
        38   01 Jun 2027 15:13:17.495   01 Jun 2027 15:16:04.407           166.912            RioGallegos         20864.000
        39   01 Jun 2027 15:59:45.269   01 Jun 2027 16:03:33.763           228.494                Irkutsk         28561.750
        40   01 Jun 2027 16:14:54.320   01 Jun 2027 16:17:24.321           150.001                Sumatra         18750.125
        41   01 Jun 2027 17:37:02.331   01 Jun 2027 17:39:17.715           135.384                Novosib         16923.000
        42   01 Jun 2027 17:45:39.620   01 Jun 2027 17:48:16.085           156.465                  Delhi         19558.125
        43   01 Jun 2027 19:17:35.603   01 Jun 2027 19:18:09.841            34.238                  Delhi          2297.750
        44   02 Jun 2027 03:06:17.498   02 Jun 2027 03:06:36.128            18.630                Anadyr1          2328.750
        45   02 Jun 2027 03:06:38.322   02 Jun 2027 03:06:51.331            13.009               Magadan1          1626.125
        46   02 Jun 2027 03:06:55.241   02 Jun 2027 03:07:08.372            13.131               Magadan1          1641.375
        47   02 Jun 2027 03:07:19.124   02 Jun 2027 03:07:56.348            37.224               Magadan2          4653.000
        48   02 Jun 2027 03:08:41.088   02 Jun 2027 03:09:36.351            55.263              Murmansk2          6907.875
        49   02 Jun 2027 03:43:36.150   02 Jun 2027 03:43:40.569             4.419            RioGallegos           552.375
        50   02 Jun 2027 03:43:56.109   02 Jun 2027 03:44:35.170            39.061            RioGallegos          4882.625
        51   02 Jun 2027 03:46:12.195   02 Jun 2027 03:47:42.204            90.009            RioGallegos         11251.125
        52   02 Jun 2027 04:20:26.101   02 Jun 2027 04:23:16.706           170.605                Sumatra         21325.625
        53   02 Jun 2027 04:39:54.417   02 Jun 2027 04:41:05.398            70.981                Irkutsk          8872.625
        54   02 Jun 2027 04:42:23.380   02 Jun 2027 04:42:43.620            20.240                Norilsk          2530.000
        55   02 Jun 2027 04:42:53.722   02 Jun 2027 04:43:38.410            44.688                Irkutsk          5586.000
        56   02 Jun 2027 04:43:53.930   02 Jun 2027 04:44:08.866            14.936                Norilsk          1867.000
        57   02 Jun 2027 04:44:20.822   02 Jun 2027 04:50:27.500           366.678              Murmansk2         45834.750
        58   02 Jun 2027 04:50:53.585   02 Jun 2027 04:51:21.281            27.696              Murmansk2          3462.000
        59   02 Jun 2027 05:19:52.322   02 Jun 2027 05:21:55.980           123.658            RioGallegos         15457.250
        60   02 Jun 2027 05:22:19.238   02 Jun 2027 05:22:56.651            37.413            RioGallegos          4676.625
        61   02 Jun 2027 05:54:16.295   02 Jun 2027 05:54:17.503             1.208                Sumatra           151.000
        62   02 Jun 2027 06:05:04.250   02 Jun 2027 06:07:11.644           127.394                  Delhi         15924.250
        63   02 Jun 2027 06:19:02.863   02 Jun 2027 06:19:39.138            36.275                Irkutsk          4534.375
        64   02 Jun 2027 06:20:30.473   02 Jun 2027 06:24:51.404           260.931              Murmansk2         32616.375
        65   02 Jun 2027 06:24:51.404   02 Jun 2027 06:26:10.989            79.585              Murmansk1          9948.125
        66   02 Jun 2027 06:26:52.395   02 Jun 2027 06:27:18.420            26.025              Murmansk2          3253.125
        67   02 Jun 2027 06:27:19.005   02 Jun 2027 06:27:34.012            15.007              Murmansk2          1875.875
        68   02 Jun 2027 07:38:53.126   02 Jun 2027 07:44:18.166           325.040                  Delhi         40630.000
        69   02 Jun 2027 07:47:55.255   02 Jun 2027 07:50:52.887           177.632                Novosib         22204.000
        70   02 Jun 2027 07:51:07.125   02 Jun 2027 07:51:17.061             9.936                 Moscow          1242.000
        71   02 Jun 2027 07:56:09.561   02 Jun 2027 08:03:13.016           423.455              Murmansk1         52931.875
        72   02 Jun 2027 09:22:46.143   02 Jun 2027 09:24:06.634            80.491                 Moscow         10061.375
        73   02 Jun 2027 09:26:17.103   02 Jun 2027 09:26:55.376            38.273              Murmansk2          4784.125
        74   02 Jun 2027 09:26:55.376   02 Jun 2027 09:27:36.503            41.127              Murmansk1          5140.875
        75   02 Jun 2027 09:27:45.387   02 Jun 2027 09:28:06.223            20.836                 Moscow          2604.500
        76   02 Jun 2027 09:31:07.559   02 Jun 2027 09:38:16.478           428.919              Murmansk2         53614.875
        77   02 Jun 2027 09:38:16.478   02 Jun 2027 09:39:08.480            52.002              Murmansk1          6500.250
        78   02 Jun 2027 10:41:44.295   02 Jun 2027 10:42:49.315            65.020               CapeTown          8127.500
        79   02 Jun 2027 11:03:48.276   02 Jun 2027 11:05:08.775            80.499              Murmansk1         10062.375
        80   02 Jun 2027 11:05:08.775   02 Jun 2027 11:06:17.633            68.858              Murmansk2          8607.250
        81   02 Jun 2027 11:06:46.616   02 Jun 2027 11:07:07.494            20.878              Murmansk2          2609.750
        82   02 Jun 2027 11:07:25.933   02 Jun 2027 11:07:46.434            20.501              Murmansk2          2562.625
        83   02 Jun 2027 11:07:57.745   02 Jun 2027 11:08:09.017            11.272              Murmansk2          1409.000
        84   02 Jun 2027 11:08:41.429   02 Jun 2027 11:12:31.274           229.845              Murmansk2         28730.625
        85   02 Jun 2027 11:17:06.678   02 Jun 2027 11:18:46.881           100.203                Anadyr2         12525.375
        86   02 Jun 2027 11:19:50.262   02 Jun 2027 11:22:21.855           151.593                Anadyr1         18949.125
        87   02 Jun 2027 11:23:45.291   02 Jun 2027 11:24:53.114            67.823                Anadyr2          8477.875
        88   02 Jun 2027 12:55:47.294   02 Jun 2027 13:01:48.354           361.060               Magadan1         45132.500
        89   02 Jun 2027 15:24:28.309   02 Jun 2027 15:27:51.853           203.544            RioGallegos         25443.000
        90   02 Jun 2027 16:13:32.696   02 Jun 2027 16:15:27.208           114.512                Irkutsk         14314.000
        91   02 Jun 2027 16:26:02.563   02 Jun 2027 16:27:19.507            76.944                Sumatra          9618.000
        92   02 Jun 2027 16:31:58.723   02 Jun 2027 16:33:59.410           120.687                Sumatra         15085.875
        93   02 Jun 2027 17:50:15.332   02 Jun 2027 17:51:14.093            58.761                Novosib          7345.125
        94   02 Jun 2027 17:56:16.336   02 Jun 2027 17:58:57.982           161.646                  Delhi         20205.750
        95   02 Jun 2027 19:29:34.879   02 Jun 2027 19:30:26.009            51.130                  Delhi          6391.250
        96   02 Jun 2027 20:59:36.634   02 Jun 2027 21:01:22.117           105.483              Murmansk2         13185.375
        97   02 Jun 2027 21:03:08.564   02 Jun 2027 21:03:57.496            48.932                 Moscow          6116.500
        98   02 Jun 2027 21:26:18.356   02 Jun 2027 21:28:58.087           159.731               CapeTown         19966.375
        99   03 Jun 2027 03:20:31.966   03 Jun 2027 03:28:01.941           449.975              Murmansk2         56246.875
       100   03 Jun 2027 04:31:42.653   03 Jun 2027 04:33:15.896            93.243                Sumatra         11655.375
       101   03 Jun 2027 04:38:03.955   03 Jun 2027 04:39:52.155           108.200                Sumatra         13525.000
       102   03 Jun 2027 04:56:29.780   03 Jun 2027 05:04:21.988           472.208              Murmansk2         59026.000
       103   03 Jun 2027 05:35:24.978   03 Jun 2027 05:36:12.270            47.292            RioGallegos          5911.500
       104   03 Jun 2027 06:06:30.374   03 Jun 2027 06:08:55.720           145.346                Sumatra         18168.250
       105   03 Jun 2027 06:17:18.226   03 Jun 2027 06:19:11.166           112.940                  Delhi         14117.500
       106   03 Jun 2027 06:21:16.392   03 Jun 2027 06:23:06.431           110.039                Novosib         13754.875
       107   03 Jun 2027 06:24:13.072   03 Jun 2027 06:25:07.114            54.042                Irkutsk          6755.250
       108   03 Jun 2027 06:31:48.906   03 Jun 2027 06:35:43.019           234.113                Norilsk         29264.125
       109   03 Jun 2027 06:36:08.519   03 Jun 2027 06:36:52.579            44.060              Murmansk2          5507.500
       110   03 Jun 2027 06:36:57.602   03 Jun 2027 06:37:27.923            30.321                Norilsk          3790.125
       111   03 Jun 2027 06:37:28.529   03 Jun 2027 06:37:58.718            30.189              Murmansk1          3773.625
       112   03 Jun 2027 06:38:40.397   03 Jun 2027 06:38:54.736            14.339              Murmansk1          1792.375
       113   03 Jun 2027 06:39:05.571   03 Jun 2027 06:39:31.728            26.157              Murmansk1          3269.625
       114   03 Jun 2027 07:51:18.714   03 Jun 2027 07:55:25.664           246.950                  Delhi         30868.750
       115   03 Jun 2027 07:59:39.360   03 Jun 2027 08:03:14.383           215.023                Novosib         26877.875
       116   03 Jun 2027 08:08:32.650   03 Jun 2027 08:12:33.620           240.970              Murmansk2         30121.250
       117   03 Jun 2027 08:12:33.620   03 Jun 2027 08:14:00.619            86.999              Murmansk1         10874.875
       118   03 Jun 2027 08:14:00.619   03 Jun 2027 08:15:13.721            73.102              Murmansk2          9137.750
       119   03 Jun 2027 09:34:52.296   03 Jun 2027 09:40:25.228           332.932                 Moscow         41616.500
       120   03 Jun 2027 09:40:46.550   03 Jun 2027 09:41:59.075            72.525              Murmansk2          9065.625
       121   03 Jun 2027 09:42:36.838   03 Jun 2027 09:45:07.504           150.666              Murmansk1         18833.250
       122   03 Jun 2027 09:45:19.930   03 Jun 2027 09:48:36.661           196.731                Norilsk         24591.375
       123   03 Jun 2027 09:54:55.333   03 Jun 2027 09:58:28.781           213.448                Anadyr1         26681.000
       124   03 Jun 2027 11:16:10.758   03 Jun 2027 11:17:07.853            57.095              Murmansk2          7136.875
       125   03 Jun 2027 11:19:48.308   03 Jun 2027 11:20:09.328            21.020              Murmansk2          2627.500
       126   03 Jun 2027 11:20:36.535   03 Jun 2027 11:21:58.263            81.728              Murmansk2         10216.000
       127   03 Jun 2027 11:22:28.545   03 Jun 2027 11:24:42.534           133.989              Murmansk1         16748.625
       128   03 Jun 2027 11:25:47.801   03 Jun 2027 11:26:04.932            17.131              Murmansk2          2141.375
       129   03 Jun 2027 11:26:33.625   03 Jun 2027 11:26:37.516             3.891              Murmansk2           486.375
       130   03 Jun 2027 11:26:41.547   03 Jun 2027 11:27:05.646            24.099              Murmansk2          3012.375
       131   03 Jun 2027 11:29:04.060   03 Jun 2027 11:30:08.746            64.686                Anadyr1          8085.750
       132   03 Jun 2027 11:32:00.424   03 Jun 2027 11:33:40.790           100.366                Anadyr1         12545.750
       133   03 Jun 2027 11:37:52.741   03 Jun 2027 11:38:29.457            36.716                Anadyr1          4589.500
       134   03 Jun 2027 12:27:45.247   03 Jun 2027 12:28:49.323            64.076               CapeTown          8009.500
       135   03 Jun 2027 12:56:39.545   03 Jun 2027 12:58:12.920            93.375              Murmansk1         11671.875
       136   03 Jun 2027 13:07:38.082   03 Jun 2027 13:13:13.707           335.625               Magadan1         41953.125
       137   03 Jun 2027 15:35:57.908   03 Jun 2027 15:39:42.409           224.501            RioGallegos         28062.625
       138   03 Jun 2027 16:25:40.914   03 Jun 2027 16:26:00.414            19.500                Irkutsk          2437.500
       139   03 Jun 2027 16:27:22.464   03 Jun 2027 16:29:07.654           105.190                Irkutsk         13148.750
       140   03 Jun 2027 16:37:25.709   03 Jun 2027 16:38:16.837            51.128                Sumatra          6391.000
       141   03 Jun 2027 16:39:10.812   03 Jun 2027 16:41:03.127           112.315                Sumatra         14039.375
       142   03 Jun 2027 17:58:47.670   03 Jun 2027 17:59:58.255            70.585                Novosib          8823.125
       143   03 Jun 2027 18:01:38.739   03 Jun 2027 18:02:00.024            21.285                Novosib          2660.625
       144   03 Jun 2027 18:07:28.197   03 Jun 2027 18:10:44.812           196.615                  Delhi         24576.875
       145   03 Jun 2027 21:12:13.245   03 Jun 2027 21:13:51.128            97.883                 Moscow         12235.375
       146   03 Jun 2027 21:37:24.049   03 Jun 2027 21:38:58.716            94.667               CapeTown         11833.375
       147   03 Jun 2027 21:45:27.276   03 Jun 2027 21:46:34.489            67.213               CapeTown          8401.625
       148   04 Jun 2027 03:32:33.082   04 Jun 2027 03:33:35.371            62.289                Novosib          7786.125
       149   04 Jun 2027 03:33:35.435   04 Jun 2027 03:36:07.014           151.579              Murmansk1         18947.375
       150   04 Jun 2027 04:43:11.286   04 Jun 2027 04:44:33.084            81.798                Sumatra         10224.750
       151   04 Jun 2027 04:46:59.837   04 Jun 2027 04:47:01.488             1.651                Sumatra           206.375
       152   04 Jun 2027 04:50:09.981   04 Jun 2027 04:50:15.368             5.387                Sumatra           673.375
       153   04 Jun 2027 05:08:48.315   04 Jun 2027 05:09:10.912            22.597              Murmansk1          2824.625
       154   04 Jun 2027 05:09:15.047   04 Jun 2027 05:13:37.939           262.892                Norilsk         32861.500
       155   04 Jun 2027 05:14:02.079   04 Jun 2027 05:15:27.110            85.031              Murmansk1         10628.875
       156   04 Jun 2027 05:44:39.053   04 Jun 2027 05:46:06.616            87.563            RioGallegos         10945.375
       157   04 Jun 2027 05:47:42.679   04 Jun 2027 05:48:23.780            41.101            RioGallegos          5137.625
       158   04 Jun 2027 06:18:51.705   04 Jun 2027 06:18:55.853             4.148                Sumatra           518.500
       159   04 Jun 2027 06:20:36.533   04 Jun 2027 06:22:20.929           104.396                Sumatra         13049.500
       160   04 Jun 2027 06:26:14.693   04 Jun 2027 06:27:37.541            82.848                Sumatra         10356.000
       161   04 Jun 2027 06:29:04.244   04 Jun 2027 06:31:09.182           124.938                  Delhi         15617.250
       162   04 Jun 2027 06:33:23.181   04 Jun 2027 06:35:41.208           138.027                Novosib         17253.375
       163   04 Jun 2027 06:37:19.509   04 Jun 2027 06:37:43.747            24.238                Irkutsk          3029.750
       164   04 Jun 2027 06:38:39.271   04 Jun 2027 06:39:46.173            66.902                 Moscow          8362.750
       165   04 Jun 2027 06:44:10.552   04 Jun 2027 06:45:09.087            58.535                 Moscow          7316.875
       166   04 Jun 2027 06:45:18.582   04 Jun 2027 06:46:05.926            47.344                Novosib          5918.000
       167   04 Jun 2027 06:46:26.744   04 Jun 2027 06:47:46.189            79.445                Norilsk          9930.625
       168   04 Jun 2027 06:48:04.645   04 Jun 2027 06:49:27.347            82.702              Murmansk2         10337.750
       169   04 Jun 2027 08:03:53.455   04 Jun 2027 08:07:38.705           225.250                  Delhi         28156.250
       170   04 Jun 2027 08:12:48.974   04 Jun 2027 08:15:40.256           171.282                Novosib         21410.250
       171   04 Jun 2027 08:20:27.158   04 Jun 2027 08:20:53.693            26.535                Novosib          3316.875
       172   04 Jun 2027 08:20:53.865   04 Jun 2027 08:25:54.506           300.641              Murmansk1         37580.125
       173   04 Jun 2027 09:47:01.581   04 Jun 2027 09:51:44.151           282.570                 Moscow         35321.250
       174   04 Jun 2027 09:52:04.194   04 Jun 2027 09:52:42.349            38.155              Murmansk2          4769.375
       175   04 Jun 2027 09:53:35.973   04 Jun 2027 09:56:29.782           173.809              Murmansk2         21726.125
       176   04 Jun 2027 09:56:56.585   04 Jun 2027 09:57:02.266             5.681              Murmansk2           710.125
       177   04 Jun 2027 09:57:22.891   04 Jun 2027 09:57:42.232            19.341              Murmansk2          2417.625
       178   04 Jun 2027 09:57:50.105   04 Jun 2027 10:00:15.000           144.895              Murmansk2         18111.875
       179   04 Jun 2027 10:06:20.498   04 Jun 2027 10:10:11.690           231.192                Anadyr2         28899.000
       180   04 Jun 2027 11:28:35.603   04 Jun 2027 11:29:57.823            82.220              Murmansk1         10277.500
       181   04 Jun 2027 11:38:29.964   04 Jun 2027 11:38:31.760             1.796              Murmansk1           224.500
       182   04 Jun 2027 11:41:02.304   04 Jun 2027 11:42:08.991            66.687                Anadyr2          8335.875
       183   04 Jun 2027 11:44:08.378   04 Jun 2027 11:45:41.043            92.665                Anadyr2         11583.125
       184   04 Jun 2027 11:48:24.755   04 Jun 2027 11:50:35.933           131.178                Anadyr2         16397.250
       185   04 Jun 2027 12:38:52.844   04 Jun 2027 12:39:42.229            49.385               CapeTown          6173.125
       186   04 Jun 2027 12:41:20.058   04 Jun 2027 12:41:51.760            31.702               CapeTown          3962.750
       187   04 Jun 2027 12:42:05.323   04 Jun 2027 12:44:03.366           118.043               CapeTown         14755.375
       188   04 Jun 2027 13:09:36.860   04 Jun 2027 13:10:09.346            32.486              Murmansk1          4060.750
       189   04 Jun 2027 13:19:31.151   04 Jun 2027 13:22:11.645           160.494               Magadan2         20061.750
       190   04 Jun 2027 13:22:18.536   04 Jun 2027 13:24:57.789           159.253               Magadan1         19906.625
       191   04 Jun 2027 15:47:36.619   04 Jun 2027 15:51:35.377           238.758            RioGallegos         29844.750
       192   04 Jun 2027 15:53:39.424   04 Jun 2027 15:54:06.288            26.864            RioGallegos          3358.000
       193   04 Jun 2027 16:36:03.881   04 Jun 2027 16:37:45.723           101.842                Irkutsk         12730.250
       194   04 Jun 2027 16:39:05.560   04 Jun 2027 16:39:19.209            13.649                Irkutsk          1706.125
       195   04 Jun 2027 16:44:03.525   04 Jun 2027 16:44:27.889            24.364                Irkutsk          3045.500
       196   04 Jun 2027 16:48:59.048   04 Jun 2027 16:50:46.729           107.681                Sumatra         13460.125
       197   04 Jun 2027 16:58:18.029   04 Jun 2027 17:00:13.498           115.469                Sumatra         14433.625
       198   04 Jun 2027 18:18:38.607   04 Jun 2027 18:19:58.175            79.568                Novosib          9946.000
       199   04 Jun 2027 18:20:52.673   04 Jun 2027 18:22:36.067           103.394                  Delhi         12924.250
       200   04 Jun 2027 18:25:27.556   04 Jun 2027 18:26:18.743            51.187                  Delhi          6398.375
       201   04 Jun 2027 19:51:30.482   04 Jun 2027 19:52:53.548            83.066                 Moscow         10383.250
       202   04 Jun 2027 21:27:12.248   04 Jun 2027 21:28:40.468            88.220                 Moscow         11027.500
       203   04 Jun 2027 21:48:54.567   04 Jun 2027 21:50:24.653            90.086               CapeTown         11260.750
       204   04 Jun 2027 21:58:10.223   04 Jun 2027 22:00:11.544           121.321               CapeTown         15165.125
       205   05 Jun 2027 03:44:51.060   05 Jun 2027 03:45:43.898            52.838                Novosib          6604.750
       206   05 Jun 2027 04:54:48.775   05 Jun 2027 04:56:45.882           117.107                Sumatra         14638.375
       207   05 Jun 2027 05:09:03.255   05 Jun 2027 05:12:03.029           179.774                  Delhi         22471.750
       208   05 Jun 2027 05:20:17.559   05 Jun 2027 05:24:20.565           243.006              Murmansk1         30375.750
       209   05 Jun 2027 05:24:20.565   05 Jun 2027 05:25:31.813            71.248              Murmansk2          8906.000
       210   05 Jun 2027 05:25:31.813   05 Jun 2027 05:25:49.789            17.976              Murmansk1          2247.000
       211   05 Jun 2027 06:04:56.536   05 Jun 2027 06:05:17.003            20.467            RioGallegos          2558.375
       212   05 Jun 2027 06:31:22.219   05 Jun 2027 06:33:42.595           140.376                Sumatra         17547.000
       213   05 Jun 2027 06:38:07.025   05 Jun 2027 06:40:15.383           128.358                Sumatra         16044.750
       214   05 Jun 2027 06:45:33.133   05 Jun 2027 06:48:22.722           169.589                Novosib         21198.625
       215   05 Jun 2027 06:49:22.684   05 Jun 2027 06:50:10.373            47.689                Irkutsk          5961.125
       216   05 Jun 2027 06:50:10.425   05 Jun 2027 06:51:41.155            90.730                 Moscow         11341.250
       217   05 Jun 2027 06:56:23.361   05 Jun 2027 06:56:29.039             5.678              Murmansk1           709.750
       218   05 Jun 2027 06:56:41.508   05 Jun 2027 06:56:49.733             8.225                Norilsk          1028.125
       219   05 Jun 2027 06:56:57.586   05 Jun 2027 06:59:20.714           143.128                 Moscow         17891.000
       220   05 Jun 2027 07:00:17.544   05 Jun 2027 07:02:28.189           130.645              Murmansk1         16330.625
       221   05 Jun 2027 08:16:40.742   05 Jun 2027 08:19:58.250           197.508                  Delhi         24688.500
       222   05 Jun 2027 08:25:13.458   05 Jun 2027 08:27:48.532           155.074                Novosib         19384.250
       223   05 Jun 2027 08:32:00.807   05 Jun 2027 08:32:06.727             5.920                Novosib           740.000
       224   05 Jun 2027 08:32:57.040   05 Jun 2027 08:36:17.475           200.435                Norilsk         25054.375
       225   05 Jun 2027 08:36:28.530   05 Jun 2027 08:37:00.662            32.132              Murmansk1          4016.500
       226   05 Jun 2027 08:37:00.662   05 Jun 2027 08:39:15.752           135.090              Murmansk2         16886.250
       227   05 Jun 2027 09:59:14.182   05 Jun 2027 10:03:47.868           273.686                 Moscow         34210.750
       228   05 Jun 2027 10:05:15.982   05 Jun 2027 10:06:24.471            68.489                 Moscow          8561.125
       229   05 Jun 2027 10:06:44.718   05 Jun 2027 10:07:56.501            71.783              Murmansk1          8972.875
       230   05 Jun 2027 10:11:12.858   05 Jun 2027 10:12:04.709            51.851              Murmansk2          6481.375
       231   05 Jun 2027 10:18:00.284   05 Jun 2027 10:22:06.219           245.935                Anadyr2         30741.875
       232   05 Jun 2027 10:23:41.178   05 Jun 2027 10:24:41.802            60.624                Anadyr1          7578.000
       233   05 Jun 2027 11:41:02.947   05 Jun 2027 11:42:48.859           105.912              Murmansk1         13239.000
       234   05 Jun 2027 11:43:07.364   05 Jun 2027 11:43:31.662            24.298              Murmansk1          3037.250
       235   05 Jun 2027 11:44:08.141   05 Jun 2027 11:44:53.585            45.444              Murmansk1          5680.500
       236   05 Jun 2027 11:45:35.397   05 Jun 2027 11:45:57.011            21.614              Murmansk1          2701.750
       237   05 Jun 2027 11:50:17.218   05 Jun 2027 11:51:01.221            44.003              Murmansk2          5500.375
       238   05 Jun 2027 11:53:01.237   05 Jun 2027 11:53:58.474            57.237                Anadyr1          7154.625
       239   05 Jun 2027 11:54:56.674   05 Jun 2027 11:58:06.913           190.239                Anadyr1         23779.875
       240   05 Jun 2027 11:58:46.566   05 Jun 2027 11:59:47.857            61.291                Anadyr1          7661.375
       241   05 Jun 2027 12:02:21.265   05 Jun 2027 12:03:26.742            65.477                Anadyr2          8184.625
       242   05 Jun 2027 12:49:20.898   05 Jun 2027 12:51:32.177           131.279               CapeTown         16409.875
       243   05 Jun 2027 13:31:25.958   05 Jun 2027 13:34:25.033           179.075               Magadan1         22384.375
       244   05 Jun 2027 13:36:16.024   05 Jun 2027 13:36:46.122            30.098               Magadan1          3762.250
       245   05 Jun 2027 13:38:44.234   05 Jun 2027 13:40:43.790           119.556               Magadan2         14944.500
       246   05 Jun 2027 15:59:20.962   05 Jun 2027 16:03:30.274           249.312            RioGallegos         31164.000
       247   05 Jun 2027 16:46:51.889   05 Jun 2027 16:49:46.370           174.481                Irkutsk         21810.125
       248   05 Jun 2027 16:51:32.116   05 Jun 2027 16:52:05.175            33.059                Novosib          4132.375
       249   05 Jun 2027 17:00:40.285   05 Jun 2027 17:02:33.910           113.625                Sumatra         14203.125
       250   05 Jun 2027 17:06:44.486   05 Jun 2027 17:06:55.213            10.727                Sumatra          1340.875
       251   05 Jun 2027 17:10:04.637   05 Jun 2027 17:11:44.686           100.049                Sumatra         12506.125
       252   05 Jun 2027 18:30:31.396   05 Jun 2027 18:34:31.144           239.748                  Delhi         29968.500
       253   05 Jun 2027 20:02:44.039   05 Jun 2027 20:05:26.210           162.171                 Moscow         20271.375
       254   05 Jun 2027 21:45:32.902   05 Jun 2027 21:48:21.840           168.938                 Moscow         21117.250
       255   06 Jun 2027 03:56:47.753   06 Jun 2027 03:57:51.422            63.669                Novosib          7958.625
       256   06 Jun 2027 03:58:21.201   06 Jun 2027 04:01:02.938           161.737              Murmansk2         20217.125
       257   06 Jun 2027 05:06:33.446   06 Jun 2027 05:08:19.763           106.317                Sumatra         13289.625
       258   06 Jun 2027 05:09:15.247   06 Jun 2027 05:11:08.948           113.701                Sumatra         14212.625
       259   06 Jun 2027 05:32:22.322   06 Jun 2027 05:33:08.098            45.776              Murmansk2          5722.000
       260   06 Jun 2027 05:33:08.098   06 Jun 2027 05:35:43.696           155.598              Murmansk1         19449.750
       261   06 Jun 2027 05:35:48.451   06 Jun 2027 05:37:41.088           112.637                Norilsk         14079.625
       262   06 Jun 2027 06:12:24.920   06 Jun 2027 06:12:47.369            22.449            RioGallegos          2806.125
       263   06 Jun 2027 06:15:13.383   06 Jun 2027 06:16:07.276            53.893            RioGallegos          6736.625
       264   06 Jun 2027 06:44:05.970   06 Jun 2027 06:47:34.650           208.680                Sumatra         26085.000
       265   06 Jun 2027 06:52:40.647   06 Jun 2027 06:53:10.933            30.286                  Delhi          3785.750
       266   06 Jun 2027 06:57:46.439   06 Jun 2027 07:01:41.755           235.316                Novosib         29414.500
       267   06 Jun 2027 07:01:47.629   06 Jun 2027 07:03:03.985            76.356                 Moscow          9544.500
       268   06 Jun 2027 07:03:21.166   06 Jun 2027 07:04:38.034            76.868                Irkutsk          9608.500
       269   06 Jun 2027 07:08:19.825   06 Jun 2027 07:08:42.496            22.671              Murmansk1          2833.875
       270   06 Jun 2027 07:08:47.161   06 Jun 2027 07:11:27.586           160.425                 Moscow         20053.125
       271   06 Jun 2027 07:12:11.030   06 Jun 2027 07:12:54.516            43.486              Murmansk1          5435.750
       272   06 Jun 2027 08:29:48.747   06 Jun 2027 08:30:26.383            37.636                  Delhi          4704.500
       273   06 Jun 2027 08:32:06.967   06 Jun 2027 08:32:25.432            18.465                  Delhi          2308.125
       274   06 Jun 2027 08:37:09.080   06 Jun 2027 08:38:01.149            52.069                 Moscow          6508.625
       275   06 Jun 2027 08:43:55.034   06 Jun 2027 08:44:50.345            55.311              Murmansk1          6913.875
       276   06 Jun 2027 08:45:33.706   06 Jun 2027 08:47:47.329           133.623                 Moscow         16702.875
       277   06 Jun 2027 08:47:55.543   06 Jun 2027 08:51:17.028           201.485              Murmansk2         25185.625
       278   06 Jun 2027 09:50:54.055   06 Jun 2027 09:58:07.596           433.541               CapeTown         54192.625
       279   06 Jun 2027 10:11:30.303   06 Jun 2027 10:14:11.360           161.057                 Moscow         20132.125
       280   06 Jun 2027 10:14:54.827   06 Jun 2027 10:16:35.842           101.015              Murmansk2         12626.875
       281   06 Jun 2027 10:16:35.842   06 Jun 2027 10:20:38.409           242.567              Murmansk1         30320.875
       282   06 Jun 2027 10:20:58.161   06 Jun 2027 10:21:24.286            26.125              Murmansk1          3265.625
       283   06 Jun 2027 10:23:13.860   06 Jun 2027 10:23:52.015            38.155              Murmansk2          4769.375
       284   06 Jun 2027 10:24:13.404   06 Jun 2027 10:24:49.035            35.631              Murmansk2          4453.875
       285   06 Jun 2027 10:25:22.076   06 Jun 2027 10:26:08.370            46.294              Murmansk1          5786.750
       286   06 Jun 2027 10:26:45.817   06 Jun 2027 10:27:04.057            18.240              Murmansk2          2280.000
       287   06 Jun 2027 10:29:46.722   06 Jun 2027 10:34:02.250           255.528                Anadyr2         31941.000
       288   06 Jun 2027 10:34:28.021   06 Jun 2027 10:36:03.943            95.922                Anadyr1         11990.250
       289   06 Jun 2027 11:54:00.835   06 Jun 2027 11:57:16.187           195.352              Murmansk1         24419.000
       290   06 Jun 2027 11:58:31.534   06 Jun 2027 11:59:11.293            39.759              Murmansk2          4969.875
       291   06 Jun 2027 12:01:00.583   06 Jun 2027 12:01:17.643            17.060              Murmansk2          2132.500
       292   06 Jun 2027 12:01:26.364   06 Jun 2027 12:01:48.907            22.543              Murmansk2          2817.875
       293   06 Jun 2027 12:02:23.927   06 Jun 2027 12:03:04.374            40.447              Murmansk2          5055.875
       294   06 Jun 2027 12:05:00.732   06 Jun 2027 12:07:16.314           135.582                Anadyr2         16947.750
       295   06 Jun 2027 12:11:52.526   06 Jun 2027 12:12:44.577            52.051               Magadan1          6506.375
       296   06 Jun 2027 13:43:22.132   06 Jun 2027 13:44:55.665            93.533               Magadan1         11691.625
       297   06 Jun 2027 13:45:13.781   06 Jun 2027 13:46:28.941            75.160               Magadan2          9395.000
       298   06 Jun 2027 13:52:05.606   06 Jun 2027 13:52:22.127            16.521               Magadan1          2065.125
       299   06 Jun 2027 13:52:45.031   06 Jun 2027 13:55:05.465           140.434               Magadan2         17554.250
       300   06 Jun 2027 16:11:09.221   06 Jun 2027 16:16:54.049           344.828            RioGallegos         43103.500
       301   06 Jun 2027 17:03:53.243   06 Jun 2027 17:06:38.771           165.528                Novosib         20691.000
       302   06 Jun 2027 17:12:28.159   06 Jun 2027 17:14:03.144            94.985                Sumatra         11873.125
       303   06 Jun 2027 17:15:21.270   06 Jun 2027 17:17:14.464           113.194                Sumatra         14149.250
       304   06 Jun 2027 18:42:14.220   06 Jun 2027 18:44:14.081           119.861                  Delhi         14982.625
       305   06 Jun 2027 18:44:33.921   06 Jun 2027 18:46:29.695           115.774                  Delhi         14471.750
       306   06 Jun 2027 20:13:33.251   06 Jun 2027 20:14:39.054            65.803                 Moscow          8225.375
       307   06 Jun 2027 21:48:02.207   06 Jun 2027 21:50:50.200           167.993                 Moscow         20999.125
       308   06 Jun 2027 22:14:51.052   06 Jun 2027 22:16:35.159           104.107               CapeTown          3424.623
       309   07 Jun 2027 04:08:55.793   07 Jun 2027 04:11:58.245           182.452                Norilsk         22806.500
       310   07 Jun 2027 05:18:24.350   07 Jun 2027 05:20:06.700           102.350                Sumatra         12793.750
       311   07 Jun 2027 05:21:25.760   07 Jun 2027 05:22:23.534            57.774                Sumatra          7221.750
       312   07 Jun 2027 05:29:56.027   07 Jun 2027 05:31:59.869           123.842                  Delhi         15480.250
       313   07 Jun 2027 05:44:17.999   07 Jun 2027 05:46:20.299           122.300                 Moscow         15287.500
       314   07 Jun 2027 05:46:28.067   07 Jun 2027 05:49:42.825           194.758                Norilsk         24344.750
       315   07 Jun 2027 05:50:01.395   07 Jun 2027 05:51:58.946           117.551              Murmansk2         14693.875
       316   07 Jun 2027 06:57:13.829   07 Jun 2027 06:57:49.168            35.339                Sumatra          4417.375
       317   07 Jun 2027 07:02:31.659   07 Jun 2027 07:04:32.224           120.565                  Delhi         15070.625
       318   07 Jun 2027 07:05:10.999   07 Jun 2027 07:05:43.304            32.305                  Delhi          4038.125
       319   07 Jun 2027 07:10:03.326   07 Jun 2027 07:10:33.868            30.542                Novosib          3817.750
       320   07 Jun 2027 07:11:45.129   07 Jun 2027 07:12:10.702            25.573                  Delhi          3196.625
       321   07 Jun 2027 07:13:03.330   07 Jun 2027 07:14:25.612            82.282                Novosib         10285.250
       322   07 Jun 2027 07:14:27.699   07 Jun 2027 07:15:21.723            54.024                Irkutsk          6753.000
       323   07 Jun 2027 07:16:00.937   07 Jun 2027 07:16:35.572            34.635                 Moscow          4329.375
       324   07 Jun 2027 07:20:36.760   07 Jun 2027 07:21:23.394            46.634                Norilsk          5829.250
       325   07 Jun 2027 07:21:24.657   07 Jun 2027 07:25:57.929           273.272              Murmansk2         34159.000
       326   07 Jun 2027 08:44:00.067   07 Jun 2027 08:45:02.256            62.189                  Delhi          7773.625
       327   07 Jun 2027 08:46:59.977   07 Jun 2027 08:47:11.312            11.335                 Moscow          1416.875
       328   07 Jun 2027 08:56:58.077   07 Jun 2027 09:01:27.309           269.232                Norilsk         33654.000
       329   07 Jun 2027 09:01:29.946   07 Jun 2027 09:03:18.444           108.498              Murmansk1         13562.250
       330   07 Jun 2027 10:02:09.529   07 Jun 2027 10:11:06.920           537.391               CapeTown         67173.875
       331   07 Jun 2027 10:23:50.241   07 Jun 2027 10:33:43.675           593.434                 Moscow         74179.250
       332   07 Jun 2027 10:34:18.003   07 Jun 2027 10:36:02.857           104.854              Murmansk2         13106.750
       333   07 Jun 2027 10:36:42.932   07 Jun 2027 10:37:18.387            35.455              Murmansk2          4431.875
       334   07 Jun 2027 10:38:55.516   07 Jun 2027 10:39:16.516            21.000              Murmansk2          2625.000
       335   07 Jun 2027 10:41:37.112   07 Jun 2027 10:50:12.974           515.862                Anadyr1         64482.750
       336   07 Jun 2027 12:06:05.857   07 Jun 2027 12:11:12.893           307.036              Murmansk2         38379.500
       337   07 Jun 2027 12:17:00.671   07 Jun 2027 12:17:45.295            44.624                Anadyr2          5578.000
       338   07 Jun 2027 12:19:33.304   07 Jun 2027 12:20:08.677            35.373                Anadyr1          4421.625
       339   07 Jun 2027 12:20:55.427   07 Jun 2027 12:24:33.110           217.683               Magadan1         27210.375
       340   07 Jun 2027 13:55:19.406   07 Jun 2027 13:56:37.162            77.756               Magadan1          9719.500
       341   07 Jun 2027 13:58:30.349   07 Jun 2027 13:59:56.344            85.995               Magadan2         10749.375
       342   07 Jun 2027 15:37:10.507   07 Jun 2027 15:40:08.826           178.319                Irkutsk         22289.875
       343   07 Jun 2027 16:23:00.387   07 Jun 2027 16:24:40.499           100.112            RioGallegos         12514.000
       344   07 Jun 2027 16:25:54.240   07 Jun 2027 16:26:10.239            15.999            RioGallegos          1999.875
       345   07 Jun 2027 17:10:41.400   07 Jun 2027 17:12:25.061           103.661                Irkutsk         12957.625
       346   07 Jun 2027 17:13:11.975   07 Jun 2027 17:16:46.414           214.439                Novosib         26804.875
       347   07 Jun 2027 17:26:34.810   07 Jun 2027 17:27:28.778            53.968                Sumatra          6746.000
       348   07 Jun 2027 17:35:16.690   07 Jun 2027 17:36:31.805            75.115                Sumatra          9389.375
       349   07 Jun 2027 18:51:10.701   07 Jun 2027 18:51:41.053            30.352                Novosib          3794.000
       350   07 Jun 2027 18:54:02.168   07 Jun 2027 18:56:16.079           133.911                  Delhi         16738.875
       351   07 Jun 2027 18:56:35.582   07 Jun 2027 18:58:31.542           115.960                  Delhi         14495.000
       352   07 Jun 2027 20:25:11.262   07 Jun 2027 20:26:55.302           104.040                 Moscow         13005.000
       353   07 Jun 2027 22:01:41.123   07 Jun 2027 22:02:28.266            47.143              Murmansk2          5892.875
       354   07 Jun 2027 22:24:02.187   07 Jun 2027 22:24:52.668            50.481               CapeTown          4382.250
       355   08 Jun 2027 04:20:50.989   08 Jun 2027 04:22:04.177            73.188                Novosib          9148.500
       356   08 Jun 2027 04:22:13.102   08 Jun 2027 04:24:20.847           127.745              Murmansk1         15968.125
       357   08 Jun 2027 05:30:20.997   08 Jun 2027 05:33:10.698           169.701                Sumatra         21212.625
       358   08 Jun 2027 05:40:40.848   08 Jun 2027 05:43:43.150           182.302                  Delhi         22787.750
       359   08 Jun 2027 05:56:05.520   08 Jun 2027 05:56:43.171            37.651                 Moscow          4706.375
       360   08 Jun 2027 05:57:01.361   08 Jun 2027 05:58:41.441           100.080                 Moscow         12510.000
       361   08 Jun 2027 05:58:52.157   08 Jun 2027 06:02:13.273           201.116              Murmansk1         25139.500
       362   08 Jun 2027 06:02:13.273   08 Jun 2027 06:03:54.910           101.637              Murmansk2         12704.625
       363   08 Jun 2027 07:14:37.871   08 Jun 2027 07:17:33.337           175.466                  Delhi         21933.250
       364   08 Jun 2027 07:19:34.821   08 Jun 2027 07:20:39.660            64.839                  Delhi          8104.875
       365   08 Jun 2027 07:21:35.273   08 Jun 2027 07:22:40.190            64.917                  Delhi          8114.625
       366   08 Jun 2027 07:23:17.379   08 Jun 2027 07:26:36.191           198.812                Novosib         24851.500
       367   08 Jun 2027 07:26:55.508   08 Jun 2027 07:27:48.989            53.481                 Moscow          6685.125
       368   08 Jun 2027 07:32:35.128   08 Jun 2027 07:33:29.381            54.253                Norilsk          6781.625
       369   08 Jun 2027 07:33:39.581   08 Jun 2027 07:36:00.170           140.589              Murmansk1         17573.625
       370   08 Jun 2027 07:36:00.170   08 Jun 2027 07:36:54.937            54.767              Murmansk2          6845.875
       371   08 Jun 2027 07:37:34.812   08 Jun 2027 07:37:44.024             9.212                Norilsk          1151.500
       372   08 Jun 2027 08:58:57.445   08 Jun 2027 08:59:54.370            56.925                 Moscow          7115.625
       373   08 Jun 2027 09:08:52.977   08 Jun 2027 09:13:23.263           270.286                Norilsk         33785.750
       374   08 Jun 2027 09:13:26.281   08 Jun 2027 09:15:19.961           113.680              Murmansk1         14210.000
       375   08 Jun 2027 10:13:38.836   08 Jun 2027 10:23:50.131           611.295               CapeTown         76411.875
       376   08 Jun 2027 10:36:14.365   08 Jun 2027 10:43:15.418           421.053                 Moscow         52631.625
       377   08 Jun 2027 10:43:36.781   08 Jun 2027 10:49:16.002           339.221              Murmansk1         42402.625
       378   08 Jun 2027 10:53:30.125   08 Jun 2027 11:02:07.314           517.189                Anadyr1         64648.625
       379   08 Jun 2027 12:18:41.932   08 Jun 2027 12:21:00.041           138.109              Murmansk2         17263.625
       380   08 Jun 2027 12:29:00.983   08 Jun 2027 12:29:41.243            40.260                Anadyr2          5032.500
       381   08 Jun 2027 12:32:31.012   08 Jun 2027 12:36:27.416           236.404               Magadan2         29550.500
       382   08 Jun 2027 14:07:17.585   08 Jun 2027 14:08:23.812            66.227               Magadan1          8278.375
       383   08 Jun 2027 14:10:29.343   08 Jun 2027 14:11:56.821            87.478               Magadan2         10934.750
       384   08 Jun 2027 15:48:27.281   08 Jun 2027 15:51:57.203           209.922                Irkutsk         26240.250
       385   08 Jun 2027 15:52:51.605   08 Jun 2027 15:55:31.427           159.822                Irkutsk         19977.750
       386   08 Jun 2027 16:04:27.474   08 Jun 2027 16:05:59.247            91.773                Sumatra         11471.625
       387   08 Jun 2027 17:23:36.796   08 Jun 2027 17:25:27.464           110.668                Novosib         13833.500
       388   08 Jun 2027 17:29:14.896   08 Jun 2027 17:32:11.330           176.434                Novosib         22054.250
       389   08 Jun 2027 19:03:07.107   08 Jun 2027 19:05:24.701           137.594                Novosib         17199.250
       390   08 Jun 2027 19:05:54.364   08 Jun 2027 19:06:28.731            34.367                  Delhi          4295.875
       391   08 Jun 2027 19:08:50.324   08 Jun 2027 19:09:05.969            15.645                  Delhi          1955.625
       392   08 Jun 2027 20:36:29.111   08 Jun 2027 20:36:59.023            29.912              Murmansk1          3739.000
       393   08 Jun 2027 20:38:29.921   08 Jun 2027 20:41:04.137           154.216                 Moscow         19277.000
       394   08 Jun 2027 22:19:58.540   08 Jun 2027 22:21:34.838            96.298                 Moscow          4145.500
       395   09 Jun 2027 04:32:49.541   09 Jun 2027 04:32:51.313             1.772                Irkutsk           221.500
       396   09 Jun 2027 04:32:58.359   09 Jun 2027 04:36:11.146           192.787                Norilsk         24098.375
       397   09 Jun 2027 05:42:23.216   09 Jun 2027 05:44:25.861           122.645                Sumatra         15330.625
       398   09 Jun 2027 05:52:04.588   09 Jun 2027 05:52:58.496            53.908                  Delhi          6738.500
       399   09 Jun 2027 05:56:04.445   09 Jun 2027 05:58:31.972           147.527                  Delhi         18440.875
       400   09 Jun 2027 06:07:29.167   09 Jun 2027 06:07:55.345            26.178              Murmansk2          3272.250
       401   09 Jun 2027 06:08:45.513   09 Jun 2027 06:10:56.740           131.227                 Moscow         16403.375
       402   09 Jun 2027 06:10:57.820   09 Jun 2027 06:13:52.465           174.645              Murmansk1         21830.625
       403   09 Jun 2027 06:13:52.465   09 Jun 2027 06:15:51.505           119.040              Murmansk2         14880.000
       404   09 Jun 2027 07:26:49.824   09 Jun 2027 07:31:31.339           281.515                  Delhi         35189.375
       405   09 Jun 2027 07:33:07.879   09 Jun 2027 07:33:23.699            15.820                  Delhi          1977.500
       406   09 Jun 2027 07:37:05.556   09 Jun 2027 07:38:50.163           104.607                Novosib         13075.875
       407   09 Jun 2027 07:39:21.461   09 Jun 2027 07:39:26.296             4.835                 Moscow           604.375
       408   09 Jun 2027 07:44:22.870   09 Jun 2027 07:45:46.036            83.166                Novosib         10395.750
       409   09 Jun 2027 07:45:54.279   09 Jun 2027 07:47:44.333           110.054                 Moscow         13756.750
       410   09 Jun 2027 07:47:55.770   09 Jun 2027 07:49:40.783           105.013              Murmansk1         13126.625
       411   09 Jun 2027 07:49:40.783   09 Jun 2027 07:51:27.283           106.500              Murmansk2         13312.500
       412   09 Jun 2027 09:10:57.732   09 Jun 2027 09:12:18.018            80.286                 Moscow         10035.750
       413   09 Jun 2027 09:15:24.811   09 Jun 2027 09:16:37.995            73.184                 Moscow          9148.000
       414   09 Jun 2027 09:19:35.129   09 Jun 2027 09:23:51.840           256.711                 Moscow         32088.875
       415   09 Jun 2027 09:24:07.157   09 Jun 2027 09:25:17.019            69.862                Norilsk          8732.750
       416   09 Jun 2027 09:25:18.254   09 Jun 2027 09:27:21.560           123.306              Murmansk1         15413.250
       417   09 Jun 2027 10:26:22.904   09 Jun 2027 10:31:44.700           321.796               CapeTown         40224.500
       418   09 Jun 2027 10:50:36.502   09 Jun 2027 10:52:34.597           118.095                 Moscow         14761.875
       419   09 Jun 2027 10:52:43.547   09 Jun 2027 10:55:42.961           179.414              Murmansk1         22426.750
       420   09 Jun 2027 10:55:42.961   09 Jun 2027 11:01:14.987           332.026              Murmansk2         41503.250
       421   09 Jun 2027 11:05:25.030   09 Jun 2027 11:10:37.415           312.385                Anadyr2         39048.125
       422   09 Jun 2027 11:10:37.415   09 Jun 2027 11:11:46.911            69.496                Anadyr1          8687.000
       423   09 Jun 2027 11:13:45.686   09 Jun 2027 11:14:42.593            56.907                Anadyr1          7113.375
       424   09 Jun 2027 12:41:01.594   09 Jun 2027 12:41:38.358            36.764                Anadyr1          4595.500
       425   09 Jun 2027 12:42:35.492   09 Jun 2027 12:43:17.855            42.363                Anadyr1          5295.375
       426   09 Jun 2027 12:44:14.134   09 Jun 2027 12:44:59.268            45.134               Magadan1          5641.750
       427   09 Jun 2027 12:45:57.594   09 Jun 2027 12:47:59.906           122.312               Magadan2         15289.000
       428   09 Jun 2027 12:47:59.906   09 Jun 2027 12:48:21.896            21.990               Magadan1          2748.750
       429   09 Jun 2027 14:19:16.516   09 Jun 2027 14:20:13.893            57.377               Magadan1          7172.125
       430   09 Jun 2027 14:23:29.504   09 Jun 2027 14:23:57.716            28.212               Magadan2          3526.500
       431   09 Jun 2027 15:13:31.230   09 Jun 2027 15:16:18.976           167.746            RioGallegos         20968.250
       432   09 Jun 2027 15:59:59.640   09 Jun 2027 16:03:48.449           228.809                Irkutsk         28601.125
       433   09 Jun 2027 16:15:08.142   09 Jun 2027 16:17:38.857           150.715                Sumatra         18839.375
       434   09 Jun 2027 17:35:21.874   09 Jun 2027 17:37:18.070           116.196                Novosib         14524.500
       435   09 Jun 2027 17:45:52.556   09 Jun 2027 17:47:31.016            98.460                  Delhi         12307.500
       436   09 Jun 2027 19:17:50.274   09 Jun 2027 19:20:12.170           141.896                  Delhi         17737.000
       437   09 Jun 2027 20:48:43.536   09 Jun 2027 20:51:17.404           153.868                 Moscow         19233.500
       438   09 Jun 2027 21:15:36.794   09 Jun 2027 21:17:31.188           114.394               CapeTown         14299.250
       439   10 Jun 2027 03:08:52.750   10 Jun 2027 03:17:00.129           487.379              Murmansk1         60922.375
       440   10 Jun 2027 04:20:40.081   10 Jun 2027 04:23:31.298           171.217                Sumatra         21402.125
       441   10 Jun 2027 04:35:22.760   10 Jun 2027 04:36:31.728            68.968                Irkutsk          8621.000
       442   10 Jun 2027 04:44:36.851   10 Jun 2027 04:50:26.217           349.366              Murmansk2         43670.750
       443   10 Jun 2027 04:50:26.217   10 Jun 2027 04:52:44.176           137.959              Murmansk1         17244.875
       444   10 Jun 2027 05:20:07.295   10 Jun 2027 05:24:31.518           264.223            RioGallegos         33027.875
       445   10 Jun 2027 05:54:31.160   10 Jun 2027 05:55:51.865            80.705                Sumatra         10088.125
       446   10 Jun 2027 05:57:22.796   10 Jun 2027 05:59:23.985           121.189                Sumatra         15148.625
       447   10 Jun 2027 06:09:27.375   10 Jun 2027 06:10:52.731            85.356                Novosib         10669.500
       448   10 Jun 2027 06:12:23.209   10 Jun 2027 06:13:09.770            46.561                Irkutsk          5820.125
       449   10 Jun 2027 06:19:16.341   10 Jun 2027 06:19:21.523             5.182              Murmansk2           647.750
       450   10 Jun 2027 06:20:37.933   10 Jun 2027 06:21:07.941            30.008                Norilsk          3751.000
       451   10 Jun 2027 06:21:14.273   10 Jun 2027 06:25:40.535           266.262              Murmansk1         33282.750
       452   10 Jun 2027 06:25:40.535   10 Jun 2027 06:26:26.053            45.518              Murmansk2          5689.750
       453   10 Jun 2027 07:39:08.140   10 Jun 2027 07:46:25.784           437.644                  Delhi         54705.500
       454   10 Jun 2027 07:46:37.652   10 Jun 2027 07:49:02.533           144.881                  Delhi         18110.125
       455   10 Jun 2027 07:49:05.688   10 Jun 2027 07:51:07.766           122.078                Novosib         15259.750
       456   10 Jun 2027 07:56:26.488   10 Jun 2027 08:00:13.046           226.558              Murmansk2         28319.750
       457   10 Jun 2027 08:00:13.046   10 Jun 2027 08:00:52.097            39.051              Murmansk1          4881.375
       458   10 Jun 2027 08:01:02.975   10 Jun 2027 08:01:46.082            43.107                Norilsk          5388.375
       459   10 Jun 2027 08:02:22.866   10 Jun 2027 08:03:27.732            64.866              Murmansk1          8108.250
       460   10 Jun 2027 09:26:17.418   10 Jun 2027 09:27:08.337            50.919                 Moscow          6364.875
       461   10 Jun 2027 09:27:11.184   10 Jun 2027 09:29:02.092           110.908              Murmansk1         13863.500
       462   10 Jun 2027 09:31:22.218   10 Jun 2027 09:39:23.215           480.997              Murmansk2         60124.625
       463   10 Jun 2027 10:41:59.701   10 Jun 2027 10:43:03.527            63.826               CapeTown          7978.250
       464   10 Jun 2027 11:02:54.895   10 Jun 2027 11:04:55.307           120.412                 Moscow         15051.500
       465   10 Jun 2027 11:05:23.635   10 Jun 2027 11:12:46.016           442.381              Murmansk1         55297.625
       466   10 Jun 2027 11:13:15.394   10 Jun 2027 11:13:55.610            40.216              Murmansk2          5027.000
       467   10 Jun 2027 11:17:21.336   10 Jun 2027 11:24:00.719           399.383                Anadyr2         49922.875
       468   10 Jun 2027 11:25:05.407   10 Jun 2027 11:26:43.428            98.021                Anadyr2         12252.625
       469   10 Jun 2027 12:44:05.567   10 Jun 2027 12:45:27.879            82.312              Murmansk1         10289.000
       470   10 Jun 2027 12:56:01.843   10 Jun 2027 13:01:50.731           348.888               Magadan1         43611.000
       471   10 Jun 2027 14:31:16.081   10 Jun 2027 14:31:16.375             0.294               Magadan2            36.750
       472   10 Jun 2027 15:24:42.478   10 Jun 2027 15:28:06.482           204.004            RioGallegos         25500.500
       473   10 Jun 2027 16:12:37.883   10 Jun 2027 16:13:47.889            70.006                Irkutsk          8750.750
       474   10 Jun 2027 16:17:46.690   10 Jun 2027 16:18:01.034            14.344                Irkutsk          1793.000
       475   10 Jun 2027 16:26:16.657   10 Jun 2027 16:29:25.333           188.676                Sumatra         23584.500
       476   10 Jun 2027 17:47:10.703   10 Jun 2027 17:49:48.197           157.494                Novosib         19686.750
       477   10 Jun 2027 17:56:30.191   10 Jun 2027 17:59:12.539           162.348                  Delhi         20293.500
       478   10 Jun 2027 19:30:40.031   10 Jun 2027 19:31:24.610            44.579                  Delhi          5572.375
       479   10 Jun 2027 21:01:36.964   10 Jun 2027 21:01:54.354            17.390              Murmansk2          2173.750
       480   10 Jun 2027 21:02:17.780   10 Jun 2027 21:03:15.384            57.604              Murmansk1          7200.500
       481   10 Jun 2027 21:03:23.646   10 Jun 2027 21:04:10.164            46.518                 Moscow          5814.750
       482   10 Jun 2027 21:26:28.860   10 Jun 2027 21:27:13.560            44.700               CapeTown          5587.500
