uniorb/output/strategy_4/Camera/Camera_KinoSat_110808.txt

KinoSat_110808
-------------------------
    Access    *     Start Time (UTCG)     *     Stop Time (UTCG)  *   Duration (s) *   Data (Mbytes)
         1   01 Jun 2027 03:06:20.817   01 Jun 2027 03:07:14.108            53.291         26645.500
         2   01 Jun 2027 03:08:01.172   01 Jun 2027 03:08:01.172             0.000             0.000
         3   01 Jun 2027 04:42:49.844   01 Jun 2027 04:44:58.744           128.900         64450.000
         4   01 Jun 2027 06:17:54.840   01 Jun 2027 06:19:25.482            90.642         45321.000
         5   01 Jun 2027 06:20:44.539   01 Jun 2027 06:20:51.347             6.808          3404.000
         6   01 Jun 2027 06:22:54.263   01 Jun 2027 06:23:22.079            27.816         13908.000
         7   01 Jun 2027 06:23:26.879   01 Jun 2027 06:23:31.559             4.680          2340.000
         8   01 Jun 2027 06:24:10.521   01 Jun 2027 06:24:14.210             3.689          1844.500
         9   01 Jun 2027 06:24:33.069   01 Jun 2027 06:24:37.607             4.538          2269.000
        10   01 Jun 2027 07:54:16.838   01 Jun 2027 07:57:01.791           164.953         82476.500
        11   01 Jun 2027 07:58:46.242   01 Jun 2027 07:58:54.564             8.322          4161.000
        12   01 Jun 2027 09:31:46.999   01 Jun 2027 09:34:11.450           144.451         72225.500
        13   01 Jun 2027 09:35:31.114   01 Jun 2027 09:36:13.132            42.018         21009.000
        14   01 Jun 2027 11:07:51.708   01 Jun 2027 11:10:34.992           163.284         81642.000
        15   02 Jun 2027 03:18:16.657   02 Jun 2027 03:18:40.664            24.007         12003.500
        16   02 Jun 2027 03:19:00.919   02 Jun 2027 03:19:05.532             4.613          2306.500
        17   02 Jun 2027 03:21:19.933   02 Jun 2027 03:21:19.933             0.000             0.000
        18   02 Jun 2027 04:54:54.384   02 Jun 2027 04:57:34.882           160.498         80249.000
        19   02 Jun 2027 06:30:04.880   02 Jun 2027 06:34:02.195           237.315        118657.500
        20   02 Jun 2027 06:34:23.769   02 Jun 2027 06:34:36.912            13.143          6571.500
        21   02 Jun 2027 06:34:51.662   02 Jun 2027 06:34:51.662             0.000             0.000
        22   02 Jun 2027 06:36:25.448   02 Jun 2027 06:36:39.564            14.116          7058.000
        23   02 Jun 2027 08:06:19.191   02 Jun 2027 08:09:39.950           200.759        100379.500
        24   02 Jun 2027 08:10:12.562   02 Jun 2027 08:10:21.306             8.744          4355.312
        25   02 Jun 2027 09:43:52.610   02 Jun 2027 09:44:22.697            30.087         12425.469
        26   02 Jun 2027 09:45:01.804   02 Jun 2027 09:45:02.711             0.907            40.812
        27   02 Jun 2027 09:47:21.486   02 Jun 2027 09:47:24.250             2.764            56.719
        28   02 Jun 2027 09:47:51.510   02 Jun 2027 09:47:52.926             1.416            33.094
        29   02 Jun 2027 09:48:16.185   02 Jun 2027 09:48:17.457             1.272           435.875
        30   02 Jun 2027 11:19:53.925   02 Jun 2027 11:20:08.890            14.965          6849.312
        31   02 Jun 2027 11:22:12.472   02 Jun 2027 11:22:13.899             1.427           478.938
        32   03 Jun 2027 03:30:52.314   03 Jun 2027 03:30:55.851             3.537          1768.500
        33   03 Jun 2027 03:31:10.752   03 Jun 2027 03:31:10.752             0.000             0.000
        34   03 Jun 2027 03:31:46.993   03 Jun 2027 03:31:52.571             5.578          2789.000
        35   03 Jun 2027 03:33:20.548   03 Jun 2027 03:33:25.210             4.662          2331.000
        36   03 Jun 2027 05:06:38.150   03 Jun 2027 05:09:56.303           198.153         99076.500
        37   03 Jun 2027 05:10:45.940   03 Jun 2027 05:10:52.054             6.114          3057.000
        38   03 Jun 2027 06:41:29.091   03 Jun 2027 06:42:56.921            87.830         43697.375
        39   03 Jun 2027 06:43:30.864   03 Jun 2027 06:43:33.141             2.277           800.813
        40   03 Jun 2027 06:44:52.211   03 Jun 2027 06:44:54.446             2.235           432.313
        41   03 Jun 2027 06:45:47.634   03 Jun 2027 06:45:51.765             4.131          1662.125
        42   03 Jun 2027 06:46:54.642   03 Jun 2027 06:46:56.126             1.484           564.344
        43   03 Jun 2027 06:47:39.077   03 Jun 2027 06:47:47.282             8.205           256.875
        44   03 Jun 2027 06:48:27.638   03 Jun 2027 06:48:28.801             1.163           543.563
        45   03 Jun 2027 08:18:04.921   03 Jun 2027 08:18:08.247             3.326          1017.188
        46   03 Jun 2027 08:19:32.996   03 Jun 2027 08:19:34.777             1.781           754.938
        47   03 Jun 2027 08:20:00.363   03 Jun 2027 08:20:00.634             0.271           114.531
        48   03 Jun 2027 08:20:56.455   03 Jun 2027 08:20:58.374             1.919           352.719
        49   03 Jun 2027 08:21:29.317   03 Jun 2027 08:21:31.487             2.170           410.000
        50   03 Jun 2027 08:22:46.275   03 Jun 2027 08:22:49.161             2.886           766.875
        51   03 Jun 2027 08:23:32.762   03 Jun 2027 08:23:33.722             0.960           474.250
        52   03 Jun 2027 09:56:22.592   03 Jun 2027 09:56:37.261            14.669          7333.906
        53   03 Jun 2027 09:58:12.380   03 Jun 2027 09:58:14.514             2.134           764.937
        54   03 Jun 2027 09:59:30.171   03 Jun 2027 09:59:36.760             6.589          2336.375
        55   03 Jun 2027 09:59:54.418   03 Jun 2027 09:59:58.890             4.472           551.812
        56   03 Jun 2027 10:00:03.646   03 Jun 2027 10:00:05.687             2.041             9.375
        57   03 Jun 2027 11:29:43.219   03 Jun 2027 11:29:53.026             9.807          4903.500
        58   03 Jun 2027 11:31:42.451   03 Jun 2027 11:31:46.512             4.061          1824.656
        59   04 Jun 2027 03:41:31.235   04 Jun 2027 03:41:38.718             7.483          3741.500
        60   04 Jun 2027 03:42:13.413   04 Jun 2027 03:42:13.413             0.000             0.000
        61   04 Jun 2027 03:43:18.048   04 Jun 2027 03:43:44.890            26.842         13421.000
        62   04 Jun 2027 05:16:50.482   04 Jun 2027 05:17:50.399            59.917         29958.500
        63   04 Jun 2027 05:18:22.783   04 Jun 2027 05:19:55.693            92.910         46455.000
        64   04 Jun 2027 05:20:51.204   04 Jun 2027 05:22:14.866            83.662         41831.000
        65   04 Jun 2027 06:53:21.912   04 Jun 2027 06:54:21.210            59.298         28764.093
        66   04 Jun 2027 06:55:08.400   04 Jun 2027 06:55:10.183             1.783           575.281
        67   04 Jun 2027 06:56:09.039   04 Jun 2027 06:56:09.489             0.450           212.625
        68   04 Jun 2027 06:56:30.876   04 Jun 2027 06:56:35.233             4.357           497.750
        69   04 Jun 2027 06:56:57.779   04 Jun 2027 06:56:57.779             0.000             0.000
        70   04 Jun 2027 06:57:22.228   04 Jun 2027 06:57:25.195             2.967           875.719
        71   04 Jun 2027 06:58:57.499   04 Jun 2027 06:59:02.649             5.150           684.000
        72   04 Jun 2027 06:59:16.078   04 Jun 2027 06:59:18.514             2.436           127.531
        73   04 Jun 2027 07:00:01.590   04 Jun 2027 07:00:04.159             2.569           879.813
        74   04 Jun 2027 07:00:23.006   04 Jun 2027 07:00:25.939             2.933           588.969
        75   04 Jun 2027 08:30:26.006   04 Jun 2027 08:30:30.460             4.454          2144.281
        76   04 Jun 2027 08:31:23.771   04 Jun 2027 08:31:25.757             1.986           664.281
        77   04 Jun 2027 08:32:45.417   04 Jun 2027 08:32:48.452             3.035          1230.375
        78   04 Jun 2027 08:33:18.713   04 Jun 2027 08:33:21.775             3.062           443.156
        79   04 Jun 2027 08:34:24.358   04 Jun 2027 08:34:25.684             1.326           574.781
        80   04 Jun 2027 08:34:39.077   04 Jun 2027 08:34:40.039             0.962           418.531
        81   04 Jun 2027 08:35:55.169   04 Jun 2027 08:35:56.968             1.799           407.562
        82   04 Jun 2027 10:08:20.288   04 Jun 2027 10:08:35.318            15.030          6293.344
        83   04 Jun 2027 10:09:43.363   04 Jun 2027 10:09:49.792             6.429          1945.312
        84   04 Jun 2027 10:10:11.836   04 Jun 2027 10:10:13.477             1.641           565.750
        85   04 Jun 2027 10:11:55.783   04 Jun 2027 10:11:56.957             1.174           515.781
        86   04 Jun 2027 10:12:04.884   04 Jun 2027 10:12:05.672             0.788           142.469
        87   04 Jun 2027 11:41:32.575   04 Jun 2027 11:41:45.062            12.487          5491.563
        88   05 Jun 2027 03:53:06.966   05 Jun 2027 03:53:20.111            13.145          6572.500
        89   05 Jun 2027 03:53:42.315   05 Jun 2027 03:54:13.396            31.081         15540.500
        90   05 Jun 2027 03:56:43.783   05 Jun 2027 03:56:43.783             0.000             0.000
        91   05 Jun 2027 05:28:00.467   05 Jun 2027 05:30:04.485           124.018         62009.000
        92   05 Jun 2027 05:30:10.256   05 Jun 2027 05:31:10.023            59.767         29883.500
        93   05 Jun 2027 05:31:57.359   05 Jun 2027 05:32:07.182             9.823          4911.500
        94   05 Jun 2027 05:35:00.628   05 Jun 2027 05:35:14.732            14.104          7052.000
        95   05 Jun 2027 05:36:05.130   05 Jun 2027 05:36:30.830            25.700         12850.000
        96   05 Jun 2027 07:05:34.421   05 Jun 2027 07:06:34.800            60.379         27858.281
        97   05 Jun 2027 07:07:11.472   05 Jun 2027 07:07:14.447             2.975           671.594
        98   05 Jun 2027 07:08:41.652   05 Jun 2027 07:08:53.703            12.051          2159.219
        99   05 Jun 2027 07:09:01.140   05 Jun 2027 07:09:02.972             1.832           162.969
       100   05 Jun 2027 07:10:33.873   05 Jun 2027 07:10:40.744             6.871          2044.969
       101   05 Jun 2027 07:11:00.212   05 Jun 2027 07:11:02.965             2.753           159.375
       102   05 Jun 2027 07:12:33.476   05 Jun 2027 07:12:40.329             6.853          1470.031
       103   05 Jun 2027 08:42:17.087   05 Jun 2027 08:42:28.538            11.451          4923.875
       104   05 Jun 2027 08:43:12.909   05 Jun 2027 08:43:15.868             2.959           590.656
       105   05 Jun 2027 08:44:15.271   05 Jun 2027 08:44:21.645             6.374          1801.594
       106   05 Jun 2027 08:45:38.103   05 Jun 2027 08:45:43.907             5.804          1669.000
       107   05 Jun 2027 08:46:17.836   05 Jun 2027 08:46:20.131             2.295           380.844
       108   05 Jun 2027 08:46:21.001   05 Jun 2027 08:46:24.328             3.327            27.188
       109   05 Jun 2027 08:47:08.484   05 Jun 2027 08:47:11.998             3.514          1308.563
       110   05 Jun 2027 08:48:14.384   05 Jun 2027 08:48:18.187             3.803          1434.312
       111   05 Jun 2027 08:48:37.166   05 Jun 2027 08:48:39.673             2.507           236.906
       112   05 Jun 2027 10:20:20.125   05 Jun 2027 10:20:36.514            16.389          5701.094
       113   05 Jun 2027 10:21:59.001   05 Jun 2027 10:22:02.987             3.986          1626.281
       114   05 Jun 2027 10:23:05.685   05 Jun 2027 10:23:09.211             3.526          1726.656
       115   05 Jun 2027 10:23:37.072   05 Jun 2027 10:23:38.321             1.249            40.563
       116   05 Jun 2027 10:23:53.414   05 Jun 2027 10:23:58.660             5.246           200.094
       117   05 Jun 2027 10:24:18.889   05 Jun 2027 10:24:21.764             2.875           632.156
       118   05 Jun 2027 11:53:57.804   05 Jun 2027 11:54:00.784             2.980           457.063
       119   06 Jun 2027 04:04:35.915   06 Jun 2027 04:05:02.389            26.474         13237.000
       120   06 Jun 2027 04:05:06.917   06 Jun 2027 04:05:28.403            21.486         10743.000
       121   06 Jun 2027 04:09:09.213   06 Jun 2027 04:09:16.281             7.068          3534.000
       122   06 Jun 2027 05:39:31.185   06 Jun 2027 05:42:08.882           157.697         78848.500
       123   06 Jun 2027 05:42:43.715   06 Jun 2027 05:43:02.830            19.115          9557.500
       124   06 Jun 2027 05:43:40.333   06 Jun 2027 05:43:46.137             5.804          2902.000
       125   06 Jun 2027 05:47:14.857   06 Jun 2027 05:47:26.439            11.582          5791.000
       126   06 Jun 2027 05:48:25.787   06 Jun 2027 05:48:28.980             3.193          1596.500
       127   06 Jun 2027 05:48:44.109   06 Jun 2027 05:48:44.109             0.000             0.000
       128   06 Jun 2027 07:17:28.359   06 Jun 2027 07:19:01.735            93.376         46677.345
       129   06 Jun 2027 07:19:54.107   06 Jun 2027 07:20:02.462             8.355           641.875
       130   06 Jun 2027 07:20:40.787   06 Jun 2027 07:20:40.787             0.000             0.000
       131   06 Jun 2027 07:21:21.329   06 Jun 2027 07:21:27.714             6.385          2159.688
       132   06 Jun 2027 07:22:31.226   06 Jun 2027 07:22:38.096             6.870          1684.188
       133   06 Jun 2027 07:23:02.738   06 Jun 2027 07:23:04.394             1.656           702.312
       134   06 Jun 2027 08:54:22.960   06 Jun 2027 08:54:35.151            12.191          4971.313
       135   06 Jun 2027 08:56:23.283   06 Jun 2027 08:56:27.807             4.524          2147.594
       136   06 Jun 2027 08:57:47.346   06 Jun 2027 08:57:56.166             8.820          1925.594
       137   06 Jun 2027 08:58:50.822   06 Jun 2027 08:58:54.829             4.007            72.062
       138   06 Jun 2027 09:00:20.087   06 Jun 2027 09:00:29.696             9.609          2125.000
       139   06 Jun 2027 10:32:06.361   06 Jun 2027 10:32:18.062            11.701          5593.906
       140   06 Jun 2027 10:32:38.546   06 Jun 2027 10:32:39.676             1.130           148.219
       141   06 Jun 2027 10:35:59.928   06 Jun 2027 10:36:01.661             1.733           168.469
       142   06 Jun 2027 10:36:15.326   06 Jun 2027 10:36:18.174             2.848           424.687
       143   07 Jun 2027 04:18:39.958   07 Jun 2027 04:19:22.614            42.656         21328.000
       144   07 Jun 2027 04:19:33.726   07 Jun 2027 04:19:49.581            15.855          7927.500
       145   07 Jun 2027 04:21:52.303   07 Jun 2027 04:21:55.402             3.099          1549.500
       146   07 Jun 2027 05:52:24.480   07 Jun 2027 05:55:19.107           174.627         87313.500
       147   07 Jun 2027 05:55:30.899   07 Jun 2027 05:55:42.093            11.194          5597.000
       148   07 Jun 2027 05:57:21.119   07 Jun 2027 05:57:28.225             7.106          3553.000
       149   07 Jun 2027 05:59:14.009   07 Jun 2027 05:59:36.732            22.723         11361.500
       150   07 Jun 2027 06:00:46.599   07 Jun 2027 06:00:58.780            12.181          6090.500
       151   07 Jun 2027 07:29:49.377   07 Jun 2027 07:30:22.244            32.867         16340.343
       152   07 Jun 2027 07:32:58.329   07 Jun 2027 07:33:05.993             7.664          1893.000
       153   07 Jun 2027 07:33:07.844   07 Jun 2027 07:33:09.546             1.702            57.844
       154   07 Jun 2027 07:33:46.879   07 Jun 2027 07:33:49.063             2.184           148.312
       155   07 Jun 2027 07:35:08.554   07 Jun 2027 07:35:12.462             3.908          1720.594
       156   07 Jun 2027 07:35:41.120   07 Jun 2027 07:35:44.253             3.133           277.688
       157   07 Jun 2027 09:06:53.032   07 Jun 2027 09:07:03.569            10.537          5032.813
       158   07 Jun 2027 09:08:00.862   07 Jun 2027 09:08:04.765             3.903          1444.125
       159   07 Jun 2027 09:08:39.813   07 Jun 2027 09:08:40.464             0.651           298.469
       160   07 Jun 2027 09:09:37.590   07 Jun 2027 09:09:40.361             2.771          1260.594
       161   07 Jun 2027 09:10:22.760   07 Jun 2027 09:10:27.306             4.546          1245.937
       162   07 Jun 2027 09:11:17.183   07 Jun 2027 09:11:19.221             2.038           379.219
       163   07 Jun 2027 09:12:23.093   07 Jun 2027 09:12:27.544             4.451          1949.281
       164   07 Jun 2027 10:43:38.005   07 Jun 2027 10:43:48.464            10.459          5059.250
       165   07 Jun 2027 10:45:51.776   07 Jun 2027 10:45:53.985             2.209           760.000
       166   07 Jun 2027 10:46:49.248   07 Jun 2027 10:46:50.903             1.655           101.469
       167   07 Jun 2027 10:47:33.927   07 Jun 2027 10:47:36.448             2.521           884.688
       168   07 Jun 2027 10:48:01.962   07 Jun 2027 10:48:07.852             5.890           783.250
       169   08 Jun 2027 04:30:54.362   08 Jun 2027 04:32:21.655            87.293         43646.500
       170   08 Jun 2027 04:33:15.014   08 Jun 2027 04:33:57.249            42.235         21117.500
       171   08 Jun 2027 04:34:25.917   08 Jun 2027 04:34:29.259             3.342          1671.000
       172   08 Jun 2027 06:04:58.408   08 Jun 2027 06:07:30.174           151.766         75883.000
       173   08 Jun 2027 06:08:22.617   08 Jun 2027 06:08:28.491             5.874          2913.938
       174   08 Jun 2027 06:10:45.522   08 Jun 2027 06:10:51.486             5.964          2982.000
       175   08 Jun 2027 06:12:48.901   08 Jun 2027 06:12:56.079             7.178          3589.000
       176   08 Jun 2027 07:42:02.814   08 Jun 2027 07:42:07.669             4.855          2112.937
       177   08 Jun 2027 07:44:51.966   08 Jun 2027 07:44:53.783             1.817           565.281
       178   08 Jun 2027 07:45:17.152   08 Jun 2027 07:45:22.746             5.594           710.969
       179   08 Jun 2027 07:45:43.103   08 Jun 2027 07:45:55.457            12.354           336.031
       180   08 Jun 2027 07:47:36.322   08 Jun 2027 07:47:42.202             5.880          2360.000
       181   08 Jun 2027 07:47:46.266   08 Jun 2027 07:47:52.337             6.071            82.469
       182   08 Jun 2027 07:48:15.457   08 Jun 2027 07:48:18.973             3.516           295.438
       183   08 Jun 2027 07:48:32.235   08 Jun 2027 07:48:33.580             1.345           160.125
       184   08 Jun 2027 09:18:58.668   08 Jun 2027 09:19:13.233            14.565          5913.781
       185   08 Jun 2027 09:23:51.880   08 Jun 2027 09:23:55.217             3.337           590.750
       186   08 Jun 2027 10:55:45.121   08 Jun 2027 10:55:58.113            12.992          6011.375
       187   08 Jun 2027 10:57:59.412   08 Jun 2027 10:58:02.725             3.313           773.375
       188   08 Jun 2027 11:00:00.451   08 Jun 2027 11:00:02.513             2.062           337.812
       189   08 Jun 2027 11:00:24.105   08 Jun 2027 11:00:25.513             1.408           674.750
       190   09 Jun 2027 03:06:35.808   09 Jun 2027 03:06:54.262            18.454          9227.000
       191   09 Jun 2027 03:09:11.373   09 Jun 2027 03:09:11.373             0.000             0.000
       192   09 Jun 2027 04:43:04.742   09 Jun 2027 04:46:00.593           175.851         87925.500
       193   09 Jun 2027 04:46:25.779   09 Jun 2027 04:46:34.822             9.043          4521.500
       194   09 Jun 2027 06:18:10.048   09 Jun 2027 06:19:45.700            95.652         47653.219
       195   09 Jun 2027 06:20:59.471   09 Jun 2027 06:21:03.451             3.980          1550.531
       196   09 Jun 2027 06:21:03.959   09 Jun 2027 06:21:06.067             2.108            15.563
       197   09 Jun 2027 06:21:34.696   09 Jun 2027 06:21:38.254             3.558           894.656
       198   09 Jun 2027 06:22:02.596   09 Jun 2027 06:22:04.651             2.055           534.750
       199   09 Jun 2027 06:24:01.041   09 Jun 2027 06:24:06.272             5.231          2152.937
       200   09 Jun 2027 06:24:12.956   09 Jun 2027 06:24:12.956             0.000             0.000
       201   09 Jun 2027 06:24:29.716   09 Jun 2027 06:24:31.251             1.535           529.187
       202   09 Jun 2027 06:24:41.935   09 Jun 2027 06:24:44.018             2.083            58.656
       203   09 Jun 2027 07:54:32.163   09 Jun 2027 07:54:37.158             4.995          1160.719
       204   09 Jun 2027 07:57:35.644   09 Jun 2027 07:57:38.223             2.579          1203.750
       205   09 Jun 2027 07:57:57.317   09 Jun 2027 07:57:57.999             0.682           312.000
       206   09 Jun 2027 07:59:29.720   09 Jun 2027 07:59:35.011             5.291          1955.344
       207   09 Jun 2027 07:59:57.982   09 Jun 2027 08:00:01.316             3.334            98.813
       208   09 Jun 2027 08:00:33.409   09 Jun 2027 08:00:34.660             1.251           373.375
       209   09 Jun 2027 09:32:01.400   09 Jun 2027 09:32:12.666            11.266          5513.594
       210   09 Jun 2027 09:33:22.033   09 Jun 2027 09:33:22.481             0.448             5.875
       211   09 Jun 2027 09:35:49.998   09 Jun 2027 09:35:53.260             3.262            27.812
       212   09 Jun 2027 09:36:03.679   09 Jun 2027 09:36:05.064             1.385           219.812
       213   09 Jun 2027 09:36:25.701   09 Jun 2027 09:36:26.719             1.018           450.000
       214   09 Jun 2027 11:08:06.776   09 Jun 2027 11:08:17.793            11.017          5137.563
       215   10 Jun 2027 03:18:31.490   10 Jun 2027 03:18:56.493            25.003         12501.500
       216   10 Jun 2027 03:19:14.438   10 Jun 2027 03:19:14.438             0.000             0.000
       217   10 Jun 2027 03:19:18.162   10 Jun 2027 03:19:21.119             2.957          1478.500
       218   10 Jun 2027 04:55:09.088   10 Jun 2027 04:58:34.144           205.056        102528.000
       219   10 Jun 2027 06:30:19.553   10 Jun 2027 06:31:31.606            72.053         35286.375
       220   10 Jun 2027 06:32:48.632   10 Jun 2027 06:32:54.208             5.576          1822.594
       221   10 Jun 2027 06:33:06.381   10 Jun 2027 06:33:09.206             2.825           317.250
       222   10 Jun 2027 06:33:18.895   10 Jun 2027 06:33:20.834             1.939           302.781
       223   10 Jun 2027 06:35:08.761   10 Jun 2027 06:35:15.009             6.248           513.156
       224   10 Jun 2027 08:06:33.186   10 Jun 2027 08:06:38.360             5.174          1742.344
       225   10 Jun 2027 08:08:34.405   10 Jun 2027 08:08:40.950             6.545          1067.063
       226   10 Jun 2027 08:08:59.061   10 Jun 2027 08:09:00.718             1.657            44.437
       227   10 Jun 2027 08:10:32.633   10 Jun 2027 08:10:36.285             3.652           156.281
       228   10 Jun 2027 08:11:50.624   10 Jun 2027 08:11:51.421             0.797           296.344
       229   10 Jun 2027 09:44:07.565   10 Jun 2027 09:44:19.440            11.875          5847.844
       230   10 Jun 2027 09:45:15.427   10 Jun 2027 09:45:16.403             0.976           264.938
       231   10 Jun 2027 09:47:37.369   10 Jun 2027 09:47:38.670             1.301            25.187
       232   10 Jun 2027 09:48:07.059   10 Jun 2027 09:48:07.261             0.202            46.750
       233   10 Jun 2027 09:48:31.312   10 Jun 2027 09:48:32.232             0.920           225.687
       234   10 Jun 2027 11:20:08.892   10 Jun 2027 11:20:21.526            12.634          6288.313
       235   10 Jun 2027 11:21:58.847   10 Jun 2027 11:22:00.618             1.771           160.906
       236   11 Jun 2027 03:31:06.879   11 Jun 2027 03:31:12.824             5.945          2972.500
       237   11 Jun 2027 03:32:31.837   11 Jun 2027 03:32:59.104            27.267         13633.500
       238   11 Jun 2027 05:06:53.180   11 Jun 2027 05:10:19.542           206.362        103181.000
       239   11 Jun 2027 06:41:43.628   11 Jun 2027 06:42:59.824            76.196         33945.625
       240   11 Jun 2027 06:43:46.500   11 Jun 2027 06:43:49.181             2.681           744.906
       241   11 Jun 2027 06:44:53.915   11 Jun 2027 06:44:54.958             1.043            67.906
       242   11 Jun 2027 06:45:12.459   11 Jun 2027 06:45:12.789             0.330           120.531
       243   11 Jun 2027 06:46:51.989   11 Jun 2027 06:46:57.684             5.695          2415.031
       244   11 Jun 2027 06:47:46.663   11 Jun 2027 06:47:52.238             5.575          1091.625
       245   11 Jun 2027 06:48:29.902   11 Jun 2027 06:48:35.775             5.873          1083.031
       246   11 Jun 2027 06:48:55.617   11 Jun 2027 06:48:56.090             0.473           147.500
       247   11 Jun 2027 08:18:19.716   11 Jun 2027 08:18:25.188             5.472          2137.500
       248   11 Jun 2027 08:19:48.084   11 Jun 2027 08:19:55.304             7.220           769.219
       249   11 Jun 2027 08:20:11.282   11 Jun 2027 08:20:12.039             0.757           280.000
       250   11 Jun 2027 08:21:15.516   11 Jun 2027 08:21:20.326             4.810           479.188
       251   11 Jun 2027 08:21:44.426   11 Jun 2027 08:21:46.166             1.740           425.906
       252   11 Jun 2027 08:22:37.319   11 Jun 2027 08:22:39.462             2.143           974.625
       253   11 Jun 2027 08:23:48.450   11 Jun 2027 08:23:55.258             6.808           504.844
       254   11 Jun 2027 09:56:37.556   11 Jun 2027 09:56:51.668            14.112          6824.375
       255   11 Jun 2027 09:58:04.527   11 Jun 2027 09:58:08.892             4.365          2005.812
       256   11 Jun 2027 09:58:31.099   11 Jun 2027 09:58:31.401             0.302           116.594
       257   11 Jun 2027 09:59:47.746   11 Jun 2027 09:59:53.259             5.513          2198.625
       258   11 Jun 2027 10:00:31.456   11 Jun 2027 10:00:32.276             0.820           410.000
       259   11 Jun 2027 11:29:57.642   11 Jun 2027 11:30:09.289            11.647          5823.500
       260   11 Jun 2027 11:31:57.247   11 Jun 2027 11:32:00.900             3.653           893.468
       261   12 Jun 2027 03:41:46.013   12 Jun 2027 03:41:55.338             9.325          4662.500
       262   12 Jun 2027 03:44:08.103   12 Jun 2027 03:44:15.130             7.027          3513.500
       263   12 Jun 2027 03:45:37.782   12 Jun 2027 03:45:41.248             3.466          1733.000
       264   12 Jun 2027 05:17:03.143   12 Jun 2027 05:18:05.676            62.533         31266.500
       265   12 Jun 2027 05:18:37.106   12 Jun 2027 05:20:10.333            93.227         46613.500
       266   12 Jun 2027 05:21:06.452   12 Jun 2027 05:21:51.000            44.548         22274.000
       267   12 Jun 2027 05:22:15.817   12 Jun 2027 05:22:55.041            39.224         19612.000
       268   12 Jun 2027 06:53:37.353   12 Jun 2027 06:54:34.860            57.507         28705.626
       269   12 Jun 2027 06:55:25.815   12 Jun 2027 06:55:28.129             2.314           628.875
       270   12 Jun 2027 06:56:25.257   12 Jun 2027 06:56:28.912             3.655           227.594
       271   12 Jun 2027 06:57:10.580   12 Jun 2027 06:57:12.586             2.006           777.313
       272   12 Jun 2027 06:57:38.435   12 Jun 2027 06:57:39.892             1.457           707.625
       273   12 Jun 2027 06:59:14.572   12 Jun 2027 06:59:17.986             3.414           736.906
       274   12 Jun 2027 06:59:32.567   12 Jun 2027 06:59:35.445             2.878           143.625
       275   12 Jun 2027 07:00:16.118   12 Jun 2027 07:00:18.873             2.755           824.219
       276   12 Jun 2027 07:00:56.394   12 Jun 2027 07:00:59.900             3.506          1172.531
       277   12 Jun 2027 08:30:40.847   12 Jun 2027 08:30:53.569            12.722          2973.750
       278   12 Jun 2027 08:31:38.958   12 Jun 2027 08:31:43.377             4.419           682.625
       279   12 Jun 2027 08:32:22.873   12 Jun 2027 08:32:26.323             3.450           898.250
       280   12 Jun 2027 08:33:40.790   12 Jun 2027 08:33:44.694             3.904          1261.969
       281   12 Jun 2027 08:34:39.407   12 Jun 2027 08:34:41.240             1.833           572.062
       282   12 Jun 2027 08:34:53.478   12 Jun 2027 08:34:54.909             1.431           382.438
       283   12 Jun 2027 08:35:20.210   12 Jun 2027 08:35:26.239             6.029           790.656
       284   12 Jun 2027 08:36:10.363   12 Jun 2027 08:36:12.063             1.700           349.531
       285   12 Jun 2027 10:08:35.121   12 Jun 2027 10:08:48.137            13.016          6332.250
       286   12 Jun 2027 10:12:19.520   12 Jun 2027 10:12:21.681             2.161          1017.906
       287   12 Jun 2027 11:41:47.958   12 Jun 2027 11:41:59.755            11.797          5651.656
       288   13 Jun 2027 03:53:21.749   13 Jun 2027 03:53:44.074            22.325         11162.500
       289   13 Jun 2027 03:57:38.898   13 Jun 2027 03:57:42.056             3.158          1579.000
       290   13 Jun 2027 05:28:14.800   13 Jun 2027 05:30:19.952           125.152         62576.000
       291   13 Jun 2027 05:30:24.847   13 Jun 2027 05:31:29.537            64.690         32345.000
       292   13 Jun 2027 05:33:16.589   13 Jun 2027 05:33:18.813             2.224          1112.000
       293   13 Jun 2027 05:33:34.804   13 Jun 2027 05:33:53.913            19.109          9554.500
       294   13 Jun 2027 07:05:49.054   13 Jun 2027 07:07:23.518            94.464         44581.531
       295   13 Jun 2027 07:08:09.174   13 Jun 2027 07:08:11.453             2.279          1139.500
       296   13 Jun 2027 07:08:26.318   13 Jun 2027 07:08:28.741             2.423           584.312
       297   13 Jun 2027 07:08:37.661   13 Jun 2027 07:08:39.866             2.205            70.563
       298   13 Jun 2027 07:09:12.280   13 Jun 2027 07:09:14.369             2.089           553.938
       299   13 Jun 2027 07:10:49.222   13 Jun 2027 07:10:55.121             5.899          2014.375
       300   13 Jun 2027 07:11:17.272   13 Jun 2027 07:11:21.175             3.903           188.219
       301   13 Jun 2027 07:12:48.105   13 Jun 2027 07:12:51.195             3.090          1470.281
       302   13 Jun 2027 08:42:31.889   13 Jun 2027 08:42:42.032            10.143          4677.875
       303   13 Jun 2027 08:43:27.868   13 Jun 2027 08:43:29.410             1.542           603.094
       304   13 Jun 2027 08:44:32.024   13 Jun 2027 08:44:36.259             4.235          1847.437
       305   13 Jun 2027 08:45:59.496   13 Jun 2027 08:46:10.432            10.936          1869.844
       306   13 Jun 2027 08:46:32.144   13 Jun 2027 08:46:34.871             2.727           353.156
       307   13 Jun 2027 08:46:41.438   13 Jun 2027 08:46:41.878             0.440           133.875
       308   13 Jun 2027 08:47:22.195   13 Jun 2027 08:47:26.908             4.713          1181.313
       309   13 Jun 2027 08:48:30.658   13 Jun 2027 08:48:35.496             4.838          1500.875
       310   13 Jun 2027 08:48:51.902   13 Jun 2027 08:48:52.453             0.551           214.344
       311   13 Jun 2027 10:20:34.954   13 Jun 2027 10:20:47.106            12.152          5431.531
       312   13 Jun 2027 10:22:15.561   13 Jun 2027 10:22:18.959             3.398          1689.344
       313   13 Jun 2027 10:24:04.746   13 Jun 2027 10:24:07.006             2.260           418.969
       314   13 Jun 2027 10:24:19.022   13 Jun 2027 10:24:19.601             0.579           276.219
       315   13 Jun 2027 10:24:40.241   13 Jun 2027 10:24:42.582             2.341           212.594
       316   13 Jun 2027 11:54:15.906   13 Jun 2027 11:54:19.531             3.625          1160.531
