uniorb/output/strategy_4/Camera/Camera_KinoSat_110904.txt

KinoSat_110904
-------------------------
    Access    *     Start Time (UTCG)     *     Stop Time (UTCG)  *   Duration (s) *   Data (Mbytes)
         1   01 Jun 2027 03:40:39.538   01 Jun 2027 03:41:48.622            69.084         34542.000
         2   01 Jun 2027 03:42:28.074   01 Jun 2027 03:42:48.276            20.202         10101.000
         3   01 Jun 2027 03:43:19.873   01 Jun 2027 03:43:44.602            24.729         12364.500
         4   01 Jun 2027 05:17:09.634   01 Jun 2027 05:18:56.787           107.153         53576.500
         5   01 Jun 2027 06:52:19.927   01 Jun 2027 06:54:15.642           115.715         57857.500
         6   01 Jun 2027 06:54:37.938   01 Jun 2027 06:54:49.992            12.054          6027.000
         7   01 Jun 2027 06:57:46.877   01 Jun 2027 06:58:05.536            18.659          9329.500
         8   01 Jun 2027 06:58:28.109   01 Jun 2027 06:58:28.189             0.080            40.000
         9   01 Jun 2027 06:58:47.529   01 Jun 2027 06:58:53.664             6.135          3067.500
        10   01 Jun 2027 08:28:40.777   01 Jun 2027 08:30:35.080           114.303         57151.500
        11   01 Jun 2027 08:31:05.391   01 Jun 2027 08:31:25.292            19.901          9950.500
        12   01 Jun 2027 08:31:48.887   01 Jun 2027 08:31:54.064             5.177          2588.500
        13   01 Jun 2027 08:33:01.004   01 Jun 2027 08:33:08.726             7.722          3861.000
        14   01 Jun 2027 08:34:03.808   01 Jun 2027 08:34:10.926             7.118          3559.000
        15   01 Jun 2027 10:06:00.164   01 Jun 2027 10:07:05.267            65.103         32551.500
        16   01 Jun 2027 10:07:22.978   01 Jun 2027 10:08:18.936            55.958         27979.000
        17   01 Jun 2027 10:08:44.496   01 Jun 2027 10:08:48.173             3.677          1838.500
        18   01 Jun 2027 10:09:54.090   01 Jun 2027 10:10:28.669            34.579         17289.500
        19   01 Jun 2027 10:10:31.773   01 Jun 2027 10:10:35.175             3.402          1701.000
        20   01 Jun 2027 11:42:11.923   01 Jun 2027 11:44:16.368           124.445         62222.500
        21   01 Jun 2027 11:44:18.168   01 Jun 2027 11:44:20.726             2.558          1279.000
        22   01 Jun 2027 11:45:49.290   01 Jun 2027 11:45:49.290             0.000             0.000
        23   01 Jun 2027 11:45:58.049   01 Jun 2027 11:46:00.678             2.629          1314.500
        24   01 Jun 2027 11:46:19.799   01 Jun 2027 11:46:23.470             3.671          1835.500
        25   02 Jun 2027 03:53:19.611   02 Jun 2027 03:53:34.866            15.255          7627.500
        26   02 Jun 2027 03:53:49.974   02 Jun 2027 03:53:50.552             0.578           289.000
        27   02 Jun 2027 03:54:48.696   02 Jun 2027 03:55:18.445            29.749         14874.500
        28   02 Jun 2027 05:29:05.300   02 Jun 2027 05:31:47.507           162.207         81103.500
        29   02 Jun 2027 05:32:15.567   02 Jun 2027 05:32:15.567             0.000             0.000
        30   02 Jun 2027 07:04:03.263   02 Jun 2027 07:06:49.487           166.224         83112.000
        31   02 Jun 2027 07:07:13.267   02 Jun 2027 07:07:46.540            33.273         16636.500
        32   02 Jun 2027 07:08:33.913   02 Jun 2027 07:08:34.988             1.075           537.500
        33   02 Jun 2027 07:08:41.952   02 Jun 2027 07:09:07.640            25.688         12844.000
        34   02 Jun 2027 07:10:39.090   02 Jun 2027 07:11:04.061            24.971         12485.500
        35   02 Jun 2027 08:40:15.051   02 Jun 2027 08:43:25.033           189.982         94991.000
        36   02 Jun 2027 08:44:00.591   02 Jun 2027 08:44:51.202            50.611         25305.500
        37   02 Jun 2027 10:18:15.047   02 Jun 2027 10:18:50.503            35.456         17482.032
        38   02 Jun 2027 10:19:16.521   02 Jun 2027 10:19:18.796             2.275           693.625
        39   02 Jun 2027 10:20:37.100   02 Jun 2027 10:20:43.442             6.342          1849.313
        40   02 Jun 2027 10:21:12.205   02 Jun 2027 10:21:16.349             4.144           487.406
        41   02 Jun 2027 10:22:03.168   02 Jun 2027 10:22:09.202             6.034           608.906
        42   02 Jun 2027 10:22:24.413   02 Jun 2027 10:22:25.266             0.853           408.281
        43   02 Jun 2027 11:53:56.713   02 Jun 2027 11:54:08.932            12.219          5911.813
        44   02 Jun 2027 11:57:52.675   02 Jun 2027 11:57:53.614             0.939           108.156
        45   02 Jun 2027 11:58:25.970   02 Jun 2027 11:58:29.244             3.274           956.125
        46   02 Jun 2027 11:58:37.218   02 Jun 2027 11:58:37.870             0.652           249.187
        47   02 Jun 2027 11:59:03.961   02 Jun 2027 11:59:05.842             1.881           607.969
        48   03 Jun 2027 04:04:09.548   03 Jun 2027 04:04:33.759            24.211         12105.500
        49   03 Jun 2027 04:06:51.582   03 Jun 2027 04:06:57.678             6.096          3048.000
        50   03 Jun 2027 04:06:59.314   03 Jun 2027 04:07:20.053            20.739         10369.500
        51   03 Jun 2027 05:39:41.445   03 Jun 2027 05:39:46.973             5.528          2764.000
        52   03 Jun 2027 05:40:50.747   03 Jun 2027 05:41:08.400            17.653          8826.500
        53   03 Jun 2027 05:42:45.889   03 Jun 2027 05:43:59.271            73.382         36691.000
        54   03 Jun 2027 05:44:26.267   03 Jun 2027 05:45:17.145            50.878         25439.000
        55   03 Jun 2027 07:15:36.850   03 Jun 2027 07:17:52.956           136.106         66388.313
        56   03 Jun 2027 07:18:27.488   03 Jun 2027 07:18:30.019             2.531           597.656
        57   03 Jun 2027 07:18:50.087   03 Jun 2027 07:18:50.087             0.000             0.000
        58   03 Jun 2027 07:19:22.163   03 Jun 2027 07:19:24.594             2.431          1131.531
        59   03 Jun 2027 07:19:57.086   03 Jun 2027 07:20:01.848             4.762           832.969
        60   03 Jun 2027 07:21:06.911   03 Jun 2027 07:21:06.911             0.000             0.000
        61   03 Jun 2027 07:21:32.054   03 Jun 2027 07:21:37.808             5.754          2395.344
        62   03 Jun 2027 07:22:10.491   03 Jun 2027 07:22:10.491             0.000             0.000
        63   03 Jun 2027 07:22:27.800   03 Jun 2027 07:22:31.729             3.929          1261.719
        64   03 Jun 2027 08:52:29.695   03 Jun 2027 08:52:39.041             9.346          4459.688
        65   03 Jun 2027 08:53:39.800   03 Jun 2027 08:53:43.107             3.307           663.250
        66   03 Jun 2027 08:54:20.151   03 Jun 2027 08:54:22.534             2.383           723.500
        67   03 Jun 2027 08:55:17.052   03 Jun 2027 08:55:19.850             2.798          1397.656
        68   03 Jun 2027 08:56:06.416   03 Jun 2027 08:56:09.475             3.059           717.062
        69   03 Jun 2027 08:56:43.628   03 Jun 2027 08:56:48.014             4.386          1010.094
        70   03 Jun 2027 08:56:56.716   03 Jun 2027 08:56:58.238             1.522            40.438
        71   03 Jun 2027 08:57:03.560   03 Jun 2027 08:57:04.839             1.279           166.313
        72   03 Jun 2027 08:58:42.082   03 Jun 2027 08:58:44.616             2.534          1267.000
        73   03 Jun 2027 10:30:36.919   03 Jun 2027 10:30:50.291            13.372          6001.906
        74   03 Jun 2027 10:32:25.368   03 Jun 2027 10:32:27.259             1.891           611.375
        75   03 Jun 2027 10:32:53.782   03 Jun 2027 10:33:01.138             7.356           828.844
        76   03 Jun 2027 10:33:22.025   03 Jun 2027 10:33:22.992             0.967           264.656
        77   03 Jun 2027 10:34:04.587   03 Jun 2027 10:34:09.404             4.817          1234.187
        78   03 Jun 2027 10:34:20.529   03 Jun 2027 10:34:25.080             4.551           248.188
        79   04 Jun 2027 04:15:25.544   04 Jun 2027 04:15:55.443            29.899         14949.500
        80   04 Jun 2027 04:16:15.427   04 Jun 2027 04:16:29.504            14.077          7038.500
        81   04 Jun 2027 04:16:37.435   04 Jun 2027 04:16:40.628             3.193          1596.500
        82   04 Jun 2027 04:18:27.158   04 Jun 2027 04:18:27.158             0.000             0.000
        83   04 Jun 2027 04:18:57.014   04 Jun 2027 04:19:20.000            22.986         11493.000
        84   04 Jun 2027 05:50:35.852   04 Jun 2027 05:52:01.291            85.439         42719.500
        85   04 Jun 2027 05:52:34.394   04 Jun 2027 05:52:34.543             0.149            74.500
        86   04 Jun 2027 05:53:14.194   04 Jun 2027 05:53:41.228            27.034         13517.000
        87   04 Jun 2027 05:53:46.837   04 Jun 2027 05:54:01.285            14.448          7224.000
        88   04 Jun 2027 05:54:15.826   04 Jun 2027 05:54:27.552            11.726          5863.000
        89   04 Jun 2027 05:55:21.134   04 Jun 2027 05:55:23.969             2.835          1417.500
        90   04 Jun 2027 05:55:54.843   04 Jun 2027 05:56:21.586            26.743         13371.500
        91   04 Jun 2027 05:57:04.388   04 Jun 2027 05:57:08.435             4.047          2023.500
        92   04 Jun 2027 05:58:29.306   04 Jun 2027 05:58:33.567             4.261          2130.500
        93   04 Jun 2027 07:27:43.979   04 Jun 2027 07:29:01.825            77.846         38385.251
        94   04 Jun 2027 07:30:27.728   04 Jun 2027 07:30:35.076             7.348          1377.156
        95   04 Jun 2027 07:30:49.683   04 Jun 2027 07:30:50.829             1.146           233.156
        96   04 Jun 2027 07:32:02.880   04 Jun 2027 07:32:05.769             2.889          1166.062
        97   04 Jun 2027 07:33:21.875   04 Jun 2027 07:33:29.940             8.065           557.594
        98   04 Jun 2027 07:33:34.855   04 Jun 2027 07:33:40.832             5.977           153.594
        99   04 Jun 2027 07:34:06.840   04 Jun 2027 07:34:07.471             0.631           302.531
       100   04 Jun 2027 09:04:41.633   04 Jun 2027 09:04:51.999            10.366          4662.781
       101   04 Jun 2027 09:06:18.005   04 Jun 2027 09:06:19.999             1.994           115.000
       102   04 Jun 2027 09:08:13.208   04 Jun 2027 09:08:19.202             5.994          2002.844
       103   04 Jun 2027 09:08:42.318   04 Jun 2027 09:08:44.320             2.002           399.531
       104   04 Jun 2027 09:08:58.885   04 Jun 2027 09:09:08.895            10.010           455.156
       105   04 Jun 2027 09:09:42.044   04 Jun 2027 09:09:44.276             2.232           287.375
       106   04 Jun 2027 09:10:48.893   04 Jun 2027 09:10:50.296             1.403           701.500
       107   04 Jun 2027 10:42:34.726   04 Jun 2027 10:42:44.989            10.263          4897.969
       108   04 Jun 2027 10:44:34.681   04 Jun 2027 10:44:35.509             0.828            31.250
       109   04 Jun 2027 10:45:39.803   04 Jun 2027 10:45:40.164             0.361            63.938
       110   04 Jun 2027 10:46:03.476   04 Jun 2027 10:46:06.414             2.938           630.781
       111   04 Jun 2027 10:46:23.559   04 Jun 2027 10:46:27.505             3.946           535.781
       112   05 Jun 2027 03:05:08.324   05 Jun 2027 03:06:02.165            53.841         26920.500
       113   05 Jun 2027 04:27:10.457   05 Jun 2027 04:27:38.052            27.595         13797.500
       114   05 Jun 2027 04:28:10.350   05 Jun 2027 04:28:28.100            17.750          8875.000
       115   05 Jun 2027 04:30:22.704   05 Jun 2027 04:30:42.372            19.668          9834.000
       116   05 Jun 2027 06:02:03.249   05 Jun 2027 06:04:24.026           140.777         70388.500
       117   05 Jun 2027 06:05:30.715   05 Jun 2027 06:05:39.823             9.108          4554.000
       118   05 Jun 2027 06:06:00.557   05 Jun 2027 06:06:28.126            27.569         13784.500
       119   05 Jun 2027 06:07:22.836   05 Jun 2027 06:07:44.983            22.147          8922.812
       120   05 Jun 2027 06:09:31.150   05 Jun 2027 06:09:39.486             8.336          3187.937
       121   05 Jun 2027 07:39:45.495   05 Jun 2027 07:39:52.216             6.721          2721.938
       122   05 Jun 2027 07:41:23.476   05 Jun 2027 07:41:28.276             4.800          2143.875
       123   05 Jun 2027 07:42:07.221   05 Jun 2027 07:42:09.063             1.842           640.969
       124   05 Jun 2027 07:43:33.754   05 Jun 2027 07:43:37.723             3.969           148.906
       125   05 Jun 2027 07:45:03.151   05 Jun 2027 07:45:13.749            10.598          1618.656
       126   05 Jun 2027 07:45:37.473   05 Jun 2027 07:45:46.545             9.072           718.625
       127   05 Jun 2027 09:16:33.569   05 Jun 2027 09:16:48.721            15.152          5700.844
       128   05 Jun 2027 09:17:46.052   05 Jun 2027 09:17:47.079             1.027           512.906
       129   05 Jun 2027 09:18:21.409   05 Jun 2027 09:18:28.391             6.982          1064.281
       130   05 Jun 2027 09:19:06.380   05 Jun 2027 09:19:07.294             0.914           242.781
       131   05 Jun 2027 09:19:58.126   05 Jun 2027 09:20:00.922             2.796           940.562
       132   05 Jun 2027 09:20:27.072   05 Jun 2027 09:20:28.237             1.165           203.531
       133   05 Jun 2027 09:20:29.025   05 Jun 2027 09:20:31.917             2.892            24.625
       134   05 Jun 2027 09:21:32.437   05 Jun 2027 09:21:34.596             2.159           964.438
       135   05 Jun 2027 09:21:42.951   05 Jun 2027 09:21:48.119             5.168           261.094
       136   05 Jun 2027 09:22:19.943   05 Jun 2027 09:22:22.098             2.155           585.688
       137   05 Jun 2027 09:22:52.214   05 Jun 2027 09:22:54.812             2.598           415.469
       138   05 Jun 2027 10:54:35.143   05 Jun 2027 10:54:48.639            13.496          6495.812
       139   05 Jun 2027 10:57:49.202   05 Jun 2027 10:57:50.811             1.609           300.125
       140   05 Jun 2027 10:58:04.249   05 Jun 2027 10:58:05.090             0.841           245.156
       141   05 Jun 2027 10:58:34.679   05 Jun 2027 10:58:36.781             2.102           822.594
       142   06 Jun 2027 03:04:59.458   06 Jun 2027 03:05:08.048             8.590          4295.000
       143   06 Jun 2027 04:38:46.165   06 Jun 2027 04:41:42.796           176.631         88315.500
       144   06 Jun 2027 04:43:11.626   06 Jun 2027 04:43:27.278            15.652          7826.000
       145   06 Jun 2027 06:13:38.659   06 Jun 2027 06:15:14.358            95.699         47469.563
       146   06 Jun 2027 06:16:35.851   06 Jun 2027 06:16:36.731             0.880           440.000
       147   06 Jun 2027 06:16:52.446   06 Jun 2027 06:16:57.014             4.568          1947.531
       148   06 Jun 2027 06:17:48.181   06 Jun 2027 06:17:51.811             3.630           794.969
       149   06 Jun 2027 06:19:25.082   06 Jun 2027 06:19:34.715             9.633          2620.750
       150   06 Jun 2027 06:20:17.944   06 Jun 2027 06:20:21.095             3.151          1350.906
       151   06 Jun 2027 06:21:18.416   06 Jun 2027 06:21:21.020             2.604          1302.000
       152   06 Jun 2027 06:21:33.884   06 Jun 2027 06:21:38.368             4.484           891.281
       153   06 Jun 2027 06:22:37.091   06 Jun 2027 06:22:40.673             3.582          1143.469
       154   06 Jun 2027 07:51:48.723   06 Jun 2027 07:51:50.149             1.426           151.906
       155   06 Jun 2027 07:53:48.631   06 Jun 2027 07:53:51.092             2.461           820.000
       156   06 Jun 2027 07:55:29.253   06 Jun 2027 07:55:33.230             3.977          1909.625
       157   06 Jun 2027 07:56:22.641   06 Jun 2027 07:56:25.476             2.835           455.531
       158   06 Jun 2027 07:57:16.194   06 Jun 2027 07:57:20.797             4.603           471.844
       159   06 Jun 2027 07:58:20.648   06 Jun 2027 07:58:28.765             8.117          1287.844
       160   06 Jun 2027 07:58:51.257   06 Jun 2027 07:58:54.866             3.609           586.625
       161   06 Jun 2027 09:28:43.481   06 Jun 2027 09:28:53.515            10.034          4976.219
       162   06 Jun 2027 09:32:15.252   06 Jun 2027 09:32:17.223             1.971           816.156
       163   06 Jun 2027 09:32:48.898   06 Jun 2027 09:32:52.853             3.955           154.375
       164   06 Jun 2027 09:33:35.044   06 Jun 2027 09:33:38.536             3.492          1002.531
       165   06 Jun 2027 09:34:45.527   06 Jun 2027 09:34:49.429             3.902          1918.625
       166   06 Jun 2027 11:05:49.929   06 Jun 2027 11:06:01.857            11.928          4709.906
       167   06 Jun 2027 11:10:31.429   06 Jun 2027 11:10:37.234             5.805          2045.031
       168   07 Jun 2027 03:16:54.172   07 Jun 2027 03:17:01.338             7.166          3583.000
       169   07 Jun 2027 04:53:13.346   07 Jun 2027 04:56:41.996           208.650        104325.000
       170   07 Jun 2027 06:26:42.616   07 Jun 2027 06:27:52.912            70.296         34739.531
       171   07 Jun 2027 06:29:03.849   07 Jun 2027 06:29:07.782             3.933           372.562
       172   07 Jun 2027 06:29:28.564   07 Jun 2027 06:29:33.526             4.962           588.656
       173   07 Jun 2027 06:29:45.104   07 Jun 2027 06:29:47.802             2.698           318.063
       174   07 Jun 2027 06:30:44.932   07 Jun 2027 06:30:50.101             5.169          1785.312
       175   07 Jun 2027 06:32:05.337   07 Jun 2027 06:32:14.888             9.551          1857.687
       176   07 Jun 2027 06:32:51.263   07 Jun 2027 06:32:54.095             2.832          1136.719
       177   07 Jun 2027 06:33:22.236   07 Jun 2027 06:33:22.236             0.000             0.000
       178   07 Jun 2027 06:33:37.121   07 Jun 2027 06:33:40.932             3.811          1144.969
       179   07 Jun 2027 06:34:10.154   07 Jun 2027 06:34:13.926             3.772           870.750
       180   07 Jun 2027 06:35:13.481   07 Jun 2027 06:35:15.206             1.725           311.000
       181   07 Jun 2027 08:04:14.944   07 Jun 2027 08:04:16.113             1.169           391.000
       182   07 Jun 2027 08:07:53.385   07 Jun 2027 08:07:55.320             1.935           551.437
       183   07 Jun 2027 08:08:49.664   07 Jun 2027 08:08:53.806             4.142          1578.250
       184   07 Jun 2027 08:09:45.412   07 Jun 2027 08:09:51.152             5.740          1344.812
       185   07 Jun 2027 09:41:10.594   07 Jun 2027 09:41:29.290            18.696          6351.188
       186   07 Jun 2027 09:44:52.541   07 Jun 2027 09:44:53.079             0.538           194.875
       187   07 Jun 2027 09:45:04.528   07 Jun 2027 09:45:09.387             4.859           357.781
       188   07 Jun 2027 09:45:42.785   07 Jun 2027 09:45:43.716             0.931           377.438
       189   07 Jun 2027 09:45:55.010   07 Jun 2027 09:45:55.490             0.480            43.469
       190   07 Jun 2027 11:18:01.752   07 Jun 2027 11:18:15.488            13.736          5379.000
       191   07 Jun 2027 11:19:46.290   07 Jun 2027 11:19:51.239             4.949           743.094
       192   07 Jun 2027 11:20:24.647   07 Jun 2027 11:20:27.757             3.110           922.156
       193   07 Jun 2027 11:21:54.620   07 Jun 2027 11:22:04.405             9.785          1571.375
       194   08 Jun 2027 03:28:45.823   08 Jun 2027 03:29:02.603            16.780          8390.000
       195   08 Jun 2027 05:05:14.669   08 Jun 2027 05:06:03.105            48.436         24218.000
       196   08 Jun 2027 05:07:48.707   08 Jun 2027 05:08:03.407            14.700          7350.000
       197   08 Jun 2027 05:08:46.934   08 Jun 2027 05:08:49.702             2.768          1384.000
       198   08 Jun 2027 06:39:22.226   08 Jun 2027 06:43:09.198           226.972        111633.781
       199   08 Jun 2027 06:43:30.652   08 Jun 2027 06:43:31.602             0.950           231.000
       200   08 Jun 2027 06:43:41.605   08 Jun 2027 06:43:44.824             3.219            42.875
       201   08 Jun 2027 06:44:06.983   08 Jun 2027 06:44:10.973             3.990           229.156
       202   08 Jun 2027 06:44:38.490   08 Jun 2027 06:44:38.490             0.000             0.000
       203   08 Jun 2027 06:45:23.065   08 Jun 2027 06:45:33.739            10.674          2252.875
       204   08 Jun 2027 06:46:11.859   08 Jun 2027 06:46:15.232             3.373           932.219
       205   08 Jun 2027 06:47:06.888   08 Jun 2027 06:47:09.669             2.781          1381.687
       206   08 Jun 2027 08:16:20.770   08 Jun 2027 08:16:22.737             1.967           385.906
       207   08 Jun 2027 08:19:16.695   08 Jun 2027 08:19:18.334             1.639           787.531
       208   08 Jun 2027 08:20:01.366   08 Jun 2027 08:20:03.152             1.786           709.719
       209   08 Jun 2027 08:20:56.332   08 Jun 2027 08:20:58.780             2.448          1186.813
       210   08 Jun 2027 08:22:03.968   08 Jun 2027 08:22:08.529             4.561           733.313
       211   08 Jun 2027 08:22:35.850   08 Jun 2027 08:22:36.400             0.550           128.063
       212   08 Jun 2027 09:53:58.098   08 Jun 2027 09:54:16.584            18.486          5587.906
       213   08 Jun 2027 09:57:34.122   08 Jun 2027 09:57:37.634             3.512          1437.688
       214   08 Jun 2027 11:30:05.181   08 Jun 2027 11:30:21.066            15.885          7441.406
       215   08 Jun 2027 11:32:45.416   08 Jun 2027 11:32:47.144             1.728           830.937
       216   08 Jun 2027 11:34:46.560   08 Jun 2027 11:34:49.871             3.311           486.969
       217   09 Jun 2027 03:40:54.457   09 Jun 2027 03:41:03.516             9.059          4529.500
       218   09 Jun 2027 03:43:34.191   09 Jun 2027 03:43:59.827            25.636         12818.000
       219   09 Jun 2027 05:19:48.649   09 Jun 2027 05:21:00.208            71.559         35779.500
       220   09 Jun 2027 06:52:34.973   09 Jun 2027 06:56:00.406           205.433        102712.187
       221   09 Jun 2027 06:57:23.450   09 Jun 2027 06:57:30.338             6.888          2484.250
       222   09 Jun 2027 06:58:38.218   09 Jun 2027 06:58:42.551             4.333          1710.813
       223   09 Jun 2027 06:58:43.910   09 Jun 2027 06:58:44.608             0.698            42.469
       224   09 Jun 2027 08:28:56.967   09 Jun 2027 08:29:13.571            16.604          4661.313
       225   09 Jun 2027 08:30:34.156   09 Jun 2027 08:30:37.514             3.358          1640.063
       226   09 Jun 2027 08:30:51.507   09 Jun 2027 08:30:55.928             4.421           319.031
       227   09 Jun 2027 08:31:03.477   09 Jun 2027 08:31:03.985             0.508           235.906
       228   09 Jun 2027 08:31:39.640   09 Jun 2027 08:31:42.186             2.546           591.688
       229   09 Jun 2027 08:32:12.218   09 Jun 2027 08:32:14.100             1.882           760.312
       230   09 Jun 2027 08:32:14.945   09 Jun 2027 08:32:15.476             0.531            26.406
       231   09 Jun 2027 08:32:59.446   09 Jun 2027 08:33:00.874             1.428           710.188
       232   09 Jun 2027 08:33:33.760   09 Jun 2027 08:33:42.487             8.727           988.812
       233   09 Jun 2027 08:34:06.674   09 Jun 2027 08:34:08.978             2.304           351.719
       234   09 Jun 2027 10:06:15.195   09 Jun 2027 10:06:31.206            16.011          5945.250
       235   09 Jun 2027 10:06:40.606   09 Jun 2027 10:06:43.923             3.317           244.250
       236   09 Jun 2027 10:07:06.673   09 Jun 2027 10:07:10.855             4.182           710.937
       237   09 Jun 2027 10:07:40.404   09 Jun 2027 10:07:42.172             1.768             2.563
       238   09 Jun 2027 10:08:33.676   09 Jun 2027 10:08:36.184             2.508          1181.937
       239   09 Jun 2027 10:08:58.120   09 Jun 2027 10:08:59.086             0.966           274.281
       240   09 Jun 2027 10:09:38.984   09 Jun 2027 10:09:40.806             1.822           879.437
       241   09 Jun 2027 10:10:17.401   09 Jun 2027 10:10:24.318             6.917          1070.625
       242   09 Jun 2027 10:10:37.147   09 Jun 2027 10:10:38.843             1.696            91.938
       243   09 Jun 2027 10:10:46.633   09 Jun 2027 10:10:47.343             0.710            66.531
       244   09 Jun 2027 11:42:26.947   09 Jun 2027 11:42:44.388            17.441          7410.500
       245   09 Jun 2027 11:46:29.464   09 Jun 2027 11:46:34.894             5.430          2145.969
       246   09 Jun 2027 11:46:51.521   09 Jun 2027 11:46:54.657             3.136           507.844
       247   10 Jun 2027 03:53:34.316   10 Jun 2027 03:53:42.067             7.751          3875.500
       248   10 Jun 2027 03:55:35.170   10 Jun 2027 03:55:37.930             2.760          1380.000
       249   10 Jun 2027 03:55:46.383   10 Jun 2027 03:55:54.841             8.458          4229.000
       250   10 Jun 2027 05:29:20.029   10 Jun 2027 05:32:01.844           161.815         80907.500
       251   10 Jun 2027 07:04:17.606   10 Jun 2027 07:06:23.176           125.570         62529.312
       252   10 Jun 2027 07:07:13.334   10 Jun 2027 07:07:16.778             3.444          1046.813
       253   10 Jun 2027 07:07:29.775   10 Jun 2027 07:07:32.268             2.493           156.750
       254   10 Jun 2027 07:07:45.058   10 Jun 2027 07:07:45.058             0.000             0.000
       255   10 Jun 2027 07:08:10.253   10 Jun 2027 07:08:12.689             2.436          1037.281
       256   10 Jun 2027 07:09:46.518   10 Jun 2027 07:09:48.413             1.895           725.156
       257   10 Jun 2027 07:10:32.844   10 Jun 2027 07:10:32.844             0.000             0.000
       258   10 Jun 2027 07:10:53.857   10 Jun 2027 07:10:56.137             2.280           972.063
       259   10 Jun 2027 08:40:29.871   10 Jun 2027 08:40:37.477             7.606          3569.156
       260   10 Jun 2027 08:44:15.824   10 Jun 2027 08:44:18.430             2.606           968.219
       261   10 Jun 2027 08:45:07.090   10 Jun 2027 08:45:11.144             4.054          1009.344
       262   10 Jun 2027 08:45:41.028   10 Jun 2027 08:45:42.939             1.911           509.375
       263   10 Jun 2027 08:46:51.003   10 Jun 2027 08:46:56.106             5.103          1908.125
       264   10 Jun 2027 10:18:30.536   10 Jun 2027 10:18:43.223            12.687          6144.813
       265   10 Jun 2027 10:20:40.250   10 Jun 2027 10:20:45.664             5.414          2100.156
       266   10 Jun 2027 10:21:59.007   10 Jun 2027 10:22:11.467            12.460          2158.937
       267   10 Jun 2027 10:22:26.737   10 Jun 2027 10:22:27.846             1.109           175.063
       268   10 Jun 2027 10:22:40.228   10 Jun 2027 10:22:42.054             1.826            44.437
       269   10 Jun 2027 11:54:11.079   10 Jun 2027 11:54:28.850            17.771          6938.406
       270   11 Jun 2027 04:04:23.914   11 Jun 2027 04:04:31.768             7.854          3927.000
       271   11 Jun 2027 04:04:55.330   11 Jun 2027 04:04:55.330             0.000             0.000
       272   11 Jun 2027 04:06:07.493   11 Jun 2027 04:06:10.088             2.595          1297.500
       273   11 Jun 2027 04:07:06.361   11 Jun 2027 04:07:36.804            30.443         15221.500
       274   11 Jun 2027 04:07:57.728   11 Jun 2027 04:08:03.368             5.640          2820.000
       275   11 Jun 2027 05:39:56.040   11 Jun 2027 05:40:02.265             6.225          3112.500
       276   11 Jun 2027 05:41:05.718   11 Jun 2027 05:41:24.816            19.098          9549.000
       277   11 Jun 2027 05:43:00.188   11 Jun 2027 05:44:13.678            73.490         36745.000
       278   11 Jun 2027 05:44:40.924   11 Jun 2027 05:45:17.004            36.080         18040.000
       279   11 Jun 2027 07:15:51.366   11 Jun 2027 07:18:23.706           152.340         74437.812
       280   11 Jun 2027 07:18:43.795   11 Jun 2027 07:18:46.163             2.368           605.844
       281   11 Jun 2027 07:19:05.809   11 Jun 2027 07:19:07.109             1.300           107.563
       282   11 Jun 2027 07:19:40.419   11 Jun 2027 07:19:45.655             5.236           900.813
       283   11 Jun 2027 07:20:31.629   11 Jun 2027 07:20:31.629             0.000             0.000
       284   11 Jun 2027 07:21:22.556   11 Jun 2027 07:21:28.748             6.192          2982.125
       285   11 Jun 2027 07:22:03.482   11 Jun 2027 07:22:05.480             1.998           438.625
       286   11 Jun 2027 07:22:42.488   11 Jun 2027 07:22:44.714             2.226           482.687
       287   11 Jun 2027 08:52:51.122   11 Jun 2027 08:53:03.476            12.354          4999.156
       288   11 Jun 2027 08:53:55.364   11 Jun 2027 08:53:58.015             2.651           689.438
       289   11 Jun 2027 08:55:22.994   11 Jun 2027 08:55:24.587             1.593           778.938
       290   11 Jun 2027 08:56:28.430   11 Jun 2027 08:56:32.693             4.263           512.469
       291   11 Jun 2027 08:57:12.035   11 Jun 2027 08:57:12.742             0.707            23.687
       292   11 Jun 2027 08:57:18.729   11 Jun 2027 08:57:20.445             1.716           187.094
       293   11 Jun 2027 08:57:47.569   11 Jun 2027 08:57:53.051             5.482            46.625
       294   11 Jun 2027 10:30:52.172   11 Jun 2027 10:31:04.420            12.248          5885.906
       295   11 Jun 2027 10:31:28.415   11 Jun 2027 10:31:35.390             6.975           566.719
       296   11 Jun 2027 10:32:49.785   11 Jun 2027 10:32:51.881             2.096           112.000
       297   11 Jun 2027 10:33:40.666   11 Jun 2027 10:33:41.374             0.708           125.937
       298   11 Jun 2027 10:34:15.749   11 Jun 2027 10:34:16.998             1.249           132.312
       299   12 Jun 2027 04:15:40.205   12 Jun 2027 04:16:32.368            52.163         26081.500
       300   12 Jun 2027 04:18:35.574   12 Jun 2027 04:18:35.574             0.000             0.000
       301   12 Jun 2027 04:20:04.318   12 Jun 2027 04:20:15.495            11.177          5588.500
       302   12 Jun 2027 05:50:48.288   12 Jun 2027 05:52:26.639            98.351         49175.500
       303   12 Jun 2027 05:52:49.157   12 Jun 2027 05:52:49.242             0.085            42.500
       304   12 Jun 2027 05:53:29.210   12 Jun 2027 05:53:57.171            27.961         13980.500
       305   12 Jun 2027 05:54:15.064   12 Jun 2027 05:54:17.889             2.825          1412.500
       306   12 Jun 2027 05:55:39.240   12 Jun 2027 05:55:54.248            15.008          7504.000
       307   12 Jun 2027 05:56:36.220   12 Jun 2027 05:56:53.388            17.168          8584.000
       308   12 Jun 2027 05:57:25.342   12 Jun 2027 05:57:44.852            19.510          9755.000
       309   12 Jun 2027 05:58:44.083   12 Jun 2027 05:58:50.513             6.430          3215.000
       310   12 Jun 2027 07:27:59.344   12 Jun 2027 07:29:18.227            78.883         39360.406
       311   12 Jun 2027 07:30:01.365   12 Jun 2027 07:30:03.335             1.970           672.188
       312   12 Jun 2027 07:30:53.581   12 Jun 2027 07:30:55.124             1.543           311.219
       313   12 Jun 2027 07:31:48.929   12 Jun 2027 07:31:48.929             0.000             0.000
       314   12 Jun 2027 07:33:21.075   12 Jun 2027 07:33:30.556             9.481          3039.219
       315   12 Jun 2027 07:33:52.231   12 Jun 2027 07:33:55.602             3.371           189.187
       316   12 Jun 2027 07:35:23.676   12 Jun 2027 07:35:25.304             1.628           814.000
       317   12 Jun 2027 09:04:56.647   12 Jun 2027 09:05:08.257            11.610          4187.437
       318   12 Jun 2027 09:08:31.736   12 Jun 2027 09:08:37.359             5.623          2076.406
       319   12 Jun 2027 09:08:44.934   12 Jun 2027 09:08:45.413             0.479           236.719
       320   12 Jun 2027 09:09:12.182   12 Jun 2027 09:09:13.893             1.711           597.781
       321   12 Jun 2027 09:09:48.359   12 Jun 2027 09:09:52.174             3.815          1051.656
       322   12 Jun 2027 09:10:25.044   12 Jun 2027 09:10:27.879             2.835           860.656
       323   12 Jun 2027 10:42:49.665   12 Jun 2027 10:43:00.027            10.362          4918.094
       324   12 Jun 2027 10:44:48.837   12 Jun 2027 10:44:56.848             8.011          2570.750
       325   12 Jun 2027 10:46:17.881   12 Jun 2027 10:46:19.089             1.208           591.156
       326   12 Jun 2027 10:46:36.366   12 Jun 2027 10:46:38.678             2.312            65.969
       327   12 Jun 2027 10:46:44.843   12 Jun 2027 10:46:45.901             1.058           192.656
       328   13 Jun 2027 03:06:12.538   13 Jun 2027 03:06:16.225             3.687          1843.500
       329   13 Jun 2027 04:27:25.133   13 Jun 2027 04:28:39.203            74.070         37035.000
       330   13 Jun 2027 04:29:28.221   13 Jun 2027 04:29:40.611            12.390          6195.000
       331   13 Jun 2027 04:30:16.282   13 Jun 2027 04:30:24.583             8.301          4150.500
       332   13 Jun 2027 04:31:42.263   13 Jun 2027 04:31:56.308            14.045          7022.500
       333   13 Jun 2027 06:02:17.634   13 Jun 2027 06:04:28.391           130.757         65378.500
       334   13 Jun 2027 06:04:53.014   13 Jun 2027 06:05:12.572            19.558          9779.000
       335   13 Jun 2027 06:05:40.603   13 Jun 2027 06:05:46.806             6.203          3101.500
       336   13 Jun 2027 06:05:54.572   13 Jun 2027 06:05:54.572             0.000             0.000
       337   13 Jun 2027 06:06:16.233   13 Jun 2027 06:06:30.500            14.267          7133.500
       338   13 Jun 2027 06:07:36.704   13 Jun 2027 06:07:48.551            11.847          5923.500
       339   13 Jun 2027 06:08:45.299   13 Jun 2027 06:08:54.485             9.186          4593.000
       340   13 Jun 2027 06:09:13.569   13 Jun 2027 06:09:17.406             3.837          1918.500
       341   13 Jun 2027 06:11:07.453   13 Jun 2027 06:11:17.196             9.743          4518.875
       342   13 Jun 2027 07:41:39.410   13 Jun 2027 07:41:46.423             7.013          2116.719
       343   13 Jun 2027 07:42:23.293   13 Jun 2027 07:42:26.591             3.298           590.344
       344   13 Jun 2027 07:43:50.406   13 Jun 2027 07:43:53.725             3.319            99.000
       345   13 Jun 2027 07:45:18.720   13 Jun 2027 07:45:24.730             6.010          1580.094
       346   13 Jun 2027 07:45:54.832   13 Jun 2027 07:46:02.006             7.174           748.031
       347   13 Jun 2027 09:16:48.849   13 Jun 2027 09:17:07.513            18.664          7041.563
       348   13 Jun 2027 09:18:37.730   13 Jun 2027 09:18:40.026             2.296          1119.000
       349   13 Jun 2027 09:19:21.525   13 Jun 2027 09:19:21.997             0.472           182.938
       350   13 Jun 2027 09:20:12.537   13 Jun 2027 09:20:15.460             2.923           900.875
       351   13 Jun 2027 09:20:47.201   13 Jun 2027 09:20:49.286             2.085           991.906
       352   13 Jun 2027 09:21:17.363   13 Jun 2027 09:21:18.903             1.540           364.406
       353   13 Jun 2027 09:21:52.415   13 Jun 2027 09:21:52.767             0.352           173.156
       354   13 Jun 2027 09:22:15.478   13 Jun 2027 09:22:17.506             2.028           664.250
       355   13 Jun 2027 09:23:31.160   13 Jun 2027 09:23:31.530             0.370           185.000
       356   13 Jun 2027 10:54:50.852   13 Jun 2027 10:55:05.518            14.666          5515.750
       357   13 Jun 2027 10:58:46.041   13 Jun 2027 10:58:51.389             5.348          1299.531
       358   13 Jun 2027 10:58:52.129   13 Jun 2027 10:58:52.261             0.132            16.250
