uniorb/output/strategy_4/Camera/Camera_KinoSat_110902.txt

KinoSat_110902
-------------------------
    Access    *     Start Time (UTCG)     *     Stop Time (UTCG)  *   Duration (s) *   Data (Mbytes)
         1   01 Jun 2027 04:00:18.809   01 Jun 2027 04:02:21.362           122.553         61276.500
         2   01 Jun 2027 05:36:04.117   01 Jun 2027 05:38:08.425           124.308         62154.000
         3   01 Jun 2027 05:39:40.690   01 Jun 2027 05:39:40.690             0.000             0.000
         4   01 Jun 2027 05:40:07.460   01 Jun 2027 05:40:17.838            10.378          5189.000
         5   01 Jun 2027 07:10:55.658   01 Jun 2027 07:13:04.978           129.320         64660.000
         6   01 Jun 2027 07:13:58.880   01 Jun 2027 07:14:00.952             2.072          1036.000
         7   01 Jun 2027 07:14:24.998   01 Jun 2027 07:14:29.156             4.158          2079.000
         8   01 Jun 2027 07:17:21.302   01 Jun 2027 07:17:31.857            10.555          5277.500
         9   01 Jun 2027 08:47:31.053   01 Jun 2027 08:50:16.553           165.500         82750.000
        10   01 Jun 2027 08:51:16.599   01 Jun 2027 08:51:47.986            31.387         15693.500
        11   01 Jun 2027 08:52:39.922   01 Jun 2027 08:52:41.700             1.778           889.000
        12   01 Jun 2027 10:25:48.685   01 Jun 2027 10:26:47.744            59.059         29529.500
        13   01 Jun 2027 10:27:53.346   01 Jun 2027 10:29:12.674            79.328         39664.000
        14   01 Jun 2027 11:59:48.682   01 Jun 2027 12:00:00.000            11.318          5659.000
        15   02 Jun 2027 04:10:57.279   02 Jun 2027 04:11:23.765            26.486         13243.000
        16   02 Jun 2027 04:12:56.703   02 Jun 2027 04:13:01.143             4.440          2220.000
        17   02 Jun 2027 04:14:57.702   02 Jun 2027 04:15:21.825            24.123         12061.500
        18   02 Jun 2027 05:46:18.184   02 Jun 2027 05:47:15.704            57.520         28760.000
        19   02 Jun 2027 05:47:49.264   02 Jun 2027 05:49:19.035            89.771         44885.500
        20   02 Jun 2027 05:50:19.499   02 Jun 2027 05:50:28.510             9.011          4505.500
        21   02 Jun 2027 05:50:37.013   02 Jun 2027 05:50:56.320            19.307          9653.500
        22   02 Jun 2027 05:51:32.723   02 Jun 2027 05:51:41.232             8.509          4254.500
        23   02 Jun 2027 07:22:46.808   02 Jun 2027 07:25:36.844           170.036         85018.000
        24   02 Jun 2027 07:25:46.104   02 Jun 2027 07:26:32.548            46.444         23222.000
        25   02 Jun 2027 07:29:28.250   02 Jun 2027 07:29:41.446            13.196          6598.000
        26   02 Jun 2027 08:59:52.247   02 Jun 2027 09:03:14.064           201.817        100908.500
        27   02 Jun 2027 09:03:31.403   02 Jun 2027 09:03:58.360            26.957         13123.843
        28   02 Jun 2027 09:04:41.092   02 Jun 2027 09:04:48.425             7.333          1335.375
        29   02 Jun 2027 10:37:46.302   02 Jun 2027 10:38:15.372            29.070         11139.437
        30   02 Jun 2027 10:39:11.727   02 Jun 2027 10:39:18.084             6.357          1609.906
        31   02 Jun 2027 10:39:36.271   02 Jun 2027 10:39:38.332             2.061           543.187
        32   02 Jun 2027 10:39:43.119   02 Jun 2027 10:39:46.848             3.729            60.219
        33   02 Jun 2027 10:40:56.923   02 Jun 2027 10:41:00.653             3.730          1306.063
        34   02 Jun 2027 10:41:43.549   02 Jun 2027 10:41:45.842             2.293           909.219
        35   03 Jun 2027 03:00:17.673   03 Jun 2027 03:00:35.610            17.937          8968.500
        36   03 Jun 2027 04:22:33.216   03 Jun 2027 04:23:05.125            31.909         15954.500
        37   03 Jun 2027 04:24:28.730   03 Jun 2027 04:25:02.708            33.978         16989.000
        38   03 Jun 2027 04:26:57.446   03 Jun 2027 04:27:07.822            10.376          5188.000
        39   03 Jun 2027 04:27:41.244   03 Jun 2027 04:27:50.775             9.531          4765.500
        40   03 Jun 2027 05:57:27.230   03 Jun 2027 05:59:29.643           122.413         61206.500
        41   03 Jun 2027 05:59:36.116   03 Jun 2027 06:00:22.779            46.663         23331.500
        42   03 Jun 2027 06:02:34.485   03 Jun 2027 06:02:38.742             4.257          2128.500
        43   03 Jun 2027 06:03:32.323   03 Jun 2027 06:03:53.868            21.545         10772.500
        44   03 Jun 2027 06:05:35.281   03 Jun 2027 06:05:56.167            20.886         10443.000
        45   03 Jun 2027 07:35:00.680   03 Jun 2027 07:35:04.522             3.842          1541.281
        46   03 Jun 2027 07:36:35.807   03 Jun 2027 07:36:40.891             5.084           107.500
        47   03 Jun 2027 07:38:13.465   03 Jun 2027 07:38:16.272             2.807           601.281
        48   03 Jun 2027 07:38:41.862   03 Jun 2027 07:38:44.216             2.354           184.219
        49   03 Jun 2027 07:40:13.076   03 Jun 2027 07:40:17.041             3.965          1774.625
        50   03 Jun 2027 07:40:44.977   03 Jun 2027 07:40:46.278             1.301           494.625
        51   03 Jun 2027 09:11:43.153   03 Jun 2027 09:11:54.875            11.722          5494.125
        52   03 Jun 2027 09:14:15.965   03 Jun 2027 09:14:16.886             0.921           373.219
        53   03 Jun 2027 09:15:01.793   03 Jun 2027 09:15:05.467             3.674          1287.531
        54   03 Jun 2027 09:15:39.258   03 Jun 2027 09:15:41.435             2.177           244.969
        55   03 Jun 2027 09:15:50.308   03 Jun 2027 09:15:53.619             3.311           221.906
        56   03 Jun 2027 09:16:43.707   03 Jun 2027 09:16:47.490             3.783          1071.156
        57   03 Jun 2027 09:17:26.586   03 Jun 2027 09:17:30.643             4.057          1024.594
        58   03 Jun 2027 09:18:03.377   03 Jun 2027 09:18:06.305             2.928            67.219
        59   03 Jun 2027 10:49:46.232   03 Jun 2027 10:50:01.235            15.003          7159.875
        60   03 Jun 2027 10:50:36.470   03 Jun 2027 10:50:38.570             2.100           516.687
        61   03 Jun 2027 10:51:20.930   03 Jun 2027 10:51:25.600             4.670           895.281
        62   03 Jun 2027 10:52:00.553   03 Jun 2027 10:52:03.380             2.827           731.156
        63   03 Jun 2027 10:52:59.338   03 Jun 2027 10:53:00.447             1.109           422.719
        64   03 Jun 2027 10:53:16.358   03 Jun 2027 10:53:18.701             2.343           439.187
        65   03 Jun 2027 10:53:38.891   03 Jun 2027 10:53:40.365             1.474           156.219
        66   04 Jun 2027 03:00:10.500   04 Jun 2027 03:00:21.616            11.116          5558.000
        67   04 Jun 2027 03:12:25.984   04 Jun 2027 03:12:52.983            26.999         13499.500
        68   04 Jun 2027 04:34:02.698   04 Jun 2027 04:35:25.742            83.044         41522.000
        69   04 Jun 2027 04:36:02.178   04 Jun 2027 04:36:35.017            32.839         16419.500
        70   04 Jun 2027 04:38:20.296   04 Jun 2027 04:39:12.863            52.567         26283.500
        71   04 Jun 2027 06:08:57.867   04 Jun 2027 06:10:28.648            90.781         45390.500
        72   04 Jun 2027 06:11:34.522   04 Jun 2027 06:11:39.664             5.142          2138.500
        73   04 Jun 2027 06:12:17.166   04 Jun 2027 06:12:27.301            10.135          1171.937
        74   04 Jun 2027 06:14:17.858   04 Jun 2027 06:14:24.183             6.325          3031.281
        75   04 Jun 2027 06:15:05.814   04 Jun 2027 06:15:11.059             5.245          1214.219
        76   04 Jun 2027 06:15:12.109   04 Jun 2027 06:15:12.109             0.000             0.000
        77   04 Jun 2027 06:15:32.603   04 Jun 2027 06:15:35.017             2.414           652.438
        78   04 Jun 2027 06:16:18.812   04 Jun 2027 06:16:22.198             3.386          1368.594
        79   04 Jun 2027 06:16:30.007   04 Jun 2027 06:16:30.007             0.000             0.000
        80   04 Jun 2027 06:16:41.092   04 Jun 2027 06:16:42.199             1.107           368.969
        81   04 Jun 2027 06:17:39.790   04 Jun 2027 06:17:46.087             6.297          1644.625
        82   04 Jun 2027 07:46:54.652   04 Jun 2027 07:46:55.717             1.065           383.250
        83   04 Jun 2027 07:48:56.935   04 Jun 2027 07:48:58.664             1.729           787.594
        84   04 Jun 2027 07:49:35.977   04 Jun 2027 07:49:42.479             6.502           980.594
        85   04 Jun 2027 07:51:10.448   04 Jun 2027 07:51:12.576             2.128           570.094
        86   04 Jun 2027 07:51:28.656   04 Jun 2027 07:51:29.338             0.682           325.250
        87   04 Jun 2027 07:52:14.892   04 Jun 2027 07:52:15.260             0.368           147.844
        88   04 Jun 2027 07:53:51.971   04 Jun 2027 07:53:55.576             3.605           316.531
        89   04 Jun 2027 07:54:13.716   04 Jun 2027 07:54:18.789             5.073           561.906
        90   04 Jun 2027 09:23:46.464   04 Jun 2027 09:23:55.070             8.606          4113.938
        91   04 Jun 2027 09:24:53.089   04 Jun 2027 09:24:53.569             0.480           221.406
        92   04 Jun 2027 09:26:20.899   04 Jun 2027 09:26:30.792             9.893          1461.406
        93   04 Jun 2027 09:27:34.483   04 Jun 2027 09:27:38.209             3.726           660.875
        94   04 Jun 2027 09:28:13.731   04 Jun 2027 09:28:15.010             1.279            64.937
        95   04 Jun 2027 09:28:20.561   04 Jun 2027 09:28:22.914             2.353           168.344
        96   04 Jun 2027 09:29:31.850   04 Jun 2027 09:29:34.893             3.043          1358.750
        97   04 Jun 2027 11:01:32.798   04 Jun 2027 11:01:47.805            15.007          5578.469
        98   04 Jun 2027 11:03:50.903   04 Jun 2027 11:03:55.523             4.620           366.094
        99   04 Jun 2027 11:04:37.397   04 Jun 2027 11:04:43.402             6.005           259.594
       100   04 Jun 2027 11:05:40.018   04 Jun 2027 11:05:44.846             4.828          1769.250
       101   05 Jun 2027 03:12:06.463   05 Jun 2027 03:12:09.816             3.353          1676.500
       102   05 Jun 2027 03:13:21.569   05 Jun 2027 03:13:34.550            12.981          6490.500
       103   05 Jun 2027 04:48:05.885   05 Jun 2027 04:51:23.601           197.716         98858.000
       104   05 Jun 2027 06:21:51.876   05 Jun 2027 06:23:18.843            86.967         43186.813
       105   05 Jun 2027 06:24:21.957   05 Jun 2027 06:24:23.004             1.047           523.500
       106   05 Jun 2027 06:24:25.787   05 Jun 2027 06:24:25.787             0.000             0.000
       107   05 Jun 2027 06:24:56.827   05 Jun 2027 06:25:00.894             4.067          1061.156
       108   05 Jun 2027 06:26:34.492   05 Jun 2027 06:26:40.337             5.845          2589.219
       109   05 Jun 2027 06:27:15.078   05 Jun 2027 06:27:24.219             9.141           937.469
       110   05 Jun 2027 06:27:52.955   05 Jun 2027 06:27:54.776             1.821           845.187
       111   05 Jun 2027 06:28:16.700   05 Jun 2027 06:28:20.029             3.329           542.156
       112   05 Jun 2027 06:28:37.615   05 Jun 2027 06:28:39.078             1.463           549.563
       113   05 Jun 2027 06:28:44.345   05 Jun 2027 06:28:45.542             1.197            98.969
       114   05 Jun 2027 06:30:16.313   05 Jun 2027 06:30:21.134             4.821          1922.156
       115   05 Jun 2027 07:59:14.839   05 Jun 2027 07:59:20.268             5.429           374.938
       116   05 Jun 2027 08:00:47.162   05 Jun 2027 08:00:52.052             4.890           376.531
       117   05 Jun 2027 08:02:19.994   05 Jun 2027 08:02:25.630             5.636          2689.469
       118   05 Jun 2027 08:02:54.272   05 Jun 2027 08:02:55.939             1.667           319.781
       119   05 Jun 2027 08:03:08.184   05 Jun 2027 08:03:09.713             1.529           216.250
       120   05 Jun 2027 08:04:14.198   05 Jun 2027 08:04:15.693             1.495           583.656
       121   05 Jun 2027 08:04:56.004   05 Jun 2027 08:04:59.472             3.468           777.656
       122   05 Jun 2027 08:05:30.082   05 Jun 2027 08:05:36.937             6.855           231.375
       123   05 Jun 2027 09:36:19.337   05 Jun 2027 09:36:30.184            10.847          5309.812
       124   05 Jun 2027 09:39:18.010   05 Jun 2027 09:39:22.849             4.839          1798.406
       125   05 Jun 2027 09:39:54.378   05 Jun 2027 09:39:57.271             2.893           974.750
       126   05 Jun 2027 09:40:13.063   05 Jun 2027 09:40:14.349             1.286           493.500
       127   05 Jun 2027 09:40:22.072   05 Jun 2027 09:40:23.881             1.809           241.344
       128   05 Jun 2027 09:40:41.794   05 Jun 2027 09:40:42.263             0.469           164.594
       129   05 Jun 2027 09:40:56.346   05 Jun 2027 09:40:57.580             1.234           280.812
       130   05 Jun 2027 09:41:49.489   05 Jun 2027 09:41:57.678             8.189          1576.000
       131   05 Jun 2027 11:13:03.636   05 Jun 2027 11:13:17.344            13.708          4888.000
       132   05 Jun 2027 11:15:35.500   05 Jun 2027 11:15:39.685             4.185          1186.562
       133   05 Jun 2027 11:16:21.024   05 Jun 2027 11:16:25.510             4.486           812.719
       134   05 Jun 2027 11:17:40.480   05 Jun 2027 11:17:46.309             5.829          2148.875
       135   06 Jun 2027 03:23:58.121   06 Jun 2027 03:24:08.322            10.201          5100.500
       136   06 Jun 2027 03:24:11.206   06 Jun 2027 03:24:19.776             8.570          4285.000
       137   06 Jun 2027 05:00:20.167   06 Jun 2027 05:01:52.222            92.055         46027.500
       138   06 Jun 2027 05:03:17.265   06 Jun 2027 05:03:54.289            37.024         18512.000
       139   06 Jun 2027 06:32:37.007   06 Jun 2027 06:32:55.605            18.598          9299.000
       140   06 Jun 2027 06:34:24.173   06 Jun 2027 06:36:37.395           133.222         66261.187
       141   06 Jun 2027 06:36:44.783   06 Jun 2027 06:36:46.894             2.111           131.656
       142   06 Jun 2027 06:37:14.535   06 Jun 2027 06:37:16.289             1.754           789.906
       143   06 Jun 2027 06:38:33.043   06 Jun 2027 06:38:37.805             4.762          2381.000
       144   06 Jun 2027 06:38:47.827   06 Jun 2027 06:38:47.827             0.000             0.000
       145   06 Jun 2027 06:38:57.067   06 Jun 2027 06:38:58.742             1.675           619.500
       146   06 Jun 2027 06:39:14.693   06 Jun 2027 06:39:17.082             2.389           208.688
       147   06 Jun 2027 06:39:42.871   06 Jun 2027 06:39:45.178             2.307           682.062
       148   06 Jun 2027 06:40:34.992   06 Jun 2027 06:40:37.911             2.919          1232.000
       149   06 Jun 2027 06:40:51.326   06 Jun 2027 06:40:52.581             1.255           419.219
       150   06 Jun 2027 06:41:26.146   06 Jun 2027 06:41:31.810             5.664           586.375
       151   06 Jun 2027 06:42:19.825   06 Jun 2027 06:42:21.197             1.372           474.750
       152   06 Jun 2027 08:11:28.665   06 Jun 2027 08:11:32.287             3.622          1618.406
       153   06 Jun 2027 08:13:21.616   06 Jun 2027 08:13:28.400             6.784           909.625
       154   06 Jun 2027 08:14:07.826   06 Jun 2027 08:14:09.076             1.250            51.156
       155   06 Jun 2027 08:14:58.529   06 Jun 2027 08:15:03.068             4.539          1045.469
       156   06 Jun 2027 08:16:51.737   06 Jun 2027 08:17:03.354            11.617          1536.000
       157   06 Jun 2027 08:17:35.748   06 Jun 2027 08:17:39.030             3.282           578.687
       158   06 Jun 2027 09:48:24.805   06 Jun 2027 09:48:38.527            13.722          6175.625
       159   06 Jun 2027 09:51:56.409   06 Jun 2027 09:51:57.188             0.779             6.937
       160   06 Jun 2027 09:53:12.156   06 Jun 2027 09:53:16.342             4.186          1830.156
       161   06 Jun 2027 11:25:11.408   06 Jun 2027 11:25:22.911            11.503          5174.594
       162   06 Jun 2027 11:26:36.938   06 Jun 2027 11:26:46.376             9.438          1259.594
       163   06 Jun 2027 11:27:30.362   06 Jun 2027 11:27:33.728             3.366           602.687
       164   06 Jun 2027 11:29:22.537   06 Jun 2027 11:29:30.843             8.306          2364.313
       165   06 Jun 2027 11:29:45.881   06 Jun 2027 11:29:46.092             0.211            47.437
       166   07 Jun 2027 03:36:01.603   07 Jun 2027 03:36:12.267            10.664          5332.000
       167   07 Jun 2027 03:38:42.700   07 Jun 2027 03:38:42.700             0.000             0.000
       168   07 Jun 2027 05:12:30.721   07 Jun 2027 05:12:48.122            17.401          8700.500
       169   07 Jun 2027 05:15:04.139   07 Jun 2027 05:16:00.140            56.001         28000.500
       170   07 Jun 2027 06:47:35.621   07 Jun 2027 06:51:09.200           213.579        106631.937
       171   07 Jun 2027 06:51:18.506   07 Jun 2027 06:51:18.506             0.000             0.000
       172   07 Jun 2027 06:52:32.214   07 Jun 2027 06:52:41.091             8.877          2411.625
       173   07 Jun 2027 06:53:37.864   07 Jun 2027 06:53:49.231            11.367          1472.562
       174   07 Jun 2027 06:54:01.755   07 Jun 2027 06:54:02.373             0.618           258.125
       175   07 Jun 2027 08:23:57.412   07 Jun 2027 08:24:03.219             5.807          2295.406
       176   07 Jun 2027 08:25:21.674   07 Jun 2027 08:25:23.273             1.599           474.938
       177   07 Jun 2027 08:26:28.192   07 Jun 2027 08:26:34.338             6.146           677.281
       178   07 Jun 2027 08:27:13.236   07 Jun 2027 08:27:15.094             1.858           297.812
       179   07 Jun 2027 08:27:47.027   07 Jun 2027 08:27:52.341             5.314           454.750
       180   07 Jun 2027 08:28:45.778   07 Jun 2027 08:28:50.804             5.026          1158.000
       181   07 Jun 2027 08:29:26.960   07 Jun 2027 08:29:28.764             1.804           610.062
       182   07 Jun 2027 10:01:27.905   07 Jun 2027 10:01:41.149            13.244          5850.750
       183   07 Jun 2027 10:03:57.881   07 Jun 2027 10:03:59.963             2.082           576.406
       184   07 Jun 2027 10:05:10.113   07 Jun 2027 10:05:13.891             3.778          1687.594
       185   07 Jun 2027 10:05:34.650   07 Jun 2027 10:05:38.713             4.063           648.719
       186   07 Jun 2027 11:37:32.521   07 Jun 2027 11:37:44.307            11.786          5850.594
       187   07 Jun 2027 11:39:44.388   07 Jun 2027 11:39:46.967             2.579           655.250
       188   07 Jun 2027 11:40:50.327   07 Jun 2027 11:40:53.899             3.572          1223.719
       189   07 Jun 2027 11:41:44.686   07 Jun 2027 11:41:46.331             1.645           625.250
       190   08 Jun 2027 03:47:57.629   08 Jun 2027 03:48:12.950            15.321          7660.500
       191   08 Jun 2027 03:50:12.019   08 Jun 2027 03:50:12.019             0.000             0.000
       192   08 Jun 2027 03:50:21.684   08 Jun 2027 03:50:43.347            21.663         10831.500
       193   08 Jun 2027 03:51:08.439   08 Jun 2027 03:51:08.439             0.000             0.000
       194   08 Jun 2027 05:24:35.425   08 Jun 2027 05:27:54.121           198.696         99348.000
       195   08 Jun 2027 06:59:45.693   08 Jun 2027 07:01:02.142            76.449         38000.094
       196   08 Jun 2027 07:01:33.605   08 Jun 2027 07:01:36.766             3.161           983.219
       197   08 Jun 2027 07:02:37.908   08 Jun 2027 07:02:43.630             5.722           844.188
       198   08 Jun 2027 07:02:48.734   08 Jun 2027 07:02:48.734             0.000             0.000
       199   08 Jun 2027 07:02:52.817   08 Jun 2027 07:02:53.858             1.041           272.781
       200   08 Jun 2027 07:03:34.082   08 Jun 2027 07:03:37.978             3.896           605.250
       201   08 Jun 2027 07:05:14.138   08 Jun 2027 07:05:19.168             5.030          2082.219
       202   08 Jun 2027 07:05:57.871   08 Jun 2027 07:05:59.683             1.812           563.938
       203   08 Jun 2027 08:36:00.800   08 Jun 2027 08:36:06.284             5.484          2528.438
       204   08 Jun 2027 08:37:50.729   08 Jun 2027 08:37:58.338             7.609           455.875
       205   08 Jun 2027 08:38:30.813   08 Jun 2027 08:38:32.753             1.940           319.094
       206   08 Jun 2027 08:39:20.781   08 Jun 2027 08:39:24.945             4.164          1340.563
       207   08 Jun 2027 08:40:37.734   08 Jun 2027 08:40:42.505             4.771           741.125
       208   08 Jun 2027 08:41:00.711   08 Jun 2027 08:41:06.435             5.724            25.625
       209   08 Jun 2027 10:13:33.458   08 Jun 2027 10:13:47.495            14.037          6245.062
       210   08 Jun 2027 10:15:46.300   08 Jun 2027 10:15:51.110             4.810          1758.969
       211   08 Jun 2027 10:17:02.270   08 Jun 2027 10:17:11.139             8.869          1985.594
       212   08 Jun 2027 10:17:32.964   08 Jun 2027 10:17:39.781             6.817           235.594
       213   08 Jun 2027 10:17:47.891   08 Jun 2027 10:17:50.564             2.673           168.250
       214   08 Jun 2027 11:49:34.780   08 Jun 2027 11:49:51.364            16.584          6190.031
       215   08 Jun 2027 11:51:44.931   08 Jun 2027 11:51:58.406            13.475           456.531
       216   08 Jun 2027 11:54:27.035   08 Jun 2027 11:54:30.710             3.675           475.187
       217   09 Jun 2027 04:00:33.482   09 Jun 2027 04:00:58.336            24.854         12427.000
       218   09 Jun 2027 04:02:35.978   09 Jun 2027 04:02:48.499            12.521          6260.500
       219   09 Jun 2027 05:36:19.051   09 Jun 2027 05:39:30.312           191.261         95630.500
       220   09 Jun 2027 05:39:38.654   09 Jun 2027 05:39:46.913             8.259          4129.500
       221   09 Jun 2027 07:11:10.264   09 Jun 2027 07:12:33.219            82.955         40667.062
       222   09 Jun 2027 07:13:20.976   09 Jun 2027 07:13:23.018             2.042          1020.188
       223   09 Jun 2027 07:14:06.594   09 Jun 2027 07:14:09.051             2.457           285.469
       224   09 Jun 2027 07:14:24.054   09 Jun 2027 07:14:24.054             0.000             0.000
       225   09 Jun 2027 07:14:47.416   09 Jun 2027 07:14:49.382             1.966           767.813
       226   09 Jun 2027 07:16:31.809   09 Jun 2027 07:16:39.272             7.463          3025.500
       227   09 Jun 2027 07:17:19.759   09 Jun 2027 07:17:25.840             6.081           716.969
       228   09 Jun 2027 07:17:56.505   09 Jun 2027 07:18:01.891             5.386           584.781
       229   09 Jun 2027 07:18:27.081   09 Jun 2027 07:18:32.310             5.229           397.156
       230   09 Jun 2027 08:47:45.940   09 Jun 2027 08:47:57.663            11.723          4387.438
       231   09 Jun 2027 08:48:44.535   09 Jun 2027 08:48:45.270             0.735           225.719
       232   09 Jun 2027 08:50:02.439   09 Jun 2027 08:50:05.244             2.805           209.562
       233   09 Jun 2027 08:51:10.533   09 Jun 2027 08:51:14.041             3.508          1211.281
       234   09 Jun 2027 08:52:05.219   09 Jun 2027 08:52:07.507             2.288          1041.875
       235   09 Jun 2027 08:52:54.467   09 Jun 2027 08:52:56.802             2.335          1126.156
       236   09 Jun 2027 08:54:04.449   09 Jun 2027 08:54:09.761             5.312          2105.625
       237   09 Jun 2027 10:26:03.561   09 Jun 2027 10:26:17.126            13.565          6772.156
       238   09 Jun 2027 10:27:19.044   09 Jun 2027 10:27:25.083             6.039          1896.937
       239   09 Jun 2027 10:27:58.893   09 Jun 2027 10:27:59.718             0.825           199.719
       240   09 Jun 2027 10:29:26.189   09 Jun 2027 10:29:28.738             2.549           270.531
       241   09 Jun 2027 10:29:49.641   09 Jun 2027 10:29:50.671             1.030           448.281
       242   09 Jun 2027 11:59:24.314   09 Jun 2027 11:59:32.531             8.217          4108.500
       243   10 Jun 2027 04:11:12.230   10 Jun 2027 04:11:40.702            28.472         14236.000
       244   10 Jun 2027 04:13:11.879   10 Jun 2027 04:13:17.200             5.321          2660.500
       245   10 Jun 2027 04:15:12.923   10 Jun 2027 04:15:22.474             9.551          4775.500
       246   10 Jun 2027 05:46:32.053   10 Jun 2027 05:47:31.073            59.020         29510.000
       247   10 Jun 2027 05:48:04.087   10 Jun 2027 05:48:54.847            50.760         25380.000
       248   10 Jun 2027 05:49:31.290   10 Jun 2027 05:50:35.574            64.284         32142.000
       249   10 Jun 2027 05:51:58.015   10 Jun 2027 05:51:59.593             1.578           789.000
       250   10 Jun 2027 05:52:26.258   10 Jun 2027 05:52:27.382             1.124           562.000
       251   10 Jun 2027 07:23:02.443   10 Jun 2027 07:24:43.719           101.276         49988.875
       252   10 Jun 2027 07:26:22.718   10 Jun 2027 07:26:30.424             7.706          1652.625
       253   10 Jun 2027 07:26:56.906   10 Jun 2027 07:26:58.763             1.857           190.531
       254   10 Jun 2027 07:28:30.640   10 Jun 2027 07:28:35.151             4.511          2034.906
       255   10 Jun 2027 07:29:01.623   10 Jun 2027 07:29:06.211             4.588            61.406
       256   10 Jun 2027 07:29:42.878   10 Jun 2027 07:29:44.573             1.695           298.156
       257   10 Jun 2027 09:00:07.028   10 Jun 2027 09:00:17.690            10.662          5097.187
       258   10 Jun 2027 09:01:27.522   10 Jun 2027 09:01:32.964             5.442           335.906
       259   10 Jun 2027 09:01:49.700   10 Jun 2027 09:01:52.611             2.911           423.781
       260   10 Jun 2027 09:03:32.737   10 Jun 2027 09:03:38.648             5.911          1899.875
       261   10 Jun 2027 09:04:12.826   10 Jun 2027 09:04:15.635             2.809           814.281
       262   10 Jun 2027 09:04:22.261   10 Jun 2027 09:04:29.652             7.391           200.281
       263   10 Jun 2027 09:04:56.563   10 Jun 2027 09:04:57.297             0.734           296.062
       264   10 Jun 2027 10:38:01.269   10 Jun 2027 10:38:15.271            14.002          6338.969
       265   10 Jun 2027 10:39:34.383   10 Jun 2027 10:39:37.376             2.993          1216.938
       266   10 Jun 2027 10:40:17.869   10 Jun 2027 10:40:22.439             4.570           770.719
       267   10 Jun 2027 10:41:12.540   10 Jun 2027 10:41:15.241             2.701          1286.094
       268   10 Jun 2027 10:41:59.376   10 Jun 2027 10:42:00.937             1.561           780.500
       269   11 Jun 2027 03:00:32.467   11 Jun 2027 03:00:57.973            25.506         12753.000
       270   11 Jun 2027 03:01:30.104   11 Jun 2027 03:01:33.274             3.170          1585.000
       271   11 Jun 2027 04:22:48.040   11 Jun 2027 04:23:41.482            53.442         26721.000
       272   11 Jun 2027 04:25:18.763   11 Jun 2027 04:25:24.794             6.031          3015.500
       273   11 Jun 2027 04:26:25.413   11 Jun 2027 04:26:48.986            23.573         11786.500
       274   11 Jun 2027 04:26:53.657   11 Jun 2027 04:27:11.549            17.892          8946.000
       275   11 Jun 2027 05:57:41.763   11 Jun 2027 05:59:44.753           122.990         61495.000
       276   11 Jun 2027 05:59:51.238   11 Jun 2027 06:00:00.659             9.421          4710.500
       277   11 Jun 2027 06:01:10.673   11 Jun 2027 06:01:54.085            43.412         21706.000
       278   11 Jun 2027 06:02:47.142   11 Jun 2027 06:02:48.591             1.449           724.500
       279   11 Jun 2027 06:03:58.097   11 Jun 2027 06:04:12.266            14.169          7084.500
       280   11 Jun 2027 06:05:52.404   11 Jun 2027 06:05:52.404             0.000             0.000
       281   11 Jun 2027 07:35:15.507   11 Jun 2027 07:35:30.993            15.486          7721.187
       282   11 Jun 2027 07:38:28.821   11 Jun 2027 07:38:30.164             1.343           617.031
       283   11 Jun 2027 07:38:54.224   11 Jun 2027 07:38:58.525             4.301           751.875
       284   11 Jun 2027 07:39:33.032   11 Jun 2027 07:39:36.034             3.002          1078.344
       285   11 Jun 2027 07:40:45.490   11 Jun 2027 07:40:45.490             0.000             0.000
       286   11 Jun 2027 07:41:02.345   11 Jun 2027 07:41:04.786             2.441          1052.531
       287   11 Jun 2027 07:42:11.263   11 Jun 2027 07:42:14.949             3.686           459.219
       288   11 Jun 2027 09:11:58.044   11 Jun 2027 09:12:09.178            11.134          5552.781
       289   11 Jun 2027 09:14:31.126   11 Jun 2027 09:14:32.141             1.015           312.875
       290   11 Jun 2027 09:15:03.089   11 Jun 2027 09:15:05.840             2.751           864.094
       291   11 Jun 2027 09:15:49.780   11 Jun 2027 09:15:52.481             2.701          1141.750
       292   11 Jun 2027 09:15:58.646   11 Jun 2027 09:15:59.385             0.739           156.719
       293   11 Jun 2027 09:16:25.234   11 Jun 2027 09:16:33.565             8.331           608.344
       294   11 Jun 2027 09:17:10.717   11 Jun 2027 09:17:13.274             2.557           357.312
       295   11 Jun 2027 09:18:17.826   11 Jun 2027 09:18:21.598             3.772          1216.625
       296   11 Jun 2027 10:50:01.163   11 Jun 2027 10:50:15.045            13.882          6516.281
       297   11 Jun 2027 10:51:56.807   11 Jun 2027 10:52:02.186             5.379          2052.062
       298   11 Jun 2027 10:53:01.571   11 Jun 2027 10:53:08.766             7.195          1824.406
       299   11 Jun 2027 10:53:23.708   11 Jun 2027 10:53:25.429             1.721           313.531
       300   11 Jun 2027 10:53:54.644   11 Jun 2027 10:53:56.045             1.401            93.875
       301   11 Jun 2027 10:54:00.654   11 Jun 2027 10:54:03.012             2.358             9.500
       302   12 Jun 2027 03:00:25.238   12 Jun 2027 03:00:36.604            11.366          5683.000
       303   12 Jun 2027 03:12:41.034   12 Jun 2027 03:13:07.573            26.539         13269.500
       304   12 Jun 2027 04:34:17.170   12 Jun 2027 04:35:40.287            83.117         41558.500
       305   12 Jun 2027 04:36:51.160   12 Jun 2027 04:37:00.953             9.793          4896.500
       306   12 Jun 2027 04:37:09.078   12 Jun 2027 04:37:25.986            16.908          8454.000
       307   12 Jun 2027 04:38:47.699   12 Jun 2027 04:38:51.599             3.900          1950.000
       308   12 Jun 2027 04:38:56.041   12 Jun 2027 04:39:27.854            31.813         15906.500
       309   12 Jun 2027 06:09:12.472   12 Jun 2027 06:10:59.215           106.743         53371.500
       310   12 Jun 2027 06:11:11.114   12 Jun 2027 06:11:19.365             8.251          2774.250
       311   12 Jun 2027 06:12:52.289   12 Jun 2027 06:12:56.943             4.654          2286.219
       312   12 Jun 2027 06:14:33.467   12 Jun 2027 06:14:39.715             6.248          3016.375
       313   12 Jun 2027 06:15:22.461   12 Jun 2027 06:15:22.461             0.000             0.000
       314   12 Jun 2027 06:15:48.921   12 Jun 2027 06:15:53.255             4.334          2092.969
       315   12 Jun 2027 06:16:54.966   12 Jun 2027 06:16:54.966             0.000             0.000
       316   12 Jun 2027 06:17:40.567   12 Jun 2027 06:17:45.207             4.640          2070.906
       317   12 Jun 2027 06:18:07.187   12 Jun 2027 06:18:14.907             7.720           316.906
       318   12 Jun 2027 07:47:09.447   12 Jun 2027 07:47:12.239             2.792           667.844
       319   12 Jun 2027 07:48:47.645   12 Jun 2027 07:48:52.784             5.139          2018.125
       320   12 Jun 2027 07:49:52.825   12 Jun 2027 07:49:57.384             4.559          1001.469
       321   12 Jun 2027 07:50:33.786   12 Jun 2027 07:50:35.079             1.293           426.937
       322   12 Jun 2027 07:51:32.684   12 Jun 2027 07:51:33.855             1.171           228.719
       323   12 Jun 2027 07:52:25.703   12 Jun 2027 07:52:28.455             2.752          1325.281
       324   12 Jun 2027 07:52:55.512   12 Jun 2027 07:52:57.183             1.671           752.969
       325   12 Jun 2027 07:53:23.997   12 Jun 2027 07:53:31.522             7.525           327.281
       326   12 Jun 2027 07:54:00.880   12 Jun 2027 07:54:05.269             4.389           683.562
       327   12 Jun 2027 09:24:03.802   12 Jun 2027 09:24:19.632            15.830          7425.344
       328   12 Jun 2027 09:26:35.732   12 Jun 2027 09:26:44.319             8.587          1415.531
       329   12 Jun 2027 09:28:03.636   12 Jun 2027 09:28:05.772             2.136           596.219
       330   12 Jun 2027 09:28:35.188   12 Jun 2027 09:28:36.676             1.488           184.187
       331   12 Jun 2027 09:29:05.330   12 Jun 2027 09:29:12.305             6.975           882.281
       332   12 Jun 2027 11:01:47.502   12 Jun 2027 11:02:02.930            15.428          5453.719
       333   12 Jun 2027 11:04:07.760   12 Jun 2027 11:04:11.064             3.304           420.750
       334   12 Jun 2027 11:04:53.300   12 Jun 2027 11:04:58.780             5.480           314.844
       335   12 Jun 2027 11:05:55.744   12 Jun 2027 11:06:00.125             4.381          1780.125
       336   13 Jun 2027 03:12:20.987   13 Jun 2027 03:12:24.478             3.491          1745.500
       337   13 Jun 2027 03:12:49.756   13 Jun 2027 03:13:14.589            24.833         12416.500
       338   13 Jun 2027 04:48:20.950   13 Jun 2027 04:51:47.092           206.142        103071.000
       339   13 Jun 2027 06:22:05.959   13 Jun 2027 06:23:24.700            78.741         37490.406
       340   13 Jun 2027 06:24:47.804   13 Jun 2027 06:24:51.337             3.533          1333.063
       341   13 Jun 2027 06:24:59.016   13 Jun 2027 06:24:59.612             0.596           121.594
       342   13 Jun 2027 06:25:27.468   13 Jun 2027 06:25:31.067             3.599           546.500
       343   13 Jun 2027 06:26:33.845   13 Jun 2027 06:26:33.845             0.000             0.000
       344   13 Jun 2027 06:27:23.662   13 Jun 2027 06:27:30.810             7.148          3180.469
       345   13 Jun 2027 06:27:41.865   13 Jun 2027 06:27:43.257             1.392           345.469
       346   13 Jun 2027 06:28:37.192   13 Jun 2027 06:28:41.221             4.029          1311.687
       347   13 Jun 2027 06:29:30.562   13 Jun 2027 06:29:37.740             7.178          1380.562
       348   13 Jun 2027 06:30:33.793   13 Jun 2027 06:30:36.040             2.247            61.500
       349   13 Jun 2027 07:59:30.322   13 Jun 2027 07:59:35.217             4.895           174.969
       350   13 Jun 2027 08:01:03.530   13 Jun 2027 08:01:08.762             5.232           337.250
       351   13 Jun 2027 08:02:36.384   13 Jun 2027 08:02:40.527             4.143          1901.687
       352   13 Jun 2027 08:03:11.087   13 Jun 2027 08:03:14.923             3.836           315.344
       353   13 Jun 2027 08:03:23.168   13 Jun 2027 08:03:23.930             0.762           235.406
       354   13 Jun 2027 08:05:10.662   13 Jun 2027 08:05:13.198             2.536           813.437
       355   13 Jun 2027 08:05:45.050   13 Jun 2027 08:05:49.670             4.620           165.438
       356   13 Jun 2027 09:36:34.127   13 Jun 2027 09:36:48.540            14.413          5121.000
       357   13 Jun 2027 09:38:44.886   13 Jun 2027 09:38:47.962             3.076           301.375
       358   13 Jun 2027 09:40:15.278   13 Jun 2027 09:40:19.779             4.501           360.813
       359   13 Jun 2027 09:40:21.569   13 Jun 2027 09:40:22.929             1.360            19.094
       360   13 Jun 2027 09:40:28.945   13 Jun 2027 09:40:30.334             1.389           131.875
       361   13 Jun 2027 09:40:51.611   13 Jun 2027 09:40:53.889             2.278           474.688
       362   13 Jun 2027 09:41:11.430   13 Jun 2027 09:41:12.339             0.909           421.406
       363   13 Jun 2027 09:42:04.277   13 Jun 2027 09:42:09.864             5.587          1544.375
       364   13 Jun 2027 11:13:18.906   13 Jun 2027 11:13:30.824            11.918          4991.938
       365   13 Jun 2027 11:14:54.008   13 Jun 2027 11:14:56.806             2.798           307.687
       366   13 Jun 2027 11:16:11.834   13 Jun 2027 11:16:17.599             5.765           664.469
       367   13 Jun 2027 11:17:36.487   13 Jun 2027 11:17:41.147             4.660          2033.656
       368   13 Jun 2027 11:18:01.119   13 Jun 2027 11:18:04.825             3.706           294.688
