uniorb/output/strategy_4/Camera/Camera_KinoSat_110203.txt

KinoSat_110203
-------------------------
    Access    *     Start Time (UTCG)     *     Stop Time (UTCG)  *   Duration (s) *   Data (Mbytes)
         1   01 Jun 2027 04:21:19.579   01 Jun 2027 04:23:13.469           113.890         56945.000
         2   01 Jun 2027 04:24:32.409   01 Jun 2027 04:25:12.974            40.565         20282.500
         3   01 Jun 2027 04:25:26.086   01 Jun 2027 04:25:41.597            15.511          7755.500
         4   01 Jun 2027 04:27:14.744   01 Jun 2027 04:27:36.416            21.672         10836.000
         5   01 Jun 2027 05:58:42.997   01 Jun 2027 06:02:10.569           207.572        103786.000
         6   01 Jun 2027 07:34:54.284   01 Jun 2027 07:37:39.747           165.463         82731.500
         7   01 Jun 2027 07:38:35.326   01 Jun 2027 07:39:06.421            31.095         15547.500
         8   02 Jun 2027 03:00:00.000   02 Jun 2027 03:03:44.074           224.074        112037.000
         9   02 Jun 2027 04:32:58.492   02 Jun 2027 04:39:17.690           379.198        189599.000
        10   02 Jun 2027 06:10:57.695   02 Jun 2027 06:15:21.837           264.142        132071.000
        11   02 Jun 2027 07:46:49.147   02 Jun 2027 07:51:02.252           253.105        126552.500
        12   02 Jun 2027 07:51:15.962   02 Jun 2027 07:51:59.405            43.443         21721.500
        13   03 Jun 2027 03:08:18.201   03 Jun 2027 03:15:51.245           453.044        226522.000
        14   03 Jun 2027 04:45:07.313   03 Jun 2027 04:51:27.216           379.903        189951.500
        15   03 Jun 2027 06:23:36.455   03 Jun 2027 06:27:16.185           219.730        109865.000
        16   03 Jun 2027 07:56:45.634   03 Jun 2027 07:58:10.539            84.905         42452.500
        17   03 Jun 2027 07:58:37.431   03 Jun 2027 08:02:59.321           261.890        130945.000
        18   03 Jun 2027 08:03:26.721   03 Jun 2027 08:04:21.801            55.080         27540.000
        19   04 Jun 2027 03:20:26.305   04 Jun 2027 03:27:50.381           444.076        222038.000
        20   04 Jun 2027 04:57:24.417   04 Jun 2027 05:03:17.606           353.189        176594.500
        21   04 Jun 2027 06:35:19.582   04 Jun 2027 06:39:18.764           239.182        119591.000
        22   04 Jun 2027 08:08:39.076   04 Jun 2027 08:14:55.070           375.994        187997.000
        23   04 Jun 2027 08:14:57.692   04 Jun 2027 08:16:23.611            85.919         42959.500
        24   05 Jun 2027 03:32:28.422   05 Jun 2027 03:39:54.160           445.738        222869.000
        25   05 Jun 2027 05:09:14.041   05 Jun 2027 05:15:11.791           357.750        178875.000
        26   05 Jun 2027 05:15:30.510   05 Jun 2027 05:15:55.426            24.916         12458.000
        27   05 Jun 2027 06:47:41.281   05 Jun 2027 06:51:27.865           226.584        113292.000
        28   05 Jun 2027 08:21:05.502   05 Jun 2027 08:27:53.867           408.365        204182.500
        29   06 Jun 2027 03:44:28.859   06 Jun 2027 03:51:55.658           446.799        223399.500
        30   06 Jun 2027 05:21:22.515   06 Jun 2027 05:26:30.050           307.535        153767.500
        31   06 Jun 2027 05:26:41.331   06 Jun 2027 05:27:49.830            68.499         34249.500
        32   06 Jun 2027 06:59:03.541   06 Jun 2027 07:03:26.146           262.605        131302.500
        33   06 Jun 2027 08:33:20.598   06 Jun 2027 08:34:30.983            70.385         35192.500
        34   06 Jun 2027 08:35:19.136   06 Jun 2027 08:38:35.853           196.717         98358.500
        35   07 Jun 2027 03:56:52.085   07 Jun 2027 04:03:40.761           408.676        204338.000
        36   07 Jun 2027 05:33:50.496   07 Jun 2027 05:38:20.457           269.961        134980.500
        37   07 Jun 2027 05:38:59.673   07 Jun 2027 05:39:42.181            42.508         21254.000
        38   07 Jun 2027 07:11:12.792   07 Jun 2027 07:15:20.901           248.109        124054.500
        39   07 Jun 2027 08:47:54.361   07 Jun 2027 08:50:22.728           148.367         74183.500
        40   08 Jun 2027 04:09:00.792   08 Jun 2027 04:15:45.307           404.515        202257.500
        41   08 Jun 2027 05:46:20.919   08 Jun 2027 05:50:26.156           245.237        122618.500
        42   08 Jun 2027 05:50:56.816   08 Jun 2027 05:51:07.350            10.534          5267.000
        43   08 Jun 2027 07:22:45.983   08 Jun 2027 07:27:52.078           306.095        153047.500
        44   08 Jun 2027 09:01:02.430   08 Jun 2027 09:01:43.992            41.562         20781.000
        45   09 Jun 2027 04:21:34.549   09 Jun 2027 04:27:51.303           376.754        188377.000
        46   09 Jun 2027 05:58:57.644   09 Jun 2027 06:03:30.133           272.489        136244.500
        47   09 Jun 2027 07:35:08.864   09 Jun 2027 07:39:23.016           254.152        127076.000
        48   10 Jun 2027 03:00:00.000   10 Jun 2027 03:03:59.171           239.171        119585.500
        49   10 Jun 2027 04:33:13.194   10 Jun 2027 04:39:32.799           379.605        189802.500
        50   10 Jun 2027 06:11:12.121   10 Jun 2027 06:15:36.594           264.473        132236.500
        51   10 Jun 2027 07:47:03.660   10 Jun 2027 07:51:16.999           253.339        126669.500
        52   10 Jun 2027 07:51:22.873   10 Jun 2027 07:52:14.499            51.626         25813.000
        53   11 Jun 2027 03:08:33.005   11 Jun 2027 03:16:06.108           453.103        226551.500
        54   11 Jun 2027 04:45:22.728   11 Jun 2027 04:51:42.092           379.364        189682.000
        55   11 Jun 2027 06:23:34.677   11 Jun 2027 06:27:31.018           236.341        118170.500
        56   11 Jun 2027 07:57:01.498   11 Jun 2027 07:58:24.728            83.230         41615.000
        57   11 Jun 2027 07:58:52.064   11 Jun 2027 08:03:14.644           262.580        131290.000
        58   11 Jun 2027 08:03:44.614   11 Jun 2027 08:04:36.438            51.824         25912.000
        59   12 Jun 2027 03:20:40.997   12 Jun 2027 03:28:05.367           444.370        222185.000
        60   12 Jun 2027 04:57:39.045   12 Jun 2027 05:03:32.661           353.616        176808.000
        61   12 Jun 2027 06:36:08.452   12 Jun 2027 06:39:33.621           205.169        102584.500
        62   12 Jun 2027 08:08:54.618   12 Jun 2027 08:15:10.577           375.959        187979.500
        63   12 Jun 2027 08:15:10.894   12 Jun 2027 08:16:38.246            87.352         43676.000
        64   13 Jun 2027 03:32:42.877   13 Jun 2027 03:40:09.006           446.129        223064.500
        65   13 Jun 2027 05:09:28.820   13 Jun 2027 05:15:26.322           357.502        178751.000
        66   13 Jun 2027 05:15:40.348   13 Jun 2027 05:16:10.370            30.022         15011.000
        67   13 Jun 2027 06:47:33.867   13 Jun 2027 06:51:42.632           248.765        124382.500
        68   13 Jun 2027 08:21:21.386   13 Jun 2027 08:28:08.520           407.134        203567.000
