uniorb/output/strategy_4/Camera/Camera_KinoSat_111902.txt

KinoSat_111902
-------------------------
    Access    *     Start Time (UTCG)     *     Stop Time (UTCG)  *   Duration (s) *   Data (Mbytes)
         1   01 Jun 2027 03:29:31.061   01 Jun 2027 03:31:39.081           128.020         64010.000
         2   01 Jun 2027 03:32:01.655   01 Jun 2027 03:32:26.875            25.220         12610.000
         3   01 Jun 2027 05:07:47.395   01 Jun 2027 05:07:58.502            11.107          5553.500
         4   01 Jun 2027 05:08:49.287   01 Jun 2027 05:10:16.616            87.329         43664.500
         5   01 Jun 2027 05:11:05.331   01 Jun 2027 05:11:10.040             4.709          2354.500
         6   01 Jun 2027 05:13:16.677   01 Jun 2027 05:13:21.184             4.507          2253.500
         7   01 Jun 2027 05:13:50.645   01 Jun 2027 05:13:55.799             5.154          2577.000
         8   01 Jun 2027 05:15:56.432   01 Jun 2027 05:16:29.061            32.629         16314.500
         9   01 Jun 2027 06:45:57.991   01 Jun 2027 06:46:36.408            38.417         19208.500
        10   01 Jun 2027 06:47:04.878   01 Jun 2027 06:47:37.307            32.429         16214.500
        11   01 Jun 2027 06:48:38.296   01 Jun 2027 06:48:45.139             6.843          3421.500
        12   01 Jun 2027 08:10:07.353   01 Jun 2027 08:12:07.964           120.611         60305.500
        13   01 Jun 2027 08:12:35.055   01 Jun 2027 08:12:35.055             0.000             0.000
        14   01 Jun 2027 09:45:50.431   01 Jun 2027 09:46:08.220            17.789          8894.500
        15   01 Jun 2027 09:47:15.939   01 Jun 2027 09:49:01.971           106.032         53016.000
        16   01 Jun 2027 11:23:23.992   01 Jun 2027 11:23:51.341            27.349         13674.500
        17   01 Jun 2027 11:27:25.912   01 Jun 2027 11:27:47.058            21.146         10573.000
        18   02 Jun 2027 03:42:07.327   02 Jun 2027 03:44:49.663           162.336         81168.000
        19   02 Jun 2027 03:45:09.975   02 Jun 2027 03:45:20.126            10.151          5075.500
        20   02 Jun 2027 03:47:12.843   02 Jun 2027 03:47:14.133             1.290           645.000
        21   02 Jun 2027 03:47:23.277   02 Jun 2027 03:47:28.434             5.157          2578.500
        22   02 Jun 2027 05:20:52.757   02 Jun 2027 05:23:08.710           135.953         67976.500
        23   02 Jun 2027 05:23:56.105   02 Jun 2027 05:24:30.302            34.197         17098.500
        24   02 Jun 2027 05:27:26.817   02 Jun 2027 05:28:31.479            64.662         32331.000
        25   02 Jun 2027 06:46:54.382   02 Jun 2027 06:47:22.577            28.195         14097.500
        26   02 Jun 2027 06:57:54.476   02 Jun 2027 06:59:36.202           101.726         50863.000
        27   02 Jun 2027 06:59:55.150   02 Jun 2027 07:01:13.335            78.185         39092.500
        28   02 Jun 2027 08:20:54.770   02 Jun 2027 08:22:09.506            74.736         37368.000
        29   02 Jun 2027 08:22:59.043   02 Jun 2027 08:22:59.043             0.000             0.000
        30   02 Jun 2027 09:56:26.424   02 Jun 2027 09:56:32.523             6.099          3049.500
        31   02 Jun 2027 09:57:36.136   02 Jun 2027 09:58:18.607            42.471         21076.469
        32   02 Jun 2027 09:59:16.463   02 Jun 2027 09:59:20.635             4.172          1779.031
        33   02 Jun 2027 10:00:20.635   02 Jun 2027 10:00:27.676             7.041          1102.781
        34   02 Jun 2027 10:00:40.939   02 Jun 2027 10:00:41.936             0.997           333.656
        35   02 Jun 2027 10:00:52.319   02 Jun 2027 10:00:53.046             0.727           295.000
        36   02 Jun 2027 10:01:40.939   02 Jun 2027 10:01:46.340             5.401           972.094
        37   02 Jun 2027 11:32:21.456   02 Jun 2027 11:32:32.508            11.052          4065.594
        38   02 Jun 2027 11:38:42.378   02 Jun 2027 11:38:57.924            15.546          7773.000
        39   02 Jun 2027 11:39:15.070   02 Jun 2027 11:39:22.557             7.487          3494.750
        40   02 Jun 2027 11:39:43.281   02 Jun 2027 11:39:44.560             1.279           174.000
        41   02 Jun 2027 11:39:52.242   02 Jun 2027 11:39:55.069             2.827           230.156
        42   03 Jun 2027 03:54:16.163   03 Jun 2027 03:57:17.718           181.555         90777.500
        43   03 Jun 2027 03:57:30.575   03 Jun 2027 03:58:09.196            38.621         19310.500
        44   03 Jun 2027 03:58:57.840   03 Jun 2027 03:58:59.528             1.688           844.000
        45   03 Jun 2027 03:59:10.722   03 Jun 2027 03:59:13.044             2.322          1161.000
        46   03 Jun 2027 03:59:33.934   03 Jun 2027 03:59:34.513             0.579           289.500
        47   03 Jun 2027 04:00:38.568   03 Jun 2027 04:00:38.568             0.000             0.000
        48   03 Jun 2027 05:33:21.044   03 Jun 2027 05:34:14.382            53.338         26669.000
        49   03 Jun 2027 05:35:29.608   03 Jun 2027 05:36:29.366            59.758         29818.500
        50   03 Jun 2027 05:38:56.270   03 Jun 2027 05:39:10.858            14.588          4471.375
        51   03 Jun 2027 05:39:23.867   03 Jun 2027 05:39:25.122             1.255           218.875
        52   03 Jun 2027 06:58:15.236   03 Jun 2027 06:58:26.845            11.609          4924.625
        53   03 Jun 2027 06:58:57.699   03 Jun 2027 06:58:57.699             0.000             0.000
        54   03 Jun 2027 06:59:27.106   03 Jun 2027 06:59:33.436             6.330          1883.156
        55   03 Jun 2027 07:09:57.465   03 Jun 2027 07:10:06.126             8.661          3270.687
        56   03 Jun 2027 07:11:05.372   03 Jun 2027 07:11:06.357             0.985             9.875
        57   03 Jun 2027 08:32:10.816   03 Jun 2027 08:32:32.466            21.650          9862.969
        58   03 Jun 2027 08:32:55.919   03 Jun 2027 08:32:58.570             2.651           436.656
        59   03 Jun 2027 08:34:45.475   03 Jun 2027 08:34:52.995             7.520          2561.031
        60   03 Jun 2027 08:36:09.874   03 Jun 2027 08:36:16.738             6.864          2098.094
        61   03 Jun 2027 08:37:06.041   03 Jun 2027 08:37:09.211             3.170          1537.125
        62   03 Jun 2027 10:07:18.159   03 Jun 2027 10:07:23.309             5.150          2363.719
        63   03 Jun 2027 10:07:47.541   03 Jun 2027 10:07:49.921             2.380            94.563
        64   03 Jun 2027 10:08:12.275   03 Jun 2027 10:08:15.349             3.074           328.906
        65   03 Jun 2027 10:09:36.969   03 Jun 2027 10:09:40.431             3.462           976.031
        66   03 Jun 2027 10:11:41.729   03 Jun 2027 10:11:58.290            16.561          3679.813
        67   03 Jun 2027 10:12:59.269   03 Jun 2027 10:13:02.128             2.859          1347.438
        68   03 Jun 2027 10:13:34.765   03 Jun 2027 10:13:37.022             2.257           286.063
        69   03 Jun 2027 11:47:37.495   03 Jun 2027 11:47:39.862             2.367          1183.500
        70   03 Jun 2027 11:49:51.291   03 Jun 2027 11:50:20.018            28.727         13460.500
        71   03 Jun 2027 11:50:56.664   03 Jun 2027 11:51:00.090             3.426           244.125
        72   03 Jun 2027 11:51:27.350   03 Jun 2027 11:51:29.504             2.154           726.719
        73   04 Jun 2027 04:06:35.004   04 Jun 2027 04:07:05.998            30.994         15497.000
        74   04 Jun 2027 04:07:07.429   04 Jun 2027 04:10:14.851           187.422         93711.000
        75   04 Jun 2027 05:46:00.153   04 Jun 2027 05:47:21.720            81.567         40783.500
        76   04 Jun 2027 05:47:41.707   04 Jun 2027 05:48:16.895            35.188         16065.313
        77   04 Jun 2027 05:50:22.657   04 Jun 2027 05:50:32.018             9.361          3630.781
        78   04 Jun 2027 05:51:03.174   04 Jun 2027 05:51:06.216             3.042           470.156
        79   04 Jun 2027 05:51:35.080   04 Jun 2027 05:51:40.339             5.259           777.000
        80   04 Jun 2027 07:09:41.399   04 Jun 2027 07:09:59.624            18.225          6484.062
        81   04 Jun 2027 07:10:55.461   04 Jun 2027 07:10:58.986             3.525          1649.156
        82   04 Jun 2027 07:11:43.637   04 Jun 2027 07:11:48.411             4.774          1052.500
        83   04 Jun 2027 07:11:55.482   04 Jun 2027 07:11:55.962             0.480           144.844
        84   04 Jun 2027 07:21:58.570   04 Jun 2027 07:22:06.368             7.798          2426.719
        85   04 Jun 2027 08:43:55.824   04 Jun 2027 08:44:20.826            25.002         11132.063
        86   04 Jun 2027 08:45:59.431   04 Jun 2027 08:46:03.340             3.909          1541.656
        87   04 Jun 2027 08:46:45.386   04 Jun 2027 08:46:46.992             1.606           356.188
        88   04 Jun 2027 08:48:08.536   04 Jun 2027 08:48:12.391             3.855          1859.469
        89   04 Jun 2027 08:48:59.334   04 Jun 2027 08:49:01.868             2.534          1234.062
        90   04 Jun 2027 10:18:47.792   04 Jun 2027 10:18:53.848             6.056          2469.875
        91   04 Jun 2027 10:20:35.710   04 Jun 2027 10:20:39.774             4.064          1746.844
        92   04 Jun 2027 10:21:15.631   04 Jun 2027 10:21:18.271             2.640           975.562
        93   04 Jun 2027 10:25:00.670   04 Jun 2027 10:25:12.352            11.682          5473.125
        94   04 Jun 2027 10:25:45.539   04 Jun 2027 10:25:46.613             1.074           393.625
        95   04 Jun 2027 10:27:04.121   04 Jun 2027 10:27:08.628             4.507          1748.188
        96   05 Jun 2027 04:19:19.806   05 Jun 2027 04:19:43.408            23.602         11801.000
        97   05 Jun 2027 04:19:46.658   05 Jun 2027 04:21:01.911            75.253         37626.500
        98   05 Jun 2027 04:21:09.329   05 Jun 2027 04:21:16.527             7.198          3599.000
        99   05 Jun 2027 04:23:15.306   05 Jun 2027 04:23:16.775             1.469           734.500
       100   05 Jun 2027 04:23:29.712   05 Jun 2027 04:23:46.035            16.323          8161.500
       101   05 Jun 2027 04:24:29.998   05 Jun 2027 04:24:39.876             9.878          4939.000
       102   05 Jun 2027 05:57:42.501   05 Jun 2027 06:00:22.703           160.202         80101.000
       103   05 Jun 2027 06:01:45.721   05 Jun 2027 06:02:14.709            28.988         13854.937
       104   05 Jun 2027 06:02:51.254   05 Jun 2027 06:02:53.687             2.433          1022.406
       105   05 Jun 2027 07:21:45.817   05 Jun 2027 07:22:03.902            18.085          8951.156
       106   05 Jun 2027 07:22:53.818   05 Jun 2027 07:22:56.478             2.660          1294.031
       107   05 Jun 2027 08:57:43.268   05 Jun 2027 08:58:07.751            24.483         12025.500
       108   05 Jun 2027 09:00:41.436   05 Jun 2027 09:00:52.088            10.652          4776.062
       109   05 Jun 2027 10:31:32.663   05 Jun 2027 10:31:43.104            10.441          2532.125
       110   05 Jun 2027 10:33:28.431   05 Jun 2027 10:33:31.240             2.809           792.063
       111   05 Jun 2027 10:34:03.146   05 Jun 2027 10:34:03.146             0.000             0.000
       112   05 Jun 2027 10:36:16.786   05 Jun 2027 10:36:29.312            12.526          5054.750
       113   05 Jun 2027 10:36:33.659   05 Jun 2027 10:36:37.740             4.081           111.719
       114   05 Jun 2027 10:37:34.815   05 Jun 2027 10:37:37.228             2.413            76.156
       115   05 Jun 2027 10:38:06.552   05 Jun 2027 10:38:10.400             3.848           881.406
       116   06 Jun 2027 03:01:15.466   06 Jun 2027 03:01:21.744             6.278          3139.000
       117   06 Jun 2027 04:31:57.376   06 Jun 2027 04:32:42.111            44.735         22367.500
       118   06 Jun 2027 04:32:51.161   06 Jun 2027 04:33:34.616            43.455         21727.500
       119   06 Jun 2027 04:33:35.919   06 Jun 2027 04:33:42.655             6.736          3368.000
       120   06 Jun 2027 04:34:43.863   06 Jun 2027 04:36:15.346            91.483         45741.500
       121   06 Jun 2027 06:10:17.348   06 Jun 2027 06:12:40.205           142.857         70939.344
       122   06 Jun 2027 06:14:30.982   06 Jun 2027 06:14:34.893             3.911           448.281
       123   06 Jun 2027 06:14:54.878   06 Jun 2027 06:14:55.790             0.912           456.000
       124   06 Jun 2027 07:33:40.886   06 Jun 2027 07:33:56.897            16.011          6222.875
       125   06 Jun 2027 07:34:59.777   06 Jun 2027 07:35:04.517             4.740          1663.844
       126   06 Jun 2027 07:35:25.373   06 Jun 2027 07:35:26.671             1.298           465.125
       127   06 Jun 2027 07:35:43.709   06 Jun 2027 07:35:47.971             4.262           199.938
       128   06 Jun 2027 09:10:00.535   06 Jun 2027 09:10:18.509            17.974          8832.687
       129   06 Jun 2027 09:10:57.302   06 Jun 2027 09:11:06.651             9.349           967.406
       130   06 Jun 2027 09:12:03.033   06 Jun 2027 09:12:05.281             2.248          1035.437
       131   06 Jun 2027 09:12:57.080   06 Jun 2027 09:13:01.122             4.042          1363.937
       132   06 Jun 2027 10:43:31.055   06 Jun 2027 10:43:36.675             5.620          2810.000
       133   06 Jun 2027 10:43:50.504   06 Jun 2027 10:43:53.234             2.730          1276.407
       134   06 Jun 2027 10:45:34.872   06 Jun 2027 10:45:44.283             9.411          2407.750
       135   06 Jun 2027 10:46:05.670   06 Jun 2027 10:46:07.734             2.064           668.344
       136   06 Jun 2027 10:47:18.910   06 Jun 2027 10:47:21.698             2.788          1374.844
       137   06 Jun 2027 10:48:41.742   06 Jun 2027 10:48:46.024             4.282          1948.187
       138   06 Jun 2027 10:49:19.741   06 Jun 2027 10:49:24.090             4.349           531.844
       139   06 Jun 2027 10:50:58.029   06 Jun 2027 10:51:00.712             2.683          1341.500
       140   06 Jun 2027 10:51:00.794   06 Jun 2027 10:51:06.150             5.356          1508.562
       141   06 Jun 2027 10:51:27.279   06 Jun 2027 10:51:28.377             1.098            32.969
       142   07 Jun 2027 03:05:49.878   07 Jun 2027 03:06:03.327            13.449          6724.500
       143   07 Jun 2027 03:07:27.094   07 Jun 2027 03:08:01.150            34.056         17028.000
       144   07 Jun 2027 03:09:40.547   07 Jun 2027 03:10:08.846            28.299         14149.500
       145   07 Jun 2027 03:10:35.199   07 Jun 2027 03:10:40.209             5.010          2505.000
       146   07 Jun 2027 03:11:01.613   07 Jun 2027 03:11:01.720             0.107            53.500
       147   07 Jun 2027 03:11:26.267   07 Jun 2027 03:11:29.872             3.605          1802.500
       148   07 Jun 2027 03:11:41.894   07 Jun 2027 03:11:49.258             7.364          3682.000
       149   07 Jun 2027 03:12:34.671   07 Jun 2027 03:12:59.932            25.261         12630.500
       150   07 Jun 2027 04:43:51.223   07 Jun 2027 04:43:56.839             5.616          2808.000
       151   07 Jun 2027 04:44:09.174   07 Jun 2027 04:45:22.595            73.421         36710.500
       152   07 Jun 2027 04:46:01.910   07 Jun 2027 04:46:46.821            44.911         22455.500
       153   07 Jun 2027 04:47:22.052   07 Jun 2027 04:48:45.294            83.242         41621.000
       154   07 Jun 2027 06:21:55.519   07 Jun 2027 06:22:29.853            34.334         16981.938
       155   07 Jun 2027 06:25:57.013   07 Jun 2027 06:26:00.406             3.393           370.187
       156   07 Jun 2027 06:26:13.196   07 Jun 2027 06:26:17.154             3.958            39.969
       157   07 Jun 2027 07:45:31.675   07 Jun 2027 07:45:43.641            11.966          5112.969
       158   07 Jun 2027 07:47:01.052   07 Jun 2027 07:47:05.010             3.958          1958.562
       159   07 Jun 2027 07:47:26.970   07 Jun 2027 07:47:28.572             1.602           230.469
       160   07 Jun 2027 09:22:02.992   07 Jun 2027 09:22:11.433             8.441          3610.594
       161   07 Jun 2027 09:23:41.552   07 Jun 2027 09:23:41.552             0.000             0.000
       162   07 Jun 2027 09:24:42.027   07 Jun 2027 09:24:50.657             8.630          3898.781
       163   07 Jun 2027 10:56:30.379   07 Jun 2027 10:56:41.456            11.077          3994.687
       164   07 Jun 2027 11:00:14.742   07 Jun 2027 11:00:17.699             2.957          1478.500
       165   07 Jun 2027 11:00:35.952   07 Jun 2027 11:00:47.232            11.280          3358.781
       166   07 Jun 2027 11:03:00.045   07 Jun 2027 11:03:08.162             8.117          3411.656
       167   07 Jun 2027 11:03:50.523   07 Jun 2027 11:03:52.168             1.645           704.344
       168   07 Jun 2027 11:03:56.938   07 Jun 2027 11:03:57.053             0.115            57.500
       169   08 Jun 2027 03:17:51.637   08 Jun 2027 03:18:17.969            26.332         13166.000
       170   08 Jun 2027 03:18:28.036   08 Jun 2027 03:18:40.585            12.549          6274.500
       171   08 Jun 2027 03:18:55.435   08 Jun 2027 03:21:18.131           142.696         71348.000
       172   08 Jun 2027 03:22:05.192   08 Jun 2027 03:22:34.897            29.705         14852.500
       173   08 Jun 2027 03:23:38.336   08 Jun 2027 03:23:38.762             0.426           213.000
       174   08 Jun 2027 04:56:00.152   08 Jun 2027 04:57:01.618            61.466         30733.000
       175   08 Jun 2027 04:57:09.294   08 Jun 2027 04:58:01.671            52.377         26188.500
       176   08 Jun 2027 04:58:04.334   08 Jun 2027 04:58:10.736             6.402           933.469
       177   08 Jun 2027 04:58:41.758   08 Jun 2027 04:58:45.767             4.009           969.437
       178   08 Jun 2027 04:59:32.499   08 Jun 2027 04:59:34.236             1.737           290.344
       179   08 Jun 2027 05:02:07.337   08 Jun 2027 05:02:13.817             6.480          2874.219
       180   08 Jun 2027 06:34:18.602   08 Jun 2027 06:34:31.461            12.859          6145.031
       181   08 Jun 2027 06:36:06.594   08 Jun 2027 06:36:13.087             6.493          1199.813
       182   08 Jun 2027 06:37:44.239   08 Jun 2027 06:37:45.640             1.401           105.781
       183   08 Jun 2027 07:57:41.746   08 Jun 2027 07:57:53.821            12.075          5705.344
       184   08 Jun 2027 07:58:12.912   08 Jun 2027 07:58:15.999             3.087           517.687
       185   08 Jun 2027 07:58:42.279   08 Jun 2027 07:58:42.924             0.645           289.438
       186   08 Jun 2027 08:00:18.352   08 Jun 2027 08:00:24.303             5.951          2383.969
       187   08 Jun 2027 08:00:26.543   08 Jun 2027 08:00:28.465             1.922            36.344
       188   08 Jun 2027 08:00:29.929   08 Jun 2027 08:00:29.929             0.000             0.000
       189   08 Jun 2027 08:00:45.923   08 Jun 2027 08:00:47.019             1.096           545.562
       190   08 Jun 2027 09:34:12.792   08 Jun 2027 09:34:23.726            10.934          3757.062
       191   08 Jun 2027 09:35:52.135   08 Jun 2027 09:35:53.693             1.558           491.719
       192   08 Jun 2027 09:36:29.827   08 Jun 2027 09:36:35.615             5.788           844.656
       193   08 Jun 2027 09:36:42.989   08 Jun 2027 09:36:53.171            10.182            45.344
       194   08 Jun 2027 11:09:22.501   08 Jun 2027 11:09:27.157             4.656          2137.250
       195   08 Jun 2027 11:10:54.863   08 Jun 2027 11:10:59.396             4.533          2087.250
       196   08 Jun 2027 11:12:08.066   08 Jun 2027 11:12:10.310             2.244           695.656
       197   08 Jun 2027 11:15:33.447   08 Jun 2027 11:15:46.683            13.236          6283.625
       198   09 Jun 2027 03:29:49.629   09 Jun 2027 03:30:22.620            32.991         16495.500
       199   09 Jun 2027 03:30:25.351   09 Jun 2027 03:33:25.502           180.151         90075.500
       200   09 Jun 2027 03:35:24.409   09 Jun 2027 03:35:34.868            10.459          5229.500
       201   09 Jun 2027 05:08:05.967   09 Jun 2027 05:08:13.053             7.086          3543.000
       202   09 Jun 2027 05:09:06.951   09 Jun 2027 05:10:33.682            86.731         43183.375
       203   09 Jun 2027 05:12:27.356   09 Jun 2027 05:12:32.708             5.352          1125.844
       204   09 Jun 2027 05:16:09.019   09 Jun 2027 05:16:21.850            12.831          5467.125
       205   09 Jun 2027 06:46:15.618   09 Jun 2027 06:46:27.437            11.819          4922.000
       206   09 Jun 2027 06:49:39.816   09 Jun 2027 06:49:40.973             1.157            82.187
       207   09 Jun 2027 08:10:22.016   09 Jun 2027 08:10:37.187            15.171          6937.187
       208   09 Jun 2027 08:11:15.043   09 Jun 2027 08:11:17.851             2.808           678.250
       209   09 Jun 2027 09:46:24.924   09 Jun 2027 09:46:37.811            12.887          6443.500
       210   09 Jun 2027 09:47:43.663   09 Jun 2027 09:47:56.128            12.465          4858.625
       211   09 Jun 2027 09:48:24.262   09 Jun 2027 09:48:30.538             6.276           286.125
       212   09 Jun 2027 09:49:20.559   09 Jun 2027 09:49:26.714             6.155          1528.531
       213   09 Jun 2027 11:21:04.696   09 Jun 2027 11:21:17.117            12.421          5618.312
       214   09 Jun 2027 11:27:23.271   09 Jun 2027 11:27:29.960             6.689          3344.500
       215   09 Jun 2027 11:27:42.739   09 Jun 2027 11:27:59.337            16.598          7964.500
       216   10 Jun 2027 03:42:27.314   10 Jun 2027 03:45:57.042           209.728        104864.000
       217   10 Jun 2027 05:21:10.796   10 Jun 2027 05:22:47.597            96.801         47762.281
       218   10 Jun 2027 05:23:22.300   10 Jun 2027 05:23:23.571             1.271           635.500
       219   10 Jun 2027 05:24:11.311   10 Jun 2027 05:24:15.444             4.133          1940.844
       220   10 Jun 2027 05:27:23.635   10 Jun 2027 05:27:34.548            10.913          4955.687
       221   10 Jun 2027 06:47:08.008   10 Jun 2027 06:47:17.369             9.361          3899.844
       222   10 Jun 2027 06:58:12.121   10 Jun 2027 06:58:17.270             5.149          2312.031
       223   10 Jun 2027 08:21:10.033   10 Jun 2027 08:21:20.946            10.913          5262.562
       224   10 Jun 2027 08:23:03.051   10 Jun 2027 08:23:11.029             7.978          2313.125
       225   10 Jun 2027 08:24:55.945   10 Jun 2027 08:25:00.789             4.844          1178.750
       226   10 Jun 2027 09:56:29.413   10 Jun 2027 09:56:35.309             5.896          1942.062
       227   10 Jun 2027 10:00:49.467   10 Jun 2027 10:00:56.535             7.068          2414.625
       228   10 Jun 2027 10:02:14.510   10 Jun 2027 10:02:20.264             5.754          2312.469
       229   10 Jun 2027 11:32:37.810   10 Jun 2027 11:32:47.791             9.981          3791.969
       230   10 Jun 2027 11:35:23.290   10 Jun 2027 11:35:32.417             9.127          4027.375
       231   10 Jun 2027 11:36:05.342   10 Jun 2027 11:36:06.469             1.127            95.281
       232   10 Jun 2027 11:36:45.230   10 Jun 2027 11:36:49.268             4.038           943.437
       233   10 Jun 2027 11:39:31.587   10 Jun 2027 11:39:43.099            11.512          5072.469
       234   10 Jun 2027 11:39:59.150   10 Jun 2027 11:40:00.663             1.513           134.031
       235   11 Jun 2027 03:54:34.324   11 Jun 2027 03:56:19.307           104.983         52491.500
       236   11 Jun 2027 03:56:21.531   11 Jun 2027 03:57:31.816            70.285         35142.500
       237   11 Jun 2027 05:33:40.576   11 Jun 2027 05:35:35.098           114.522         57261.000
       238   11 Jun 2027 05:36:03.797   11 Jun 2027 05:36:47.931            44.134         22067.000
       239   11 Jun 2027 05:39:11.162   11 Jun 2027 05:39:27.230            16.068          6317.000
       240   11 Jun 2027 05:39:39.708   11 Jun 2027 05:39:40.262             0.554            96.188
       241   11 Jun 2027 06:58:32.146   11 Jun 2027 06:58:44.575            12.429          5160.562
       242   11 Jun 2027 06:59:42.868   11 Jun 2027 06:59:49.189             6.321          1821.656
       243   11 Jun 2027 07:10:14.880   11 Jun 2027 07:10:20.933             6.053          2868.438
       244   11 Jun 2027 08:32:27.664   11 Jun 2027 08:32:45.272            17.608          8804.000
       245   11 Jun 2027 08:33:01.303   11 Jun 2027 08:33:05.170             3.867          1433.250
       246   11 Jun 2027 08:33:26.904   11 Jun 2027 08:33:29.424             2.520           679.187
       247   11 Jun 2027 08:35:02.854   11 Jun 2027 08:35:10.266             7.412          2072.469
       248   11 Jun 2027 08:36:26.378   11 Jun 2027 08:36:26.378             0.000             0.000
       249   11 Jun 2027 08:36:35.056   11 Jun 2027 08:36:40.294             5.238          2336.781
       250   11 Jun 2027 10:07:34.066   11 Jun 2027 10:07:39.864             5.798          2579.875
       251   11 Jun 2027 10:09:58.846   11 Jun 2027 10:09:59.889             1.043           521.500
       252   11 Jun 2027 10:12:39.644   11 Jun 2027 10:12:53.784            14.140          5545.594
       253   11 Jun 2027 10:13:47.030   11 Jun 2027 10:13:49.259             2.229           882.125
       254   11 Jun 2027 10:14:09.824   11 Jun 2027 10:14:09.824             0.000             0.000
       255   11 Jun 2027 11:47:58.995   11 Jun 2027 11:48:25.342            26.347         12967.344
       256   11 Jun 2027 11:50:16.356   11 Jun 2027 11:50:26.368            10.012          1965.313
       257   11 Jun 2027 11:51:16.146   11 Jun 2027 11:51:19.691             3.545           355.687
       258   11 Jun 2027 11:51:29.368   11 Jun 2027 11:51:30.277             0.909           139.094
       259   11 Jun 2027 11:52:12.194   11 Jun 2027 11:52:13.525             1.331           665.500
       260   12 Jun 2027 04:06:53.638   12 Jun 2027 04:07:18.679            25.041         12520.500
       261   12 Jun 2027 04:10:46.794   12 Jun 2027 04:11:31.954            45.160         22580.000
       262   12 Jun 2027 04:11:51.478   12 Jun 2027 04:12:05.239            13.761          6880.500
       263   12 Jun 2027 04:12:10.836   12 Jun 2027 04:12:14.156             3.320          1660.000
       264   12 Jun 2027 05:45:41.329   12 Jun 2027 05:48:50.308           188.979         94489.500
       265   12 Jun 2027 05:50:37.276   12 Jun 2027 05:51:19.172            41.896         20493.531
       266   12 Jun 2027 07:10:00.731   12 Jun 2027 07:10:14.129            13.398          4665.406
       267   12 Jun 2027 07:10:30.561   12 Jun 2027 07:10:30.561             0.000             0.000
       268   12 Jun 2027 07:11:14.228   12 Jun 2027 07:11:23.538             9.310          1688.563
       269   12 Jun 2027 07:11:59.953   12 Jun 2027 07:12:01.125             1.172           586.000
       270   12 Jun 2027 07:22:16.552   12 Jun 2027 07:22:25.554             9.002          3893.156
       271   12 Jun 2027 08:44:13.489   12 Jun 2027 08:44:36.278            22.789         10426.844
       272   12 Jun 2027 08:47:02.056   12 Jun 2027 08:47:09.039             6.983          3171.344
       273   12 Jun 2027 08:48:24.988   12 Jun 2027 08:48:29.491             4.503          1819.000
       274   12 Jun 2027 08:49:14.412   12 Jun 2027 08:49:17.334             2.922          1136.687
       275   12 Jun 2027 10:19:03.243   12 Jun 2027 10:19:08.341             5.098          2462.063
       276   12 Jun 2027 10:20:55.246   12 Jun 2027 10:20:59.334             4.088          1856.469
       277   12 Jun 2027 10:21:34.615   12 Jun 2027 10:21:36.714             2.099           942.187
       278   12 Jun 2027 10:25:15.183   12 Jun 2027 10:25:27.349            12.166          5442.437
       279   12 Jun 2027 10:26:03.409   12 Jun 2027 10:26:04.942             1.533           329.906
       280   12 Jun 2027 10:27:21.505   12 Jun 2027 10:27:26.628             5.123          1852.812
       281   13 Jun 2027 04:19:38.072   13 Jun 2027 04:20:42.177            64.105         32052.500
       282   13 Jun 2027 04:21:04.464   13 Jun 2027 04:21:17.634            13.170          6585.000
       283   13 Jun 2027 04:21:50.779   13 Jun 2027 04:22:51.593            60.814         30407.000
       284   13 Jun 2027 04:23:04.711   13 Jun 2027 04:23:06.295             1.584           792.000
       285   13 Jun 2027 04:24:45.058   13 Jun 2027 04:24:54.813             9.755          4877.500
       286   13 Jun 2027 05:58:01.626   13 Jun 2027 06:00:37.605           155.979         77989.500
       287   13 Jun 2027 06:02:00.042   13 Jun 2027 06:02:10.405            10.363          5124.906
       288   13 Jun 2027 06:03:08.662   13 Jun 2027 06:03:09.416             0.754           377.000
       289   13 Jun 2027 07:22:03.247   13 Jun 2027 07:22:18.239            14.992          6594.219
       290   13 Jun 2027 07:23:15.850   13 Jun 2027 07:23:18.993             3.143          1491.500
       291   13 Jun 2027 07:23:41.583   13 Jun 2027 07:23:42.404             0.821           405.094
       292   13 Jun 2027 07:23:49.884   13 Jun 2027 07:23:54.452             4.568            62.781
       293   13 Jun 2027 08:58:00.858   13 Jun 2027 08:58:24.638            23.780         11685.375
       294   13 Jun 2027 08:59:35.997   13 Jun 2027 08:59:40.719             4.722          2131.469
       295   13 Jun 2027 09:00:59.392   13 Jun 2027 09:01:05.702             6.310          2458.531
       296   13 Jun 2027 10:31:50.037   13 Jun 2027 10:32:05.947            15.910          5641.812
       297   13 Jun 2027 10:33:47.690   13 Jun 2027 10:33:49.598             1.908           772.844
       298   13 Jun 2027 10:34:16.685   13 Jun 2027 10:34:18.495             1.810           654.781
       299   13 Jun 2027 10:36:34.652   13 Jun 2027 10:36:43.987             9.335          3952.375
       300   13 Jun 2027 10:36:50.231   13 Jun 2027 10:36:52.392             2.161           180.219
       301   13 Jun 2027 10:39:41.369   13 Jun 2027 10:39:51.165             9.796          4449.844
