uniorb/output/strategy_4/Camera/Camera_KinoSat_110302.txt

KinoSat_110302
-------------------------
    Access    *     Start Time (UTCG)     *     Stop Time (UTCG)  *   Duration (s) *   Data (Mbytes)
         1   01 Jun 2027 04:25:08.293   01 Jun 2027 04:27:21.644           133.351         66675.500
         2   01 Jun 2027 04:28:02.762   01 Jun 2027 04:28:14.098            11.336          5668.000
         3   01 Jun 2027 04:28:23.880   01 Jun 2027 04:28:28.688             4.808          2404.000
         4   01 Jun 2027 04:29:16.393   01 Jun 2027 04:29:25.420             9.027          4513.500
         5   01 Jun 2027 04:29:33.469   01 Jun 2027 04:29:35.410             1.941           970.500
         6   01 Jun 2027 04:30:43.239   01 Jun 2027 04:30:53.167             9.928          4964.000
         7   01 Jun 2027 04:31:11.317   01 Jun 2027 04:31:33.565            22.248         11124.000
         8   01 Jun 2027 06:02:02.746   01 Jun 2027 06:05:25.943           203.197        101598.500
         9   01 Jun 2027 06:06:10.037   01 Jun 2027 06:06:20.720            10.683          5341.500
        10   01 Jun 2027 06:06:52.389   01 Jun 2027 06:06:58.719             6.330          3165.000
        11   01 Jun 2027 06:07:01.314   01 Jun 2027 06:07:09.384             8.070          4035.000
        12   01 Jun 2027 06:07:39.704   01 Jun 2027 06:07:42.508             2.804          1402.000
        13   01 Jun 2027 06:08:06.545   01 Jun 2027 06:08:09.881             3.336          1668.000
        14   01 Jun 2027 06:08:18.050   01 Jun 2027 06:08:23.593             5.543          2771.500
        15   01 Jun 2027 07:39:11.530   01 Jun 2027 07:42:18.725           187.195         93597.500
        16   01 Jun 2027 07:42:22.897   01 Jun 2027 07:42:29.893             6.996          3498.000
        17   01 Jun 2027 07:42:55.664   01 Jun 2027 07:42:58.248             2.584          1292.000
        18   01 Jun 2027 09:14:01.845   01 Jun 2027 09:15:10.059            68.214         34107.000
        19   01 Jun 2027 09:16:25.267   01 Jun 2027 09:18:41.308           136.041         68020.500
        20   02 Jun 2027 03:00:03.047   02 Jun 2027 03:06:17.498           374.451        187225.500
        21   02 Jun 2027 03:06:36.128   02 Jun 2027 03:06:38.322             2.194          1097.000
        22   02 Jun 2027 03:06:51.331   02 Jun 2027 03:06:55.241             3.910          1955.000
        23   02 Jun 2027 03:07:08.372   02 Jun 2027 03:07:19.124            10.752          5376.000
        24   02 Jun 2027 03:07:56.348   02 Jun 2027 03:08:36.578            40.230         20115.000
        25   02 Jun 2027 04:37:34.282   02 Jun 2027 04:39:54.417           140.135         70067.500
        26   02 Jun 2027 04:41:05.398   02 Jun 2027 04:42:23.380            77.982         38991.000
        27   02 Jun 2027 04:42:43.620   02 Jun 2027 04:42:53.722            10.102          5051.000
        28   02 Jun 2027 04:43:38.410   02 Jun 2027 04:43:53.930            15.520          7760.000
        29   02 Jun 2027 04:44:08.866   02 Jun 2027 04:44:20.453            11.587          5793.500
        30   02 Jun 2027 06:14:30.440   02 Jun 2027 06:19:00.092           269.652        134826.000
        31   02 Jun 2027 06:19:39.138   02 Jun 2027 06:20:21.721            42.583         21291.500
        32   02 Jun 2027 07:51:24.402   02 Jun 2027 07:55:59.869           275.467        137733.500
        33   02 Jun 2027 09:28:34.587   02 Jun 2027 09:31:01.875           147.288         73644.000
        34   03 Jun 2027 03:10:43.379   03 Jun 2027 03:10:54.090            10.711          5355.500
        35   03 Jun 2027 03:12:41.772   03 Jun 2027 03:19:29.842           408.070        204035.000
        36   03 Jun 2027 03:19:32.826   03 Jun 2027 03:20:30.875            58.049         29024.500
        37   03 Jun 2027 04:49:40.606   03 Jun 2027 04:56:25.024           404.418        202209.000
        38   03 Jun 2027 06:27:04.004   03 Jun 2027 06:31:06.013           242.009        121004.500
        39   03 Jun 2027 06:31:08.557   03 Jun 2027 06:31:47.399            38.842         19421.000
        40   03 Jun 2027 08:03:26.481   03 Jun 2027 08:08:31.368           304.887        152443.500
        41   03 Jun 2027 09:41:59.075   03 Jun 2027 09:42:22.485            23.410         11705.000
        42   04 Jun 2027 03:25:55.782   04 Jun 2027 03:32:33.041           397.259        198629.500
        43   04 Jun 2027 05:02:14.355   04 Jun 2027 05:08:30.950           376.595        188297.500
        44   04 Jun 2027 06:39:46.173   04 Jun 2027 06:44:10.005           263.832        131916.000
        45   04 Jun 2027 08:15:47.571   04 Jun 2027 08:20:23.755           276.184        138092.000
        46   05 Jun 2027 03:37:56.880   05 Jun 2027 03:44:39.105           402.225        201112.500
        47   05 Jun 2027 05:13:52.872   05 Jun 2027 05:20:12.801           379.929        189964.500
        48   05 Jun 2027 06:51:51.056   05 Jun 2027 06:56:15.973           264.917        132458.500
        49   05 Jun 2027 08:27:48.532   05 Jun 2027 08:31:56.412           247.880        123940.000
        50   05 Jun 2027 08:32:06.727   05 Jun 2027 08:32:54.644            47.917         23958.500
        51   06 Jun 2027 03:49:12.609   06 Jun 2027 03:56:45.625           453.016        226508.000
        52   06 Jun 2027 05:26:02.313   06 Jun 2027 05:32:15.338           373.025        186512.500
        53   06 Jun 2027 07:04:38.034   06 Jun 2027 07:08:10.538           212.504        106252.000
        54   06 Jun 2027 08:38:01.149   06 Jun 2027 08:43:54.857           353.708        176854.000
        55   06 Jun 2027 08:44:50.345   06 Jun 2027 08:45:17.269            26.924         13462.000
        56   07 Jun 2027 04:01:20.296   07 Jun 2027 04:08:45.368           445.072        222536.000
        57   07 Jun 2027 05:38:18.266   07 Jun 2027 05:44:12.706           354.440        177220.000
        58   07 Jun 2027 07:16:35.572   07 Jun 2027 07:20:20.840           225.268        112634.000
        59   07 Jun 2027 08:49:34.859   07 Jun 2027 08:56:58.077           443.218        221609.000
        60   08 Jun 2027 04:13:22.204   08 Jun 2027 04:20:48.457           446.253        223126.500
        61   08 Jun 2027 05:50:08.412   08 Jun 2027 05:56:05.477           357.065        178532.500
        62   08 Jun 2027 05:56:43.171   08 Jun 2027 05:56:51.224             8.053          4026.500
        63   08 Jun 2027 07:28:13.546   08 Jun 2027 07:32:21.990           248.444        124222.000
        64   08 Jun 2027 09:02:02.153   08 Jun 2027 09:08:47.688           405.535        202767.500
        65   09 Jun 2027 04:25:23.033   09 Jun 2027 04:32:49.541           446.508        223254.000
        66   09 Jun 2027 06:02:17.755   09 Jun 2027 06:07:23.994           306.239        153119.500
        67   09 Jun 2027 06:07:55.345   09 Jun 2027 06:08:43.372            48.027         24013.500
        68   09 Jun 2027 07:39:26.296   09 Jun 2027 07:44:20.266           293.970        146985.000
        69   09 Jun 2027 09:14:17.199   09 Jun 2027 09:15:24.363            67.164         33582.000
        70   09 Jun 2027 09:16:37.995   09 Jun 2027 09:19:29.647           171.652         85826.000
        71   10 Jun 2027 03:00:17.793   10 Jun 2027 03:07:49.637           451.844        225922.000
        72   10 Jun 2027 03:07:49.848   10 Jun 2027 03:08:51.276            61.428         30714.000
        73   10 Jun 2027 04:37:49.566   10 Jun 2027 04:44:35.242           405.676        202838.000
        74   10 Jun 2027 06:14:45.706   10 Jun 2027 06:19:14.822           269.116        134558.000
        75   10 Jun 2027 06:19:21.523   10 Jun 2027 06:20:36.387            74.864         37432.000
        76   10 Jun 2027 07:51:39.342   10 Jun 2027 07:56:14.306           274.964        137482.000
        77   10 Jun 2027 09:29:02.092   10 Jun 2027 09:31:16.341           134.249         67124.500
        78   11 Jun 2027 03:10:57.739   11 Jun 2027 03:11:08.725            10.986          5493.000
        79   11 Jun 2027 03:12:56.429   11 Jun 2027 03:19:44.563           408.134        204067.000
        80   11 Jun 2027 03:19:47.569   11 Jun 2027 03:20:45.580            58.011         29005.500
        81   11 Jun 2027 04:49:55.150   11 Jun 2027 04:56:39.780           404.630        202315.000
        82   11 Jun 2027 06:27:20.408   11 Jun 2027 06:31:20.986           240.578        120289.000
        83   11 Jun 2027 06:31:23.458   11 Jun 2027 06:32:02.300            38.842         19421.000
        84   11 Jun 2027 08:03:41.869   11 Jun 2027 08:08:32.614           290.745        145372.500
        85   11 Jun 2027 09:42:13.704   11 Jun 2027 09:42:30.807            17.103          8551.500
        86   12 Jun 2027 03:26:10.461   12 Jun 2027 03:32:47.749           397.288        198644.000
        87   12 Jun 2027 05:02:29.196   12 Jun 2027 05:08:45.769           376.573        188286.500
        88   12 Jun 2027 06:39:52.714   12 Jun 2027 06:44:24.865           272.151        136075.500
        89   12 Jun 2027 08:16:02.118   12 Jun 2027 08:20:38.667           276.549        138274.500
        90   13 Jun 2027 03:38:11.351   13 Jun 2027 03:44:53.936           402.585        201292.500
        91   13 Jun 2027 05:14:07.726   13 Jun 2027 05:20:27.704           379.978        189989.000
        92   13 Jun 2027 06:52:05.577   13 Jun 2027 06:56:30.592           265.015        132507.500
        93   13 Jun 2027 08:28:03.130   13 Jun 2027 08:32:11.070           247.940        123970.000
        94   13 Jun 2027 08:32:21.473   13 Jun 2027 08:33:09.649            48.176         24088.000
