uniorb/output/strategy_4/Camera/Camera_KinoSat_110907.txt

KinoSat_110907
-------------------------
    Access    *     Start Time (UTCG)     *     Stop Time (UTCG)  *   Duration (s) *   Data (Mbytes)
         1   01 Jun 2027 03:11:59.260   01 Jun 2027 03:13:02.893            63.633         31816.500
         2   01 Jun 2027 03:13:27.124   01 Jun 2027 03:13:34.003             6.879          3439.500
         3   01 Jun 2027 03:13:49.494   01 Jun 2027 03:13:52.608             3.114          1557.000
         4   01 Jun 2027 04:47:58.350   01 Jun 2027 04:49:32.374            94.024         47012.000
         5   01 Jun 2027 04:50:35.429   01 Jun 2027 04:50:35.429             0.000             0.000
         6   01 Jun 2027 04:50:51.728   01 Jun 2027 04:51:02.895            11.167          5583.500
         7   01 Jun 2027 04:51:20.420   01 Jun 2027 04:51:38.627            18.207          9103.500
         8   01 Jun 2027 06:21:44.833   01 Jun 2027 06:23:29.352           104.519         52259.500
         9   01 Jun 2027 06:24:24.561   01 Jun 2027 06:24:27.212             2.651          1325.500
        10   01 Jun 2027 06:24:48.567   01 Jun 2027 06:24:48.857             0.290           145.000
        11   01 Jun 2027 06:26:58.713   01 Jun 2027 06:27:04.081             5.368          2684.000
        12   01 Jun 2027 06:27:50.718   01 Jun 2027 06:28:02.916            12.198          6099.000
        13   01 Jun 2027 06:28:37.322   01 Jun 2027 06:28:42.304             4.982          2491.000
        14   01 Jun 2027 06:29:45.024   01 Jun 2027 06:29:49.743             4.719          2359.500
        15   01 Jun 2027 06:29:55.202   01 Jun 2027 06:30:08.554            13.352          6676.000
        16   01 Jun 2027 06:30:16.562   01 Jun 2027 06:30:17.491             0.929           464.500
        17   01 Jun 2027 07:59:02.572   01 Jun 2027 08:00:50.923           108.351         54175.500
        18   01 Jun 2027 08:02:33.635   01 Jun 2027 08:02:33.635             0.000             0.000
        19   01 Jun 2027 08:02:35.732   01 Jun 2027 08:02:45.864            10.132          5066.000
        20   01 Jun 2027 08:03:43.773   01 Jun 2027 08:04:00.126            16.353          8176.500
        21   01 Jun 2027 08:04:43.996   01 Jun 2027 08:04:45.035             1.039           519.500
        22   01 Jun 2027 08:05:28.973   01 Jun 2027 08:05:32.192             3.219          1609.500
        23   01 Jun 2027 09:36:12.035   01 Jun 2027 09:39:10.458           178.423         89211.500
        24   01 Jun 2027 09:39:14.596   01 Jun 2027 09:39:17.715             3.119          1559.500
        25   01 Jun 2027 09:39:36.680   01 Jun 2027 09:39:46.739            10.059          5029.500
        26   01 Jun 2027 09:40:02.184   01 Jun 2027 09:40:02.547             0.363           181.500
        27   01 Jun 2027 09:40:14.634   01 Jun 2027 09:40:28.983            14.349          7174.500
        28   01 Jun 2027 11:12:55.994   01 Jun 2027 11:15:27.962           151.968         75984.000
        29   02 Jun 2027 03:23:50.552   02 Jun 2027 03:24:12.468            21.916         10958.000
        30   02 Jun 2027 05:00:12.645   02 Jun 2027 05:03:04.530           171.885         85942.500
        31   02 Jun 2027 05:03:19.034   02 Jun 2027 05:03:28.564             9.530          4765.000
        32   02 Jun 2027 06:32:29.702   02 Jun 2027 06:32:49.037            19.335          9667.500
        33   02 Jun 2027 06:34:16.705   02 Jun 2027 06:36:41.785           145.080         72540.000
        34   02 Jun 2027 06:37:07.158   02 Jun 2027 06:37:41.760            34.602         17301.000
        35   02 Jun 2027 06:37:52.521   02 Jun 2027 06:37:56.957             4.436          2218.000
        36   02 Jun 2027 06:38:17.616   02 Jun 2027 06:38:25.210             7.594          3797.000
        37   02 Jun 2027 06:39:42.485   02 Jun 2027 06:39:46.857             4.372          2186.000
        38   02 Jun 2027 06:40:44.508   02 Jun 2027 06:40:59.572            15.064          7532.000
        39   02 Jun 2027 06:42:12.384   02 Jun 2027 06:42:15.041             2.657          1328.500
        40   02 Jun 2027 08:11:21.084   02 Jun 2027 08:15:28.737           247.653        123531.844
        41   02 Jun 2027 09:48:17.457   02 Jun 2027 09:48:40.675            23.218         11565.938
        42   02 Jun 2027 09:48:51.567   02 Jun 2027 09:49:00.439             8.872           126.062
        43   02 Jun 2027 09:49:58.720   02 Jun 2027 09:50:02.063             3.343          1512.500
        44   02 Jun 2027 09:52:03.883   02 Jun 2027 09:52:05.741             1.858           611.375
        45   02 Jun 2027 09:53:04.193   02 Jun 2027 09:53:08.882             4.689          1826.625
        46   02 Jun 2027 11:25:04.035   02 Jun 2027 11:25:16.948            12.913          5259.250
        47   02 Jun 2027 11:28:49.565   02 Jun 2027 11:28:56.988             7.423          1559.906
        48   02 Jun 2027 11:29:35.608   02 Jun 2027 11:29:37.754             2.146           659.594
        49   03 Jun 2027 03:35:54.012   03 Jun 2027 03:36:04.940            10.928          5464.000
        50   03 Jun 2027 05:12:23.185   03 Jun 2027 05:15:06.209           163.024         81512.000
        51   03 Jun 2027 06:47:28.057   03 Jun 2027 06:49:41.732           133.675         66148.719
        52   03 Jun 2027 06:50:31.740   03 Jun 2027 06:50:32.443             0.703           267.188
        53   03 Jun 2027 06:50:42.047   03 Jun 2027 06:50:42.047             0.000             0.000
        54   03 Jun 2027 06:51:07.370   03 Jun 2027 06:51:10.404             3.034          1073.063
        55   03 Jun 2027 06:51:22.109   03 Jun 2027 06:51:22.109             0.000             0.000
        56   03 Jun 2027 06:52:24.360   03 Jun 2027 06:52:32.956             8.596          2311.125
        57   03 Jun 2027 06:53:30.005   03 Jun 2027 06:53:41.822            11.817          1499.187
        58   03 Jun 2027 06:53:53.927   03 Jun 2027 06:53:54.567             0.640           266.437
        59   03 Jun 2027 08:23:49.638   03 Jun 2027 08:23:58.025             8.387          1747.437
        60   03 Jun 2027 08:25:42.890   03 Jun 2027 08:25:49.802             6.912           466.438
        61   03 Jun 2027 08:26:28.431   03 Jun 2027 08:26:32.489             4.058           896.219
        62   03 Jun 2027 08:28:38.473   03 Jun 2027 08:28:43.471             4.998          1178.719
        63   03 Jun 2027 08:29:19.592   03 Jun 2027 08:29:21.115             1.523           616.844
        64   03 Jun 2027 10:01:20.399   03 Jun 2027 10:01:32.983            12.584          4867.187
        65   03 Jun 2027 10:03:30.911   03 Jun 2027 10:03:32.589             1.678           704.969
        66   03 Jun 2027 10:04:42.866   03 Jun 2027 10:04:46.222             3.356          1643.812
        67   03 Jun 2027 10:05:04.802   03 Jun 2027 10:05:07.019             2.217           380.781
        68   03 Jun 2027 10:05:44.122   03 Jun 2027 10:05:45.986             1.864           828.625
        69   03 Jun 2027 11:37:24.958   03 Jun 2027 11:37:36.603            11.645          5591.125
        70   03 Jun 2027 11:40:48.904   03 Jun 2027 11:40:51.989             3.085           473.094
        71   04 Jun 2027 03:47:50.189   04 Jun 2027 03:48:05.626            15.437          7718.500
        72   04 Jun 2027 03:50:04.655   04 Jun 2027 03:50:04.655             0.000             0.000
        73   04 Jun 2027 03:51:01.135   04 Jun 2027 03:51:03.071             1.936           968.000
        74   04 Jun 2027 05:24:28.002   04 Jun 2027 05:27:46.780           198.778         99389.000
        75   04 Jun 2027 06:59:38.133   04 Jun 2027 07:01:14.408            96.275         46956.625
        76   04 Jun 2027 07:02:03.226   04 Jun 2027 07:02:08.479             5.253          1177.938
        77   04 Jun 2027 07:02:31.068   04 Jun 2027 07:02:34.961             3.893           349.281
        78   04 Jun 2027 07:02:40.986   04 Jun 2027 07:02:41.552             0.566           188.281
        79   04 Jun 2027 07:03:10.185   04 Jun 2027 07:03:13.003             2.818           804.062
        80   04 Jun 2027 07:04:45.124   04 Jun 2027 07:04:46.556             1.432           645.875
        81   04 Jun 2027 07:05:36.361   04 Jun 2027 07:05:37.452             1.091           138.969
        82   04 Jun 2027 07:05:59.194   04 Jun 2027 07:06:01.547             2.353           292.250
        83   04 Jun 2027 08:35:54.194   04 Jun 2027 08:36:07.801            13.607          4346.719
        84   04 Jun 2027 08:40:52.430   04 Jun 2027 08:40:58.888             6.458           686.969
        85   04 Jun 2027 10:13:25.943   04 Jun 2027 10:13:39.213            13.270          5279.000
        86   04 Jun 2027 10:14:06.144   04 Jun 2027 10:14:11.990             5.846           579.531
        87   04 Jun 2027 10:14:42.453   04 Jun 2027 10:14:43.738             1.285           174.562
        88   04 Jun 2027 10:15:37.799   04 Jun 2027 10:15:43.700             5.901           881.937
        89   04 Jun 2027 10:16:54.619   04 Jun 2027 10:17:03.607             8.988          1984.219
        90   04 Jun 2027 10:17:25.341   04 Jun 2027 10:17:31.759             6.418           279.000
        91   04 Jun 2027 10:17:39.978   04 Jun 2027 10:17:40.787             0.809           160.563
        92   04 Jun 2027 11:49:27.183   04 Jun 2027 11:49:43.874            16.691          5484.000
        93   04 Jun 2027 11:51:22.588   04 Jun 2027 11:51:26.712             4.124           486.062
        94   05 Jun 2027 04:00:26.147   05 Jun 2027 04:00:40.948            14.801          7400.500
        95   05 Jun 2027 04:03:04.271   05 Jun 2027 04:03:09.839             5.568          2784.000
        96   05 Jun 2027 05:36:11.567   05 Jun 2027 05:38:41.456           149.889         74944.500
        97   05 Jun 2027 05:39:39.292   05 Jun 2027 05:39:48.257             8.965          4482.500
        98   05 Jun 2027 05:40:15.207   05 Jun 2027 05:40:25.411            10.204          5102.000
        99   05 Jun 2027 07:11:02.965   05 Jun 2027 07:13:12.292           129.327         62821.000
       100   05 Jun 2027 07:13:38.390   05 Jun 2027 07:13:47.680             9.290           794.125
       101   05 Jun 2027 07:14:15.325   05 Jun 2027 07:14:15.969             0.644           258.562
       102   05 Jun 2027 07:14:38.287   05 Jun 2027 07:14:42.012             3.725           689.438
       103   05 Jun 2027 07:15:03.374   05 Jun 2027 07:15:05.095             1.721           522.938
       104   05 Jun 2027 07:16:23.979   05 Jun 2027 07:16:32.142             8.163          2235.750
       105   05 Jun 2027 07:17:11.764   05 Jun 2027 07:17:15.931             4.167           738.969
       106   05 Jun 2027 07:17:49.143   05 Jun 2027 07:17:53.140             3.997           612.406
       107   05 Jun 2027 08:47:38.497   05 Jun 2027 08:47:49.643            11.146          3537.125
       108   05 Jun 2027 08:51:00.930   05 Jun 2027 08:51:03.433             2.503          1148.937
       109   05 Jun 2027 08:51:57.583   05 Jun 2027 08:51:59.900             2.317          1042.000
       110   05 Jun 2027 08:52:07.084   05 Jun 2027 08:52:10.090             3.006           224.500
       111   05 Jun 2027 08:52:47.137   05 Jun 2027 08:52:49.977             2.840          1157.719
       112   05 Jun 2027 10:25:56.098   05 Jun 2027 10:26:09.582            13.484          6583.688
       113   05 Jun 2027 10:26:51.033   05 Jun 2027 10:26:52.708             1.675           623.937
       114   05 Jun 2027 10:27:51.297   05 Jun 2027 10:27:52.724             1.427           227.312
       115   05 Jun 2027 10:29:18.451   05 Jun 2027 10:29:20.709             2.258           268.781
       116   05 Jun 2027 10:29:42.385   05 Jun 2027 10:29:45.425             3.040           501.250
       117   05 Jun 2027 11:59:55.891   05 Jun 2027 12:00:00.000             4.109          2054.500
       118   06 Jun 2027 04:11:04.748   06 Jun 2027 04:11:37.191            32.443         16221.500
       119   06 Jun 2027 04:11:56.775   06 Jun 2027 04:11:56.775             0.000             0.000
       120   06 Jun 2027 04:13:56.353   06 Jun 2027 04:14:10.967            14.614          7307.000
       121   06 Jun 2027 05:46:25.141   06 Jun 2027 05:47:23.391            58.250         29125.000
       122   06 Jun 2027 05:47:56.679   06 Jun 2027 05:49:23.791            87.112         43556.000
       123   06 Jun 2027 05:52:20.065   06 Jun 2027 05:52:42.815            22.750         11375.000
       124   06 Jun 2027 07:22:54.596   06 Jun 2027 07:24:53.988           119.392         57156.313
       125   06 Jun 2027 07:25:44.908   06 Jun 2027 07:25:48.307             3.399          1411.938
       126   06 Jun 2027 07:25:54.296   06 Jun 2027 07:25:57.271             2.975            34.281
       127   06 Jun 2027 07:26:09.175   06 Jun 2027 07:26:12.670             3.495           372.000
       128   06 Jun 2027 07:28:22.831   06 Jun 2027 07:28:25.121             2.290          1145.000
       129   06 Jun 2027 07:28:50.971   06 Jun 2027 07:28:58.802             7.831          2823.750
       130   06 Jun 2027 07:29:35.566   06 Jun 2027 07:29:37.336             1.770           329.750
       131   06 Jun 2027 08:59:59.608   06 Jun 2027 09:00:08.676             9.068          4359.594
       132   06 Jun 2027 09:00:31.176   06 Jun 2027 09:00:32.367             1.191           346.531
       133   06 Jun 2027 09:03:39.087   06 Jun 2027 09:03:40.805             1.718           489.937
       134   06 Jun 2027 09:04:08.216   06 Jun 2027 09:04:09.657             1.441            70.938
       135   06 Jun 2027 09:04:39.391   06 Jun 2027 09:04:41.187             1.796           782.719
       136   06 Jun 2027 09:05:43.960   06 Jun 2027 09:05:49.830             5.870          1722.844
       137   06 Jun 2027 10:37:53.788   06 Jun 2027 10:38:07.712            13.924          5924.562
       138   06 Jun 2027 10:40:09.629   06 Jun 2027 10:40:13.066             3.437           777.781
       139   06 Jun 2027 10:41:04.732   06 Jun 2027 10:41:07.931             3.199          1296.187
       140   06 Jun 2027 10:41:51.956   06 Jun 2027 10:41:53.404             1.448           724.000
       141   07 Jun 2027 03:00:25.065   07 Jun 2027 03:00:46.798            21.733         10866.500
       142   07 Jun 2027 03:01:21.090   07 Jun 2027 03:01:21.090             0.000             0.000
       143   07 Jun 2027 04:22:40.626   07 Jun 2027 04:23:03.573            22.947         11473.500
       144   07 Jun 2027 04:24:36.145   07 Jun 2027 04:25:02.302            26.157         13078.500
       145   07 Jun 2027 04:26:40.600   07 Jun 2027 04:27:04.502            23.902         11951.000
       146   07 Jun 2027 05:57:34.563   07 Jun 2027 05:59:37.196           122.633         61316.500
       147   07 Jun 2027 05:59:43.651   07 Jun 2027 06:00:29.126            45.475         22737.500
       148   07 Jun 2027 06:04:00.852   07 Jun 2027 06:04:07.618             6.766          3383.000
       149   07 Jun 2027 06:04:35.496   07 Jun 2027 06:04:53.987            18.491          9245.500
       150   07 Jun 2027 06:05:36.057   07 Jun 2027 06:05:44.141             8.084          4042.000
       151   07 Jun 2027 07:35:08.093   07 Jun 2027 07:35:44.253            36.160         17127.376
       152   07 Jun 2027 07:37:02.816   07 Jun 2027 07:37:07.154             4.338           697.188
       153   07 Jun 2027 07:38:22.264   07 Jun 2027 07:38:26.236             3.972           891.688
       154   07 Jun 2027 07:39:24.660   07 Jun 2027 07:39:27.333             2.673          1077.031
       155   07 Jun 2027 07:40:37.318   07 Jun 2027 07:40:39.968             2.650           514.063
       156   07 Jun 2027 07:41:16.663   07 Jun 2027 07:41:18.493             1.830           718.781
       157   07 Jun 2027 09:11:50.563   07 Jun 2027 09:12:00.285             9.722          4662.250
       158   07 Jun 2027 09:14:13.978   07 Jun 2027 09:14:17.319             3.341          1202.219
       159   07 Jun 2027 09:15:06.895   07 Jun 2027 09:15:07.805             0.910           267.781
       160   07 Jun 2027 09:15:46.452   07 Jun 2027 09:15:49.305             2.853           182.688
       161   07 Jun 2027 09:15:58.038   07 Jun 2027 09:16:01.069             3.031           222.250
       162   07 Jun 2027 09:16:42.014   07 Jun 2027 09:16:46.024             4.010          1279.531
       163   07 Jun 2027 09:17:03.566   07 Jun 2027 09:17:05.900             2.334           377.219
       164   07 Jun 2027 09:18:09.528   07 Jun 2027 09:18:13.950             4.422          1200.656
       165   07 Jun 2027 10:49:53.699   07 Jun 2027 10:50:07.897            14.198          7059.156
       166   07 Jun 2027 10:50:43.803   07 Jun 2027 10:50:46.722             2.919           499.813
       167   07 Jun 2027 10:53:06.510   07 Jun 2027 10:53:08.782             2.272           400.594
       168   07 Jun 2027 10:53:24.392   07 Jun 2027 10:53:26.393             2.001           450.906
       169   07 Jun 2027 10:53:46.769   07 Jun 2027 10:53:48.716             1.947           125.031
       170   07 Jun 2027 10:53:52.935   07 Jun 2027 10:53:55.209             2.274            31.250
       171   08 Jun 2027 03:00:17.862   08 Jun 2027 03:00:29.191            11.329          5664.500
       172   08 Jun 2027 03:01:40.952   08 Jun 2027 03:02:07.173            26.221         13110.500
       173   08 Jun 2027 03:12:33.501   08 Jun 2027 03:13:00.278            26.777         13388.500
       174   08 Jun 2027 04:34:09.920   08 Jun 2027 04:35:33.037            83.117         41558.500
       175   08 Jun 2027 04:36:15.467   08 Jun 2027 04:36:43.089            27.622         13811.000
       176   08 Jun 2027 04:38:27.737   08 Jun 2027 04:38:43.208            15.471          7735.500
       177   08 Jun 2027 04:38:48.408   08 Jun 2027 04:39:07.776            19.368          9684.000
       178   08 Jun 2027 04:40:08.290   08 Jun 2027 04:40:10.403             2.113          1056.500
       179   08 Jun 2027 06:09:05.197   08 Jun 2027 06:10:50.598           105.401         52652.718
       180   08 Jun 2027 06:11:47.428   08 Jun 2027 06:11:52.936             5.508          1748.188
       181   08 Jun 2027 06:12:43.816   08 Jun 2027 06:12:46.264             2.448          1185.344
       182   08 Jun 2027 06:13:17.380   08 Jun 2027 06:13:17.380             0.000             0.000
       183   08 Jun 2027 06:14:25.661   08 Jun 2027 06:14:32.192             6.531          3023.750
       184   08 Jun 2027 06:15:14.139   08 Jun 2027 06:15:18.118             3.979          1240.156
       185   08 Jun 2027 06:15:40.762   08 Jun 2027 06:15:40.762             0.000             0.000
       186   08 Jun 2027 06:16:13.218   08 Jun 2027 06:16:19.012             5.794          1649.188
       187   08 Jun 2027 06:16:37.164   08 Jun 2027 06:16:37.273             0.109            54.500
       188   08 Jun 2027 06:17:33.124   08 Jun 2027 06:17:38.306             5.182          1428.781
       189   08 Jun 2027 06:17:59.902   08 Jun 2027 06:18:06.769             6.867           358.875
       190   08 Jun 2027 07:48:39.690   08 Jun 2027 07:48:45.369             5.679          2033.563
       191   08 Jun 2027 07:51:34.848   08 Jun 2027 07:51:37.083             2.235           917.938
       192   08 Jun 2027 07:52:48.427   08 Jun 2027 07:52:50.635             2.208           789.781
       193   08 Jun 2027 09:23:55.217   08 Jun 2027 09:24:09.491            14.274          7114.812
       194   08 Jun 2027 09:26:17.598   08 Jun 2027 09:26:22.585             4.987          2365.562
       195   08 Jun 2027 09:27:36.755   08 Jun 2027 09:27:38.778             2.023           537.844
       196   08 Jun 2027 09:28:19.539   08 Jun 2027 09:28:21.513             1.974           780.594
       197   08 Jun 2027 09:28:26.177   08 Jun 2027 09:28:27.873             1.696           145.750
       198   08 Jun 2027 09:28:57.487   08 Jun 2027 09:29:04.816             7.329           925.438
       199   08 Jun 2027 11:01:40.134   08 Jun 2027 11:01:55.390            15.256          5550.344
       200   08 Jun 2027 11:02:30.492   08 Jun 2027 11:02:33.621             3.129           582.656
       201   08 Jun 2027 11:03:59.335   08 Jun 2027 11:04:03.295             3.960           393.500
       202   08 Jun 2027 11:04:43.763   08 Jun 2027 11:04:44.784             1.021           411.594
       203   08 Jun 2027 11:05:49.721   08 Jun 2027 11:05:50.272             0.551            57.469
       204   09 Jun 2027 03:12:13.682   09 Jun 2027 03:12:17.147             3.465          1732.500
       205   09 Jun 2027 03:13:05.642   09 Jun 2027 03:13:12.971             7.329          3664.500
       206   09 Jun 2027 04:48:13.414   09 Jun 2027 04:51:31.109           197.695         98847.500
       207   09 Jun 2027 06:21:58.901   09 Jun 2027 06:23:30.615            91.714         45147.031
       208   09 Jun 2027 06:24:12.956   09 Jun 2027 06:24:13.428             0.472             5.438
       209   09 Jun 2027 06:24:47.776   09 Jun 2027 06:24:50.776             3.000           564.375
       210   09 Jun 2027 06:25:01.113   09 Jun 2027 06:25:02.108             0.995           316.625
       211   09 Jun 2027 06:26:00.845   09 Jun 2027 06:26:00.845             0.000             0.000
       212   09 Jun 2027 06:26:26.393   09 Jun 2027 06:26:32.417             6.024          2549.844
       213   09 Jun 2027 06:27:22.944   09 Jun 2027 06:27:32.903             9.959          1277.156
       214   09 Jun 2027 06:28:01.148   09 Jun 2027 06:28:04.503             3.355           851.906
       215   09 Jun 2027 06:28:45.410   09 Jun 2027 06:28:48.198             2.788          1169.344
       216   09 Jun 2027 06:29:22.684   09 Jun 2027 06:29:30.384             7.700          1054.437
       217   09 Jun 2027 06:30:25.840   09 Jun 2027 06:30:27.980             2.140            55.406
       218   09 Jun 2027 07:59:22.735   09 Jun 2027 07:59:25.829             3.094           298.906
       219   09 Jun 2027 08:01:08.595   09 Jun 2027 08:01:14.561             5.966           771.219
       220   09 Jun 2027 08:02:35.803   09 Jun 2027 08:02:36.169             0.366           171.375
       221   09 Jun 2027 08:03:02.680   09 Jun 2027 08:03:03.639             0.959           322.969
       222   09 Jun 2027 08:03:57.002   09 Jun 2027 08:04:00.095             3.093           283.281
       223   09 Jun 2027 08:04:23.671   09 Jun 2027 08:04:25.338             1.667           173.438
       224   09 Jun 2027 09:36:26.719   09 Jun 2027 09:36:39.183            12.464          5101.094
       225   09 Jun 2027 09:39:25.564   09 Jun 2027 09:39:30.134             4.570          1802.938
       226   09 Jun 2027 09:40:17.213   09 Jun 2027 09:40:20.931             3.718           475.156
       227   09 Jun 2027 09:40:50.104   09 Jun 2027 09:40:52.947             2.843           911.656
       228   09 Jun 2027 09:41:56.887   09 Jun 2027 09:42:01.143             4.256          1560.281
       229   09 Jun 2027 11:13:11.271   09 Jun 2027 11:13:24.088            12.817          5014.156
       230   09 Jun 2027 11:15:43.037   09 Jun 2027 11:15:45.903             2.866          1119.312
       231   09 Jun 2027 11:16:28.815   09 Jun 2027 11:16:33.484             4.669           793.375
       232   09 Jun 2027 11:17:48.329   09 Jun 2027 11:17:53.716             5.387          2143.375
       233   10 Jun 2027 03:24:05.243   10 Jun 2027 03:24:16.168            10.925          5462.500
       234   10 Jun 2027 03:24:18.534   10 Jun 2027 03:24:27.082             8.548          4274.000
       235   10 Jun 2027 05:00:27.698   10 Jun 2027 05:04:02.233           214.535        107267.500
       236   10 Jun 2027 06:34:31.691   10 Jun 2027 06:35:46.924            75.233         36444.469
       237   10 Jun 2027 06:36:17.749   10 Jun 2027 06:36:19.403             1.654           327.437
       238   10 Jun 2027 06:36:48.329   10 Jun 2027 06:36:49.822             1.493           256.750
       239   10 Jun 2027 06:37:04.400   10 Jun 2027 06:37:06.113             1.713           362.125
       240   10 Jun 2027 06:38:40.615   10 Jun 2027 06:38:46.919             6.304          2386.281
       241   10 Jun 2027 06:38:56.201   10 Jun 2027 06:38:56.201             0.000             0.000
       242   10 Jun 2027 06:39:05.008   10 Jun 2027 06:39:07.568             2.560           565.281
       243   10 Jun 2027 06:40:04.284   10 Jun 2027 06:40:07.774             3.490          1498.781
       244   10 Jun 2027 06:40:46.562   10 Jun 2027 06:40:50.013             3.451           937.375
       245   10 Jun 2027 06:41:15.190   10 Jun 2027 06:41:16.642             1.452           590.844
       246   10 Jun 2027 06:42:12.654   10 Jun 2027 06:42:17.248             4.594          1205.688
       247   10 Jun 2027 08:11:36.273   10 Jun 2027 08:11:40.439             4.166          1489.406
       248   10 Jun 2027 08:14:46.377   10 Jun 2027 08:14:46.698             0.321            42.781
       249   10 Jun 2027 08:16:10.569   10 Jun 2027 08:16:12.305             1.736           597.938
       250   10 Jun 2027 08:17:23.849   10 Jun 2027 08:17:27.757             3.908           774.812
       251   10 Jun 2027 09:48:32.232   10 Jun 2027 09:48:42.751            10.519          5249.344
       252   10 Jun 2027 09:48:46.115   10 Jun 2027 09:48:48.823             2.708            69.219
       253   10 Jun 2027 09:48:58.392   10 Jun 2027 09:48:58.794             0.402            26.375
       254   10 Jun 2027 09:49:26.197   10 Jun 2027 09:49:27.924             1.727           584.219
       255   10 Jun 2027 09:50:26.582   10 Jun 2027 09:50:32.492             5.910          1020.313
       256   10 Jun 2027 09:51:28.396   10 Jun 2027 09:51:29.887             1.491           335.250
       257   10 Jun 2027 09:51:58.417   10 Jun 2027 09:52:01.168             2.751           616.156
       258   10 Jun 2027 09:52:40.211   10 Jun 2027 09:52:42.568             2.357          1130.531
       259   10 Jun 2027 09:53:09.097   10 Jun 2027 09:53:10.792             1.695           611.750
       260   10 Jun 2027 09:53:24.653   10 Jun 2027 09:53:25.739             1.086           141.719
       261   10 Jun 2027 11:25:18.788   10 Jun 2027 11:25:32.164            13.376          5934.688
       262   10 Jun 2027 11:27:37.875   10 Jun 2027 11:27:40.388             2.513           538.969
       263   10 Jun 2027 11:28:14.719   10 Jun 2027 11:28:15.492             0.773            19.188
       264   10 Jun 2027 11:29:53.120   10 Jun 2027 11:29:59.070             5.950           704.687
       265   11 Jun 2027 03:36:09.198   11 Jun 2027 03:36:19.593            10.395          5197.500
       266   11 Jun 2027 03:38:50.638   11 Jun 2027 03:38:50.638             0.000             0.000
       267   11 Jun 2027 05:15:11.481   11 Jun 2027 05:16:07.855            56.374         28187.000
       268   11 Jun 2027 06:47:43.216   11 Jun 2027 06:51:36.269           233.053        116526.500
       269   11 Jun 2027 06:52:40.065   11 Jun 2027 06:52:48.809             8.744          2816.656
       270   11 Jun 2027 06:53:45.722   11 Jun 2027 06:53:48.918             3.196          1446.000
       271   11 Jun 2027 06:54:09.587   11 Jun 2027 06:54:10.163             0.576           249.938
       272   11 Jun 2027 08:24:05.183   11 Jun 2027 08:24:08.847             3.664          1815.656
       273   11 Jun 2027 08:25:24.200   11 Jun 2027 08:25:28.795             4.595           325.969
       274   11 Jun 2027 08:25:57.971   11 Jun 2027 08:26:05.863             7.892           389.094
       275   11 Jun 2027 08:26:43.344   11 Jun 2027 08:26:47.831             4.487           899.406
       276   11 Jun 2027 08:27:36.153   11 Jun 2027 08:27:38.305             2.152           880.250
       277   11 Jun 2027 08:27:54.949   11 Jun 2027 08:27:59.427             4.478           409.781
       278   11 Jun 2027 08:28:53.080   11 Jun 2027 08:28:58.134             5.054          1137.250
       279   11 Jun 2027 08:29:34.328   11 Jun 2027 08:29:37.143             2.815           603.344
       280   11 Jun 2027 10:01:35.406   11 Jun 2027 10:01:44.871             9.465          4466.594
       281   11 Jun 2027 10:03:47.956   11 Jun 2027 10:03:52.160             4.204           787.031
       282   11 Jun 2027 10:04:58.085   11 Jun 2027 10:05:07.777             9.692          1643.437
       283   11 Jun 2027 10:05:22.973   11 Jun 2027 10:05:29.144             6.171           474.875
       284   11 Jun 2027 10:05:52.530   11 Jun 2027 10:05:54.865             2.335           352.219
       285   11 Jun 2027 11:37:40.104   11 Jun 2027 11:37:52.012            11.908          5390.625
       286   11 Jun 2027 11:41:32.709   11 Jun 2027 11:41:36.397             3.688          1055.500
       287   12 Jun 2027 03:48:05.101   12 Jun 2027 03:48:20.273            15.172          7586.000
       288   12 Jun 2027 03:50:19.382   12 Jun 2027 03:50:19.382             0.000             0.000
       289   12 Jun 2027 03:51:15.741   12 Jun 2027 03:51:18.302             2.561          1280.500
       290   12 Jun 2027 05:24:42.841   12 Jun 2027 05:27:51.519           188.678         94339.000
       291   12 Jun 2027 06:59:53.301   12 Jun 2027 07:01:06.175            72.874         36437.000
       292   12 Jun 2027 07:01:52.458   12 Jun 2027 07:02:25.802            33.344         16529.969
       293   12 Jun 2027 07:02:35.178   12 Jun 2027 07:02:36.206             1.028             6.469
       294   12 Jun 2027 07:02:53.212   12 Jun 2027 07:02:53.212             0.000             0.000
       295   12 Jun 2027 07:02:56.485   12 Jun 2027 07:03:01.162             4.677           372.344
       296   12 Jun 2027 07:04:40.138   12 Jun 2027 07:04:51.813            11.675          3092.594
       297   12 Jun 2027 07:05:52.699   12 Jun 2027 07:05:55.892             3.193          1567.719
       298   12 Jun 2027 07:06:13.982   12 Jun 2027 07:06:17.621             3.639           252.594
       299   12 Jun 2027 08:36:07.719   12 Jun 2027 08:36:15.708             7.989          3415.656
       300   12 Jun 2027 08:41:07.353   12 Jun 2027 08:41:13.612             6.259           697.906
       301   12 Jun 2027 10:13:41.026   12 Jun 2027 10:13:55.777            14.751          6282.500
       302   12 Jun 2027 10:15:54.797   12 Jun 2027 10:15:58.519             3.722          1065.094
       303   12 Jun 2027 10:17:09.916   12 Jun 2027 10:17:11.918             2.002           500.906
       304   12 Jun 2027 10:17:40.583   12 Jun 2027 10:17:41.149             0.566           192.344
       305   12 Jun 2027 10:17:55.801   12 Jun 2027 10:17:56.676             0.875           175.875
       306   12 Jun 2027 10:18:04.058   12 Jun 2027 10:18:07.868             3.810            11.688
       307   12 Jun 2027 11:49:42.347   12 Jun 2027 11:49:53.772            11.425          5613.344
       308   13 Jun 2027 04:00:40.813   13 Jun 2027 04:00:56.927            16.114          8057.000
       309   13 Jun 2027 04:03:19.496   13 Jun 2027 04:03:25.011             5.515          2757.500
       310   13 Jun 2027 05:36:26.585   13 Jun 2027 05:36:31.275             4.690          2345.000
       311   13 Jun 2027 05:36:52.484   13 Jun 2027 05:39:26.263           153.779         76889.500
       312   13 Jun 2027 07:11:17.564   13 Jun 2027 07:13:28.974           131.410         65705.000
       313   13 Jun 2027 07:13:54.649   13 Jun 2027 07:13:59.388             4.739          1229.125
       314   13 Jun 2027 07:14:56.541   13 Jun 2027 07:14:59.308             2.767           818.062
       315   13 Jun 2027 07:15:28.900   13 Jun 2027 07:15:34.356             5.456           798.687
       316   13 Jun 2027 07:16:53.237   13 Jun 2027 07:16:55.284             2.047           858.906
       317   13 Jun 2027 07:17:27.755   13 Jun 2027 07:17:34.630             6.875           695.094
       318   13 Jun 2027 07:18:03.862   13 Jun 2027 07:18:09.880             6.018           557.031
       319   13 Jun 2027 08:47:53.381   13 Jun 2027 08:48:04.985            11.604          4358.375
       320   13 Jun 2027 08:51:20.118   13 Jun 2027 08:51:24.094             3.976          1273.125
       321   13 Jun 2027 08:52:12.856   13 Jun 2027 08:52:15.113             2.257          1041.781
       322   13 Jun 2027 08:52:34.303   13 Jun 2027 08:52:35.268             0.965           245.375
       323   13 Jun 2027 08:53:04.752   13 Jun 2027 08:53:07.304             2.552           655.188
       324   13 Jun 2027 08:53:38.304   13 Jun 2027 08:53:40.474             2.170           153.281
       325   13 Jun 2027 10:26:11.044   13 Jun 2027 10:26:25.092            14.048          6761.437
       326   13 Jun 2027 10:27:06.622   13 Jun 2027 10:27:12.386             5.764           625.844
       327   13 Jun 2027 10:28:01.042   13 Jun 2027 10:28:05.473             4.431           654.125
       328   13 Jun 2027 10:28:11.612   13 Jun 2027 10:28:12.088             0.476           160.031
       329   13 Jun 2027 10:28:36.295   13 Jun 2027 10:28:39.224             2.929           255.969
       330   13 Jun 2027 10:28:53.514   13 Jun 2027 10:28:54.630             1.116            49.156
       331   13 Jun 2027 10:29:33.926   13 Jun 2027 10:29:36.522             2.596           272.156
       332   13 Jun 2027 10:29:52.585   13 Jun 2027 10:29:54.285             1.700           494.406
       333   13 Jun 2027 10:29:58.570   13 Jun 2027 10:30:00.085             1.515            52.375
       334   13 Jun 2027 11:59:31.692   13 Jun 2027 11:59:41.435             9.743          4871.500
