uniorb/output/strategy_4/Camera/Camera_KinoSat_111810.txt

KinoSat_111810
-------------------------
    Access    *     Start Time (UTCG)     *     Stop Time (UTCG)  *   Duration (s) *   Data (Mbytes)
         1   01 Jun 2027 03:54:15.685   01 Jun 2027 03:54:38.846            23.161         11580.500
         2   01 Jun 2027 03:54:42.305   01 Jun 2027 03:55:56.636            74.331         37165.500
         3   01 Jun 2027 03:56:16.827   01 Jun 2027 03:57:17.941            61.114         30557.000
         4   01 Jun 2027 05:32:38.365   01 Jun 2027 05:34:34.471           116.106         58053.000
         5   01 Jun 2027 05:35:00.801   01 Jun 2027 05:35:07.545             6.744          3372.000
         6   01 Jun 2027 05:35:38.367   01 Jun 2027 05:35:57.083            18.716          9358.000
         7   01 Jun 2027 05:36:08.742   01 Jun 2027 05:36:26.877            18.135          9067.500
         8   01 Jun 2027 06:56:41.256   01 Jun 2027 06:58:22.224           100.968         50484.000
         9   01 Jun 2027 08:32:38.498   01 Jun 2027 08:34:08.038            89.540         44770.000
        10   01 Jun 2027 08:34:56.043   01 Jun 2027 08:35:22.525            26.482         13241.000
        11   01 Jun 2027 08:36:24.606   01 Jun 2027 08:36:31.913             7.307          3653.500
        12   01 Jun 2027 10:06:28.180   01 Jun 2027 10:07:55.267            87.087         43543.500
        13   01 Jun 2027 10:08:19.964   01 Jun 2027 10:08:24.538             4.574          2287.000
        14   01 Jun 2027 10:14:19.654   01 Jun 2027 10:14:58.301            38.647         19323.500
        15   01 Jun 2027 11:43:32.127   01 Jun 2027 11:44:19.651            47.524         23762.000
        16   01 Jun 2027 11:48:56.811   01 Jun 2027 11:50:01.306            64.495         32247.500
        17   01 Jun 2027 11:50:10.816   01 Jun 2027 11:50:52.645            41.829         20914.500
        18   02 Jun 2027 04:06:53.246   02 Jun 2027 04:07:37.263            44.017         22008.500
        19   02 Jun 2027 04:07:44.234   02 Jun 2027 04:08:29.563            45.329         22664.500
        20   02 Jun 2027 04:08:31.392   02 Jun 2027 04:09:14.213            42.821         21410.500
        21   02 Jun 2027 04:11:26.626   02 Jun 2027 04:12:03.592            36.966         18483.000
        22   02 Jun 2027 05:45:13.268   02 Jun 2027 05:46:56.375           103.107         51553.500
        23   02 Jun 2027 05:47:58.852   02 Jun 2027 05:49:51.130           112.278         56139.000
        24   02 Jun 2027 07:08:35.553   02 Jun 2027 07:10:06.055            90.502         45251.000
        25   02 Jun 2027 08:44:57.421   02 Jun 2027 08:47:25.081           147.660         73830.000
        26   02 Jun 2027 08:47:57.630   02 Jun 2027 08:48:24.512            26.882         13441.000
        27   02 Jun 2027 10:18:26.516   02 Jun 2027 10:19:24.982            58.466         29233.000
        28   02 Jun 2027 10:19:33.502   02 Jun 2027 10:19:33.502             0.000             0.000
        29   02 Jun 2027 10:20:26.920   02 Jun 2027 10:20:34.716             7.796          3020.312
        30   02 Jun 2027 10:20:58.235   02 Jun 2027 10:21:00.359             2.124           374.937
        31   02 Jun 2027 10:24:18.029   02 Jun 2027 10:24:19.541             1.512           756.000
        32   02 Jun 2027 10:24:23.425   02 Jun 2027 10:24:41.178            17.753          4895.187
        33   02 Jun 2027 10:25:45.480   02 Jun 2027 10:25:46.636             1.156           537.844
        34   02 Jun 2027 10:25:51.058   02 Jun 2027 10:25:52.529             1.471           138.188
        35   02 Jun 2027 10:26:56.550   02 Jun 2027 10:26:57.971             1.421           710.500
        36   02 Jun 2027 11:55:58.945   02 Jun 2027 11:56:12.828            13.883          6464.562
        37   02 Jun 2027 11:58:05.812   02 Jun 2027 11:58:11.334             5.522          1233.781
        38   02 Jun 2027 11:59:06.193   02 Jun 2027 11:59:14.509             8.316           489.156
        39   02 Jun 2027 11:59:21.456   02 Jun 2027 11:59:21.901             0.445           217.094
        40   03 Jun 2027 04:18:46.832   03 Jun 2027 04:18:52.158             5.326          2663.000
        41   03 Jun 2027 04:19:16.822   03 Jun 2027 04:20:55.117            98.295         49147.500
        42   03 Jun 2027 04:22:19.876   03 Jun 2027 04:23:11.695            51.819         25909.500
        43   03 Jun 2027 04:23:40.185   03 Jun 2027 04:23:51.980            11.795          5897.500
        44   03 Jun 2027 05:58:37.136   03 Jun 2027 06:01:22.876           165.740         82870.000
        45   03 Jun 2027 07:20:26.727   03 Jun 2027 07:20:42.508            15.781          7003.937
        46   03 Jun 2027 07:21:53.561   03 Jun 2027 07:21:58.883             5.322          1961.531
        47   03 Jun 2027 07:22:27.800   03 Jun 2027 07:22:28.970             1.170           540.906
        48   03 Jun 2027 08:56:59.604   03 Jun 2027 08:57:11.501            11.897          3515.344
        49   03 Jun 2027 08:57:49.342   03 Jun 2027 08:57:50.961             1.619           613.438
        50   03 Jun 2027 08:58:28.113   03 Jun 2027 08:58:32.955             4.842           199.344
        51   03 Jun 2027 08:59:27.396   03 Jun 2027 08:59:39.238            11.842          1660.438
        52   03 Jun 2027 10:32:50.752   03 Jun 2027 10:33:03.550            12.798          5526.187
        53   03 Jun 2027 10:33:05.810   03 Jun 2027 10:33:06.273             0.463            66.937
        54   03 Jun 2027 10:36:02.356   03 Jun 2027 10:36:08.551             6.195          2431.563
        55   03 Jun 2027 10:37:07.215   03 Jun 2027 10:37:10.725             3.510            74.812
        56   03 Jun 2027 10:38:38.087   03 Jun 2027 10:38:44.226             6.139          2086.219
        57   03 Jun 2027 10:38:47.004   03 Jun 2027 10:38:47.282             0.278            86.812
        58   04 Jun 2027 03:00:00.000   04 Jun 2027 03:00:04.003             4.003          2001.500
        59   04 Jun 2027 04:30:55.698   04 Jun 2027 04:31:57.749            62.051         31025.500
        60   04 Jun 2027 04:32:04.738   04 Jun 2027 04:33:36.015            91.277         45638.500
        61   04 Jun 2027 04:33:43.365   04 Jun 2027 04:34:18.668            35.303         17651.500
        62   04 Jun 2027 04:35:16.143   04 Jun 2027 04:35:25.625             9.482          4741.000
        63   04 Jun 2027 06:09:14.372   04 Jun 2027 06:09:45.463            31.091         15545.500
        64   04 Jun 2027 06:10:03.907   04 Jun 2027 06:11:24.601            80.694         40097.219
        65   04 Jun 2027 07:32:37.257   04 Jun 2027 07:32:48.071            10.814          4723.188
        66   04 Jun 2027 07:33:34.855   04 Jun 2027 07:33:40.832             5.977           153.594
        67   04 Jun 2027 07:35:05.018   04 Jun 2027 07:35:09.639             4.621          2202.813
        68   04 Jun 2027 07:35:25.305   04 Jun 2027 07:35:28.845             3.540           292.094
        69   04 Jun 2027 09:09:08.895   04 Jun 2027 09:09:23.336            14.441          2942.781
        70   04 Jun 2027 09:10:13.041   04 Jun 2027 09:10:21.800             8.759          1515.062
        71   04 Jun 2027 09:11:40.620   04 Jun 2027 09:11:48.916             8.296          2448.812
        72   04 Jun 2027 10:44:18.160   04 Jun 2027 10:44:25.710             7.550          2543.313
        73   04 Jun 2027 10:45:46.579   04 Jun 2027 10:45:51.311             4.732          2061.250
        74   04 Jun 2027 10:46:57.566   04 Jun 2027 10:46:59.576             2.010           342.531
        75   04 Jun 2027 10:47:39.700   04 Jun 2027 10:47:39.700             0.000             0.000
        76   04 Jun 2027 10:50:30.847   04 Jun 2027 10:50:44.168            13.321          6240.063
        77   04 Jun 2027 10:50:48.510   04 Jun 2027 10:50:53.008             4.498           135.688
        78   05 Jun 2027 03:04:45.239   05 Jun 2027 03:04:51.783             6.544          3272.000
        79   05 Jun 2027 03:05:00.694   05 Jun 2027 03:05:13.322            12.628          6314.000
        80   05 Jun 2027 03:05:20.199   05 Jun 2027 03:05:55.117            34.918         17459.000
        81   05 Jun 2027 03:06:38.609   05 Jun 2027 03:06:50.872            12.263          6131.500
        82   05 Jun 2027 03:06:53.124   05 Jun 2027 03:06:58.269             5.145          2572.500
        83   05 Jun 2027 03:08:41.423   05 Jun 2027 03:08:51.777            10.354          5177.000
        84   05 Jun 2027 03:10:23.971   05 Jun 2027 03:10:26.383             2.412          1206.000
        85   05 Jun 2027 03:11:26.381   05 Jun 2027 03:11:42.180            15.799          7899.500
        86   05 Jun 2027 04:44:02.502   05 Jun 2027 04:46:36.466           153.964         76982.000
        87   05 Jun 2027 04:46:48.595   05 Jun 2027 04:47:37.675            49.080         24178.000
        88   05 Jun 2027 04:50:48.604   05 Jun 2027 04:50:55.283             6.679          3339.500
        89   05 Jun 2027 06:21:11.432   05 Jun 2027 06:21:30.938            19.506          8903.469
        90   05 Jun 2027 06:21:41.109   05 Jun 2027 06:21:48.760             7.651           311.531
        91   05 Jun 2027 06:22:40.123   05 Jun 2027 06:22:42.784             2.661          1072.656
        92   05 Jun 2027 07:45:14.172   05 Jun 2027 07:45:24.427            10.255          4081.469
        93   05 Jun 2027 07:45:50.541   05 Jun 2027 07:45:55.175             4.634           408.375
        94   05 Jun 2027 07:47:13.852   05 Jun 2027 07:47:19.437             5.585          2458.656
        95   05 Jun 2027 09:21:02.201   05 Jun 2027 09:21:14.137            11.936          4812.062
        96   05 Jun 2027 09:22:39.850   05 Jun 2027 09:22:47.186             7.336          2579.188
        97   05 Jun 2027 09:23:13.204   05 Jun 2027 09:23:16.384             3.180           382.625
        98   05 Jun 2027 09:24:16.574   05 Jun 2027 09:24:20.085             3.511          1418.906
        99   05 Jun 2027 10:55:59.369   05 Jun 2027 10:56:09.116             9.747          3907.625
       100   05 Jun 2027 10:57:55.958   05 Jun 2027 10:57:55.958             0.000             0.000
       101   05 Jun 2027 10:58:37.518   05 Jun 2027 10:58:46.772             9.254          4087.000
       102   05 Jun 2027 11:02:37.540   05 Jun 2027 11:02:52.016            14.476          6700.938
       103   06 Jun 2027 03:17:23.615   06 Jun 2027 03:20:05.111           161.496         80748.000
       104   06 Jun 2027 03:20:34.381   06 Jun 2027 03:20:36.120             1.739           869.500
       105   06 Jun 2027 03:23:14.033   06 Jun 2027 03:23:31.176            17.143          8571.500
       106   06 Jun 2027 04:56:06.309   06 Jun 2027 04:58:07.115           120.806         60403.000
       107   06 Jun 2027 04:58:57.309   06 Jun 2027 04:59:02.787             5.478          1794.594
       108   06 Jun 2027 05:00:29.883   06 Jun 2027 05:00:38.105             8.222          2208.688
       109   06 Jun 2027 05:02:15.597   06 Jun 2027 05:02:22.648             7.051          3046.625
       110   06 Jun 2027 05:03:40.146   06 Jun 2027 05:03:44.217             4.071          1840.750
       111   06 Jun 2027 06:22:00.891   06 Jun 2027 06:22:10.178             9.287          4451.094
       112   06 Jun 2027 06:22:35.972   06 Jun 2027 06:22:37.091             1.119            73.187
       113   06 Jun 2027 06:33:07.467   06 Jun 2027 06:33:13.307             5.840          2287.062
       114   06 Jun 2027 06:35:17.390   06 Jun 2027 06:35:23.392             6.002          1417.156
       115   06 Jun 2027 07:56:04.801   06 Jun 2027 07:56:16.256            11.455          3964.844
       116   06 Jun 2027 07:57:55.426   06 Jun 2027 07:58:04.427             9.001          2054.219
       117   06 Jun 2027 07:59:16.424   06 Jun 2027 07:59:25.180             8.756          2178.844
       118   06 Jun 2027 09:31:21.401   06 Jun 2027 09:31:28.421             7.020          2346.094
       119   06 Jun 2027 09:32:46.887   06 Jun 2027 09:32:52.853             5.966          1244.812
       120   06 Jun 2027 09:35:10.052   06 Jun 2027 09:35:18.322             8.270          3841.906
       121   06 Jun 2027 09:35:38.088   06 Jun 2027 09:35:38.634             0.546           173.937
       122   06 Jun 2027 09:36:28.420   06 Jun 2027 09:36:32.876             4.456          1336.656
       123   06 Jun 2027 11:10:27.349   06 Jun 2027 11:10:50.918            23.569          8209.156
       124   06 Jun 2027 11:11:40.424   06 Jun 2027 11:12:02.309            21.885          1454.156
       125   06 Jun 2027 11:12:37.017   06 Jun 2027 11:12:38.434             1.417           597.313
       126   06 Jun 2027 11:12:41.477   06 Jun 2027 11:12:41.809             0.332            14.188
       127   06 Jun 2027 11:13:09.974   06 Jun 2027 11:13:13.552             3.578            33.656
       128   06 Jun 2027 11:14:17.092   06 Jun 2027 11:14:20.474             3.382          1655.063
       129   06 Jun 2027 11:14:41.890   06 Jun 2027 11:14:45.343             3.453           663.062
       130   07 Jun 2027 03:29:29.995   07 Jun 2027 03:31:14.187           104.192         52096.000
       131   07 Jun 2027 03:31:16.147   07 Jun 2027 03:33:00.815           104.668         52334.000
       132   07 Jun 2027 03:33:48.030   07 Jun 2027 03:33:48.756             0.726           363.000
       133   07 Jun 2027 03:35:24.761   07 Jun 2027 03:35:25.967             1.206           603.000
       134   07 Jun 2027 05:08:35.917   07 Jun 2027 05:10:07.450            91.533         45766.500
       135   07 Jun 2027 05:10:20.349   07 Jun 2027 05:10:27.863             7.514           425.688
       136   07 Jun 2027 05:13:40.138   07 Jun 2027 05:13:53.124            12.986          5547.594
       137   07 Jun 2027 05:13:55.065   07 Jun 2027 05:13:55.560             0.495            60.656
       138   07 Jun 2027 05:14:30.358   07 Jun 2027 05:14:33.422             3.064           738.500
       139   07 Jun 2027 06:33:27.998   07 Jun 2027 06:33:35.711             7.713          3632.812
       140   07 Jun 2027 06:33:42.290   07 Jun 2027 06:33:43.321             1.031           161.531
       141   07 Jun 2027 06:34:09.203   07 Jun 2027 06:34:09.203             0.000             0.000
       142   07 Jun 2027 06:34:41.098   07 Jun 2027 06:34:44.282             3.184          1131.063
       143   07 Jun 2027 06:45:10.178   07 Jun 2027 06:45:15.282             5.104          2072.906
       144   07 Jun 2027 08:07:23.704   07 Jun 2027 08:07:34.827            11.123          5009.219
       145   07 Jun 2027 08:07:47.433   07 Jun 2027 08:07:48.697             1.264           393.938
       146   07 Jun 2027 08:07:57.407   07 Jun 2027 08:07:58.079             0.672           125.688
       147   07 Jun 2027 08:08:07.206   07 Jun 2027 08:08:11.102             3.896           161.688
       148   07 Jun 2027 08:09:55.189   07 Jun 2027 08:10:04.317             9.128          2109.937
       149   07 Jun 2027 08:11:15.780   07 Jun 2027 08:11:28.291            12.511          2044.219
       150   07 Jun 2027 08:12:18.501   07 Jun 2027 08:12:21.942             3.441          1365.656
       151   07 Jun 2027 09:42:28.617   07 Jun 2027 09:42:35.708             7.091          2880.656
       152   07 Jun 2027 09:43:07.110   07 Jun 2027 09:43:08.920             1.810           342.469
       153   07 Jun 2027 09:43:39.346   07 Jun 2027 09:43:44.745             5.399           495.656
       154   07 Jun 2027 09:44:43.169   07 Jun 2027 09:44:44.557             1.388           568.656
       155   07 Jun 2027 09:46:07.131   07 Jun 2027 09:46:11.231             4.100          1240.125
       156   07 Jun 2027 09:48:59.965   07 Jun 2027 09:49:12.869            12.904          4706.344
       157   07 Jun 2027 11:19:47.568   07 Jun 2027 11:19:56.280             8.712          4085.281
       158   07 Jun 2027 11:23:03.780   07 Jun 2027 11:23:11.896             8.116          3697.000
       159   07 Jun 2027 11:25:04.850   07 Jun 2027 11:25:08.420             3.570          1760.563
       160   07 Jun 2027 11:25:54.794   07 Jun 2027 11:26:01.219             6.425          1397.875
       161   07 Jun 2027 11:26:21.831   07 Jun 2027 11:26:28.793             6.962           644.125
       162   07 Jun 2027 11:26:45.723   07 Jun 2027 11:26:48.980             3.257           204.188
       163   07 Jun 2027 11:27:08.788   07 Jun 2027 11:27:09.378             0.590            84.625
       164   08 Jun 2027 03:41:49.408   08 Jun 2027 03:42:58.904            69.496         34748.000
       165   08 Jun 2027 03:43:00.738   08 Jun 2027 03:44:00.579            59.841         29920.500
       166   08 Jun 2027 03:44:02.516   08 Jun 2027 03:44:21.471            18.955          9477.500
       167   08 Jun 2027 05:20:37.113   08 Jun 2027 05:23:02.421           145.308         72654.000
       168   08 Jun 2027 05:23:43.142   08 Jun 2027 05:24:00.470            17.328          7673.500
       169   08 Jun 2027 05:25:31.328   08 Jun 2027 05:25:37.842             6.514          1255.313
       170   08 Jun 2027 05:26:15.017   08 Jun 2027 05:26:16.294             1.277           604.719
       171   08 Jun 2027 05:26:55.863   08 Jun 2027 05:27:06.109            10.246          1220.938
       172   08 Jun 2027 05:27:32.187   08 Jun 2027 05:27:33.488             1.301           474.719
       173   08 Jun 2027 06:44:57.409   08 Jun 2027 06:45:08.703            11.294          5196.625
       174   08 Jun 2027 06:46:06.594   08 Jun 2027 06:46:11.565             4.971          1805.437
       175   08 Jun 2027 06:57:12.104   08 Jun 2027 06:57:18.828             6.724          2282.750
       176   08 Jun 2027 08:19:08.618   08 Jun 2027 08:19:23.833            15.215          5375.969
       177   08 Jun 2027 08:20:03.708   08 Jun 2027 08:20:06.529             2.821          1065.219
       178   08 Jun 2027 08:21:13.904   08 Jun 2027 08:21:18.065             4.161          1508.719
       179   08 Jun 2027 08:23:14.408   08 Jun 2027 08:23:20.588             6.180          2826.406
       180   08 Jun 2027 08:24:08.751   08 Jun 2027 08:24:15.025             6.274           969.812
       181   08 Jun 2027 09:53:56.846   08 Jun 2027 09:54:04.522             7.676          2306.344
       182   08 Jun 2027 09:55:47.097   08 Jun 2027 09:55:47.097             0.000             0.000
       183   08 Jun 2027 09:55:49.552   08 Jun 2027 09:55:50.463             0.911           268.563
       184   08 Jun 2027 09:57:24.608   08 Jun 2027 09:57:28.351             3.743          1534.594
       185   08 Jun 2027 09:59:33.882   08 Jun 2027 09:59:41.229             7.347          3401.406
       186   08 Jun 2027 10:00:54.123   08 Jun 2027 10:01:00.511             6.388           419.094
       187   08 Jun 2027 10:01:46.584   08 Jun 2027 10:01:51.813             5.229          1415.469
       188   08 Jun 2027 11:31:45.390   08 Jun 2027 11:31:54.720             9.330          3494.750
       189   08 Jun 2027 11:34:00.105   08 Jun 2027 11:34:05.151             5.046          1054.094
       190   08 Jun 2027 11:34:45.141   08 Jun 2027 11:34:45.141             0.000             0.000
       191   08 Jun 2027 11:37:47.480   08 Jun 2027 11:38:01.671            14.191          6308.594
       192   08 Jun 2027 11:38:23.232   08 Jun 2027 11:38:33.706            10.474           623.875
       193   08 Jun 2027 11:38:35.552   08 Jun 2027 11:38:37.431             1.879            20.656
       194   08 Jun 2027 11:39:06.762   08 Jun 2027 11:39:09.427             2.665           857.719
       195   09 Jun 2027 03:54:33.682   09 Jun 2027 03:56:12.593            98.911         49455.500
       196   09 Jun 2027 03:56:35.874   09 Jun 2027 03:57:58.704            82.830         41415.000
       197   09 Jun 2027 03:59:14.629   09 Jun 2027 03:59:15.034             0.405           202.500
       198   09 Jun 2027 05:32:59.006   09 Jun 2027 05:34:32.850            93.844         46922.000
       199   09 Jun 2027 05:35:00.471   09 Jun 2027 05:35:35.575            35.104         16600.031
       200   09 Jun 2027 05:36:53.986   09 Jun 2027 05:36:57.826             3.840           224.250
       201   09 Jun 2027 06:56:57.861   09 Jun 2027 06:57:10.192            12.331          4864.469
       202   09 Jun 2027 06:57:47.452   09 Jun 2027 06:57:49.991             2.539           845.125
       203   09 Jun 2027 06:59:02.714   09 Jun 2027 06:59:03.391             0.677           338.500
       204   09 Jun 2027 08:32:55.356   09 Jun 2027 08:33:08.147            12.791          6395.500
       205   09 Jun 2027 08:33:15.029   09 Jun 2027 08:33:16.640             1.611           412.688
       206   09 Jun 2027 08:33:52.761   09 Jun 2027 08:33:55.375             2.614           722.406
       207   09 Jun 2027 08:35:12.159   09 Jun 2027 08:35:16.719             4.560          1454.625
       208   09 Jun 2027 08:35:50.411   09 Jun 2027 08:35:52.043             1.632           311.250
       209   09 Jun 2027 10:06:45.445   09 Jun 2027 10:06:53.553             8.108          2466.188
       210   09 Jun 2027 10:08:39.894   09 Jun 2027 10:08:43.639             3.745          1803.813
       211   09 Jun 2027 10:08:48.307   09 Jun 2027 10:08:48.961             0.654            41.063
       212   09 Jun 2027 10:09:09.883   09 Jun 2027 10:09:16.570             6.687           653.813
       213   09 Jun 2027 10:11:33.729   09 Jun 2027 10:11:47.458            13.729          4162.594
       214   09 Jun 2027 10:12:43.275   09 Jun 2027 10:12:50.243             6.968          1403.219
       215   09 Jun 2027 10:13:22.741   09 Jun 2027 10:13:34.314            11.573            90.906
       216   09 Jun 2027 10:14:04.995   09 Jun 2027 10:14:05.561             0.566           183.156
       217   09 Jun 2027 11:43:52.094   09 Jun 2027 11:44:06.572            14.478          6038.906
       218   09 Jun 2027 11:44:58.936   09 Jun 2027 11:45:04.933             5.997          1044.094
       219   09 Jun 2027 11:45:55.452   09 Jun 2027 11:45:58.360             2.908           861.094
       220   09 Jun 2027 11:46:40.373   09 Jun 2027 11:46:42.785             2.412           947.312
       221   09 Jun 2027 11:47:59.100   09 Jun 2027 11:48:11.716            12.616          1228.937
       222   09 Jun 2027 11:48:20.557   09 Jun 2027 11:48:21.971             1.414           140.031
       223   09 Jun 2027 11:48:30.693   09 Jun 2027 11:48:31.998             1.305           272.563
       224   09 Jun 2027 11:49:10.130   09 Jun 2027 11:49:14.997             4.867          1047.312
       225   09 Jun 2027 11:49:34.517   09 Jun 2027 11:49:37.391             2.874           340.594
       226   09 Jun 2027 11:50:19.347   09 Jun 2027 11:50:20.893             1.546           735.406
       227   09 Jun 2027 11:50:28.267   09 Jun 2027 11:50:28.667             0.400           107.312
       228   09 Jun 2027 11:50:30.175   09 Jun 2027 11:50:31.733             1.558            47.125
       229   09 Jun 2027 11:50:46.593   09 Jun 2027 11:50:47.676             1.083           110.375
       230   10 Jun 2027 04:07:20.939   10 Jun 2027 04:07:50.787            29.848         14924.000
       231   10 Jun 2027 04:07:58.165   10 Jun 2027 04:08:46.268            48.103         24051.500
       232   10 Jun 2027 04:08:48.819   10 Jun 2027 04:09:12.421            23.602         11801.000
       233   10 Jun 2027 04:09:52.010   10 Jun 2027 04:10:04.131            12.121          6060.500
       234   10 Jun 2027 04:11:14.736   10 Jun 2027 04:11:16.005             1.269           634.500
       235   10 Jun 2027 04:11:39.924   10 Jun 2027 04:12:18.054            38.130         19065.000
       236   10 Jun 2027 05:45:29.642   10 Jun 2027 05:46:00.267            30.625         15312.500
       237   10 Jun 2027 05:46:15.228   10 Jun 2027 05:46:21.709             6.481          3240.500
       238   10 Jun 2027 05:47:14.907   10 Jun 2027 05:49:22.796           127.889         62377.844
       239   10 Jun 2027 05:50:02.288   10 Jun 2027 05:50:07.733             5.445           644.594
       240   10 Jun 2027 07:08:52.675   10 Jun 2027 07:09:07.975            15.300          6783.687
       241   10 Jun 2027 07:10:09.589   10 Jun 2027 07:10:09.589             0.000             0.000
       242   10 Jun 2027 07:10:23.731   10 Jun 2027 07:10:27.057             3.326          1663.000
       243   10 Jun 2027 07:11:17.055   10 Jun 2027 07:11:18.509             1.454           727.000
       244   10 Jun 2027 08:45:16.344   10 Jun 2027 08:45:39.450            23.106          9423.281
       245   10 Jun 2027 08:45:46.722   10 Jun 2027 08:45:47.962             1.240           227.250
       246   10 Jun 2027 08:45:50.240   10 Jun 2027 08:45:51.507             1.267            71.188
       247   10 Jun 2027 08:46:37.430   10 Jun 2027 08:46:40.238             2.808          1396.844
       248   10 Jun 2027 08:47:23.172   10 Jun 2027 08:47:24.749             1.577           447.563
       249   10 Jun 2027 08:48:15.273   10 Jun 2027 08:48:18.591             3.318          1009.031
       250   10 Jun 2027 10:18:44.438   10 Jun 2027 10:18:50.880             6.442          3125.250
       251   10 Jun 2027 10:19:42.934   10 Jun 2027 10:19:42.934             0.000             0.000
       252   10 Jun 2027 10:20:46.671   10 Jun 2027 10:20:56.287             9.616          2235.188
       253   10 Jun 2027 10:21:14.884   10 Jun 2027 10:21:16.204             1.320           292.656
       254   10 Jun 2027 10:23:32.884   10 Jun 2027 10:23:40.571             7.687          3467.875
       255   10 Jun 2027 10:25:47.930   10 Jun 2027 10:25:52.661             4.731          2311.594
       256   10 Jun 2027 10:26:06.826   10 Jun 2027 10:26:12.870             6.044           150.531
       257   10 Jun 2027 10:27:13.652   10 Jun 2027 10:27:15.343             1.691           845.500
       258   10 Jun 2027 11:56:18.219   10 Jun 2027 11:56:33.943            15.724          6272.375
       259   10 Jun 2027 11:58:31.412   10 Jun 2027 11:58:32.175             0.763           239.687
       260   10 Jun 2027 11:59:59.147   10 Jun 2027 12:00:00.000             0.853           426.500
       261   11 Jun 2027 04:19:04.711   11 Jun 2027 04:19:09.044             4.333          2166.500
       262   11 Jun 2027 04:19:34.002   11 Jun 2027 04:21:08.819            94.817         47408.500
       263   11 Jun 2027 04:22:11.809   11 Jun 2027 04:22:54.128            42.319         21159.500
       264   11 Jun 2027 04:23:30.164   11 Jun 2027 04:24:10.274            40.110         20055.000
       265   11 Jun 2027 04:24:29.913   11 Jun 2027 04:24:43.364            13.451          6725.500
       266   11 Jun 2027 05:58:59.551   11 Jun 2027 06:01:19.906           140.355         68721.156
       267   11 Jun 2027 07:20:40.235   11 Jun 2027 07:20:59.289            19.054          7770.375
       268   11 Jun 2027 07:22:51.641   11 Jun 2027 07:23:00.108             8.467          3299.188
       269   11 Jun 2027 08:57:17.998   11 Jun 2027 08:57:25.218             7.220          2740.469
       270   11 Jun 2027 08:59:58.883   11 Jun 2027 09:00:09.432            10.549          4136.594
       271   11 Jun 2027 10:33:07.223   11 Jun 2027 10:33:23.390            16.167          6282.250
       272   11 Jun 2027 10:33:25.394   11 Jun 2027 10:33:28.807             3.413            48.562
       273   11 Jun 2027 10:35:31.216   11 Jun 2027 10:35:31.216             0.000             0.000
       274   11 Jun 2027 10:36:17.905   11 Jun 2027 10:36:23.713             5.808          2192.219
       275   11 Jun 2027 10:37:24.305   11 Jun 2027 10:37:24.694             0.389           116.031
       276   11 Jun 2027 10:38:53.977   11 Jun 2027 10:38:58.930             4.953          2066.094
       277   11 Jun 2027 10:39:02.790   11 Jun 2027 10:39:03.748             0.958           120.625
       278   12 Jun 2027 03:00:17.235   12 Jun 2027 03:00:17.564             0.329           164.500
       279   12 Jun 2027 04:31:13.408   12 Jun 2027 04:32:15.368            61.960         30980.000
       280   12 Jun 2027 04:32:21.833   12 Jun 2027 04:33:24.056            62.223         31111.500
       281   12 Jun 2027 04:33:55.009   12 Jun 2027 04:34:36.089            41.080         20540.000
       282   12 Jun 2027 04:35:30.863   12 Jun 2027 04:35:40.146             9.283          4641.500
       283   12 Jun 2027 06:10:34.277   12 Jun 2027 06:12:57.142           142.865         71400.250
       284   12 Jun 2027 07:32:54.341   12 Jun 2027 07:33:07.415            13.074          4717.625
       285   12 Jun 2027 07:33:46.177   12 Jun 2027 07:33:47.897             1.720           784.437
       286   12 Jun 2027 07:34:14.835   12 Jun 2027 07:34:16.491             1.656           706.375
       287   12 Jun 2027 07:35:32.266   12 Jun 2027 07:35:38.664             6.398          2039.875
       288   12 Jun 2027 07:35:45.326   12 Jun 2027 07:35:46.708             1.382            63.250
       289   12 Jun 2027 09:09:26.235   12 Jun 2027 09:09:38.384            12.149          3000.156
       290   12 Jun 2027 09:10:32.973   12 Jun 2027 09:10:38.020             5.047          1617.437
       291   12 Jun 2027 09:11:10.236   12 Jun 2027 09:11:14.039             3.803           913.750
       292   12 Jun 2027 09:11:53.516   12 Jun 2027 09:11:57.009             3.493           194.438
       293   12 Jun 2027 10:44:56.848   12 Jun 2027 10:45:08.719            11.871          4590.375
       294   12 Jun 2027 10:47:28.553   12 Jun 2027 10:47:34.877             6.324          3115.937
       295   12 Jun 2027 10:50:51.277   12 Jun 2027 10:51:02.719            11.442          5521.188
       296   13 Jun 2027 03:05:02.930   13 Jun 2027 03:05:15.992            13.062          6531.000
       297   13 Jun 2027 03:05:35.413   13 Jun 2027 03:06:10.386            34.973         17486.500
       298   13 Jun 2027 03:06:39.342   13 Jun 2027 03:06:50.226            10.884          5442.000
       299   13 Jun 2027 03:06:55.309   13 Jun 2027 03:06:57.016             1.707           853.500
       300   13 Jun 2027 03:10:42.693   13 Jun 2027 03:11:19.681            36.988         18494.000
       301   13 Jun 2027 03:11:41.230   13 Jun 2027 03:11:44.534             3.304          1652.000
       302   13 Jun 2027 03:11:46.976   13 Jun 2027 03:11:54.534             7.558          3779.000
       303   13 Jun 2027 04:44:20.024   13 Jun 2027 04:46:54.647           154.623         77311.500
       304   13 Jun 2027 04:47:02.893   13 Jun 2027 04:47:33.452            30.559         15279.500
       305   13 Jun 2027 04:47:51.991   13 Jun 2027 04:48:01.807             9.816          4693.250
       306   13 Jun 2027 04:48:07.890   13 Jun 2027 04:48:08.342             0.452           190.094
       307   13 Jun 2027 04:49:25.026   13 Jun 2027 04:49:25.884             0.858           429.000
       308   13 Jun 2027 04:51:17.791   13 Jun 2027 04:51:27.915            10.124          4503.031
       309   13 Jun 2027 04:52:16.852   13 Jun 2027 04:52:17.348             0.496           248.000
       310   13 Jun 2027 06:21:28.365   13 Jun 2027 06:21:42.629            14.264          7037.781
       311   13 Jun 2027 06:21:54.835   13 Jun 2027 06:21:58.226             3.391           263.250
       312   13 Jun 2027 06:22:56.282   13 Jun 2027 06:22:59.338             3.056          1031.906
       313   13 Jun 2027 07:45:24.730   13 Jun 2027 07:45:41.380            16.650          7621.562
       314   13 Jun 2027 07:46:04.918   13 Jun 2027 07:46:05.585             0.667           315.188
       315   13 Jun 2027 07:47:29.822   13 Jun 2027 07:47:38.382             8.560          2420.844
       316   13 Jun 2027 09:21:19.476   13 Jun 2027 09:21:33.781            14.305          6248.938
       317   13 Jun 2027 09:23:00.069   13 Jun 2027 09:23:07.069             7.000          2696.500
       318   13 Jun 2027 09:23:31.652   13 Jun 2027 09:23:33.196             1.544           381.562
       319   13 Jun 2027 09:24:34.873   13 Jun 2027 09:24:37.968             3.095          1433.906
       320   13 Jun 2027 10:56:15.300   13 Jun 2027 10:56:28.328            13.028          4889.625
       321   13 Jun 2027 10:58:16.236   13 Jun 2027 10:58:23.410             7.174          2925.906
       322   13 Jun 2027 10:59:16.448   13 Jun 2027 10:59:16.448             0.000             0.000
       323   13 Jun 2027 11:02:54.135   13 Jun 2027 11:03:14.018            19.883          7349.844
