uniorb/output/strategy_4/Camera/Camera_KinoSat_110210.txt

KinoSat_110210
-------------------------
    Access    *     Start Time (UTCG)     *     Stop Time (UTCG)  *   Duration (s) *   Data (Mbytes)
         1   01 Jun 2027 03:12:58.512   01 Jun 2027 03:14:13.261            74.749         37374.500
         2   01 Jun 2027 03:14:36.605   01 Jun 2027 03:14:46.626            10.021          5010.500
         3   01 Jun 2027 03:15:41.686   01 Jun 2027 03:15:41.686             0.000             0.000
         4   01 Jun 2027 03:16:14.608   01 Jun 2027 03:16:26.047            11.439          5719.500
         5   01 Jun 2027 03:16:33.932   01 Jun 2027 03:16:35.883             1.951           975.500
         6   01 Jun 2027 03:17:18.269   01 Jun 2027 03:18:00.797            42.528         21264.000
         7   01 Jun 2027 03:18:35.848   01 Jun 2027 03:18:42.236             6.388          3194.000
         8   01 Jun 2027 03:19:08.447   01 Jun 2027 03:19:18.146             9.699          4849.500
         9   01 Jun 2027 03:19:25.480   01 Jun 2027 03:19:36.527            11.047          5523.500
        10   01 Jun 2027 03:19:50.757   01 Jun 2027 03:19:50.787             0.030            15.000
        11   01 Jun 2027 03:20:05.574   01 Jun 2027 03:20:10.098             4.524          2262.000
        12   01 Jun 2027 04:50:03.501   01 Jun 2027 04:52:59.761           176.260         88130.000
        13   01 Jun 2027 04:53:09.707   01 Jun 2027 04:53:11.514             1.807           903.500
        14   01 Jun 2027 04:53:18.369   01 Jun 2027 04:53:21.263             2.894          1447.000
        15   01 Jun 2027 04:53:41.814   01 Jun 2027 04:53:49.048             7.234          3617.000
        16   01 Jun 2027 04:54:22.449   01 Jun 2027 04:54:30.903             8.454          4227.000
        17   01 Jun 2027 04:54:53.477   01 Jun 2027 04:55:04.582            11.105          5552.500
        18   01 Jun 2027 04:55:22.892   01 Jun 2027 04:55:32.250             9.358          4679.000
        19   01 Jun 2027 04:55:44.599   01 Jun 2027 04:55:53.432             8.833          4416.500
        20   01 Jun 2027 04:56:03.629   01 Jun 2027 04:56:06.413             2.784          1392.000
        21   01 Jun 2027 06:28:02.449   01 Jun 2027 06:30:56.655           174.206         87103.000
        22   01 Jun 2027 08:01:11.187   01 Jun 2027 08:03:37.593           146.406         73203.000
        23   01 Jun 2027 08:04:05.412   01 Jun 2027 08:04:07.276             1.864           932.000
        24   01 Jun 2027 08:04:41.267   01 Jun 2027 08:05:18.938            37.671         18835.500
        25   01 Jun 2027 08:07:30.735   01 Jun 2027 08:07:37.826             7.091          3545.500
        26   01 Jun 2027 08:08:13.618   01 Jun 2027 08:08:23.157             9.539          4769.500
        27   02 Jun 2027 03:25:16.626   02 Jun 2027 03:32:36.237           439.611        219805.500
        28   02 Jun 2027 05:02:04.957   02 Jun 2027 05:05:32.425           207.468        103734.000
        29   02 Jun 2027 05:07:35.189   02 Jun 2027 05:08:33.031            57.842         28921.000
        30   02 Jun 2027 06:40:02.092   02 Jun 2027 06:44:00.995           238.903        119451.500
        31   02 Jun 2027 08:13:38.542   02 Jun 2027 08:21:06.373           447.831        223915.500
        32   03 Jun 2027 03:37:11.432   03 Jun 2027 03:44:37.044           445.612        222806.000
        33   03 Jun 2027 05:13:55.826   03 Jun 2027 05:19:51.251           355.425        177712.500
        34   03 Jun 2027 05:19:56.375   03 Jun 2027 05:20:41.582            45.207         22603.500
        35   03 Jun 2027 06:52:10.917   03 Jun 2027 06:56:10.514           239.597        119798.500
        36   03 Jun 2027 08:26:04.874   03 Jun 2027 08:32:12.064           367.190        183595.000
        37   04 Jun 2027 03:49:17.851   04 Jun 2027 03:56:37.251           439.400        219700.000
        38   04 Jun 2027 05:26:20.639   04 Jun 2027 05:31:10.153           289.514        144757.000
        39   04 Jun 2027 05:32:08.937   04 Jun 2027 05:32:27.698            18.761          9380.500
        40   04 Jun 2027 07:03:32.008   04 Jun 2027 07:08:10.027           278.019        139009.500
        41   04 Jun 2027 08:38:25.571   04 Jun 2027 08:38:47.801            22.230         11115.000
        42   04 Jun 2027 08:40:10.996   04 Jun 2027 08:43:13.971           182.975         91487.500
        43   05 Jun 2027 04:01:43.984   05 Jun 2027 04:08:25.867           401.883        200941.500
        44   05 Jun 2027 05:38:40.931   05 Jun 2027 05:43:02.168           261.237        130618.500
        45   05 Jun 2027 05:43:04.479   05 Jun 2027 05:44:12.285            67.806         33903.000
        46   05 Jun 2027 07:15:46.469   05 Jun 2027 07:19:59.554           253.085        126542.500
        47   05 Jun 2027 08:53:11.679   05 Jun 2027 08:54:47.829            96.150         48075.000
        48   06 Jun 2027 04:13:51.415   06 Jun 2027 04:20:31.519           400.104        200052.000
        49   06 Jun 2027 05:51:35.347   06 Jun 2027 05:55:59.522           264.175        132087.500
        50   06 Jun 2027 07:27:41.430   06 Jun 2027 07:32:02.209           260.779        130389.500
        51   07 Jun 2027 04:26:25.431   07 Jun 2027 04:32:33.806           368.375        184187.500
        52   07 Jun 2027 06:03:41.426   07 Jun 2027 06:08:17.967           276.541        138270.500
        53   07 Jun 2027 07:39:55.643   07 Jun 2027 07:44:37.502           281.859        140929.500
        54   08 Jun 2027 03:01:39.749   08 Jun 2027 03:08:46.243           426.494        213247.000
        55   08 Jun 2027 04:37:59.098   08 Jun 2027 04:44:23.690           384.592        192296.000
        56   08 Jun 2027 06:16:19.188   08 Jun 2027 06:20:07.353           228.165        114082.500
        57   08 Jun 2027 07:51:48.642   08 Jun 2027 07:55:45.936           237.294        118647.000
        58   08 Jun 2027 07:56:24.238   08 Jun 2027 07:57:05.507            41.269         20634.500
        59   09 Jun 2027 03:13:13.118   09 Jun 2027 03:20:47.770           454.652        227326.000
        60   09 Jun 2027 04:50:18.721   09 Jun 2027 04:56:40.879           382.158        191079.000
        61   09 Jun 2027 06:28:20.492   09 Jun 2027 06:32:12.266           231.774        115887.000
        62   09 Jun 2027 08:01:25.843   09 Jun 2027 08:07:40.251           374.408        187204.000
        63   09 Jun 2027 08:07:45.977   09 Jun 2027 08:08:29.340            43.363         21681.500
        64   09 Jun 2027 08:08:35.366   09 Jun 2027 08:09:21.826            46.460         23230.000
        65   10 Jun 2027 03:25:31.901   10 Jun 2027 03:32:51.128           439.227        219613.500
        66   10 Jun 2027 05:02:20.035   10 Jun 2027 05:08:48.179           388.144        194072.000
        67   10 Jun 2027 06:40:17.147   10 Jun 2027 06:44:15.880           238.733        119366.500
        68   10 Jun 2027 08:13:52.974   10 Jun 2027 08:20:17.268           384.294        192147.000
        69   10 Jun 2027 08:20:55.712   10 Jun 2027 08:21:20.946            25.234         12617.000
        70   11 Jun 2027 03:37:26.250   11 Jun 2027 03:44:51.819           445.569        222784.500
        71   11 Jun 2027 05:14:10.649   11 Jun 2027 05:20:05.421           354.772        177386.000
        72   11 Jun 2027 05:20:10.735   11 Jun 2027 05:20:56.189            45.454         22727.000
        73   11 Jun 2027 06:52:25.450   11 Jun 2027 06:56:25.358           239.908        119954.000
        74   11 Jun 2027 08:26:19.572   11 Jun 2027 08:32:26.887           367.315        183657.500
        75   12 Jun 2027 03:49:32.764   12 Jun 2027 03:56:52.201           439.437        219718.500
        76   12 Jun 2027 05:26:35.807   12 Jun 2027 05:31:24.761           288.954        144477.000
        77   12 Jun 2027 05:31:31.707   12 Jun 2027 05:32:42.408            70.701         35350.500
        78   12 Jun 2027 07:03:46.177   12 Jun 2027 07:08:25.225           279.048        139524.000
        79   12 Jun 2027 08:38:39.926   12 Jun 2027 08:39:01.703            21.777         10888.500
        80   12 Jun 2027 08:40:25.503   12 Jun 2027 08:43:28.503           183.000         91500.000
        81   13 Jun 2027 04:01:59.046   13 Jun 2027 04:08:40.668           401.622        200811.000
        82   13 Jun 2027 05:38:55.830   13 Jun 2027 05:43:17.263           261.433        130716.500
        83   13 Jun 2027 05:43:19.410   13 Jun 2027 05:44:26.844            67.434         33717.000
        84   13 Jun 2027 07:15:46.303   13 Jun 2027 07:20:14.387           268.084        134042.000
        85   13 Jun 2027 08:53:27.135   13 Jun 2027 08:55:02.713            95.578         47789.000
