uniorb/output/strategy_4/Camera/Camera_KinoSat_110404.txt

KinoSat_110404
-------------------------
    Access    *     Start Time (UTCG)     *     Stop Time (UTCG)  *   Duration (s) *   Data (Mbytes)
         1   01 Jun 2027 04:01:51.229   01 Jun 2027 04:03:28.971            97.742         48871.000
         2   01 Jun 2027 04:03:47.717   01 Jun 2027 04:04:15.603            27.886         13943.000
         3   01 Jun 2027 04:06:14.357   01 Jun 2027 04:06:34.719            20.362         10181.000
         4   01 Jun 2027 04:07:12.318   01 Jun 2027 04:07:18.878             6.560          3280.000
         5   01 Jun 2027 04:07:54.083   01 Jun 2027 04:08:11.720            17.637          8818.500
         6   01 Jun 2027 04:08:28.362   01 Jun 2027 04:08:37.990             9.628          4814.000
         7   01 Jun 2027 05:38:13.400   01 Jun 2027 05:40:57.331           163.931         81965.500
         8   01 Jun 2027 05:41:42.375   01 Jun 2027 05:42:10.189            27.814         13907.000
         9   01 Jun 2027 05:42:40.421   01 Jun 2027 05:42:48.371             7.950          3975.000
        10   01 Jun 2027 05:44:28.535   01 Jun 2027 05:44:32.773             4.238          2119.000
        11   01 Jun 2027 07:15:41.660   01 Jun 2027 07:18:24.426           162.766         81383.000
        12   01 Jun 2027 07:19:05.634   01 Jun 2027 07:19:16.664            11.030          5515.000
        13   01 Jun 2027 07:19:41.213   01 Jun 2027 07:19:48.350             7.137          3568.500
        14   01 Jun 2027 08:51:47.968   01 Jun 2027 08:55:01.824           193.856         96928.000
        15   02 Jun 2027 04:14:00.213   02 Jun 2027 04:20:36.197           395.984        197992.000
        16   02 Jun 2027 05:50:13.212   02 Jun 2027 05:54:25.114           251.902        125951.000
        17   02 Jun 2027 07:27:48.078   02 Jun 2027 07:32:19.136           271.058        135529.000
        18   02 Jun 2027 09:03:49.774   02 Jun 2027 09:08:01.038           251.264        125632.000
        19   02 Jun 2027 09:08:05.048   02 Jun 2027 09:08:50.916            45.868         22934.000
        20   03 Jun 2027 04:25:23.918   03 Jun 2027 04:27:54.531           150.613         75306.500
        21   03 Jun 2027 04:28:55.557   03 Jun 2027 04:32:47.228           231.671        115835.500
        22   03 Jun 2027 06:02:00.594   03 Jun 2027 06:08:24.289           383.695        191847.500
        23   03 Jun 2027 07:40:59.753   03 Jun 2027 07:44:13.020           193.267         96633.500
        24   03 Jun 2027 09:13:38.117   03 Jun 2027 09:15:05.602            87.485         43742.500
        25   03 Jun 2027 09:15:37.933   03 Jun 2027 09:19:51.100           253.167        126583.500
        26   03 Jun 2027 09:20:10.825   03 Jun 2027 09:21:10.025            59.200         29600.000
        27   04 Jun 2027 03:00:34.951   04 Jun 2027 03:07:07.143           392.192        196096.000
        28   04 Jun 2027 04:37:18.574   04 Jun 2027 04:44:47.507           448.933        224466.500
        29   04 Jun 2027 06:14:24.183   04 Jun 2027 06:20:12.438           348.255        174127.500
        30   04 Jun 2027 06:20:15.646   04 Jun 2027 06:20:31.420            15.774          7887.000
        31   04 Jun 2027 07:52:58.844   04 Jun 2027 07:56:15.400           196.556         98278.000
        32   04 Jun 2027 09:25:29.325   04 Jun 2027 09:31:50.695           381.370        190685.000
        33   04 Jun 2027 09:32:07.699   04 Jun 2027 09:33:22.078            74.379         37189.500
        34   05 Jun 2027 03:11:55.124   05 Jun 2027 03:14:00.956           125.832         62916.000
        35   05 Jun 2027 03:14:05.341   05 Jun 2027 03:19:26.373           321.032        160516.000
        36   05 Jun 2027 03:20:03.334   05 Jun 2027 03:20:26.983            23.649         11824.500
        37   05 Jun 2027 04:49:29.561   05 Jun 2027 04:56:51.027           441.466        220733.000
        38   05 Jun 2027 06:26:12.704   05 Jun 2027 06:32:25.593           372.889        186444.500
        39   05 Jun 2027 08:04:31.719   05 Jun 2027 08:08:25.092           233.373        116686.500
        40   05 Jun 2027 09:38:17.315   05 Jun 2027 09:44:52.753           395.438        197719.000
        41   06 Jun 2027 03:23:25.513   06 Jun 2027 03:31:34.587           489.074        244537.000
        42   06 Jun 2027 03:31:56.852   06 Jun 2027 03:32:53.763            56.911         28455.500
        43   06 Jun 2027 05:01:23.780   06 Jun 2027 05:08:52.431           448.651        224325.500
        44   06 Jun 2027 06:38:31.719   06 Jun 2027 06:43:38.636           306.917        153458.500
        45   06 Jun 2027 06:44:46.149   06 Jun 2027 06:44:49.270             3.121          1560.500
        46   06 Jun 2027 08:16:11.868   06 Jun 2027 08:20:23.553           251.685        125842.500
        47   06 Jun 2027 09:50:18.832   06 Jun 2027 09:51:29.993            71.161         35580.500
        48   06 Jun 2027 09:52:01.488   06 Jun 2027 09:55:35.462           213.974        106987.000
        49   07 Jun 2027 03:36:19.416   07 Jun 2027 03:43:49.678           450.262        225131.000
        50   07 Jun 2027 03:43:53.789   07 Jun 2027 03:44:54.083            60.294         30147.000
        51   07 Jun 2027 05:13:45.116   07 Jun 2027 05:20:45.561           420.445        210222.500
        52   07 Jun 2027 06:50:54.585   07 Jun 2027 06:55:17.679           263.094        131547.000
        53   07 Jun 2027 06:55:51.844   07 Jun 2027 06:56:38.675            46.831         23415.500
        54   07 Jun 2027 08:28:00.652   07 Jun 2027 08:32:21.596           260.944        130472.000
        55   07 Jun 2027 10:02:53.497   07 Jun 2027 10:02:57.132             3.635          1817.500
        56   07 Jun 2027 10:04:31.754   07 Jun 2027 10:07:20.797           169.043         84521.500
        57   08 Jun 2027 03:48:54.767   08 Jun 2027 03:55:48.076           413.309        206654.500
        58   08 Jun 2027 03:55:50.457   08 Jun 2027 03:56:50.968            60.511         30255.500
        59   08 Jun 2027 05:25:57.719   08 Jun 2027 05:32:40.912           403.193        201596.500
        60   08 Jun 2027 07:03:14.714   08 Jun 2027 07:07:19.360           244.646        122323.000
        61   08 Jun 2027 07:07:20.327   08 Jun 2027 07:07:55.467            35.140         17570.000
        62   08 Jun 2027 08:39:52.023   08 Jun 2027 08:44:47.817           295.794        147897.000
        63   08 Jun 2027 10:18:29.831   08 Jun 2027 10:18:49.990            20.159         10079.500
        64   09 Jun 2027 04:02:06.270   09 Jun 2027 04:08:52.552           406.282        203141.000
        65   09 Jun 2027 05:38:28.393   09 Jun 2027 05:44:47.449           379.056        189528.000
        66   09 Jun 2027 07:16:02.222   09 Jun 2027 07:20:24.403           262.181        131090.500
        67   09 Jun 2027 08:52:54.611   09 Jun 2027 08:56:16.741           202.130        101065.000
        68   10 Jun 2027 04:14:14.810   10 Jun 2027 04:20:51.497           396.687        198343.500
        69   10 Jun 2027 05:50:13.256   10 Jun 2027 05:56:20.266           367.010        183505.000
        70   10 Jun 2027 05:56:29.714   10 Jun 2027 05:56:34.566             4.852          2426.000
        71   10 Jun 2027 07:28:04.675   10 Jun 2027 07:32:33.517           268.842        134421.000
        72   10 Jun 2027 09:04:04.494   10 Jun 2027 09:08:15.499           251.005        125502.500
        73   10 Jun 2027 09:08:19.599   10 Jun 2027 09:09:06.004            46.405         23202.500
        74   11 Jun 2027 04:25:37.742   11 Jun 2027 04:28:09.245           151.503         75751.500
        75   11 Jun 2027 04:29:14.793   11 Jun 2027 04:33:01.974           227.181        113590.500
        76   11 Jun 2027 06:02:15.500   11 Jun 2027 06:08:38.919           383.419        191709.500
        77   11 Jun 2027 07:41:03.860   11 Jun 2027 07:44:27.669           203.809        101904.500
        78   11 Jun 2027 09:13:52.522   11 Jun 2027 09:15:20.317            87.795         43897.500
        79   11 Jun 2027 09:15:52.481   11 Jun 2027 09:20:05.820           253.339        126669.500
        80   11 Jun 2027 09:20:25.877   11 Jun 2027 09:21:30.414            64.537         32268.500
        81   12 Jun 2027 03:00:49.247   12 Jun 2027 03:02:01.875            72.628         36314.000
        82   12 Jun 2027 03:02:31.889   12 Jun 2027 03:07:21.944           290.055        145027.500
        83   12 Jun 2027 04:37:33.656   12 Jun 2027 04:45:02.157           448.501        224250.500
        84   12 Jun 2027 06:14:36.355   12 Jun 2027 06:20:27.155           350.800        175400.000
        85   12 Jun 2027 06:20:30.500   12 Jun 2027 06:20:45.809            15.309          7654.500
        86   12 Jun 2027 07:53:13.524   12 Jun 2027 07:56:29.935           196.411         98205.500
        87   12 Jun 2027 09:25:44.630   12 Jun 2027 09:32:05.658           381.028        190514.000
        88   12 Jun 2027 09:32:22.045   12 Jun 2027 09:33:36.894            74.849         37424.500
        89   13 Jun 2027 03:12:09.485   13 Jun 2027 03:14:15.866           126.381         63190.500
        90   13 Jun 2027 03:14:19.805   13 Jun 2027 03:19:41.080           321.275        160637.500
        91   13 Jun 2027 03:20:17.809   13 Jun 2027 03:20:41.739            23.930         11965.000
        92   13 Jun 2027 04:49:43.876   13 Jun 2027 04:57:05.692           441.816        220908.000
        93   13 Jun 2027 06:26:27.274   13 Jun 2027 06:32:40.151           372.877        186438.500
        94   13 Jun 2027 06:32:44.455   13 Jun 2027 06:33:05.478            21.023         10511.500
        95   13 Jun 2027 08:04:34.369   13 Jun 2027 08:08:39.702           245.333        122666.500
        96   13 Jun 2027 09:38:31.977   13 Jun 2027 09:45:07.042           395.065        197532.500
