uniorb/output/strategy_4/Camera/Camera_KinoSat_110601.txt

KinoSat_110601
-------------------------
    Access    *     Start Time (UTCG)     *     Stop Time (UTCG)  *   Duration (s) *   Data (Mbytes)
         1   01 Jun 2027 04:19:46.789   01 Jun 2027 04:21:35.416           108.627         54313.500
         2   01 Jun 2027 04:22:37.746   01 Jun 2027 04:22:43.954             6.208          3104.000
         3   01 Jun 2027 04:24:22.622   01 Jun 2027 04:24:23.920             1.298           649.000
         4   01 Jun 2027 04:25:34.934   01 Jun 2027 04:25:38.608             3.674          1837.000
         5   01 Jun 2027 04:27:43.114   01 Jun 2027 04:27:48.975             5.861          2930.500
         6   01 Jun 2027 05:57:12.496   01 Jun 2027 05:59:35.708           143.212         71606.000
         7   01 Jun 2027 06:02:06.920   01 Jun 2027 06:02:23.899            16.979          8489.500
         8   01 Jun 2027 06:02:41.693   01 Jun 2027 06:02:41.693             0.000             0.000
         9   01 Jun 2027 06:03:24.584   01 Jun 2027 06:03:26.780             2.196          1098.000
        10   01 Jun 2027 06:04:30.977   01 Jun 2027 06:04:31.462             0.485           242.500
        11   01 Jun 2027 07:33:59.559   01 Jun 2027 07:36:09.878           130.319         65159.500
        12   01 Jun 2027 07:37:28.334   01 Jun 2027 07:38:06.758            38.424         19212.000
        13   01 Jun 2027 07:39:06.421   01 Jun 2027 07:39:19.110            12.689          6344.500
        14   01 Jun 2027 07:39:26.061   01 Jun 2027 07:39:27.876             1.815           907.500
        15   01 Jun 2027 09:11:57.449   01 Jun 2027 09:14:57.835           180.386         90193.000
        16   01 Jun 2027 10:45:34.728   01 Jun 2027 10:48:28.544           173.816         86908.000
        17   01 Jun 2027 10:52:28.338   01 Jun 2027 10:52:36.375             8.037          4018.500
        18   02 Jun 2027 03:00:00.000   02 Jun 2027 03:00:04.636             4.636          2318.000
        19   02 Jun 2027 03:00:18.807   02 Jun 2027 03:00:19.390             0.583           291.500
        20   02 Jun 2027 03:01:02.078   02 Jun 2027 03:01:15.941            13.863          6931.500
        21   02 Jun 2027 04:31:15.545   02 Jun 2027 04:31:46.801            31.256         15628.000
        22   02 Jun 2027 04:32:42.025   02 Jun 2027 04:33:35.476            53.451         26725.500
        23   02 Jun 2027 04:35:02.476   02 Jun 2027 04:35:08.055             5.579          2789.500
        24   02 Jun 2027 04:37:06.469   02 Jun 2027 04:37:33.781            27.312         13656.000
        25   02 Jun 2027 04:39:36.242   02 Jun 2027 04:39:50.097            13.855          6927.500
        26   02 Jun 2027 04:40:07.761   02 Jun 2027 04:40:21.884            14.123          7061.500
        27   02 Jun 2027 06:09:06.448   02 Jun 2027 06:12:08.412           181.964         90982.000
        28   02 Jun 2027 06:12:55.437   02 Jun 2027 06:13:24.919            29.482         14741.000
        29   02 Jun 2027 06:15:44.200   02 Jun 2027 06:16:08.550            24.350         12175.000
        30   02 Jun 2027 06:16:25.273   02 Jun 2027 06:16:31.290             6.017          3008.500
        31   02 Jun 2027 07:45:51.093   02 Jun 2027 07:49:05.122           194.029         97014.500
        32   02 Jun 2027 07:50:05.830   02 Jun 2027 07:50:08.297             2.467          1233.500
        33   02 Jun 2027 07:51:07.125   02 Jun 2027 07:51:42.939            35.814         17907.000
        34   02 Jun 2027 07:51:50.165   02 Jun 2027 07:52:19.939            29.774         14887.000
        35   02 Jun 2027 09:23:59.979   02 Jun 2027 09:25:09.091            69.112         34501.468
        36   02 Jun 2027 10:57:51.470   02 Jun 2027 10:57:56.072             4.602           605.438
        37   03 Jun 2027 03:10:30.264   03 Jun 2027 03:10:55.365            25.101         12550.500
        38   03 Jun 2027 03:12:32.690   03 Jun 2027 03:12:32.690             0.000             0.000
        39   03 Jun 2027 04:44:03.953   03 Jun 2027 04:45:55.019           111.066         55533.000
        40   03 Jun 2027 04:47:07.143   03 Jun 2027 04:47:21.978            14.835          7417.500
        41   03 Jun 2027 04:48:31.443   03 Jun 2027 04:48:52.537            21.094         10547.000
        42   03 Jun 2027 04:51:35.789   03 Jun 2027 04:52:35.811            60.022         30011.000
        43   03 Jun 2027 06:21:13.502   03 Jun 2027 06:22:44.926            91.424         43016.562
        44   03 Jun 2027 06:23:40.691   03 Jun 2027 06:23:46.379             5.688           288.844
        45   03 Jun 2027 06:24:19.919   03 Jun 2027 06:24:22.381             2.462           886.281
        46   03 Jun 2027 06:25:39.820   03 Jun 2027 06:25:40.902             1.082           170.375
        47   03 Jun 2027 06:26:09.197   03 Jun 2027 06:26:12.356             3.159           884.219
        48   03 Jun 2027 07:58:16.875   03 Jun 2027 07:58:17.367             0.492           176.688
        49   03 Jun 2027 08:02:20.459   03 Jun 2027 08:02:22.937             2.478           570.625
        50   03 Jun 2027 09:35:11.000   03 Jun 2027 09:35:18.141             7.141          2282.000
        51   03 Jun 2027 11:10:20.472   03 Jun 2027 11:10:21.446             0.974           158.875
        52   04 Jun 2027 03:22:32.834   04 Jun 2027 03:22:54.978            22.144         11072.000
        53   04 Jun 2027 04:56:24.998   04 Jun 2027 04:59:34.694           189.696         94848.000
        54   04 Jun 2027 05:00:56.122   04 Jun 2027 05:01:08.242            12.120          6060.000
        55   04 Jun 2027 05:03:00.528   04 Jun 2027 05:03:32.742            32.214         16107.000
        56   04 Jun 2027 05:03:33.781   04 Jun 2027 05:04:01.323            27.542         13771.000
        57   04 Jun 2027 05:04:18.724   04 Jun 2027 05:04:19.831             1.107           553.500
        58   04 Jun 2027 05:04:31.963   04 Jun 2027 05:04:34.369             2.406          1203.000
        59   04 Jun 2027 06:33:40.097   04 Jun 2027 06:34:10.398            30.301         14950.625
        60   04 Jun 2027 08:10:41.541   04 Jun 2027 08:10:42.885             1.344           446.562
        61   04 Jun 2027 08:13:50.049   04 Jun 2027 08:13:52.211             2.162           748.719
        62   04 Jun 2027 08:14:07.754   04 Jun 2027 08:14:09.488             1.734           268.563
        63   04 Jun 2027 09:47:25.530   04 Jun 2027 09:47:38.050            12.520          4414.188
        64   04 Jun 2027 11:25:34.546   04 Jun 2027 11:25:35.512             0.966            73.094
        65   05 Jun 2027 03:34:36.124   05 Jun 2027 03:34:48.449            12.325          6162.500
        66   05 Jun 2027 03:35:51.076   05 Jun 2027 03:35:57.755             6.679          3339.500
        67   05 Jun 2027 05:09:42.673   05 Jun 2027 05:10:18.899            36.226         18113.000
        68   05 Jun 2027 05:11:04.965   05 Jun 2027 05:11:33.275            28.310         14155.000
        69   05 Jun 2027 05:12:47.151   05 Jun 2027 05:13:28.130            40.979         20489.500
        70   05 Jun 2027 05:13:34.967   05 Jun 2027 05:14:38.917            63.950         31975.000
        71   05 Jun 2027 05:15:34.855   05 Jun 2027 05:16:11.402            36.547         18273.500
        72   05 Jun 2027 05:16:26.676   05 Jun 2027 05:16:32.378             5.702          2851.000
        73   05 Jun 2027 06:46:03.328   05 Jun 2027 06:47:31.112            87.784         41496.094
        74   05 Jun 2027 06:48:27.595   05 Jun 2027 06:48:30.778             3.183           211.281
        75   05 Jun 2027 06:49:11.047   05 Jun 2027 06:49:13.124             2.077           644.781
        76   05 Jun 2027 06:52:10.488   05 Jun 2027 06:52:11.301             0.813           195.344
        77   05 Jun 2027 08:23:33.366   05 Jun 2027 08:23:36.268             2.902          1186.938
        78   05 Jun 2027 09:59:37.779   05 Jun 2027 09:59:52.112            14.333          5710.125
        79   05 Jun 2027 10:03:09.609   05 Jun 2027 10:03:11.483             1.874           859.875
        80   06 Jun 2027 03:46:46.736   06 Jun 2027 03:47:13.492            26.756         13378.000
        81   06 Jun 2027 03:49:19.710   06 Jun 2027 03:49:36.339            16.629          8314.500
        82   06 Jun 2027 05:21:56.463   06 Jun 2027 05:24:46.903           170.440         85220.000
        83   06 Jun 2027 05:28:05.152   06 Jun 2027 05:28:32.387            27.235         13617.500
        84   06 Jun 2027 06:58:17.894   06 Jun 2027 06:59:49.098            91.204         44509.000
        85   06 Jun 2027 07:02:58.131   06 Jun 2027 07:02:59.287             1.156           568.938
        86   06 Jun 2027 08:35:36.151   06 Jun 2027 08:35:49.398            13.247          3631.062
        87   06 Jun 2027 10:11:48.043   06 Jun 2027 10:12:03.256            15.213          5359.906
        88   07 Jun 2027 03:58:37.073   07 Jun 2027 03:59:01.865            24.792         12396.000
        89   07 Jun 2027 03:59:19.641   07 Jun 2027 03:59:19.641             0.000             0.000
        90   07 Jun 2027 04:01:00.621   07 Jun 2027 04:01:00.621             0.000             0.000
        91   07 Jun 2027 05:33:30.901   07 Jun 2027 05:36:49.872           198.971         99485.500
        92   07 Jun 2027 05:38:22.457   07 Jun 2027 05:38:49.202            26.745         13372.500
        93   07 Jun 2027 05:40:10.270   07 Jun 2027 05:40:41.360            31.090         15545.000
        94   07 Jun 2027 07:09:54.211   07 Jun 2027 07:10:55.253            61.042         25968.875
        95   07 Jun 2027 08:48:10.732   07 Jun 2027 08:48:20.088             9.356          4535.250
        96   07 Jun 2027 08:49:29.445   07 Jun 2027 08:49:31.896             2.451           158.031
        97   07 Jun 2027 08:49:53.255   07 Jun 2027 08:49:55.732             2.477           530.750
        98   07 Jun 2027 08:50:21.230   07 Jun 2027 08:50:23.497             2.267           787.813
        99   07 Jun 2027 10:23:33.653   07 Jun 2027 10:23:45.323            11.670          5661.500
       100   08 Jun 2027 04:08:54.609   08 Jun 2027 04:09:25.331            30.722         15361.000
       101   08 Jun 2027 04:09:34.776   08 Jun 2027 04:09:40.633             5.857          2928.500
       102   08 Jun 2027 04:10:21.004   08 Jun 2027 04:10:21.488             0.484           242.000
       103   08 Jun 2027 04:10:31.900   08 Jun 2027 04:10:39.812             7.912          3956.000
       104   08 Jun 2027 04:12:02.172   08 Jun 2027 04:12:04.678             2.506          1253.000
       105   08 Jun 2027 04:13:49.015   08 Jun 2027 04:14:01.123            12.108          6054.000
       106   08 Jun 2027 05:45:07.369   08 Jun 2027 05:47:35.615           148.246         74123.000
       107   08 Jun 2027 05:48:28.201   08 Jun 2027 05:48:33.935             5.734          2867.000
       108   08 Jun 2027 05:48:42.939   08 Jun 2027 05:48:47.340             4.401          2200.500
       109   08 Jun 2027 05:52:41.893   08 Jun 2027 05:52:42.074             0.181            90.500
       110   08 Jun 2027 07:22:13.744   08 Jun 2027 07:24:21.458           127.714         62052.812
       111   08 Jun 2027 09:00:11.658   08 Jun 2027 09:00:21.909            10.251          4155.594
       112   08 Jun 2027 09:03:59.734   08 Jun 2027 09:04:00.859             1.125           139.625
       113   08 Jun 2027 10:33:19.071   08 Jun 2027 10:33:34.502            15.431          5343.437
       114   09 Jun 2027 04:20:01.257   09 Jun 2027 04:21:31.312            90.055         45027.500
       115   09 Jun 2027 04:24:43.134   09 Jun 2027 04:24:43.134             0.000             0.000
       116   09 Jun 2027 04:25:10.194   09 Jun 2027 04:25:20.712            10.518          5259.000
       117   09 Jun 2027 04:25:49.643   09 Jun 2027 04:25:54.410             4.767          2383.500
       118   09 Jun 2027 04:26:03.240   09 Jun 2027 04:26:17.160            13.920          6960.000
       119   09 Jun 2027 04:28:04.447   09 Jun 2027 04:28:17.933            13.486          6743.000
       120   09 Jun 2027 05:57:27.215   09 Jun 2027 05:59:35.785           128.570         64285.000
       121   09 Jun 2027 06:00:17.770   09 Jun 2027 06:00:50.585            32.815         16407.500
       122   09 Jun 2027 06:03:40.444   09 Jun 2027 06:03:42.422             1.978           989.000
       123   09 Jun 2027 06:04:04.293   09 Jun 2027 06:04:21.189            16.896          8448.000
       124   09 Jun 2027 06:04:45.670   09 Jun 2027 06:04:46.148             0.478           239.000
       125   09 Jun 2027 07:34:14.065   09 Jun 2027 07:35:04.374            50.309         24719.469
       126   09 Jun 2027 07:38:06.294   09 Jun 2027 07:38:10.633             4.339          1421.375
       127   09 Jun 2027 07:39:21.461   09 Jun 2027 07:39:26.234             4.773          1865.125
       128   09 Jun 2027 07:40:29.511   09 Jun 2027 07:40:33.774             4.263          1597.594
       129   09 Jun 2027 09:12:12.119   09 Jun 2027 09:12:25.633            13.514          5683.875
       130   09 Jun 2027 09:16:03.429   09 Jun 2027 09:16:03.529             0.100             3.062
       131   09 Jun 2027 10:45:49.616   09 Jun 2027 10:45:58.261             8.645          1889.938
       132   10 Jun 2027 03:00:13.249   10 Jun 2027 03:00:34.291            21.042         10521.000
       133   10 Jun 2027 04:31:29.798   10 Jun 2027 04:34:04.054           154.256         77128.000
       134   10 Jun 2027 04:34:24.862   10 Jun 2027 04:34:27.212             2.350          1175.000
       135   10 Jun 2027 04:34:39.356   10 Jun 2027 04:34:45.140             5.784          2892.000
       136   10 Jun 2027 04:35:29.911   10 Jun 2027 04:35:49.652            19.741          9870.500
       137   10 Jun 2027 04:37:33.568   10 Jun 2027 04:37:44.695            11.127          5563.500
       138   10 Jun 2027 04:40:36.901   10 Jun 2027 04:40:48.650            11.749          5874.500
       139   10 Jun 2027 06:09:21.223   10 Jun 2027 06:11:10.139           108.916         54008.062
       140   10 Jun 2027 06:11:53.259   10 Jun 2027 06:11:58.041             4.782           564.594
       141   10 Jun 2027 06:12:18.891   10 Jun 2027 06:12:23.209             4.318           410.875
       142   10 Jun 2027 06:12:34.542   10 Jun 2027 06:12:35.382             0.840           200.656
       143   10 Jun 2027 06:14:04.482   10 Jun 2027 06:14:06.229             1.747           392.688
       144   10 Jun 2027 06:14:53.194   10 Jun 2027 06:14:54.812             1.618           796.250
       145   10 Jun 2027 07:46:05.689   10 Jun 2027 07:46:08.001             2.312           813.844
       146   10 Jun 2027 07:50:20.430   10 Jun 2027 07:50:22.724             2.294           679.750
       147   10 Jun 2027 07:50:51.046   10 Jun 2027 07:50:54.797             3.751           866.875
       148   10 Jun 2027 09:24:14.903   10 Jun 2027 09:24:26.337            11.434          3291.906
       149   10 Jun 2027 10:58:06.582   10 Jun 2027 10:58:08.695             2.113           718.094
       150   11 Jun 2027 03:10:30.654   11 Jun 2027 03:10:46.825            16.171          8085.500
       151   11 Jun 2027 04:44:18.646   11 Jun 2027 04:47:32.870           194.224         97112.000
       152   11 Jun 2027 04:51:39.704   11 Jun 2027 04:51:44.159             4.455          2227.500
       153   11 Jun 2027 04:51:50.471   11 Jun 2027 04:52:31.164            40.693         20346.500
       154   11 Jun 2027 06:21:28.198   11 Jun 2027 06:22:22.923            54.725         26056.375
       155   11 Jun 2027 06:22:47.364   11 Jun 2027 06:22:52.020             4.656           450.906
       156   11 Jun 2027 06:23:45.942   11 Jun 2027 06:23:54.739             8.797          1647.594
       157   11 Jun 2027 06:23:56.187   11 Jun 2027 06:23:59.770             3.583            45.250
       158   11 Jun 2027 06:24:35.643   11 Jun 2027 06:24:37.871             2.228           832.813
       159   11 Jun 2027 06:25:58.906   11 Jun 2027 06:26:00.329             1.423           300.594
       160   11 Jun 2027 06:26:33.275   11 Jun 2027 06:26:33.926             0.651           235.937
       161   11 Jun 2027 07:58:32.060   11 Jun 2027 07:58:35.447             3.387           709.250
       162   11 Jun 2027 08:02:36.089   11 Jun 2027 08:02:38.039             1.950           629.000
       163   11 Jun 2027 09:35:25.408   11 Jun 2027 09:35:32.327             6.919          3041.750
       164   11 Jun 2027 11:10:35.935   11 Jun 2027 11:10:37.920             1.985           144.000
       165   12 Jun 2027 03:22:47.461   12 Jun 2027 03:23:09.613            22.152         11076.000
       166   12 Jun 2027 04:56:40.012   12 Jun 2027 04:57:20.108            40.096         20048.000
       167   12 Jun 2027 05:00:30.365   12 Jun 2027 05:01:05.102            34.737         17368.500
       168   12 Jun 2027 05:01:16.750   12 Jun 2027 05:03:14.872           118.122         59061.000
       169   12 Jun 2027 05:03:54.226   12 Jun 2027 05:04:15.996            21.770         10885.000
       170   12 Jun 2027 05:04:33.472   12 Jun 2027 05:04:49.027            15.555          7777.500
       171   12 Jun 2027 06:33:54.544   12 Jun 2027 06:34:58.820            64.276         31217.750
       172   12 Jun 2027 08:10:56.655   12 Jun 2027 08:11:03.340             6.685          1472.500
       173   12 Jun 2027 09:47:40.300   12 Jun 2027 09:47:52.904            12.604          4439.062
       174   12 Jun 2027 11:25:49.460   12 Jun 2027 11:25:51.932             2.472           315.313
       175   13 Jun 2027 03:34:50.678   13 Jun 2027 03:35:03.056            12.378          6189.000
       176   13 Jun 2027 03:36:05.738   13 Jun 2027 03:36:13.928             8.190          4095.000
       177   13 Jun 2027 05:09:57.713   13 Jun 2027 05:12:00.993           123.280         61640.000
       178   13 Jun 2027 05:13:43.330   13 Jun 2027 05:14:53.302            69.972         34986.000
       179   13 Jun 2027 05:15:49.595   13 Jun 2027 05:15:56.680             7.085          3542.500
       180   13 Jun 2027 05:16:26.603   13 Jun 2027 05:16:47.234            20.631         10315.500
       181   13 Jun 2027 06:46:18.200   13 Jun 2027 06:47:33.867            75.667         37388.406
       182   13 Jun 2027 06:48:42.523   13 Jun 2027 06:48:44.832             2.309           155.875
       183   13 Jun 2027 08:23:48.547   13 Jun 2027 08:23:51.989             3.442           775.500
       184   13 Jun 2027 08:26:11.310   13 Jun 2027 08:26:12.609             1.299            23.500
       185   13 Jun 2027 08:26:31.140   13 Jun 2027 08:26:32.232             1.092           455.938
       186   13 Jun 2027 09:59:53.415   13 Jun 2027 10:00:05.816            12.401          5012.656
