uniorb/output/strategy_4/Camera/Camera_KinoSat_111904.txt

KinoSat_111904
-------------------------
    Access    *     Start Time (UTCG)     *     Stop Time (UTCG)  *   Duration (s) *   Data (Mbytes)
         1   01 Jun 2027 03:10:25.965   01 Jun 2027 03:11:17.700            51.735         25867.500
         2   01 Jun 2027 03:11:50.304   01 Jun 2027 03:12:36.341            46.037         23018.500
         3   01 Jun 2027 03:14:07.679   01 Jun 2027 03:14:08.060             0.381           190.500
         4   01 Jun 2027 03:14:25.796   01 Jun 2027 03:14:39.544            13.748          6874.000
         5   01 Jun 2027 04:48:39.313   01 Jun 2027 04:49:39.981            60.668         30334.000
         6   01 Jun 2027 04:49:45.776   01 Jun 2027 04:50:13.539            27.763         13881.500
         7   01 Jun 2027 04:50:17.395   01 Jun 2027 04:50:30.644            13.249          6624.500
         8   01 Jun 2027 04:53:11.514   01 Jun 2027 04:53:18.369             6.855          3427.500
         9   01 Jun 2027 04:54:34.886   01 Jun 2027 04:54:43.646             8.760          4380.000
        10   01 Jun 2027 06:27:40.242   01 Jun 2027 06:29:42.744           122.502         61251.000
        11   01 Jun 2027 07:50:02.347   01 Jun 2027 07:51:35.482            93.135         46567.500
        12   01 Jun 2027 09:26:37.245   01 Jun 2027 09:28:33.025           115.780         57890.000
        13   01 Jun 2027 09:29:15.626   01 Jun 2027 09:29:15.626             0.000             0.000
        14   01 Jun 2027 11:01:46.202   01 Jun 2027 11:04:42.768           176.566         88283.000
        15   01 Jun 2027 11:05:31.450   01 Jun 2027 11:05:38.326             6.876          3438.000
        16   01 Jun 2027 11:08:29.033   01 Jun 2027 11:08:32.487             3.454          1727.000
        17   02 Jun 2027 03:22:22.519   02 Jun 2027 03:23:16.193            53.674         26837.000
        18   02 Jun 2027 03:23:19.058   02 Jun 2027 03:24:36.375            77.317         38658.500
        19   02 Jun 2027 03:27:37.048   02 Jun 2027 03:27:47.810            10.762          5381.000
        20   02 Jun 2027 03:28:14.711   02 Jun 2027 03:28:17.445             2.734          1367.000
        21   02 Jun 2027 03:28:35.753   02 Jun 2027 03:28:39.118             3.365          1682.500
        22   02 Jun 2027 03:29:29.086   02 Jun 2027 03:29:33.541             4.455          2227.500
        23   02 Jun 2027 05:00:35.339   02 Jun 2027 05:01:31.213            55.874         27937.000
        24   02 Jun 2027 05:01:42.133   02 Jun 2027 05:05:22.218           220.085        110042.500
        25   02 Jun 2027 06:38:51.212   02 Jun 2027 06:40:05.199            73.987         36993.500
        26   02 Jun 2027 06:41:10.672   02 Jun 2027 06:42:15.638            64.966         32483.000
        27   02 Jun 2027 08:02:13.350   02 Jun 2027 08:03:42.213            88.863         44431.500
        28   02 Jun 2027 08:03:49.761   02 Jun 2027 08:04:43.045            53.284         26642.000
        29   02 Jun 2027 09:38:48.251   02 Jun 2027 09:39:04.079            15.828          7914.000
        30   02 Jun 2027 09:39:51.976   02 Jun 2027 09:40:18.459            26.483         12689.531
        31   02 Jun 2027 09:41:10.115   02 Jun 2027 09:41:14.924             4.809          1614.250
        32   02 Jun 2027 11:13:58.305   02 Jun 2027 11:14:09.262            10.957          3457.688
        33   02 Jun 2027 11:18:21.756   02 Jun 2027 11:18:21.756             0.000             0.000
        34   02 Jun 2027 11:20:07.613   02 Jun 2027 11:20:29.782            22.169         10925.531
        35   03 Jun 2027 03:34:23.424   03 Jun 2027 03:37:28.496           185.072         92536.000
        36   03 Jun 2027 03:39:10.527   03 Jun 2027 03:39:32.284            21.757         10878.500
        37   03 Jun 2027 03:39:52.204   03 Jun 2027 03:39:55.272             3.068          1534.000
        38   03 Jun 2027 05:13:41.187   03 Jun 2027 05:15:30.345           109.158         54132.656
        39   03 Jun 2027 05:16:13.228   03 Jun 2027 05:16:15.521             2.293           774.500
        40   03 Jun 2027 05:17:28.614   03 Jun 2027 05:17:30.281             1.667           616.562
        41   03 Jun 2027 05:20:10.287   03 Jun 2027 05:20:20.378            10.091          4549.437
        42   03 Jun 2027 05:20:34.802   03 Jun 2027 05:20:36.198             1.396           450.750
        43   03 Jun 2027 06:50:47.620   03 Jun 2027 06:50:57.243             9.623          4674.125
        44   03 Jun 2027 06:54:14.339   03 Jun 2027 06:54:15.880             1.541            66.531
        45   03 Jun 2027 08:14:45.032   03 Jun 2027 08:15:11.188            26.156          8712.281
        46   03 Jun 2027 08:15:19.838   03 Jun 2027 08:15:20.868             1.030             8.688
        47   03 Jun 2027 08:16:57.093   03 Jun 2027 08:17:02.625             5.532          2503.875
        48   03 Jun 2027 09:50:36.527   03 Jun 2027 09:50:46.514             9.987          4695.969
        49   03 Jun 2027 09:53:04.938   03 Jun 2027 09:53:08.464             3.526          1566.937
        50   03 Jun 2027 11:25:28.727   03 Jun 2027 11:25:33.625             4.898          2168.281
        51   03 Jun 2027 11:27:35.688   03 Jun 2027 11:27:42.160             6.472          2913.656
        52   03 Jun 2027 11:31:08.842   03 Jun 2027 11:31:21.848            13.006          5165.719
        53   03 Jun 2027 11:32:03.226   03 Jun 2027 11:32:10.949             7.723          1222.219
        54   03 Jun 2027 11:32:38.915   03 Jun 2027 11:32:42.172             3.257           763.375
        55   04 Jun 2027 03:47:04.470   04 Jun 2027 03:50:32.113           207.643        103821.500
        56   04 Jun 2027 03:50:37.892   04 Jun 2027 03:50:53.909            16.017          8008.500
        57   04 Jun 2027 05:25:49.589   04 Jun 2027 05:27:32.307           102.718         51347.000
        58   04 Jun 2027 05:29:29.934   04 Jun 2027 05:29:35.780             5.846          2796.719
        59   04 Jun 2027 05:31:53.809   04 Jun 2027 05:32:05.581            11.772          4210.656
        60   04 Jun 2027 06:51:27.008   04 Jun 2027 06:51:37.348            10.340          4833.312
        61   04 Jun 2027 06:51:48.884   04 Jun 2027 06:51:56.927             8.043           185.844
        62   04 Jun 2027 07:02:45.692   04 Jun 2027 07:02:52.445             6.753          2515.531
        63   04 Jun 2027 07:04:01.339   04 Jun 2027 07:04:02.477             1.138           308.625
        64   04 Jun 2027 08:25:21.048   04 Jun 2027 08:25:31.303            10.255          5017.000
        65   04 Jun 2027 08:25:47.905   04 Jun 2027 08:25:53.944             6.039           409.594
        66   04 Jun 2027 08:26:13.861   04 Jun 2027 08:26:15.560             1.699           593.469
        67   04 Jun 2027 08:27:37.109   04 Jun 2027 08:27:42.834             5.725          2224.969
        68   04 Jun 2027 08:29:01.625   04 Jun 2027 08:29:06.628             5.003          2185.125
        69   04 Jun 2027 08:30:00.843   04 Jun 2027 08:30:02.498             1.655           827.500
        70   04 Jun 2027 10:00:52.432   04 Jun 2027 10:00:59.074             6.642          2800.188
        71   04 Jun 2027 10:04:02.010   04 Jun 2027 10:04:07.199             5.189          1612.469
        72   04 Jun 2027 10:05:33.211   04 Jun 2027 10:05:37.274             4.063           814.156
        73   04 Jun 2027 10:06:10.660   04 Jun 2027 10:06:11.817             1.157           546.438
        74   04 Jun 2027 11:37:12.304   04 Jun 2027 11:37:29.694            17.390          4157.375
        75   04 Jun 2027 11:40:07.984   04 Jun 2027 11:40:18.628            10.644          4626.625
        76   04 Jun 2027 11:41:48.708   04 Jun 2027 11:41:53.354             4.646          2286.219
        77   04 Jun 2027 11:42:32.578   04 Jun 2027 11:42:37.140             4.562          1225.750
        78   04 Jun 2027 11:43:07.761   04 Jun 2027 11:43:10.343             2.582           451.719
        79   04 Jun 2027 11:44:08.342   04 Jun 2027 11:44:16.046             7.704          1098.094
        80   04 Jun 2027 11:44:44.494   04 Jun 2027 11:44:45.092             0.598           299.000
        81   05 Jun 2027 03:59:11.609   05 Jun 2027 04:01:34.440           142.831         71415.500
        82   05 Jun 2027 05:38:15.700   05 Jun 2027 05:40:25.376           129.676         64838.000
        83   05 Jun 2027 05:43:34.162   05 Jun 2027 05:44:32.054            57.892         28070.219
        84   05 Jun 2027 07:03:05.225   05 Jun 2027 07:03:16.262            11.037          5518.500
        85   05 Jun 2027 07:03:19.707   05 Jun 2027 07:03:21.124             1.417           443.625
        86   05 Jun 2027 07:03:47.138   05 Jun 2027 07:03:47.138             0.000             0.000
        87   05 Jun 2027 07:04:28.623   05 Jun 2027 07:04:35.212             6.589          1596.594
        88   05 Jun 2027 07:14:45.206   05 Jun 2027 07:14:53.768             8.562          2946.219
        89   05 Jun 2027 08:37:03.994   05 Jun 2027 08:37:24.117            20.123          9274.219
        90   05 Jun 2027 08:37:57.017   05 Jun 2027 08:37:58.924             1.907           262.219
        91   05 Jun 2027 08:39:36.728   05 Jun 2027 08:39:46.380             9.652          2078.063
        92   05 Jun 2027 08:41:00.736   05 Jun 2027 08:41:04.764             4.028          2008.750
        93   05 Jun 2027 08:41:55.717   05 Jun 2027 08:41:58.456             2.739          1369.500
        94   05 Jun 2027 10:12:00.330   05 Jun 2027 10:12:07.911             7.581          3499.687
        95   05 Jun 2027 10:13:13.069   05 Jun 2027 10:13:26.997            13.928            97.281
        96   05 Jun 2027 10:15:18.542   05 Jun 2027 10:15:19.894             1.352           320.156
        97   05 Jun 2027 10:17:08.045   05 Jun 2027 10:17:15.784             7.739          2620.969
        98   05 Jun 2027 10:18:26.414   05 Jun 2027 10:18:29.460             3.046          1360.781
        99   05 Jun 2027 11:49:30.257   05 Jun 2027 11:49:48.188            17.931          4263.063
       100   05 Jun 2027 11:51:39.751   05 Jun 2027 11:51:45.417             5.666          1037.875
       101   05 Jun 2027 11:55:40.136   05 Jun 2027 11:55:52.349            12.213          6004.938
       102   05 Jun 2027 11:56:20.595   05 Jun 2027 11:56:22.176             1.581           644.313
       103   06 Jun 2027 04:11:35.595   06 Jun 2027 04:11:57.469            21.874         10937.000
       104   06 Jun 2027 04:12:04.668   06 Jun 2027 04:12:34.553            29.885         14942.500
       105   06 Jun 2027 04:12:39.646   06 Jun 2027 04:13:33.738            54.092         27046.000
       106   06 Jun 2027 04:13:35.979   06 Jun 2027 04:14:11.226            35.247         17623.500
       107   06 Jun 2027 04:14:13.953   06 Jun 2027 04:14:36.201            22.248         11124.000
       108   06 Jun 2027 04:16:05.514   06 Jun 2027 04:16:07.969             2.455          1227.500
       109   06 Jun 2027 04:16:28.114   06 Jun 2027 04:16:31.899             3.785          1892.500
       110   06 Jun 2027 05:50:20.053   06 Jun 2027 05:51:23.298            63.245         31622.500
       111   06 Jun 2027 05:53:11.207   06 Jun 2027 05:53:27.322            16.115          8057.500
       112   06 Jun 2027 05:54:59.200   06 Jun 2027 05:56:29.077            89.877         44823.563
       113   06 Jun 2027 07:14:38.849   06 Jun 2027 07:14:54.048            15.199          7452.531
       114   06 Jun 2027 07:15:44.586   06 Jun 2027 07:15:47.455             2.869          1204.594
       115   06 Jun 2027 07:16:39.259   06 Jun 2027 07:16:43.308             4.049          1575.563
       116   06 Jun 2027 07:26:59.871   06 Jun 2027 07:27:11.768            11.897          3617.344
       117   06 Jun 2027 08:48:36.016   06 Jun 2027 08:48:54.826            18.810          8850.750
       118   06 Jun 2027 08:50:45.086   06 Jun 2027 08:50:48.426             3.340           393.000
       119   06 Jun 2027 08:51:26.204   06 Jun 2027 08:51:35.701             9.497          1180.562
       120   06 Jun 2027 08:52:20.855   06 Jun 2027 08:52:27.582             6.727          1411.062
       121   06 Jun 2027 08:53:32.531   06 Jun 2027 08:53:32.531             0.000             0.000
       122   06 Jun 2027 08:54:08.401   06 Jun 2027 08:54:15.224             6.823          3150.594
       123   06 Jun 2027 10:23:29.498   06 Jun 2027 10:23:36.333             6.835          2103.344
       124   06 Jun 2027 10:25:55.613   06 Jun 2027 10:25:58.943             3.330           547.344
       125   06 Jun 2027 10:27:05.100   06 Jun 2027 10:27:08.842             3.742          1652.781
       126   06 Jun 2027 10:29:08.422   06 Jun 2027 10:29:15.798             7.376          3460.781
       127   06 Jun 2027 10:30:45.428   06 Jun 2027 10:30:48.540             3.112           324.500
       128   06 Jun 2027 10:31:04.598   06 Jun 2027 10:31:08.084             3.486            14.469
       129   07 Jun 2027 04:24:15.056   07 Jun 2027 04:24:28.032            12.976          6488.000
       130   07 Jun 2027 04:24:38.062   07 Jun 2027 04:24:47.069             9.007          4503.500
       131   07 Jun 2027 04:25:28.052   07 Jun 2027 04:25:38.793            10.741          5370.500
       132   07 Jun 2027 04:25:47.694   07 Jun 2027 04:26:12.699            25.005         12502.500
       133   07 Jun 2027 04:26:24.260   07 Jun 2027 04:26:47.089            22.829         11414.500
       134   07 Jun 2027 04:27:57.485   07 Jun 2027 04:28:09.410            11.925          5962.500
       135   07 Jun 2027 04:28:22.998   07 Jun 2027 04:28:52.102            29.104         14552.000
       136   07 Jun 2027 04:29:18.639   07 Jun 2027 04:29:30.042            11.403          5701.500
       137   07 Jun 2027 06:02:46.357   07 Jun 2027 06:05:28.955           162.598         81299.000
       138   07 Jun 2027 06:05:44.141   07 Jun 2027 06:06:10.538            26.397         13198.500
       139   07 Jun 2027 06:06:20.776   07 Jun 2027 06:06:30.667             9.891          3645.437
       140   07 Jun 2027 06:07:37.709   07 Jun 2027 06:07:40.695             2.986          1426.125
       141   07 Jun 2027 07:26:34.955   07 Jun 2027 07:26:55.238            20.283          7692.531
       142   07 Jun 2027 07:27:50.417   07 Jun 2027 07:27:50.417             0.000             0.000
       143   07 Jun 2027 09:02:35.183   07 Jun 2027 09:03:06.744            31.561         11233.312
       144   07 Jun 2027 09:03:10.819   07 Jun 2027 09:03:12.851             2.032           127.344
       145   07 Jun 2027 09:03:18.763   07 Jun 2027 09:03:21.679             2.916           117.781
       146   07 Jun 2027 09:04:14.043   07 Jun 2027 09:04:14.043             0.000             0.000
       147   07 Jun 2027 09:04:56.416   07 Jun 2027 09:05:02.541             6.125          2772.406
       148   07 Jun 2027 10:36:22.977   07 Jun 2027 10:36:31.786             8.809          3688.813
       149   07 Jun 2027 10:38:26.266   07 Jun 2027 10:38:27.472             1.206           594.656
       150   07 Jun 2027 10:38:50.438   07 Jun 2027 10:38:51.823             1.385           605.188
       151   07 Jun 2027 10:41:08.190   07 Jun 2027 10:41:16.723             8.533          3988.469
       152   07 Jun 2027 10:43:07.941   07 Jun 2027 10:43:07.941             0.000             0.000
       153   07 Jun 2027 10:43:21.666   07 Jun 2027 10:43:27.874             6.208          1757.594
       154   07 Jun 2027 10:43:38.604   07 Jun 2027 10:43:40.038             1.434            24.250
       155   07 Jun 2027 10:44:17.661   07 Jun 2027 10:44:21.893             4.232           912.406
       156   08 Jun 2027 03:00:10.498   08 Jun 2027 03:00:24.985            14.487          7243.500
       157   08 Jun 2027 03:00:51.765   08 Jun 2027 03:00:51.765             0.000             0.000
       158   08 Jun 2027 03:01:02.195   08 Jun 2027 03:01:04.793             2.598          1299.000
       159   08 Jun 2027 03:02:20.772   08 Jun 2027 03:02:44.434            23.662         11831.000
       160   08 Jun 2027 03:03:19.041   08 Jun 2027 03:03:36.801            17.760          8880.000
       161   08 Jun 2027 03:03:42.515   08 Jun 2027 03:03:56.394            13.879          6939.500
       162   08 Jun 2027 03:05:38.614   08 Jun 2027 03:05:43.590             4.976          2488.000
       163   08 Jun 2027 04:36:48.811   08 Jun 2027 04:37:16.044            27.233         13616.500
       164   08 Jun 2027 04:37:26.718   08 Jun 2027 04:38:39.802            73.084         36542.000
       165   08 Jun 2027 04:40:10.414   08 Jun 2027 04:41:10.362            59.948         29974.000
       166   08 Jun 2027 04:42:01.716   08 Jun 2027 04:42:16.166            14.450          7225.000
       167   08 Jun 2027 06:15:05.268   08 Jun 2027 06:16:47.156           101.888         50595.125
       168   08 Jun 2027 06:18:55.692   08 Jun 2027 06:18:57.164             1.472           521.937
       169   08 Jun 2027 06:19:17.596   08 Jun 2027 06:19:24.974             7.378           346.812
       170   08 Jun 2027 07:38:27.783   08 Jun 2027 07:38:44.465            16.682          7059.344
       171   08 Jun 2027 07:39:51.821   08 Jun 2027 07:39:56.569             4.748          1784.969
       172   08 Jun 2027 07:40:24.519   08 Jun 2027 07:40:25.996             1.477           324.625
       173   08 Jun 2027 09:14:48.659   08 Jun 2027 09:15:08.916            20.257          8053.188
       174   08 Jun 2027 09:15:54.332   08 Jun 2027 09:15:58.635             4.303           540.156
       175   08 Jun 2027 09:16:08.565   08 Jun 2027 09:16:11.341             2.776            51.344
       176   08 Jun 2027 09:16:52.218   08 Jun 2027 09:16:53.814             1.596           784.188
       177   08 Jun 2027 09:17:54.637   08 Jun 2027 09:18:02.653             8.016          1147.406
       178   08 Jun 2027 10:48:51.639   08 Jun 2027 10:48:58.475             6.836          3250.313
       179   08 Jun 2027 10:50:54.316   08 Jun 2027 10:50:56.852             2.536           414.281
       180   08 Jun 2027 10:53:07.248   08 Jun 2027 10:53:12.419             5.171          2094.375
       181   08 Jun 2027 10:54:34.497   08 Jun 2027 10:54:36.899             2.402           717.438
       182   08 Jun 2027 10:55:14.416   08 Jun 2027 10:55:17.384             2.968           479.969
       183   08 Jun 2027 10:56:36.928   08 Jun 2027 10:56:46.190             9.262          1969.063
       184   09 Jun 2027 03:10:41.808   09 Jun 2027 03:11:24.082            42.274         21137.000
       185   09 Jun 2027 03:12:05.294   09 Jun 2027 03:12:52.483            47.189         23594.500
       186   09 Jun 2027 03:12:59.211   09 Jun 2027 03:13:32.497            33.286         16643.000
       187   09 Jun 2027 03:13:45.025   09 Jun 2027 03:13:45.761             0.736           368.000
       188   09 Jun 2027 03:16:00.623   09 Jun 2027 03:16:08.101             7.478          3739.000
       189   09 Jun 2027 03:17:36.421   09 Jun 2027 03:17:53.810            17.389          8694.500
       190   09 Jun 2027 04:48:55.777   09 Jun 2027 04:49:57.210            61.433         30716.500
       191   09 Jun 2027 04:50:02.855   09 Jun 2027 04:51:34.554            91.699         45849.500
       192   09 Jun 2027 04:51:42.006   09 Jun 2027 04:52:14.705            32.699         16151.687
       193   09 Jun 2027 04:53:24.863   09 Jun 2027 04:53:31.163             6.300          1927.844
       194   09 Jun 2027 06:27:57.864   09 Jun 2027 06:28:24.940            27.076         13284.250
       195   09 Jun 2027 07:50:28.951   09 Jun 2027 07:50:41.827            12.876          5541.875
       196   09 Jun 2027 07:51:52.995   09 Jun 2027 07:52:01.134             8.139          2113.688
       197   09 Jun 2027 07:52:12.850   09 Jun 2027 07:52:18.379             5.529           110.688
       198   09 Jun 2027 09:26:55.182   09 Jun 2027 09:27:09.225            14.043          5359.281
       199   09 Jun 2027 09:27:47.803   09 Jun 2027 09:27:51.297             3.494           574.188
       200   09 Jun 2027 09:28:43.275   09 Jun 2027 09:28:46.624             3.349          1116.625
       201   09 Jun 2027 09:28:52.110   09 Jun 2027 09:28:52.800             0.690           148.219
       202   09 Jun 2027 09:29:59.281   09 Jun 2027 09:30:02.577             3.296          1221.063
       203   09 Jun 2027 11:02:45.842   09 Jun 2027 11:03:04.013            18.171          9085.500
       204   09 Jun 2027 11:03:20.375   09 Jun 2027 11:03:29.117             8.742          2575.000
       205   09 Jun 2027 11:04:59.364   09 Jun 2027 11:05:02.069             2.705           865.094
       206   09 Jun 2027 11:07:37.592   09 Jun 2027 11:07:48.337            10.745          4754.312
       207   09 Jun 2027 11:08:39.700   09 Jun 2027 11:08:44.588             4.888          1086.531
       208   10 Jun 2027 03:22:40.213   10 Jun 2027 03:23:16.848            36.635         18317.500
       209   10 Jun 2027 03:23:34.187   10 Jun 2027 03:24:51.392            77.205         38602.500
       210   10 Jun 2027 03:26:00.947   10 Jun 2027 03:27:22.720            81.773         40886.500
       211   10 Jun 2027 03:27:47.669   10 Jun 2027 03:28:09.605            21.936         10968.000
       212   10 Jun 2027 05:00:53.654   10 Jun 2027 05:01:41.708            48.054         24027.000
       213   10 Jun 2027 05:02:00.135   10 Jun 2027 05:03:02.485            62.350         30691.937
       214   10 Jun 2027 05:04:24.726   10 Jun 2027 05:04:31.115             6.389          2140.594
       215   10 Jun 2027 05:06:19.903   10 Jun 2027 05:06:28.299             8.396          2227.000
       216   10 Jun 2027 06:39:07.568   10 Jun 2027 06:39:18.616            11.048          4630.094
       217   10 Jun 2027 06:39:43.358   10 Jun 2027 06:39:45.693             2.335           689.375
       218   10 Jun 2027 06:40:57.942   10 Jun 2027 06:41:04.792             6.850          1190.000
       219   10 Jun 2027 06:42:42.844   10 Jun 2027 06:42:46.004             3.160           394.219
       220   10 Jun 2027 08:02:29.498   10 Jun 2027 08:02:48.011            18.513          6442.625
       221   10 Jun 2027 08:03:17.755   10 Jun 2027 08:03:22.748             4.993           452.000
       222   10 Jun 2027 08:03:36.179   10 Jun 2027 08:03:36.745             0.566            39.875
       223   10 Jun 2027 08:05:18.193   10 Jun 2027 08:05:23.819             5.626          2634.688
       224   10 Jun 2027 09:39:05.852   10 Jun 2027 09:39:11.521             5.669          2463.844
       225   10 Jun 2027 09:40:40.255   10 Jun 2027 09:40:47.381             7.126          2210.187
       226   10 Jun 2027 09:41:22.210   10 Jun 2027 09:41:25.844             3.634           609.344
       227   10 Jun 2027 09:41:32.074   10 Jun 2027 09:41:32.708             0.634           194.687
       228   10 Jun 2027 11:14:15.966   10 Jun 2027 11:14:23.254             7.288          3282.625
       229   10 Jun 2027 11:16:06.521   10 Jun 2027 11:16:14.687             8.166          2881.625
       230   10 Jun 2027 11:18:37.841   10 Jun 2027 11:18:37.841             0.000             0.000
       231   10 Jun 2027 11:20:22.258   10 Jun 2027 11:20:34.920            12.662          6238.469
       232   10 Jun 2027 11:20:51.279   10 Jun 2027 11:20:51.751             0.472           236.000
       233   11 Jun 2027 03:34:41.637   11 Jun 2027 03:35:04.830            23.193         11596.500
       234   11 Jun 2027 03:35:04.993   11 Jun 2027 03:37:50.032           165.039         82519.500
       235   11 Jun 2027 03:38:08.353   11 Jun 2027 03:38:27.752            19.399          9699.500
       236   11 Jun 2027 03:40:07.000   11 Jun 2027 03:40:10.261             3.261          1630.500
       237   11 Jun 2027 05:13:59.148   11 Jun 2027 05:15:51.894           112.746         54725.125
       238   11 Jun 2027 05:16:05.868   11 Jun 2027 05:16:07.855             1.987           396.625
       239   11 Jun 2027 05:17:18.251   11 Jun 2027 05:17:22.689             4.438          1586.656
       240   11 Jun 2027 05:17:43.768   11 Jun 2027 05:17:48.916             5.148           651.531
       241   11 Jun 2027 05:20:24.704   11 Jun 2027 05:20:34.886            10.182          4499.437
       242   11 Jun 2027 05:20:47.427   11 Jun 2027 05:20:50.096             2.669           372.500
       243   11 Jun 2027 06:40:22.786   11 Jun 2027 06:40:25.081             2.295          1147.500
       244   11 Jun 2027 06:51:05.087   11 Jun 2027 06:51:13.170             8.083          3806.313
       245   11 Jun 2027 06:54:30.357   11 Jun 2027 06:54:30.985             0.628           110.875
       246   11 Jun 2027 08:15:04.952   11 Jun 2027 08:15:25.998            21.046          8721.094
       247   11 Jun 2027 08:16:06.735   11 Jun 2027 08:16:17.843            11.108           914.000
       248   11 Jun 2027 09:50:50.382   11 Jun 2027 09:50:57.012             6.630          2884.063
       249   11 Jun 2027 09:52:30.669   11 Jun 2027 09:52:35.418             4.749          1927.625
       250   11 Jun 2027 09:54:16.643   11 Jun 2027 09:54:22.133             5.490          1648.750
       251   11 Jun 2027 11:25:44.585   11 Jun 2027 11:25:53.606             9.021          2961.625
       252   11 Jun 2027 11:27:56.433   11 Jun 2027 11:28:03.313             6.880          3066.469
       253   11 Jun 2027 11:31:24.744   11 Jun 2027 11:31:36.005            11.261          5306.687
       254   11 Jun 2027 11:32:18.588   11 Jun 2027 11:32:20.553             1.965           686.906
       255   11 Jun 2027 11:32:57.094   11 Jun 2027 11:33:01.191             4.097           832.062
       256   12 Jun 2027 03:47:22.233   12 Jun 2027 03:49:26.954           124.721         62360.500
       257   12 Jun 2027 03:51:06.265   12 Jun 2027 03:52:20.467            74.202         37101.000
       258   12 Jun 2027 03:52:42.492   12 Jun 2027 03:53:09.934            27.442         13721.000
       259   12 Jun 2027 03:53:16.088   12 Jun 2027 03:53:16.186             0.098            49.000
       260   12 Jun 2027 05:26:19.842   12 Jun 2027 05:27:15.543            55.701         27850.500
       261   12 Jun 2027 05:27:46.898   12 Jun 2027 05:28:02.543            15.645          7822.500
       262   12 Jun 2027 05:29:44.697   12 Jun 2027 05:29:54.015             9.318          4659.000
       263   12 Jun 2027 05:32:08.259   12 Jun 2027 05:33:03.421            55.162         26262.375
       264   12 Jun 2027 06:51:40.398   12 Jun 2027 06:51:57.091            16.693          7453.344
       265   12 Jun 2027 06:52:04.550   12 Jun 2027 06:52:11.845             7.295           173.625
       266   12 Jun 2027 07:03:03.666   12 Jun 2027 07:03:09.387             5.721          2578.656
       267   12 Jun 2027 08:25:40.726   12 Jun 2027 08:25:52.448            11.722          5693.906
       268   12 Jun 2027 08:26:07.250   12 Jun 2027 08:26:08.909             1.659           415.625
       269   12 Jun 2027 08:26:31.298   12 Jun 2027 08:26:32.572             1.274           601.813
       270   12 Jun 2027 08:27:54.516   12 Jun 2027 08:28:00.187             5.671          2178.937
       271   12 Jun 2027 08:29:18.153   12 Jun 2027 08:29:23.214             5.061          2156.906
       272   12 Jun 2027 08:30:17.984   12 Jun 2027 08:30:21.201             3.217          1608.500
       273   12 Jun 2027 10:01:04.775   12 Jun 2027 10:01:10.818             6.043          1977.313
       274   12 Jun 2027 10:04:17.627   12 Jun 2027 10:04:22.231             4.604          1560.313
       275   12 Jun 2027 10:05:52.545   12 Jun 2027 10:05:55.365             2.820           855.656
       276   12 Jun 2027 10:06:29.610   12 Jun 2027 10:06:31.237             1.627           519.531
       277   12 Jun 2027 11:37:31.227   12 Jun 2027 11:37:45.760            14.533          4270.219
       278   12 Jun 2027 11:40:29.182   12 Jun 2027 11:40:39.882            10.700          4818.156
       279   12 Jun 2027 11:42:12.912   12 Jun 2027 11:42:19.534             6.622          2502.938
       280   12 Jun 2027 11:43:10.564   12 Jun 2027 11:43:13.951             3.387            86.438
       281   12 Jun 2027 11:43:58.741   12 Jun 2027 11:44:00.205             1.464           732.000
       282   12 Jun 2027 11:44:17.294   12 Jun 2027 11:44:19.797             2.503           912.469
       283   12 Jun 2027 11:45:02.098   12 Jun 2027 11:45:02.279             0.181            90.500
       284   13 Jun 2027 03:59:30.281   13 Jun 2027 04:01:04.388            94.107         47053.500
       285   13 Jun 2027 04:01:05.350   13 Jun 2027 04:01:11.599             6.249          3124.500
       286   13 Jun 2027 04:01:37.126   13 Jun 2027 04:01:43.594             6.468          3234.000
       287   13 Jun 2027 04:03:58.626   13 Jun 2027 04:05:17.562            78.936         39468.000
       288   13 Jun 2027 05:38:35.326   13 Jun 2027 05:40:43.942           128.616         64308.000
       289   13 Jun 2027 05:43:48.941   13 Jun 2027 05:44:18.650            29.709         13559.750
       290   13 Jun 2027 07:03:23.328   13 Jun 2027 07:03:36.128            12.800          6124.750
       291   13 Jun 2027 07:04:09.651   13 Jun 2027 07:04:11.796             2.145          1006.813
       292   13 Jun 2027 07:15:03.068   13 Jun 2027 07:15:09.647             6.579          2818.375
       293   13 Jun 2027 08:37:20.336   13 Jun 2027 08:37:39.721            19.385          9461.031
       294   13 Jun 2027 08:38:16.412   13 Jun 2027 08:38:18.710             2.298           259.531
       295   13 Jun 2027 08:39:54.086   13 Jun 2027 08:40:00.994             6.908          2043.344
       296   13 Jun 2027 08:41:17.218   13 Jun 2027 08:41:21.832             4.614          1972.969
       297   13 Jun 2027 08:42:13.061   13 Jun 2027 08:42:16.767             3.706          1411.094
       298   13 Jun 2027 10:12:14.068   13 Jun 2027 10:12:20.104             6.036          2264.875
       299   13 Jun 2027 10:13:32.416   13 Jun 2027 10:13:41.630             9.214            84.437
       300   13 Jun 2027 10:15:25.495   13 Jun 2027 10:15:30.397             4.902          2048.469
       301   13 Jun 2027 10:15:59.389   13 Jun 2027 10:16:01.363             1.974           494.500
       302   13 Jun 2027 10:18:23.756   13 Jun 2027 10:18:28.819             5.063          1804.781
       303   13 Jun 2027 10:18:58.823   13 Jun 2027 10:18:59.768             0.945           411.813
       304   13 Jun 2027 11:53:07.207   13 Jun 2027 11:53:32.084            24.877         11067.687
       305   13 Jun 2027 11:53:44.918   13 Jun 2027 11:53:57.615            12.697            93.875
       306   13 Jun 2027 11:55:11.338   13 Jun 2027 11:55:16.402             5.064          2168.313
       307   13 Jun 2027 11:56:03.848   13 Jun 2027 11:56:08.638             4.790          1343.500
       308   13 Jun 2027 11:56:38.129   13 Jun 2027 11:56:40.079             1.950           887.437
