uniorb/output/strategy_4/Camera/Camera_KinoSat_111609.txt

KinoSat_111609
-------------------------
    Access    *     Start Time (UTCG)     *     Stop Time (UTCG)  *   Duration (s) *   Data (Mbytes)
         1   01 Jun 2027 04:13:25.203   01 Jun 2027 04:15:24.580           119.377         59688.500
         2   01 Jun 2027 04:16:28.153   01 Jun 2027 04:16:51.538            23.385         11692.500
         3   01 Jun 2027 04:17:50.347   01 Jun 2027 04:18:11.548            21.201         10600.500
         4   01 Jun 2027 04:19:21.035   01 Jun 2027 04:19:21.934             0.899           449.500
         5   01 Jun 2027 04:20:15.365   01 Jun 2027 04:20:47.862            32.497         16248.500
         6   01 Jun 2027 05:38:34.825   01 Jun 2027 05:39:54.777            79.952         39976.000
         7   01 Jun 2027 05:50:09.822   01 Jun 2027 05:51:05.785            55.963         27981.500
         8   01 Jun 2027 07:12:45.495   01 Jun 2027 07:13:44.120            58.625         29312.500
         9   01 Jun 2027 07:14:22.776   01 Jun 2027 07:15:37.272            74.496         37248.000
        10   01 Jun 2027 08:47:54.502   01 Jun 2027 08:49:08.474            73.972         36986.000
        11   01 Jun 2027 08:49:37.276   01 Jun 2027 08:50:25.590            48.314         24157.000
        12   01 Jun 2027 08:50:37.152   01 Jun 2027 08:50:57.544            20.392         10196.000
        13   01 Jun 2027 08:51:39.188   01 Jun 2027 08:51:39.188             0.000             0.000
        14   01 Jun 2027 10:24:41.948   01 Jun 2027 10:26:33.636           111.688         55844.000
        15   01 Jun 2027 10:28:05.681   01 Jun 2027 10:28:05.681             0.000             0.000
        16   01 Jun 2027 10:31:18.119   01 Jun 2027 10:32:07.780            49.661         24830.500
        17   02 Jun 2027 04:25:41.227   02 Jun 2027 04:27:52.013           130.786         65393.000
        18   02 Jun 2027 04:29:25.467   02 Jun 2027 04:29:27.196             1.729           864.500
        19   02 Jun 2027 04:29:40.850   02 Jun 2027 04:29:41.902             1.052           526.000
        20   02 Jun 2027 04:30:23.228   02 Jun 2027 04:30:43.600            20.372         10186.000
        21   02 Jun 2027 05:49:53.924   02 Jun 2027 05:51:09.697            75.773         37886.500
        22   02 Jun 2027 06:02:07.575   02 Jun 2027 06:03:03.283            55.708         27854.000
        23   02 Jun 2027 07:24:21.282   02 Jun 2027 07:25:29.310            68.028         34014.000
        24   02 Jun 2027 07:26:17.809   02 Jun 2027 07:27:40.859            83.050         41525.000
        25   02 Jun 2027 07:27:53.343   02 Jun 2027 07:28:15.013            21.670         10835.000
        26   02 Jun 2027 08:59:14.529   02 Jun 2027 09:01:22.955           128.426         64213.000
        27   02 Jun 2027 09:01:25.399   02 Jun 2027 09:01:39.086            13.687          6843.500
        28   02 Jun 2027 10:36:49.370   02 Jun 2027 10:38:33.573           104.203         52101.500
        29   02 Jun 2027 10:40:27.280   02 Jun 2027 10:41:05.110            37.830         18786.094
        30   02 Jun 2027 10:41:51.113   02 Jun 2027 10:41:56.302             5.189          1264.188
        31   02 Jun 2027 10:42:31.922   02 Jun 2027 10:42:35.319             3.397           800.063
        32   02 Jun 2027 10:42:43.561   02 Jun 2027 10:42:49.315             5.754            49.687
        33   02 Jun 2027 10:44:01.971   02 Jun 2027 10:44:05.873             3.902          1387.969
        34   03 Jun 2027 03:00:19.113   03 Jun 2027 03:00:28.722             9.609          4804.500
        35   03 Jun 2027 03:01:39.400   03 Jun 2027 03:01:56.495            17.095          8547.500
        36   03 Jun 2027 03:03:33.614   03 Jun 2027 03:03:34.949             1.335           667.500
        37   03 Jun 2027 03:03:40.814   03 Jun 2027 03:03:47.974             7.160          3580.000
        38   03 Jun 2027 04:37:47.552   03 Jun 2027 04:39:49.274           121.722         60861.000
        39   03 Jun 2027 04:40:07.143   03 Jun 2027 04:40:18.459            11.316          5658.000
        40   03 Jun 2027 04:40:46.627   03 Jun 2027 04:41:42.532            55.905         27952.500
        41   03 Jun 2027 04:42:12.941   03 Jun 2027 04:42:14.227             1.286           643.000
        42   03 Jun 2027 04:42:44.380   03 Jun 2027 04:42:52.889             8.509          4254.500
        43   03 Jun 2027 06:01:59.860   03 Jun 2027 06:02:32.789            32.929         16464.500
        44   03 Jun 2027 06:02:48.873   03 Jun 2027 06:02:53.839             4.966          2483.000
        45   03 Jun 2027 06:03:04.412   03 Jun 2027 06:03:54.186            49.774         24887.000
        46   03 Jun 2027 06:14:30.918   03 Jun 2027 06:14:34.874             3.956          1978.000
        47   03 Jun 2027 07:35:50.259   03 Jun 2027 07:36:27.268            37.009         17382.812
        48   03 Jun 2027 07:37:23.999   03 Jun 2027 07:37:28.831             4.832           938.594
        49   03 Jun 2027 07:37:42.462   03 Jun 2027 07:37:43.873             1.411            54.094
        50   03 Jun 2027 07:38:05.205   03 Jun 2027 07:38:06.663             1.458           365.469
        51   03 Jun 2027 07:38:35.967   03 Jun 2027 07:38:41.862             5.895           690.031
        52   03 Jun 2027 07:39:16.288   03 Jun 2027 07:39:16.288             0.000             0.000
        53   03 Jun 2027 07:40:13.076   03 Jun 2027 07:40:22.713             9.637          2850.437
        54   03 Jun 2027 07:40:44.977   03 Jun 2027 07:40:46.278             1.301           494.625
        55   03 Jun 2027 09:10:44.830   03 Jun 2027 09:10:50.152             5.322          2530.687
        56   03 Jun 2027 09:11:36.533   03 Jun 2027 09:11:38.374             1.841           222.531
        57   03 Jun 2027 09:13:09.153   03 Jun 2027 09:13:10.376             1.223           394.500
        58   03 Jun 2027 09:14:19.704   03 Jun 2027 09:14:21.888             2.184           948.781
        59   03 Jun 2027 09:14:42.546   03 Jun 2027 09:14:44.318             1.772           476.219
        60   03 Jun 2027 09:15:13.328   03 Jun 2027 09:15:17.981             4.653           608.219
        61   03 Jun 2027 09:16:39.046   03 Jun 2027 09:16:45.122             6.076          2493.469
        62   03 Jun 2027 09:18:48.400   03 Jun 2027 09:18:53.244             4.844          2240.031
        63   03 Jun 2027 09:19:35.504   03 Jun 2027 09:19:36.937             1.433           453.094
        64   03 Jun 2027 10:48:45.080   03 Jun 2027 10:49:02.226            17.146          5731.312
        65   03 Jun 2027 10:49:33.669   03 Jun 2027 10:49:38.739             5.070           824.969
        66   03 Jun 2027 10:50:06.117   03 Jun 2027 10:50:06.722             0.605           180.156
        67   03 Jun 2027 10:50:24.317   03 Jun 2027 10:50:26.317             2.000           549.844
        68   03 Jun 2027 10:51:41.628   03 Jun 2027 10:51:46.304             4.676          2149.906
        69   03 Jun 2027 10:53:00.447   03 Jun 2027 10:53:01.404             0.957           463.844
        70   03 Jun 2027 10:53:16.358   03 Jun 2027 10:53:18.701             2.343           439.187
        71   03 Jun 2027 10:54:17.603   03 Jun 2027 10:54:21.873             4.270          1681.844
        72   03 Jun 2027 10:55:16.754   03 Jun 2027 10:55:21.119             4.365           928.219
        73   03 Jun 2027 10:55:43.461   03 Jun 2027 10:55:45.030             1.569           698.187
        74   04 Jun 2027 03:11:39.405   04 Jun 2027 03:11:49.082             9.677          4838.500
        75   04 Jun 2027 03:12:01.337   04 Jun 2027 03:13:03.005            61.668         30834.000
        76   04 Jun 2027 03:13:08.018   04 Jun 2027 03:13:26.521            18.503          9251.500
        77   04 Jun 2027 03:13:30.441   04 Jun 2027 03:13:36.603             6.162          3081.000
        78   04 Jun 2027 03:14:09.736   04 Jun 2027 03:14:25.719            15.983          7991.500
        79   04 Jun 2027 03:15:06.915   04 Jun 2027 03:15:08.175             1.260           630.000
        80   04 Jun 2027 03:17:00.906   04 Jun 2027 03:17:16.460            15.554          7777.000
        81   04 Jun 2027 04:50:25.808   04 Jun 2027 04:53:24.606           178.798         87791.656
        82   04 Jun 2027 04:54:22.234   04 Jun 2027 04:54:26.794             4.560          1563.656
        83   04 Jun 2027 04:54:56.045   04 Jun 2027 04:54:58.150             2.105           159.875
        84   04 Jun 2027 06:13:56.310   04 Jun 2027 06:14:16.337            20.027          8382.437
        85   04 Jun 2027 06:14:35.233   04 Jun 2027 06:14:42.198             6.965           542.969
        86   04 Jun 2027 06:15:33.037   04 Jun 2027 06:15:33.037             0.000             0.000
        87   04 Jun 2027 06:15:35.017   04 Jun 2027 06:15:38.585             3.568          1650.594
        88   04 Jun 2027 07:50:08.636   04 Jun 2027 07:50:22.928            14.292          6178.469
        89   04 Jun 2027 07:50:39.379   04 Jun 2027 07:50:43.149             3.770           361.594
        90   04 Jun 2027 07:50:57.238   04 Jun 2027 07:51:02.689             5.451           440.281
        91   04 Jun 2027 07:51:17.332   04 Jun 2027 07:51:18.248             0.916           295.875
        92   04 Jun 2027 07:52:10.161   04 Jun 2027 07:52:14.892             4.731          1367.500
        93   04 Jun 2027 07:52:41.334   04 Jun 2027 07:52:43.294             1.960           826.312
        94   04 Jun 2027 07:53:14.549   04 Jun 2027 07:53:20.292             5.743           845.812
        95   04 Jun 2027 09:23:41.582   04 Jun 2027 09:23:51.613            10.031          2784.406
        96   04 Jun 2027 09:26:04.200   04 Jun 2027 09:26:06.956             2.756           887.125
        97   04 Jun 2027 09:26:44.899   04 Jun 2027 09:26:51.286             6.387           939.688
        98   04 Jun 2027 09:28:38.357   04 Jun 2027 09:28:43.194             4.837          2347.219
        99   04 Jun 2027 09:30:35.134   04 Jun 2027 09:30:40.467             5.333          1838.062
       100   04 Jun 2027 09:31:31.642   04 Jun 2027 09:31:35.197             3.555          1599.219
       101   04 Jun 2027 11:01:07.433   04 Jun 2027 11:01:20.218            12.785          5692.375
       102   04 Jun 2027 11:02:54.097   04 Jun 2027 11:02:54.097             0.000             0.000
       103   04 Jun 2027 11:03:24.706   04 Jun 2027 11:03:28.600             3.894          1316.844
       104   04 Jun 2027 11:04:27.894   04 Jun 2027 11:04:28.258             0.364           124.156
       105   04 Jun 2027 11:06:04.605   04 Jun 2027 11:06:08.791             4.186          2052.250
       106   04 Jun 2027 11:07:31.236   04 Jun 2027 11:07:35.914             4.678          1321.125
       107   04 Jun 2027 11:07:56.758   04 Jun 2027 11:08:00.042             3.284           651.375
       108   05 Jun 2027 03:24:06.982   05 Jun 2027 03:24:35.265            28.283         14141.500
       109   05 Jun 2027 03:24:39.880   05 Jun 2027 03:26:50.827           130.947         65473.500
       110   05 Jun 2027 03:27:47.270   05 Jun 2027 03:27:58.454            11.184          5592.000
       111   05 Jun 2027 03:28:07.969   05 Jun 2027 03:28:25.221            17.252          8626.000
       112   05 Jun 2027 03:29:10.935   05 Jun 2027 03:29:11.819             0.884           442.000
       113   05 Jun 2027 03:29:34.320   05 Jun 2027 03:29:34.320             0.000             0.000
       114   05 Jun 2027 03:29:50.446   05 Jun 2027 03:29:54.622             4.176          2088.000
       115   05 Jun 2027 05:02:07.533   05 Jun 2027 05:04:08.949           121.416         59416.875
       116   05 Jun 2027 05:04:39.571   05 Jun 2027 05:04:41.799             2.228           582.500
       117   05 Jun 2027 05:05:09.691   05 Jun 2027 05:05:13.545             3.854           577.125
       118   05 Jun 2027 05:05:43.886   05 Jun 2027 05:05:46.683             2.797           880.469
       119   05 Jun 2027 05:06:30.592   05 Jun 2027 05:06:31.884             1.292           284.062
       120   05 Jun 2027 06:25:47.775   05 Jun 2027 06:25:58.717            10.942          5395.906
       121   05 Jun 2027 06:27:13.113   05 Jun 2027 06:27:13.113             0.000             0.000
       122   05 Jun 2027 06:27:38.424   05 Jun 2027 06:27:46.121             7.697          2484.000
       123   05 Jun 2027 06:28:12.068   05 Jun 2027 06:28:14.099             2.031           597.281
       124   05 Jun 2027 08:02:14.962   05 Jun 2027 08:02:27.731            12.769          6339.562
       125   05 Jun 2027 08:03:06.648   05 Jun 2027 08:03:06.648             0.000             0.000
       126   05 Jun 2027 08:03:09.713   05 Jun 2027 08:03:13.632             3.919           999.406
       127   05 Jun 2027 08:04:04.239   05 Jun 2027 08:04:06.062             1.823           911.500
       128   05 Jun 2027 08:04:49.759   05 Jun 2027 08:04:55.484             5.725          1763.094
       129   05 Jun 2027 09:34:26.149   05 Jun 2027 09:34:32.465             6.316          3158.000
       130   05 Jun 2027 09:36:20.403   05 Jun 2027 09:36:23.064             2.661           973.750
       131   05 Jun 2027 09:38:08.203   05 Jun 2027 09:38:10.909             2.706           251.875
       132   05 Jun 2027 09:38:46.980   05 Jun 2027 09:38:56.317             9.337           739.031
       133   05 Jun 2027 09:39:29.868   05 Jun 2027 09:39:33.385             3.517           476.938
       134   05 Jun 2027 09:41:22.835   05 Jun 2027 09:41:26.521             3.686          1435.781
       135   05 Jun 2027 09:42:11.280   05 Jun 2027 09:42:13.256             1.976           680.969
       136   05 Jun 2027 09:43:03.177   05 Jun 2027 09:43:10.217             7.040           674.813
       137   05 Jun 2027 09:43:45.213   05 Jun 2027 09:43:46.677             1.464           643.281
       138   05 Jun 2027 09:44:11.189   05 Jun 2027 09:44:13.829             2.640           266.844
       139   05 Jun 2027 11:13:18.380   05 Jun 2027 11:13:32.225            13.845          4343.469
       140   05 Jun 2027 11:15:39.685   05 Jun 2027 11:15:46.033             6.348           460.688
       141   05 Jun 2027 11:16:16.896   05 Jun 2027 11:16:21.024             4.128           435.594
       142   05 Jun 2027 11:18:01.969   05 Jun 2027 11:18:06.678             4.709          1916.750
       143   05 Jun 2027 11:18:22.009   05 Jun 2027 11:18:23.796             1.787           235.250
       144   05 Jun 2027 11:19:20.556   05 Jun 2027 11:19:24.466             3.910          1691.656
       145   05 Jun 2027 11:19:40.474   05 Jun 2027 11:19:43.499             3.025           500.250
       146   06 Jun 2027 03:36:13.047   06 Jun 2027 03:37:16.521            63.474         31737.000
       147   06 Jun 2027 03:37:23.656   06 Jun 2027 03:38:29.885            66.229         33114.500
       148   06 Jun 2027 03:38:47.357   06 Jun 2027 03:39:01.847            14.490          7245.000
       149   06 Jun 2027 03:39:12.978   06 Jun 2027 03:39:36.060            23.082         11541.000
       150   06 Jun 2027 03:39:44.828   06 Jun 2027 03:40:11.397            26.569         13284.500
       151   06 Jun 2027 03:41:00.739   06 Jun 2027 03:41:10.105             9.366          4683.000
       152   06 Jun 2027 05:15:21.242   06 Jun 2027 05:17:00.417            99.175         48378.656
       153   06 Jun 2027 05:18:07.579   06 Jun 2027 05:18:11.656             4.077          1834.937
       154   06 Jun 2027 06:37:54.210   06 Jun 2027 06:38:07.754            13.544          5462.250
       155   06 Jun 2027 06:39:08.015   06 Jun 2027 06:39:12.588             4.573          1883.156
       156   06 Jun 2027 06:40:08.099   06 Jun 2027 06:40:12.532             4.433          1668.937
       157   06 Jun 2027 06:40:47.570   06 Jun 2027 06:40:49.125             1.555           497.906
       158   06 Jun 2027 08:14:22.798   06 Jun 2027 08:14:27.573             4.775          2218.687
       159   06 Jun 2027 08:15:18.000   06 Jun 2027 08:15:21.317             3.317          1166.531
       160   06 Jun 2027 08:15:52.755   06 Jun 2027 08:15:55.368             2.613           866.000
       161   06 Jun 2027 08:16:00.474   06 Jun 2027 08:16:01.495             1.021           155.969
       162   06 Jun 2027 08:17:03.354   06 Jun 2027 08:17:09.400             6.046          1463.219
       163   06 Jun 2027 09:49:31.398   06 Jun 2027 09:49:39.930             8.532          2973.219
       164   06 Jun 2027 09:50:39.919   06 Jun 2027 09:50:45.404             5.485          1270.031
       165   06 Jun 2027 09:50:48.746   06 Jun 2027 09:50:49.512             0.766           104.437
       166   06 Jun 2027 09:52:34.491   06 Jun 2027 09:52:41.946             7.455          1727.312
       167   06 Jun 2027 09:53:16.342   06 Jun 2027 09:53:17.636             1.294           387.781
       168   06 Jun 2027 09:54:44.685   06 Jun 2027 09:54:48.614             3.929           923.219
       169   06 Jun 2027 09:56:05.609   06 Jun 2027 09:56:08.180             2.571           962.531
       170   06 Jun 2027 11:25:52.640   06 Jun 2027 11:26:03.825            11.185          4637.094
       171   06 Jun 2027 11:29:22.537   06 Jun 2027 11:29:30.843             8.306          2364.313
       172   06 Jun 2027 11:29:45.881   06 Jun 2027 11:29:46.092             0.211            47.437
       173   06 Jun 2027 11:30:59.932   06 Jun 2027 11:31:07.582             7.650          2094.437
       174   06 Jun 2027 11:31:23.540   06 Jun 2027 11:31:24.755             1.215           495.125
       175   06 Jun 2027 11:31:39.693   06 Jun 2027 11:31:40.912             1.219           416.594
       176   06 Jun 2027 11:31:45.880   06 Jun 2027 11:31:46.734             0.854           123.594
       177   07 Jun 2027 03:48:16.828   07 Jun 2027 03:48:58.053            41.225         20612.500
       178   07 Jun 2027 03:49:20.982   07 Jun 2027 03:50:56.975            95.993         47996.500
       179   07 Jun 2027 03:52:02.123   07 Jun 2027 03:52:52.468            50.345         25172.500
       180   07 Jun 2027 03:54:23.557   07 Jun 2027 03:54:24.790             1.233           616.500
       181   07 Jun 2027 05:26:29.486   07 Jun 2027 05:27:06.683            37.197         18598.500
       182   07 Jun 2027 05:27:24.498   07 Jun 2027 05:28:40.748            76.250         37810.031
       183   07 Jun 2027 05:29:18.234   07 Jun 2027 05:29:22.188             3.954          1097.625
       184   07 Jun 2027 05:29:35.461   07 Jun 2027 05:29:38.672             3.211           404.125
       185   07 Jun 2027 06:49:56.996   07 Jun 2027 06:50:10.381            13.385          5708.531
       186   07 Jun 2027 06:50:40.865   07 Jun 2027 06:50:42.255             1.390           316.156
       187   07 Jun 2027 06:51:15.042   07 Jun 2027 06:51:15.042             0.000             0.000
       188   07 Jun 2027 06:51:18.506   07 Jun 2027 06:51:22.791             4.285           877.781
       189   07 Jun 2027 06:52:32.214   07 Jun 2027 06:52:32.214             0.000             0.000
       190   07 Jun 2027 06:52:50.742   07 Jun 2027 06:52:56.075             5.333          2548.469
       191   07 Jun 2027 08:26:25.600   07 Jun 2027 08:26:34.338             8.738          2491.781
       192   07 Jun 2027 08:27:13.030   07 Jun 2027 08:27:13.030             0.000             0.000
       193   07 Jun 2027 08:27:55.372   07 Jun 2027 08:28:00.652             5.280          2532.313
       194   07 Jun 2027 08:28:53.491   07 Jun 2027 08:28:57.158             3.667          1647.000
       195   07 Jun 2027 08:29:47.989   07 Jun 2027 08:29:51.218             3.229          1434.125
       196   07 Jun 2027 10:01:37.989   07 Jun 2027 10:01:43.695             5.706          2712.469
       197   07 Jun 2027 10:02:50.133   07 Jun 2027 10:02:54.698             4.565          1967.375
       198   07 Jun 2027 10:03:26.698   07 Jun 2027 10:03:27.897             1.199           481.938
       199   07 Jun 2027 10:04:30.962   07 Jun 2027 10:04:33.982             3.020          1235.125
       200   07 Jun 2027 10:06:42.338   07 Jun 2027 10:06:50.726             8.388          3964.969
       201   07 Jun 2027 10:07:24.144   07 Jun 2027 10:07:26.080             1.936           579.594
       202   07 Jun 2027 10:07:59.823   07 Jun 2027 10:08:04.443             4.620           819.688
       203   07 Jun 2027 11:37:32.809   07 Jun 2027 11:37:44.307            11.498          5448.625
       204   07 Jun 2027 11:39:23.420   07 Jun 2027 11:39:26.897             3.477            32.906
       205   07 Jun 2027 11:40:50.327   07 Jun 2027 11:40:53.899             3.572          1223.719
       206   07 Jun 2027 11:41:52.088   07 Jun 2027 11:41:58.090             6.002          1186.188
       207   07 Jun 2027 11:42:46.415   07 Jun 2027 11:42:51.022             4.607          1510.156
       208   07 Jun 2027 11:43:09.683   07 Jun 2027 11:43:13.740             4.057           583.156
       209   07 Jun 2027 11:43:21.082   07 Jun 2027 11:43:22.337             1.255           229.437
       210   07 Jun 2027 11:43:28.386   07 Jun 2027 11:43:28.821             0.435           168.000
       211   08 Jun 2027 04:01:21.529   08 Jun 2027 04:04:42.301           200.772        100386.000
       212   08 Jun 2027 04:05:09.486   08 Jun 2027 04:05:21.953            12.467          6233.500
       213   08 Jun 2027 04:06:43.173   08 Jun 2027 04:06:43.545             0.372           186.000
       214   08 Jun 2027 04:08:17.359   08 Jun 2027 04:08:21.426             4.067          2033.500
       215   08 Jun 2027 05:27:33.488   08 Jun 2027 05:27:56.726            23.238         11619.000
       216   08 Jun 2027 05:38:26.015   08 Jun 2027 05:40:11.509           105.494         51435.407
       217   08 Jun 2027 05:40:49.350   08 Jun 2027 05:40:54.077             4.727           911.594
       218   08 Jun 2027 05:41:30.059   08 Jun 2027 05:41:43.346            13.287           522.750
       219   08 Jun 2027 07:02:23.868   08 Jun 2027 07:02:35.610            11.742          5705.031
       220   08 Jun 2027 07:02:48.734   08 Jun 2027 07:02:49.125             0.391           145.188
       221   08 Jun 2027 07:03:18.352   08 Jun 2027 07:03:21.587             3.235           797.969
       222   08 Jun 2027 07:04:25.950   08 Jun 2027 07:04:25.950             0.000             0.000
       223   08 Jun 2027 08:38:09.039   08 Jun 2027 08:38:16.406             7.367          3671.969
       224   08 Jun 2027 08:40:24.558   08 Jun 2027 08:40:32.722             8.164          3720.594
       225   08 Jun 2027 08:40:42.505   08 Jun 2027 08:40:46.028             3.523           150.125
       226   08 Jun 2027 08:40:59.986   08 Jun 2027 08:41:00.711             0.725           360.500
       227   08 Jun 2027 10:12:52.348   08 Jun 2027 10:13:00.033             7.685          3163.875
       228   08 Jun 2027 10:14:51.096   08 Jun 2027 10:14:57.013             5.917          2521.781
       229   08 Jun 2027 10:16:06.681   08 Jun 2027 10:16:11.646             4.965           790.969
       230   08 Jun 2027 10:16:26.014   08 Jun 2027 10:16:28.797             2.783            88.000
       231   08 Jun 2027 10:17:50.564   08 Jun 2027 10:17:50.898             0.334           103.906
       232   08 Jun 2027 10:18:50.577   08 Jun 2027 10:18:52.858             2.281           757.844
       233   08 Jun 2027 10:20:19.904   08 Jun 2027 10:20:24.426             4.522           972.625
       234   08 Jun 2027 11:49:39.742   08 Jun 2027 11:49:51.364            11.622          5106.406
       235   08 Jun 2027 11:51:04.502   08 Jun 2027 11:51:05.291             0.789           125.812
       236   08 Jun 2027 11:51:30.322   08 Jun 2027 11:51:32.096             1.774           512.688
       237   08 Jun 2027 11:52:04.377   08 Jun 2027 11:52:08.225             3.848          1008.781
       238   08 Jun 2027 11:52:31.565   08 Jun 2027 11:52:34.421             2.856           729.375
       239   08 Jun 2027 11:52:39.486   08 Jun 2027 11:52:41.613             2.127            79.531
       240   08 Jun 2027 11:53:44.163   08 Jun 2027 11:53:46.619             2.456           560.031
       241   08 Jun 2027 11:54:12.727   08 Jun 2027 11:54:25.664            12.937           815.875
       242   08 Jun 2027 11:54:48.393   08 Jun 2027 11:54:58.249             9.856           710.281
       243   09 Jun 2027 04:13:43.010   09 Jun 2027 04:16:09.213           146.203         73101.500
       244   09 Jun 2027 04:20:33.245   09 Jun 2027 04:20:59.736            26.491         13245.500
       245   09 Jun 2027 05:38:48.135   09 Jun 2027 05:39:17.928            29.793         14896.500
       246   09 Jun 2027 05:50:26.938   09 Jun 2027 05:51:51.953            85.015         42507.500
       247   09 Jun 2027 07:13:00.085   09 Jun 2027 07:13:53.675            53.590         24641.125
       248   09 Jun 2027 07:14:40.121   09 Jun 2027 07:14:41.455             1.334           275.906
       249   09 Jun 2027 07:14:54.993   09 Jun 2027 07:15:01.186             6.193           236.781
       250   09 Jun 2027 07:15:55.197   09 Jun 2027 07:15:55.197             0.000             0.000
       251   09 Jun 2027 07:16:18.662   09 Jun 2027 07:16:24.942             6.280          2179.344
       252   09 Jun 2027 07:17:19.759   09 Jun 2027 07:17:25.840             6.081          1498.438
       253   09 Jun 2027 08:48:03.753   09 Jun 2027 08:48:12.690             8.937          2052.438
       254   09 Jun 2027 08:48:27.490   09 Jun 2027 08:48:29.751             2.261           462.500
       255   09 Jun 2027 08:49:18.886   09 Jun 2027 08:49:18.886             0.000             0.000
       256   09 Jun 2027 08:49:53.360   09 Jun 2027 08:49:59.673             6.313          2231.875
       257   09 Jun 2027 08:51:53.739   09 Jun 2027 08:52:02.936             9.197          3150.250
       258   09 Jun 2027 08:52:36.236   09 Jun 2027 08:52:45.759             9.523           287.281
       259   09 Jun 2027 08:53:04.460   09 Jun 2027 08:53:05.040             0.580           270.906
       260   09 Jun 2027 08:53:40.974   09 Jun 2027 08:53:43.887             2.913          1019.969
       261   09 Jun 2027 08:54:07.827   09 Jun 2027 08:54:09.761             1.934           420.656
       262   09 Jun 2027 10:25:00.548   09 Jun 2027 10:25:13.527            12.979          3585.781
       263   09 Jun 2027 10:28:16.293   09 Jun 2027 10:28:25.139             8.846          2648.031
       264   09 Jun 2027 10:29:36.313   09 Jun 2027 10:29:41.719             5.406          2224.187
       265   09 Jun 2027 10:29:59.336   09 Jun 2027 10:29:59.683             0.347           158.406
       266   09 Jun 2027 10:30:04.117   09 Jun 2027 10:30:06.418             2.301            76.281
       267   09 Jun 2027 10:30:22.012   09 Jun 2027 10:30:23.288             1.276           164.437
       268   09 Jun 2027 10:31:33.845   09 Jun 2027 10:31:37.269             3.424          1667.281
       269   09 Jun 2027 10:31:58.126   09 Jun 2027 10:31:59.228             1.102           507.375
       270   10 Jun 2027 04:25:59.807   10 Jun 2027 04:26:57.376            57.569         28784.500
       271   10 Jun 2027 04:27:15.364   10 Jun 2027 04:28:09.806            54.442         27221.000
       272   10 Jun 2027 04:28:19.199   10 Jun 2027 04:28:29.719            10.520          5260.000
       273   10 Jun 2027 04:28:49.933   10 Jun 2027 04:29:03.290            13.357          6678.500
       274   10 Jun 2027 04:30:38.051   10 Jun 2027 04:31:01.982            23.931         11965.500
       275   10 Jun 2027 04:31:03.179   10 Jun 2027 04:31:06.639             3.460          1730.000
       276   10 Jun 2027 04:31:40.577   10 Jun 2027 04:31:50.971            10.394          5197.000
       277   10 Jun 2027 05:50:09.213   10 Jun 2027 05:50:35.574            26.361         13180.500
       278   10 Jun 2027 05:51:58.015   10 Jun 2027 05:51:59.593             1.578           789.000
       279   10 Jun 2027 05:52:09.475   10 Jun 2027 05:52:23.236            13.761          6880.500
       280   10 Jun 2027 06:02:24.272   10 Jun 2027 06:03:19.441            55.169         27584.500
       281   10 Jun 2027 07:24:30.013   10 Jun 2027 07:25:33.137            63.124         31332.875
       282   10 Jun 2027 07:27:08.267   10 Jun 2027 07:27:19.412            11.145          2972.813
       283   10 Jun 2027 07:27:58.962   10 Jun 2027 07:27:58.962             0.000             0.000
       284   10 Jun 2027 07:29:19.956   10 Jun 2027 07:29:29.312             9.356          3683.125
       285   10 Jun 2027 07:29:42.878   10 Jun 2027 07:29:44.573             1.695           298.156
       286   10 Jun 2027 08:59:28.516   10 Jun 2027 08:59:36.223             7.707          2600.594
       287   10 Jun 2027 09:01:10.448   10 Jun 2027 09:01:14.934             4.486           662.531
       288   10 Jun 2027 09:01:54.193   10 Jun 2027 09:01:54.193             0.000             0.000
       289   10 Jun 2027 09:03:16.343   10 Jun 2027 09:03:32.737            16.394          3723.375
       290   10 Jun 2027 09:04:56.261   10 Jun 2027 09:05:03.172             6.911          2523.250
       291   10 Jun 2027 09:06:49.189   10 Jun 2027 09:06:54.952             5.763          2337.875
       292   10 Jun 2027 09:07:35.511   10 Jun 2027 09:07:39.399             3.888          1130.594
       293   10 Jun 2027 10:37:04.916   10 Jun 2027 10:37:12.306             7.390          3659.125
       294   10 Jun 2027 10:40:10.122   10 Jun 2027 10:40:17.869             7.747          2459.063
       295   10 Jun 2027 10:40:56.957   10 Jun 2027 10:40:58.175             1.218           309.469
       296   10 Jun 2027 10:41:25.989   10 Jun 2027 10:41:27.025             1.036           138.094
       297   10 Jun 2027 10:42:22.605   10 Jun 2027 10:42:27.392             4.787           403.844
       298   10 Jun 2027 10:42:59.044   10 Jun 2027 10:43:01.183             2.139           989.125
       299   10 Jun 2027 10:43:47.215   10 Jun 2027 10:43:50.450             3.235          1438.500
       300   10 Jun 2027 10:44:28.410   10 Jun 2027 10:44:28.925             0.515           257.500
       301   11 Jun 2027 03:00:00.000   11 Jun 2027 03:00:14.282            14.282          7141.000
       302   11 Jun 2027 03:00:16.489   11 Jun 2027 03:00:29.545            13.056          6528.000
       303   11 Jun 2027 03:00:57.973   11 Jun 2027 03:01:02.637             4.664          2332.000
       304   11 Jun 2027 03:01:12.642   11 Jun 2027 03:01:26.444            13.802          6901.000
       305   11 Jun 2027 03:03:19.134   11 Jun 2027 03:03:21.929             2.795          1397.500
       306   11 Jun 2027 03:03:49.076   11 Jun 2027 03:03:49.432             0.356           178.000
       307   11 Jun 2027 03:04:04.944   11 Jun 2027 03:04:18.123            13.179          6589.500
       308   11 Jun 2027 03:04:37.546   11 Jun 2027 03:04:42.660             5.114          2557.000
       309   11 Jun 2027 04:38:07.039   11 Jun 2027 04:40:36.945           149.906         74953.000
       310   11 Jun 2027 04:41:01.303   11 Jun 2027 04:41:33.215            31.912         15956.000
       311   11 Jun 2027 04:43:09.313   11 Jun 2027 04:43:50.075            40.762         20381.000
       312   11 Jun 2027 06:02:16.220   11 Jun 2027 06:02:47.830            31.610         15805.000
       313   11 Jun 2027 06:03:21.072   11 Jun 2027 06:03:28.592             7.520          3760.000
       314   11 Jun 2027 07:36:05.967   11 Jun 2027 07:36:55.839            49.872         24857.938
       315   11 Jun 2027 07:37:39.997   11 Jun 2027 07:37:43.555             3.558           885.375
       316   11 Jun 2027 07:38:00.438   11 Jun 2027 07:38:00.537             0.099            46.250
       317   11 Jun 2027 07:38:21.713   11 Jun 2027 07:38:22.904             1.191           414.969
       318   11 Jun 2027 07:38:54.224   11 Jun 2027 07:38:58.525             4.301           751.875
       319   11 Jun 2027 07:39:33.032   11 Jun 2027 07:39:36.034             3.002          1078.344
       320   11 Jun 2027 07:41:20.715   11 Jun 2027 07:41:30.245             9.530          2708.906
       321   11 Jun 2027 09:10:58.844   11 Jun 2027 09:11:04.749             5.905          2946.781
       322   11 Jun 2027 09:13:11.611   11 Jun 2027 09:13:21.165             9.554          2492.844
       323   11 Jun 2027 09:15:10.548   11 Jun 2027 09:15:16.760             6.212          2786.094
       324   11 Jun 2027 09:15:28.095   11 Jun 2027 09:15:34.179             6.084           354.219
       325   11 Jun 2027 09:16:56.171   11 Jun 2027 09:17:02.408             6.237          2468.094
       326   11 Jun 2027 09:19:05.934   11 Jun 2027 09:19:12.050             6.116          2159.906
       327   11 Jun 2027 09:19:55.273   11 Jun 2027 09:19:59.181             3.908           501.969
       328   11 Jun 2027 10:49:03.484   11 Jun 2027 10:49:23.241            19.757          5336.188
       329   11 Jun 2027 10:49:50.797   11 Jun 2027 10:49:53.642             2.845           670.688
       330   11 Jun 2027 10:50:17.073   11 Jun 2027 10:50:20.613             3.540            37.813
       331   11 Jun 2027 10:50:40.980   11 Jun 2027 10:50:42.251             1.271           625.375
       332   11 Jun 2027 10:51:57.669   11 Jun 2027 10:52:02.186             4.517          2095.531
       333   11 Jun 2027 10:53:01.239   11 Jun 2027 10:53:04.362             3.123           627.531
       334   11 Jun 2027 10:53:44.877   11 Jun 2027 10:53:44.877             0.000             0.000
       335   11 Jun 2027 10:54:34.924   11 Jun 2027 10:54:43.673             8.749          2567.937
       336   11 Jun 2027 10:55:31.991   11 Jun 2027 10:55:37.785             5.794           929.500
       337   11 Jun 2027 10:56:01.199   11 Jun 2027 10:56:03.332             2.133           731.688
       338   11 Jun 2027 10:56:28.059   11 Jun 2027 10:56:29.387             1.328           521.906
       339   12 Jun 2027 03:11:57.011   12 Jun 2027 03:12:04.182             7.171          3585.500
       340   12 Jun 2027 03:12:28.544   12 Jun 2027 03:13:19.601            51.057         25528.500
       341   12 Jun 2027 03:13:24.457   12 Jun 2027 03:13:57.314            32.857         16428.500
       342   12 Jun 2027 03:14:24.602   12 Jun 2027 03:14:29.284             4.682          2341.000
       343   12 Jun 2027 03:14:59.408   12 Jun 2027 03:15:04.693             5.285          2642.500
       344   12 Jun 2027 03:15:08.748   12 Jun 2027 03:15:18.722             9.974          4987.000
       345   12 Jun 2027 04:50:43.506   12 Jun 2027 04:53:56.568           193.062         96402.843
       346   12 Jun 2027 04:55:05.906   12 Jun 2027 04:55:12.492             6.586           921.906
       347   12 Jun 2027 06:14:14.046   12 Jun 2027 06:14:32.027            17.981          7701.000
       348   12 Jun 2027 06:14:50.414   12 Jun 2027 06:14:58.966             8.552           529.594
       349   12 Jun 2027 06:15:48.875   12 Jun 2027 06:15:48.921             0.046            23.000
       350   12 Jun 2027 06:16:21.733   12 Jun 2027 06:16:27.113             5.380          2562.031
       351   12 Jun 2027 07:50:14.611   12 Jun 2027 07:50:27.837            13.226          6420.344
       352   12 Jun 2027 07:50:57.627   12 Jun 2027 07:50:59.787             2.160           411.344
       353   12 Jun 2027 07:51:13.709   12 Jun 2027 07:51:18.118             4.409           435.063
       354   12 Jun 2027 07:52:12.737   12 Jun 2027 07:52:21.818             9.081          1462.219
       355   12 Jun 2027 07:52:31.417   12 Jun 2027 07:52:32.150             0.733           178.562
       356   12 Jun 2027 07:53:04.832   12 Jun 2027 07:53:12.296             7.464           291.250
       357   12 Jun 2027 09:23:58.380   12 Jun 2027 09:24:06.899             8.519          3215.594
       358   12 Jun 2027 09:26:31.030   12 Jun 2027 09:26:34.836             3.806           245.562
       359   12 Jun 2027 09:27:16.693   12 Jun 2027 09:27:19.155             2.462          1011.688
       360   12 Jun 2027 09:28:55.425   12 Jun 2027 09:29:00.655             5.230          2312.969
       361   12 Jun 2027 09:30:53.840   12 Jun 2027 09:30:58.265             4.425          1934.531
       362   12 Jun 2027 09:31:50.080   12 Jun 2027 09:31:57.611             7.531          1619.219
       363   12 Jun 2027 09:32:28.096   12 Jun 2027 09:32:29.327             1.231             6.000
       364   12 Jun 2027 11:01:25.999   12 Jun 2027 11:01:42.030            16.031          5723.750
       365   12 Jun 2027 11:02:46.134   12 Jun 2027 11:02:48.966             2.832           131.656
       366   12 Jun 2027 11:05:42.643   12 Jun 2027 11:05:53.173            10.530          4754.000
       367   12 Jun 2027 11:06:26.477   12 Jun 2027 11:06:27.312             0.835           178.563
       368   12 Jun 2027 11:07:27.527   12 Jun 2027 11:07:30.211             2.684          1332.187
       369   12 Jun 2027 11:07:52.805   12 Jun 2027 11:07:55.955             3.150           522.813
       370   13 Jun 2027 03:24:23.590   13 Jun 2027 03:24:51.043            27.453         13726.500
       371   13 Jun 2027 03:24:54.836   13 Jun 2027 03:27:12.724           137.888         68944.000
       372   13 Jun 2027 05:02:24.433   13 Jun 2027 05:03:19.159            54.726         27363.000
       373   13 Jun 2027 05:03:30.489   13 Jun 2027 05:04:49.044            78.555         39277.500
       374   13 Jun 2027 05:05:04.371   13 Jun 2027 05:05:05.342             0.971           485.500
       375   13 Jun 2027 05:05:25.592   13 Jun 2027 05:05:30.818             5.226          1240.594
       376   13 Jun 2027 05:05:58.124   13 Jun 2027 05:06:01.226             3.102           787.594
       377   13 Jun 2027 05:06:38.586   13 Jun 2027 05:06:39.811             1.225            24.969
       378   13 Jun 2027 05:07:16.157   13 Jun 2027 05:07:17.268             1.111           555.500
       379   13 Jun 2027 06:26:03.949   13 Jun 2027 06:26:17.095            13.146          6331.219
       380   13 Jun 2027 06:27:55.218   13 Jun 2027 06:28:01.729             6.511          2542.906
       381   13 Jun 2027 06:28:27.155   13 Jun 2027 06:28:28.688             1.533           556.094
       382   13 Jun 2027 08:02:30.854   13 Jun 2027 08:02:43.219            12.365          5693.438
       383   13 Jun 2027 08:03:25.433   13 Jun 2027 08:03:27.784             2.351           784.281
       384   13 Jun 2027 08:03:41.071   13 Jun 2027 08:03:44.099             3.028           415.219
       385   13 Jun 2027 08:04:03.586   13 Jun 2027 08:04:05.680             2.094           222.625
       386   13 Jun 2027 08:04:19.457   13 Jun 2027 08:04:21.218             1.761           430.531
       387   13 Jun 2027 08:05:07.086   13 Jun 2027 08:05:10.662             3.576          1423.062
       388   13 Jun 2027 09:34:40.315   13 Jun 2027 09:34:46.444             6.129          2367.156
       389   13 Jun 2027 09:37:12.521   13 Jun 2027 09:37:28.702            16.181          2728.406
       390   13 Jun 2027 09:38:42.032   13 Jun 2027 09:38:43.627             1.595           554.719
       391   13 Jun 2027 09:39:34.464   13 Jun 2027 09:39:37.419             2.955           918.594
       392   13 Jun 2027 09:40:53.889   13 Jun 2027 09:41:00.268             6.379          2050.656
       393   13 Jun 2027 09:42:50.503   13 Jun 2027 09:42:58.543             8.040          2428.406
       394   13 Jun 2027 09:43:22.061   13 Jun 2027 09:43:26.026             3.965           710.031
       395   13 Jun 2027 09:44:03.899   13 Jun 2027 09:44:06.138             2.239           627.375
       396   13 Jun 2027 09:44:18.387   13 Jun 2027 09:44:22.801             4.414           114.656
       397   13 Jun 2027 11:13:35.766   13 Jun 2027 11:13:48.021            12.255          4917.406
       398   13 Jun 2027 11:15:56.662   13 Jun 2027 11:16:07.645            10.983           507.375
       399   13 Jun 2027 11:16:31.410   13 Jun 2027 11:16:36.608             5.198           366.125
       400   13 Jun 2027 11:17:17.741   13 Jun 2027 11:17:23.795             6.054           905.469
       401   13 Jun 2027 11:17:51.689   13 Jun 2027 11:17:53.355             1.666           475.062
       402   13 Jun 2027 11:18:16.021   13 Jun 2027 11:18:17.325             1.304           464.844
       403   13 Jun 2027 11:18:33.318   13 Jun 2027 11:18:34.710             1.392           477.000
       404   13 Jun 2027 11:19:37.253   13 Jun 2027 11:19:41.150             3.897          1759.500
       405   13 Jun 2027 11:19:58.303   13 Jun 2027 11:19:59.392             1.089           536.031
