uniorb/output/strategy_4/Camera/Camera_KinoSat_110307.txt

KinoSat_110307
-------------------------
    Access    *     Start Time (UTCG)     *     Stop Time (UTCG)  *   Duration (s) *   Data (Mbytes)
         1   01 Jun 2027 03:37:49.638   01 Jun 2027 03:39:21.527            91.889         45944.500
         2   01 Jun 2027 03:41:13.471   01 Jun 2027 03:41:28.664            15.193          7596.500
         3   01 Jun 2027 03:42:08.333   01 Jun 2027 03:42:16.178             7.845          3922.500
         4   01 Jun 2027 03:43:17.507   01 Jun 2027 03:44:04.111            46.604         23302.000
         5   01 Jun 2027 03:44:08.954   01 Jun 2027 03:44:31.693            22.739         11369.500
         6   01 Jun 2027 05:13:45.442   01 Jun 2027 05:16:18.481           153.039         76519.500
         7   01 Jun 2027 05:16:35.288   01 Jun 2027 05:17:11.727            36.439         18219.500
         8   01 Jun 2027 05:18:39.007   01 Jun 2027 05:18:52.484            13.477          6738.500
         9   01 Jun 2027 06:51:43.828   01 Jun 2027 06:54:05.934           142.106         71053.000
        10   01 Jun 2027 06:55:21.199   01 Jun 2027 06:56:08.648            47.449         23724.500
        11   01 Jun 2027 08:27:35.412   01 Jun 2027 08:29:46.039           130.627         65313.500
        12   01 Jun 2027 08:30:35.080   01 Jun 2027 08:30:57.359            22.279         11139.500
        13   01 Jun 2027 08:31:16.875   01 Jun 2027 08:31:24.844             7.969          3984.500
        14   01 Jun 2027 08:31:37.554   01 Jun 2027 08:31:49.079            11.525          5762.500
        15   01 Jun 2027 08:32:23.761   01 Jun 2027 08:32:44.283            20.522         10261.000
        16   02 Jun 2027 03:49:05.226   02 Jun 2027 03:55:18.445           373.219        186609.500
        17   02 Jun 2027 03:55:31.776   02 Jun 2027 03:56:38.273            66.497         33248.500
        18   02 Jun 2027 05:25:55.004   02 Jun 2027 05:29:39.993           224.989        112494.500
        19   02 Jun 2027 05:29:54.504   02 Jun 2027 05:31:14.094            79.590         39795.000
        20   02 Jun 2027 07:04:06.401   02 Jun 2027 07:08:03.179           236.778        118389.000
        21   02 Jun 2027 08:37:24.248   02 Jun 2027 08:43:47.347           383.099        191549.500
        22   02 Jun 2027 08:44:10.473   02 Jun 2027 08:45:09.797            59.324         29662.000
        23   03 Jun 2027 04:01:12.995   03 Jun 2027 04:08:37.864           444.869        222434.500
        24   03 Jun 2027 05:38:10.989   03 Jun 2027 05:44:05.222           354.233        177116.500
        25   03 Jun 2027 07:16:28.289   03 Jun 2027 07:20:05.801           217.512        108756.000
        26   03 Jun 2027 08:49:27.290   03 Jun 2027 08:56:43.628           436.338        218169.000
        27   04 Jun 2027 04:13:14.870   04 Jun 2027 04:20:41.114           446.244        223122.000
        28   04 Jun 2027 05:50:01.083   04 Jun 2027 05:55:58.192           357.109        178554.500
        29   04 Jun 2027 05:56:27.644   04 Jun 2027 05:56:43.716            16.072          8036.000
        30   04 Jun 2027 07:28:06.137   04 Jun 2027 07:32:14.665           248.528        124264.000
        31   04 Jun 2027 09:01:54.532   04 Jun 2027 09:08:40.416           405.884        202942.000
        32   05 Jun 2027 04:25:15.645   05 Jun 2027 04:32:42.330           446.685        223342.500
        33   05 Jun 2027 06:02:10.264   05 Jun 2027 06:07:16.689           306.425        153212.500
        34   05 Jun 2027 06:07:47.527   05 Jun 2027 06:08:36.129            48.602         24301.000
        35   05 Jun 2027 07:39:18.889   05 Jun 2027 07:44:12.942           294.053        147026.500
        36   05 Jun 2027 09:14:09.523   05 Jun 2027 09:15:17.215            67.692         33846.000
        37   05 Jun 2027 09:16:12.497   05 Jun 2027 09:19:22.374           189.877         94938.500
        38   06 Jun 2027 03:00:10.421   06 Jun 2027 03:07:42.247           451.826        225913.000
        39   06 Jun 2027 03:07:42.521   06 Jun 2027 03:08:43.927            61.406         30703.000
        40   06 Jun 2027 04:37:41.923   06 Jun 2027 04:44:27.837           405.914        202957.000
        41   06 Jun 2027 06:14:38.041   06 Jun 2027 06:19:07.464           269.423        134711.500
        42   06 Jun 2027 06:19:46.228   06 Jun 2027 06:20:29.056            42.828         21414.000
        43   06 Jun 2027 07:51:31.912   06 Jun 2027 07:56:07.087           275.175        137587.500
        44   06 Jun 2027 09:28:53.515   06 Jun 2027 09:31:09.127           135.612         67806.000
        45   07 Jun 2027 03:10:50.522   07 Jun 2027 03:11:01.423            10.901          5450.500
        46   07 Jun 2027 03:12:49.081   07 Jun 2027 03:19:37.200           408.119        204059.500
        47   07 Jun 2027 03:19:40.195   07 Jun 2027 03:20:38.230            58.035         29017.500
        48   07 Jun 2027 04:49:47.857   07 Jun 2027 04:56:32.403           404.546        202273.000
        49   07 Jun 2027 06:27:12.203   07 Jun 2027 06:31:13.459           241.256        120628.000
        50   07 Jun 2027 06:31:30.123   07 Jun 2027 06:31:54.850            24.727         12363.500
        51   07 Jun 2027 08:03:34.171   07 Jun 2027 08:08:25.456           291.285        145642.500
        52   07 Jun 2027 09:42:06.390   07 Jun 2027 09:42:23.459            17.069          8534.500
        53   08 Jun 2027 03:26:03.169   08 Jun 2027 03:32:40.397           397.228        198614.000
        54   08 Jun 2027 05:02:21.777   08 Jun 2027 05:08:38.341           376.564        188282.000
        55   08 Jun 2027 06:39:45.435   08 Jun 2027 06:44:17.434           271.999        135999.500
        56   08 Jun 2027 08:15:54.847   08 Jun 2027 08:20:31.220           276.373        138186.500
        57   09 Jun 2027 03:38:04.114   09 Jun 2027 03:44:46.521           402.407        201203.500
        58   09 Jun 2027 05:14:00.299   09 Jun 2027 05:20:20.254           379.955        189977.500
        59   09 Jun 2027 06:52:45.673   09 Jun 2027 06:56:23.288           217.615        108807.500
        60   09 Jun 2027 08:27:55.832   09 Jun 2027 08:32:03.741           247.909        123954.500
        61   09 Jun 2027 08:32:14.100   09 Jun 2027 08:33:02.145            48.045         24022.500
        62   10 Jun 2027 03:49:20.001   10 Jun 2027 03:56:52.976           452.975        226487.500
        63   10 Jun 2027 05:26:09.619   10 Jun 2027 05:32:28.993           379.374        189687.000
        64   10 Jun 2027 07:04:45.349   10 Jun 2027 07:08:17.890           212.541        106270.500
        65   10 Jun 2027 08:37:38.690   10 Jun 2027 08:44:02.368           383.678        191839.000
        66   10 Jun 2027 08:44:58.832   10 Jun 2027 08:45:24.822            25.990         12995.000
        67   11 Jun 2027 04:01:27.592   11 Jun 2027 04:08:52.842           445.250        222625.000
        68   11 Jun 2027 05:38:25.544   11 Jun 2027 05:44:20.186           354.642        177321.000
        69   11 Jun 2027 07:16:42.857   11 Jun 2027 07:20:20.513           217.656        108828.000
        70   11 Jun 2027 08:49:42.372   11 Jun 2027 08:57:05.396           443.024        221512.000
        71   12 Jun 2027 04:13:29.487   12 Jun 2027 04:20:55.796           446.309        223154.500
        72   12 Jun 2027 05:50:15.739   12 Jun 2027 05:56:12.760           357.021        178510.500
        73   12 Jun 2027 05:56:51.973   12 Jun 2027 05:56:58.700             6.727          3363.500
        74   12 Jun 2027 07:28:20.966   12 Jun 2027 07:32:29.306           248.340        124170.000
        75   12 Jun 2027 09:02:09.600   12 Jun 2027 09:08:54.942           405.342        202671.000
        76   13 Jun 2027 04:25:30.428   13 Jun 2027 04:32:56.897           446.469        223234.500
        77   13 Jun 2027 06:02:25.224   13 Jun 2027 06:07:31.299           306.075        153037.500
        78   13 Jun 2027 06:08:03.161   13 Jun 2027 06:08:50.610            47.449         23724.500
        79   13 Jun 2027 07:39:35.159   13 Jun 2027 07:44:27.586           292.427        146213.500
        80   13 Jun 2027 09:14:24.901   13 Jun 2027 09:15:31.510            66.609         33304.500
        81   13 Jun 2027 09:16:44.322   13 Jun 2027 09:19:36.925           172.603         86301.500
