uniorb/output/strategy_4/Camera/Camera_KinoSat_111409.txt

KinoSat_111409
-------------------------
    Access    *     Start Time (UTCG)     *     Stop Time (UTCG)  *   Duration (s) *   Data (Mbytes)
         1   01 Jun 2027 04:22:07.998   01 Jun 2027 04:24:22.166           134.168         67084.000
         2   01 Jun 2027 04:24:24.191   01 Jun 2027 04:24:25.965             1.774           887.000
         3   01 Jun 2027 04:25:11.408   01 Jun 2027 04:25:26.086            14.678          7339.000
         4   01 Jun 2027 05:45:04.722   01 Jun 2027 05:45:56.453            51.731         25865.500
         5   01 Jun 2027 05:46:30.351   01 Jun 2027 05:47:19.736            49.385         24692.500
         6   01 Jun 2027 07:21:38.404   01 Jun 2027 07:24:06.043           147.639         73819.500
         7   01 Jun 2027 07:24:14.185   01 Jun 2027 07:24:26.291            12.106          6053.000
         8   01 Jun 2027 08:56:47.315   01 Jun 2027 08:59:09.069           141.754         70877.000
         9   01 Jun 2027 08:59:58.120   01 Jun 2027 09:00:13.589            15.469          7734.500
        10   01 Jun 2027 09:03:23.555   01 Jun 2027 09:03:34.099            10.544          5272.000
        11   01 Jun 2027 10:33:07.362   01 Jun 2027 10:35:23.307           135.945         67972.500
        12   01 Jun 2027 10:35:56.315   01 Jun 2027 10:36:22.912            26.597         13298.500
        13   01 Jun 2027 10:39:23.277   01 Jun 2027 10:39:29.220             5.943          2971.500
        14   02 Jun 2027 03:00:00.000   02 Jun 2027 03:00:21.663            21.663         10831.500
        15   02 Jun 2027 03:00:39.145   02 Jun 2027 03:00:43.765             4.620          2310.000
        16   02 Jun 2027 03:01:11.758   02 Jun 2027 03:01:11.758             0.000             0.000
        17   02 Jun 2027 03:01:14.879   02 Jun 2027 03:01:24.153             9.274          4637.000
        18   02 Jun 2027 04:33:52.755   02 Jun 2027 04:34:27.332            34.577         17288.500
        19   02 Jun 2027 04:34:41.407   02 Jun 2027 04:36:07.036            85.629         42814.500
        20   02 Jun 2027 05:57:13.945   02 Jun 2027 05:58:19.488            65.543         32771.500
        21   02 Jun 2027 05:58:22.945   02 Jun 2027 05:58:23.045             0.100            50.000
        22   02 Jun 2027 05:58:54.600   02 Jun 2027 05:58:54.600             0.000             0.000
        23   02 Jun 2027 06:00:18.927   02 Jun 2027 06:00:25.265             6.338          3169.000
        24   02 Jun 2027 07:33:49.087   02 Jun 2027 07:37:07.627           198.540         99270.000
        25   02 Jun 2027 09:08:59.200   02 Jun 2027 09:12:08.605           189.405         94702.500
        26   02 Jun 2027 09:12:52.975   02 Jun 2027 09:12:52.975             0.000             0.000
        27   02 Jun 2027 09:14:13.387   02 Jun 2027 09:15:19.898            66.511         33255.500
        28   02 Jun 2027 09:15:22.295   02 Jun 2027 09:15:30.792             8.497          4033.968
        29   02 Jun 2027 10:45:20.042   02 Jun 2027 10:45:34.511            14.469          7054.125
        30   02 Jun 2027 10:47:10.735   02 Jun 2027 10:47:13.908             3.173          1346.906
        31   02 Jun 2027 10:47:23.618   02 Jun 2027 10:47:27.673             4.055           255.625
        32   02 Jun 2027 10:47:47.254   02 Jun 2027 10:47:49.399             2.145           553.125
        33   02 Jun 2027 10:48:17.802   02 Jun 2027 10:48:19.461             1.659           737.906
        34   02 Jun 2027 10:48:32.527   02 Jun 2027 10:48:34.441             1.914           408.312
        35   02 Jun 2027 10:49:11.265   02 Jun 2027 10:49:16.515             5.250           509.094
        36   02 Jun 2027 10:49:19.633   02 Jun 2027 10:49:20.877             1.244            97.438
        37   02 Jun 2027 10:50:24.784   02 Jun 2027 10:50:29.521             4.737           870.000
        38   02 Jun 2027 10:50:31.478   02 Jun 2027 10:50:32.902             1.424            61.156
        39   03 Jun 2027 03:08:41.978   03 Jun 2027 03:09:24.199            42.221         21110.500
        40   03 Jun 2027 03:09:39.149   03 Jun 2027 03:09:52.295            13.146          6573.000
        41   03 Jun 2027 03:10:45.928   03 Jun 2027 03:10:53.750             7.822          3911.000
        42   03 Jun 2027 03:11:05.185   03 Jun 2027 03:11:18.859            13.674          6837.000
        43   03 Jun 2027 03:11:34.504   03 Jun 2027 03:11:41.824             7.320          3660.000
        44   03 Jun 2027 03:12:27.134   03 Jun 2027 03:12:36.755             9.621          4810.500
        45   03 Jun 2027 03:13:47.480   03 Jun 2027 03:13:49.618             2.138          1069.000
        46   03 Jun 2027 03:15:05.374   03 Jun 2027 03:15:23.595            18.221          9110.500
        47   03 Jun 2027 03:15:32.678   03 Jun 2027 03:15:38.390             5.712          2856.000
        48   03 Jun 2027 04:45:49.593   03 Jun 2027 04:46:30.098            40.505         20252.500
        49   03 Jun 2027 04:46:47.371   03 Jun 2027 04:48:42.468           115.097         57548.500
        50   03 Jun 2027 04:49:07.513   03 Jun 2027 04:49:21.799            14.286          7143.000
        51   03 Jun 2027 06:09:46.933   03 Jun 2027 06:10:14.798            27.865         13932.500
        52   03 Jun 2027 06:10:21.644   03 Jun 2027 06:10:25.745             4.101          2050.500
        53   03 Jun 2027 06:11:37.903   03 Jun 2027 06:11:50.474            12.571          6188.875
        54   03 Jun 2027 07:45:36.959   03 Jun 2027 07:45:44.920             7.961          3883.250
        55   03 Jun 2027 07:46:52.290   03 Jun 2027 07:46:58.895             6.605          1926.938
        56   03 Jun 2027 07:47:19.541   03 Jun 2027 07:47:21.112             1.571           260.969
        57   03 Jun 2027 07:47:52.990   03 Jun 2027 07:47:56.505             3.515           482.469
        58   03 Jun 2027 07:48:12.872   03 Jun 2027 07:48:17.124             4.252           485.750
        59   03 Jun 2027 07:48:23.225   03 Jun 2027 07:48:31.903             8.678           190.656
        60   03 Jun 2027 07:48:57.092   03 Jun 2027 07:48:57.092             0.000             0.000
        61   03 Jun 2027 07:49:26.687   03 Jun 2027 07:49:32.199             5.512          1406.594
        62   03 Jun 2027 09:20:29.619   03 Jun 2027 09:20:34.980             5.361          2621.031
        63   03 Jun 2027 09:21:01.582   03 Jun 2027 09:21:02.266             0.684            97.281
        64   03 Jun 2027 09:22:28.658   03 Jun 2027 09:22:30.345             1.687           753.500
        65   03 Jun 2027 09:23:26.381   03 Jun 2027 09:23:26.734             0.353            54.531
        66   03 Jun 2027 09:24:18.639   03 Jun 2027 09:24:22.920             4.281          1346.281
        67   03 Jun 2027 09:25:06.000   03 Jun 2027 09:25:12.598             6.598           399.687
        68   03 Jun 2027 09:25:38.304   03 Jun 2027 09:25:41.398             3.094           664.063
        69   03 Jun 2027 09:25:45.694   03 Jun 2027 09:25:52.674             6.980            80.937
        70   03 Jun 2027 09:26:22.614   03 Jun 2027 09:26:24.852             2.238           646.281
        71   03 Jun 2027 10:56:58.996   03 Jun 2027 10:57:14.475            15.479          6105.063
        72   03 Jun 2027 10:59:01.265   03 Jun 2027 10:59:05.923             4.658          1753.063
        73   03 Jun 2027 10:59:26.189   03 Jun 2027 10:59:27.219             1.030           327.219
        74   03 Jun 2027 11:00:21.128   03 Jun 2027 11:00:24.914             3.786          1348.562
        75   03 Jun 2027 11:01:12.358   03 Jun 2027 11:01:14.261             1.903           479.813
        76   03 Jun 2027 11:01:24.337   03 Jun 2027 11:01:25.147             0.810           314.875
        77   03 Jun 2027 11:02:01.358   03 Jun 2027 11:02:06.255             4.897          1013.313
        78   03 Jun 2027 11:02:13.275   03 Jun 2027 11:02:22.675             9.400            76.500
        79   03 Jun 2027 11:03:13.765   03 Jun 2027 11:03:17.172             3.407          1596.562
        80   04 Jun 2027 03:20:45.957   04 Jun 2027 03:24:14.876           208.919        104459.500
        81   04 Jun 2027 03:25:31.764   04 Jun 2027 03:25:36.190             4.426          2213.000
        82   04 Jun 2027 03:27:09.042   04 Jun 2027 03:27:24.520            15.478          7739.000
        83   04 Jun 2027 03:27:49.221   04 Jun 2027 03:28:23.081            33.860         16930.000
        84   04 Jun 2027 04:46:26.264   04 Jun 2027 04:46:39.957            13.693          6846.500
        85   04 Jun 2027 04:47:13.368   04 Jun 2027 04:47:31.875            18.507          9253.500
        86   04 Jun 2027 04:57:46.230   04 Jun 2027 04:58:39.915            53.685         26811.280
        87   04 Jun 2027 06:20:21.576   04 Jun 2027 06:20:30.808             9.232          3825.844
        88   04 Jun 2027 06:21:24.723   04 Jun 2027 06:21:25.696             0.973           486.500
        89   04 Jun 2027 06:21:56.680   04 Jun 2027 06:22:00.270             3.590          1352.562
        90   04 Jun 2027 06:22:16.236   04 Jun 2027 06:22:19.019             2.783           472.187
        91   04 Jun 2027 06:22:45.432   04 Jun 2027 06:22:47.208             1.776           613.031
        92   04 Jun 2027 06:23:55.260   04 Jun 2027 06:24:07.580            12.320          1784.156
        93   04 Jun 2027 06:24:18.837   04 Jun 2027 06:24:23.059             4.222           318.906
        94   04 Jun 2027 06:24:47.017   04 Jun 2027 06:24:48.423             1.406           183.625
        95   04 Jun 2027 06:25:01.562   04 Jun 2027 06:25:02.175             0.613           256.906
        96   04 Jun 2027 07:55:53.080   04 Jun 2027 07:55:59.433             6.353          1542.906
        97   04 Jun 2027 07:57:22.127   04 Jun 2027 07:57:24.396             2.269           971.531
        98   04 Jun 2027 07:57:39.278   04 Jun 2027 07:57:41.504             2.226           440.063
        99   04 Jun 2027 07:58:04.970   04 Jun 2027 07:58:08.870             3.900           538.719
       100   04 Jun 2027 07:58:33.441   04 Jun 2027 07:58:34.351             0.910           268.375
       101   04 Jun 2027 08:00:09.043   04 Jun 2027 08:00:14.847             5.804          2366.469
       102   04 Jun 2027 08:00:18.234   04 Jun 2027 08:00:20.299             2.065            61.625
       103   04 Jun 2027 08:00:36.553   04 Jun 2027 08:00:37.702             1.149           507.937
       104   04 Jun 2027 08:00:44.961   04 Jun 2027 08:00:46.598             1.637            44.406
       105   04 Jun 2027 08:01:12.110   04 Jun 2027 08:01:18.586             6.476            38.781
       106   04 Jun 2027 09:32:12.735   04 Jun 2027 09:32:22.636             9.901          2958.094
       107   04 Jun 2027 09:33:01.158   04 Jun 2027 09:33:03.535             2.377           761.406
       108   04 Jun 2027 09:35:27.023   04 Jun 2027 09:35:32.154             5.131          1802.062
       109   04 Jun 2027 09:35:53.472   04 Jun 2027 09:35:55.129             1.657           293.469
       110   04 Jun 2027 09:36:54.206   04 Jun 2027 09:36:57.997             3.791          1201.750
       111   04 Jun 2027 09:38:11.548   04 Jun 2027 09:38:17.411             5.863          2157.969
       112   04 Jun 2027 09:38:31.308   04 Jun 2027 09:38:33.520             2.212           372.875
       113   04 Jun 2027 09:39:44.763   04 Jun 2027 09:39:44.944             0.181            90.500
       114   04 Jun 2027 11:09:19.200   04 Jun 2027 11:09:36.878            17.678          7324.125
       115   04 Jun 2027 11:11:28.406   04 Jun 2027 11:11:30.432             2.026           287.688
       116   04 Jun 2027 11:12:30.863   04 Jun 2027 11:12:39.394             8.531           971.125
       117   04 Jun 2027 11:13:01.713   04 Jun 2027 11:13:03.178             1.465           125.063
       118   04 Jun 2027 11:13:28.550   04 Jun 2027 11:13:28.940             0.390           101.344
       119   04 Jun 2027 11:13:52.957   04 Jun 2027 11:13:57.811             4.854           505.250
       120   04 Jun 2027 11:14:07.031   04 Jun 2027 11:14:13.588             6.557           228.219
       121   04 Jun 2027 11:15:24.969   04 Jun 2027 11:15:28.784             3.815          1582.625
       122   05 Jun 2027 03:33:15.886   05 Jun 2027 03:34:47.945            92.059         46029.500
       123   05 Jun 2027 03:35:12.793   05 Jun 2027 03:36:00.731            47.938         23969.000
       124   05 Jun 2027 03:36:30.037   05 Jun 2027 03:36:35.802             5.765          2882.500
       125   05 Jun 2027 03:36:49.529   05 Jun 2027 03:37:20.005            30.476         15238.000
       126   05 Jun 2027 03:37:40.112   05 Jun 2027 03:37:46.093             5.981          2990.500
       127   05 Jun 2027 03:38:39.215   05 Jun 2027 03:39:10.067            30.852         15426.000
       128   05 Jun 2027 03:40:03.752   05 Jun 2027 03:40:05.875             2.123          1061.500
       129   05 Jun 2027 04:58:05.524   05 Jun 2027 04:58:14.767             9.243          4621.500
       130   05 Jun 2027 04:59:38.158   05 Jun 2027 04:59:39.976             1.818           909.000
       131   05 Jun 2027 05:09:47.431   05 Jun 2027 05:10:48.071            60.640         30320.000
       132   05 Jun 2027 06:32:04.443   05 Jun 2027 06:32:45.711            41.268         20634.000
       133   05 Jun 2027 06:32:48.178   05 Jun 2027 06:32:48.178             0.000             0.000
       134   05 Jun 2027 06:32:58.533   05 Jun 2027 06:33:03.648             5.115          1179.937
       135   05 Jun 2027 06:35:00.024   05 Jun 2027 06:35:04.985             4.961          2375.719
       136   05 Jun 2027 06:36:42.178   05 Jun 2027 06:36:47.393             5.215          2277.125
       137   05 Jun 2027 08:07:01.371   05 Jun 2027 08:07:06.525             5.154          2494.969
       138   05 Jun 2027 08:08:04.197   05 Jun 2027 08:08:06.631             2.434           906.969
       139   05 Jun 2027 08:08:35.931   05 Jun 2027 08:08:43.212             7.281           915.625
       140   05 Jun 2027 08:09:22.731   05 Jun 2027 08:09:27.871             5.140          1234.969
       141   05 Jun 2027 08:10:54.024   05 Jun 2027 08:11:01.560             7.536          2583.969
       142   05 Jun 2027 08:12:18.760   05 Jun 2027 08:12:24.048             5.288          2259.500
       143   05 Jun 2027 08:12:58.790   05 Jun 2027 08:13:03.020             4.230           446.781
       144   05 Jun 2027 08:13:28.891   05 Jun 2027 08:13:32.293             3.402            81.094
       145   05 Jun 2027 08:14:13.394   05 Jun 2027 08:14:17.262             3.868          1162.813
       146   05 Jun 2027 08:15:00.802   05 Jun 2027 08:15:07.621             6.819           928.250
       147   05 Jun 2027 09:44:30.761   05 Jun 2027 09:44:37.759             6.998          3073.875
       148   05 Jun 2027 09:46:29.121   05 Jun 2027 09:46:41.264            12.143          2684.656
       149   05 Jun 2027 09:47:41.802   05 Jun 2027 09:47:48.576             6.774          1231.562
       150   05 Jun 2027 09:48:45.481   05 Jun 2027 09:48:53.281             7.800          1506.844
       151   05 Jun 2027 09:49:39.670   05 Jun 2027 09:49:45.627             5.957          1220.937
       152   05 Jun 2027 09:49:55.546   05 Jun 2027 09:49:59.517             3.971           309.969
       153   05 Jun 2027 09:50:12.778   05 Jun 2027 09:50:14.637             1.859           106.813
       154   05 Jun 2027 09:50:44.775   05 Jun 2027 09:50:46.894             2.119            35.437
       155   05 Jun 2027 09:51:48.616   05 Jun 2027 09:51:49.267             0.651           325.500
       156   05 Jun 2027 11:21:15.380   05 Jun 2027 11:21:24.924             9.544          4684.188
       157   05 Jun 2027 11:22:51.666   05 Jun 2027 11:22:54.204             2.538           875.125
       158   05 Jun 2027 11:23:29.964   05 Jun 2027 11:23:30.264             0.300           101.375
       159   05 Jun 2027 11:23:59.034   05 Jun 2027 11:24:00.091             1.057           430.750
       160   05 Jun 2027 11:24:42.662   05 Jun 2027 11:24:45.599             2.937          1041.844
       161   05 Jun 2027 11:25:11.549   05 Jun 2027 11:25:14.188             2.639           724.437
       162   05 Jun 2027 11:25:39.837   05 Jun 2027 11:25:43.831             3.994           768.906
       163   05 Jun 2027 11:26:34.078   05 Jun 2027 11:26:38.328             4.250          1570.219
       164   05 Jun 2027 11:27:33.232   05 Jun 2027 11:27:41.940             8.708          1705.688
       165   06 Jun 2027 03:45:17.920   06 Jun 2027 03:48:12.932           175.012         87506.000
       166   06 Jun 2027 03:50:02.989   06 Jun 2027 03:51:22.319            79.330         39665.000
       167   06 Jun 2027 05:09:39.040   06 Jun 2027 05:10:17.712            38.672         19336.000
       168   06 Jun 2027 05:21:54.780   06 Jun 2027 05:22:22.430            27.650         13825.000
       169   06 Jun 2027 06:43:36.506   06 Jun 2027 06:44:18.859            42.353         19725.469
       170   06 Jun 2027 06:44:36.889   06 Jun 2027 06:44:38.057             1.168           563.437
       171   06 Jun 2027 06:45:45.299   06 Jun 2027 06:45:46.761             1.462           397.875
       172   06 Jun 2027 06:46:05.096   06 Jun 2027 06:46:09.644             4.548           572.969
       173   06 Jun 2027 06:48:05.771   06 Jun 2027 06:48:14.413             8.642          3291.562
       174   06 Jun 2027 06:48:24.239   06 Jun 2027 06:48:25.683             1.444           307.062
       175   06 Jun 2027 08:18:30.100   06 Jun 2027 08:18:37.342             7.242          2612.313
       176   06 Jun 2027 08:19:23.530   06 Jun 2027 08:19:27.517             3.987          1204.750
       177   06 Jun 2027 08:20:56.342   06 Jun 2027 08:20:57.611             1.269           394.906
       178   06 Jun 2027 08:22:54.338   06 Jun 2027 08:23:03.726             9.388          2334.531
       179   06 Jun 2027 08:24:18.755   06 Jun 2027 08:24:26.390             7.635          2219.844
       180   06 Jun 2027 08:26:02.179   06 Jun 2027 08:26:11.428             9.249          2351.750
       181   06 Jun 2027 08:27:02.656   06 Jun 2027 08:27:05.926             3.270          1100.281
       182   06 Jun 2027 08:27:25.772   06 Jun 2027 08:27:26.825             1.053           300.281
       183   06 Jun 2027 09:56:24.509   06 Jun 2027 09:56:34.423             9.914          4521.250
       184   06 Jun 2027 09:59:24.333   06 Jun 2027 09:59:28.525             4.192          1754.344
       185   06 Jun 2027 10:00:02.375   06 Jun 2027 10:00:06.325             3.950           537.469
       186   06 Jun 2027 10:00:39.852   06 Jun 2027 10:00:49.236             9.384           140.063
       187   06 Jun 2027 10:01:48.673   06 Jun 2027 10:01:54.067             5.394            28.688
       188   06 Jun 2027 10:02:02.922   06 Jun 2027 10:02:05.636             2.714           276.719
       189   06 Jun 2027 10:02:21.408   06 Jun 2027 10:02:22.995             1.587           401.187
       190   06 Jun 2027 10:02:28.782   06 Jun 2027 10:02:29.572             0.790           180.844
       191   06 Jun 2027 10:03:18.309   06 Jun 2027 10:03:20.919             2.610          1025.156
       192   06 Jun 2027 10:03:31.079   06 Jun 2027 10:03:33.088             2.009           219.687
       193   06 Jun 2027 11:33:08.655   06 Jun 2027 11:33:22.238            13.583          6671.438
       194   06 Jun 2027 11:33:43.337   06 Jun 2027 11:33:44.964             1.627           624.562
       195   06 Jun 2027 11:37:14.631   06 Jun 2027 11:37:21.973             7.342          2421.688
       196   06 Jun 2027 11:38:02.880   06 Jun 2027 11:38:08.724             5.844           855.312
       197   06 Jun 2027 11:38:46.051   06 Jun 2027 11:38:48.531             2.480          1129.656
       198   06 Jun 2027 11:39:19.391   06 Jun 2027 11:39:21.145             1.754           648.375
       199   07 Jun 2027 03:57:43.120   07 Jun 2027 04:00:18.305           155.185         77592.500
       200   07 Jun 2027 04:01:25.091   07 Jun 2027 04:01:28.228             3.137          1568.500
       201   07 Jun 2027 04:01:43.471   07 Jun 2027 04:02:19.028            35.557         17778.500
       202   07 Jun 2027 05:21:34.941   07 Jun 2027 05:22:05.758            30.817         15408.500
       203   07 Jun 2027 06:57:35.334   07 Jun 2027 06:59:27.871           112.537         53555.187
       204   07 Jun 2027 07:00:02.676   07 Jun 2027 07:00:12.516             9.840           865.281
       205   07 Jun 2027 07:00:26.508   07 Jun 2027 07:00:26.508             0.000             0.000
       206   07 Jun 2027 07:00:26.676   07 Jun 2027 07:00:28.322             1.646           283.344
       207   07 Jun 2027 08:31:23.296   07 Jun 2027 08:31:32.745             9.449          4083.313
       208   07 Jun 2027 08:32:56.485   07 Jun 2027 08:32:58.002             1.517           582.969
       209   07 Jun 2027 08:33:43.601   07 Jun 2027 08:33:45.738             2.137           107.875
       210   07 Jun 2027 08:33:54.837   07 Jun 2027 08:33:58.502             3.665           284.344
       211   07 Jun 2027 08:35:11.505   07 Jun 2027 08:35:14.233             2.728           958.719
       212   07 Jun 2027 08:37:52.501   07 Jun 2027 08:37:59.706             7.205          3455.750
       213   07 Jun 2027 08:38:07.875   07 Jun 2027 08:38:10.132             2.257            25.094
       214   07 Jun 2027 08:39:12.693   07 Jun 2027 08:39:16.465             3.772          1369.094
       215   07 Jun 2027 10:08:33.316   07 Jun 2027 10:08:45.684            12.368          5210.906
       216   07 Jun 2027 10:11:08.703   07 Jun 2027 10:11:11.826             3.123          1320.937
       217   07 Jun 2027 10:11:39.697   07 Jun 2027 10:11:40.933             1.236           463.406
       218   07 Jun 2027 10:12:37.340   07 Jun 2027 10:12:46.477             9.137           744.969
       219   07 Jun 2027 10:13:26.572   07 Jun 2027 10:13:28.639             2.067           454.000
       220   07 Jun 2027 10:14:02.809   07 Jun 2027 10:14:04.176             1.367           196.375
       221   07 Jun 2027 10:14:39.194   07 Jun 2027 10:14:44.442             5.248           553.563
       222   07 Jun 2027 10:15:16.682   07 Jun 2027 10:15:20.303             3.621          1007.500
       223   07 Jun 2027 11:45:47.576   07 Jun 2027 11:46:02.174            14.598          7076.781
       224   07 Jun 2027 11:46:54.822   07 Jun 2027 11:47:00.890             6.068          1001.750
       225   07 Jun 2027 11:47:59.759   07 Jun 2027 11:48:00.554             0.795           182.781
       226   07 Jun 2027 11:49:04.982   07 Jun 2027 11:49:12.472             7.490          1869.250
       227   07 Jun 2027 11:49:50.472   07 Jun 2027 11:49:53.140             2.668           790.750
       228   07 Jun 2027 11:51:11.896   07 Jun 2027 11:51:17.538             5.642          2086.969
       229   07 Jun 2027 11:51:20.593   07 Jun 2027 11:51:22.060             1.467            95.469
       230   08 Jun 2027 04:10:05.433   08 Jun 2027 04:12:42.446           157.013         78506.500
       231   08 Jun 2027 05:33:27.730   08 Jun 2027 05:34:23.374            55.644         27822.000
       232   08 Jun 2027 07:09:48.579   08 Jun 2027 07:11:42.651           114.072         56191.125
       233   08 Jun 2027 07:11:58.373   08 Jun 2027 07:12:00.183             1.810           205.594
       234   08 Jun 2027 07:12:20.917   08 Jun 2027 07:12:22.698             1.781           550.688
       235   08 Jun 2027 07:12:32.551   08 Jun 2027 07:12:32.551             0.000             0.000
       236   08 Jun 2027 07:12:54.361   08 Jun 2027 07:12:59.493             5.132           795.438
       237   08 Jun 2027 08:43:50.613   08 Jun 2027 08:43:57.909             7.296          3383.469
       238   08 Jun 2027 08:45:34.135   08 Jun 2027 08:45:34.135             0.000             0.000
       239   08 Jun 2027 08:45:48.612   08 Jun 2027 08:45:52.995             4.383           607.063
       240   08 Jun 2027 08:46:42.782   08 Jun 2027 08:46:49.504             6.722          1406.125
       241   08 Jun 2027 08:47:17.906   08 Jun 2027 08:47:21.801             3.895           733.938
       242   08 Jun 2027 08:50:24.546   08 Jun 2027 08:50:34.351             9.805          4821.312
       243   08 Jun 2027 08:51:25.628   08 Jun 2027 08:51:30.719             5.091           940.812
       244   08 Jun 2027 10:20:58.157   08 Jun 2027 10:21:13.247            15.090          6244.969
       245   08 Jun 2027 10:26:03.378   08 Jun 2027 10:26:04.864             1.486           605.500
       246   08 Jun 2027 10:27:05.389   08 Jun 2027 10:27:12.179             6.790          1435.969
       247   08 Jun 2027 10:27:26.716   08 Jun 2027 10:27:26.955             0.239            66.906
       248   08 Jun 2027 10:27:34.876   08 Jun 2027 10:27:36.136             1.260           114.875
       249   08 Jun 2027 11:57:56.075   08 Jun 2027 11:58:16.128            20.053          5771.719
       250   09 Jun 2027 04:22:25.814   09 Jun 2027 04:24:14.500           108.686         54343.000
       251   09 Jun 2027 04:24:53.852   09 Jun 2027 04:25:27.793            33.941         16970.500
       252   09 Jun 2027 05:45:28.212   09 Jun 2027 05:46:10.975            42.763         21381.500
       253   09 Jun 2027 07:21:54.792   09 Jun 2027 07:24:12.775           137.983         68664.875
       254   09 Jun 2027 07:24:30.877   09 Jun 2027 07:24:32.963             2.086           205.437
       255   09 Jun 2027 08:57:03.361   09 Jun 2027 08:57:14.480            11.119          4639.469
       256   09 Jun 2027 08:57:40.256   09 Jun 2027 08:57:45.711             5.455           417.406
       257   09 Jun 2027 08:58:18.809   09 Jun 2027 08:58:25.844             7.035           362.750
       258   09 Jun 2027 08:59:27.019   09 Jun 2027 08:59:30.233             3.214          1331.469
       259   09 Jun 2027 09:00:31.762   09 Jun 2027 09:00:36.363             4.601           539.000
       260   09 Jun 2027 09:00:49.141   09 Jun 2027 09:00:50.414             1.273           105.656
       261   09 Jun 2027 09:02:30.491   09 Jun 2027 09:02:37.719             7.228          2524.406
       262   09 Jun 2027 09:03:03.162   09 Jun 2027 09:03:06.252             3.090           753.281
       263   09 Jun 2027 09:03:45.155   09 Jun 2027 09:03:46.709             1.554           110.281
       264   09 Jun 2027 10:33:23.862   09 Jun 2027 10:33:35.998            12.136          4397.563
       265   09 Jun 2027 10:35:19.523   09 Jun 2027 10:35:23.320             3.797           547.937
       266   09 Jun 2027 10:35:39.418   09 Jun 2027 10:35:41.167             1.749           503.063
       267   09 Jun 2027 10:36:13.042   09 Jun 2027 10:36:15.372             2.330           939.094
       268   09 Jun 2027 10:37:27.366   09 Jun 2027 10:37:31.050             3.684           591.656
       269   09 Jun 2027 10:37:32.959   09 Jun 2027 10:37:35.277             2.318            50.469
       270   09 Jun 2027 10:37:41.777   09 Jun 2027 10:37:42.735             0.958            51.438
       271   09 Jun 2027 10:38:49.501   09 Jun 2027 10:38:57.192             7.691          2086.437
       272   09 Jun 2027 10:39:05.828   09 Jun 2027 10:39:06.879             1.051           269.875
       273   09 Jun 2027 10:39:12.455   09 Jun 2027 10:39:16.511             4.056           174.250
       274   09 Jun 2027 10:39:26.947   09 Jun 2027 10:39:28.621             1.674           326.125
       275   10 Jun 2027 03:00:00.000   10 Jun 2027 03:00:07.901             7.901          3950.500
       276   10 Jun 2027 03:00:38.738   10 Jun 2027 03:00:53.059            14.321          7160.500
       277   10 Jun 2027 03:01:25.130   10 Jun 2027 03:01:26.243             1.113           556.500
       278   10 Jun 2027 04:34:08.879   10 Jun 2027 04:34:43.911            35.032         17516.000
       279   10 Jun 2027 04:34:57.446   10 Jun 2027 04:36:52.682           115.236         57618.000
       280   10 Jun 2027 04:37:27.274   10 Jun 2027 04:37:29.692             2.418          1209.000
       281   10 Jun 2027 04:37:43.960   10 Jun 2027 04:37:44.812             0.852           426.000
       282   10 Jun 2027 05:57:29.272   10 Jun 2027 05:58:24.580            55.308         27654.000
       283   10 Jun 2027 07:34:05.306   10 Jun 2027 07:35:25.885            80.579         40036.625
       284   10 Jun 2027 07:36:18.673   10 Jun 2027 07:36:23.018             4.345          1642.906
       285   10 Jun 2027 07:36:32.562   10 Jun 2027 07:36:37.240             4.678           151.531
       286   10 Jun 2027 07:36:57.843   10 Jun 2027 07:36:57.843             0.000             0.000
       287   10 Jun 2027 07:37:31.893   10 Jun 2027 07:37:33.069             1.176           588.000
       288   10 Jun 2027 09:09:15.513   10 Jun 2027 09:09:21.951             6.438          2939.437
       289   10 Jun 2027 09:09:29.002   10 Jun 2027 09:09:33.185             4.183           220.344
       290   10 Jun 2027 09:10:51.754   10 Jun 2027 09:11:01.388             9.634           190.437
       291   10 Jun 2027 09:12:11.191   10 Jun 2027 09:12:15.589             4.398          1006.406
       292   10 Jun 2027 09:12:34.380   10 Jun 2027 09:12:37.152             2.772           355.938
       293   10 Jun 2027 09:14:30.528   10 Jun 2027 09:14:36.680             6.152          2489.438
       294   10 Jun 2027 09:15:01.990   10 Jun 2027 09:15:07.932             5.942           283.000
       295   10 Jun 2027 09:15:50.990   10 Jun 2027 09:15:51.214             0.224           112.000
       296   10 Jun 2027 10:45:33.644   10 Jun 2027 10:45:44.770            11.126          4540.250
       297   10 Jun 2027 10:47:27.084   10 Jun 2027 10:47:30.096             3.012          1402.844
       298   10 Jun 2027 10:48:02.027   10 Jun 2027 10:48:04.562             2.535           493.531
       299   10 Jun 2027 10:48:09.913   10 Jun 2027 10:48:13.174             3.261           167.219
       300   10 Jun 2027 10:48:27.340   10 Jun 2027 10:48:28.421             1.081           385.156
       301   10 Jun 2027 10:49:36.527   10 Jun 2027 10:49:49.904            13.377           152.031
       302   10 Jun 2027 10:50:40.358   10 Jun 2027 10:50:45.162             4.804           808.719
       303   10 Jun 2027 10:50:46.787   10 Jun 2027 10:50:48.249             1.462            50.781
       304   11 Jun 2027 03:08:58.303   11 Jun 2027 03:10:32.384            94.081         47040.500
       305   11 Jun 2027 03:11:33.676   11 Jun 2027 03:11:37.907             4.231          2115.500
       306   11 Jun 2027 03:12:15.927   11 Jun 2027 03:12:34.753            18.826          9413.000
       307   11 Jun 2027 03:13:03.933   11 Jun 2027 03:13:07.597             3.664          1832.000
       308   11 Jun 2027 04:35:21.895   11 Jun 2027 04:35:24.590             2.695          1347.500
       309   11 Jun 2027 04:46:05.391   11 Jun 2027 04:49:04.538           179.147         89573.500
       310   11 Jun 2027 04:49:22.893   11 Jun 2027 04:49:32.487             9.594          4364.907
       311   11 Jun 2027 06:10:03.811   11 Jun 2027 06:10:28.655            24.844         12329.281
       312   11 Jun 2027 06:12:17.778   11 Jun 2027 06:12:24.398             6.620          3310.000
       313   11 Jun 2027 07:45:50.851   11 Jun 2027 07:45:56.967             6.116          2127.469
       314   11 Jun 2027 07:47:09.812   11 Jun 2027 07:47:15.179             5.367          1990.281
       315   11 Jun 2027 07:47:34.395   11 Jun 2027 07:47:36.011             1.616           199.719
       316   11 Jun 2027 07:48:35.662   11 Jun 2027 07:48:38.769             3.107          1241.156
       317   11 Jun 2027 07:49:15.328   11 Jun 2027 07:49:21.392             6.064          1142.469
       318   11 Jun 2027 09:20:44.490   11 Jun 2027 09:20:51.400             6.910          3415.625
       319   11 Jun 2027 09:21:26.596   11 Jun 2027 09:21:28.310             1.714           442.187
       320   11 Jun 2027 09:22:44.311   11 Jun 2027 09:22:46.475             2.164           763.625
       321   11 Jun 2027 09:23:37.740   11 Jun 2027 09:23:40.462             2.722           793.969
       322   11 Jun 2027 09:23:53.959   11 Jun 2027 09:23:53.959             0.000             0.000
       323   11 Jun 2027 09:24:06.530   11 Jun 2027 09:24:08.260             1.730           670.438
       324   11 Jun 2027 09:25:14.550   11 Jun 2027 09:25:19.485             4.935          1180.938
       325   11 Jun 2027 09:25:35.250   11 Jun 2027 09:25:36.945             1.695           427.500
       326   11 Jun 2027 09:25:48.896   11 Jun 2027 09:25:49.228             0.332            52.219
       327   11 Jun 2027 09:26:01.062   11 Jun 2027 09:26:01.470             0.408            75.531
       328   11 Jun 2027 09:26:16.496   11 Jun 2027 09:26:19.369             2.873           469.562
       329   11 Jun 2027 09:27:28.637   11 Jun 2027 09:27:32.760             4.123          1834.875
       330   11 Jun 2027 09:27:56.535   11 Jun 2027 09:28:00.374             3.839           261.344
       331   11 Jun 2027 10:57:15.176   11 Jun 2027 10:57:25.059             9.883          4839.281
       332   11 Jun 2027 10:59:13.094   11 Jun 2027 10:59:17.842             4.748           453.969
       333   11 Jun 2027 10:59:28.996   11 Jun 2027 10:59:30.857             1.861           302.750
       334   11 Jun 2027 11:00:30.204   11 Jun 2027 11:00:32.101             1.897           567.219
       335   11 Jun 2027 11:01:27.055   11 Jun 2027 11:01:29.321             2.266           839.937
       336   11 Jun 2027 11:01:51.818   11 Jun 2027 11:01:53.819             2.001           703.031
       337   11 Jun 2027 11:03:02.580   11 Jun 2027 11:03:06.974             4.394          1536.813
       338   11 Jun 2027 11:03:31.463   11 Jun 2027 11:03:31.830             0.367            45.656
       339   12 Jun 2027 03:21:02.669   12 Jun 2027 03:23:52.894           170.225         85112.500
       340   12 Jun 2027 03:27:23.759   12 Jun 2027 03:27:23.928             0.169            84.500
       341   12 Jun 2027 03:27:41.497   12 Jun 2027 03:28:11.653            30.156         15078.000
       342   12 Jun 2027 04:46:39.945   12 Jun 2027 04:47:01.195            21.250         10625.000
       343   12 Jun 2027 04:58:02.624   12 Jun 2027 04:59:42.285            99.661         49830.500
       344   12 Jun 2027 06:20:38.613   12 Jun 2027 06:20:47.912             9.299          4649.500
       345   12 Jun 2027 06:21:40.312   12 Jun 2027 06:21:41.224             0.912           456.000
       346   12 Jun 2027 06:22:18.929   12 Jun 2027 06:22:23.440             4.511          2150.531
       347   12 Jun 2027 06:22:33.016   12 Jun 2027 06:22:33.688             0.672            64.688
       348   12 Jun 2027 06:23:01.242   12 Jun 2027 06:23:01.242             0.000             0.000
       349   12 Jun 2027 06:24:24.341   12 Jun 2027 06:24:31.955             7.614          3149.625
       350   12 Jun 2027 06:25:09.048   12 Jun 2027 06:25:09.048             0.000             0.000
       351   12 Jun 2027 06:25:17.494   12 Jun 2027 06:25:20.179             2.685          1309.250
       352   12 Jun 2027 07:56:08.392   12 Jun 2027 07:56:15.385             6.993          3235.219
       353   12 Jun 2027 07:57:37.338   12 Jun 2027 07:57:39.537             2.199           972.687
       354   12 Jun 2027 07:57:54.577   12 Jun 2027 07:57:57.375             2.798           343.281
       355   12 Jun 2027 07:58:20.852   12 Jun 2027 07:58:23.128             2.276           496.188
       356   12 Jun 2027 07:58:51.114   12 Jun 2027 07:58:56.776             5.662           310.344
       357   12 Jun 2027 08:00:27.661   12 Jun 2027 08:00:34.500             6.839          2401.594
       358   12 Jun 2027 08:00:34.849   12 Jun 2027 08:00:36.626             1.777            10.906
       359   12 Jun 2027 08:00:55.295   12 Jun 2027 08:00:56.823             1.528           583.406
       360   12 Jun 2027 08:01:03.581   12 Jun 2027 08:01:04.994             1.413            61.344
       361   12 Jun 2027 08:01:28.789   12 Jun 2027 08:01:33.672             4.883            28.187
       362   12 Jun 2027 08:01:56.010   12 Jun 2027 08:01:56.940             0.930           109.313
       363   12 Jun 2027 09:32:29.458   12 Jun 2027 09:32:38.681             9.223          3521.750
       364   12 Jun 2027 09:33:19.152   12 Jun 2027 09:33:21.859             2.707           864.312
       365   12 Jun 2027 09:35:24.735   12 Jun 2027 09:35:29.739             5.004          1245.469
       366   12 Jun 2027 09:36:00.185   12 Jun 2027 09:36:01.239             1.054           450.188
       367   12 Jun 2027 09:36:29.737   12 Jun 2027 09:36:33.327             3.590           669.875
       368   12 Jun 2027 09:36:52.291   12 Jun 2027 09:37:02.030             9.739           419.281
       369   12 Jun 2027 09:37:44.229   12 Jun 2027 09:37:46.663             2.434          1071.563
       370   12 Jun 2027 09:38:03.016   12 Jun 2027 09:38:04.967             1.951           491.438
       371   12 Jun 2027 09:38:39.777   12 Jun 2027 09:38:42.863             3.086           424.281
       372   12 Jun 2027 09:39:40.596   12 Jun 2027 09:39:44.617             4.021          1672.219
       373   12 Jun 2027 11:09:35.427   12 Jun 2027 11:09:46.071            10.644          4954.125
       374   12 Jun 2027 11:11:44.472   12 Jun 2027 11:11:48.099             3.627           223.563
       375   12 Jun 2027 11:12:16.341   12 Jun 2027 11:12:18.175             1.834           660.375
       376   12 Jun 2027 11:12:47.944   12 Jun 2027 11:12:54.105             6.161           930.281
       377   12 Jun 2027 11:13:59.461   12 Jun 2027 11:14:03.575             4.114          1328.844
       378   12 Jun 2027 11:14:59.889   12 Jun 2027 11:15:05.453             5.564          1637.687
       379   12 Jun 2027 11:15:21.987   12 Jun 2027 11:15:24.501             2.514           360.156
       380   12 Jun 2027 11:15:37.858   12 Jun 2027 11:15:39.324             1.466           227.562
       381   13 Jun 2027 03:33:32.569   13 Jun 2027 03:35:10.163            97.594         48797.000
       382   13 Jun 2027 03:35:34.702   13 Jun 2027 03:35:59.178            24.476         12238.000
       383   13 Jun 2027 03:36:53.864   13 Jun 2027 03:37:42.837            48.973         24486.500
       384   13 Jun 2027 03:38:36.270   13 Jun 2027 03:38:53.802            17.532          8766.000
       385   13 Jun 2027 03:39:25.554   13 Jun 2027 03:39:46.796            21.242         10621.000
       386   13 Jun 2027 03:40:20.708   13 Jun 2027 03:40:40.119            19.411          9705.500
       387   13 Jun 2027 04:58:22.000   13 Jun 2027 04:58:39.030            17.030          8515.000
       388   13 Jun 2027 05:10:02.416   13 Jun 2027 05:11:03.527            61.111         30555.500
       389   13 Jun 2027 06:32:20.018   13 Jun 2027 06:32:57.643            37.625         18266.156
       390   13 Jun 2027 06:33:05.219   13 Jun 2027 06:33:05.478             0.259            88.750
       391   13 Jun 2027 06:35:15.614   13 Jun 2027 06:35:17.618             2.004          1002.000
       392   13 Jun 2027 06:35:46.812   13 Jun 2027 06:35:51.875             5.063          2218.781
       393   13 Jun 2027 08:07:15.563   13 Jun 2027 08:07:22.460             6.897          3381.031
       394   13 Jun 2027 08:08:44.858   13 Jun 2027 08:08:50.147             5.289           988.063
       395   13 Jun 2027 08:09:31.353   13 Jun 2027 08:09:37.156             5.803          1201.875
       396   13 Jun 2027 08:09:49.931   13 Jun 2027 08:09:53.362             3.431           382.125
       397   13 Jun 2027 08:10:53.771   13 Jun 2027 08:10:56.860             3.089          1100.406
       398   13 Jun 2027 08:11:23.629   13 Jun 2027 08:11:25.588             1.959           719.687
       399   13 Jun 2027 08:13:03.361   13 Jun 2027 08:13:03.372             0.011             5.500
       400   13 Jun 2027 08:13:17.751   13 Jun 2027 08:13:23.849             6.098          1414.000
       401   13 Jun 2027 08:13:45.758   13 Jun 2027 08:13:47.540             1.782            71.188
       402   13 Jun 2027 08:14:30.481   13 Jun 2027 08:14:30.587             0.106            53.000
       403   13 Jun 2027 09:44:46.263   13 Jun 2027 09:44:53.742             7.479          3028.375
       404   13 Jun 2027 09:47:51.633   13 Jun 2027 09:47:56.767             5.134          2035.531
       405   13 Jun 2027 09:48:33.722   13 Jun 2027 09:48:37.889             4.167           282.969
       406   13 Jun 2027 09:49:29.858   13 Jun 2027 09:49:33.864             4.006          1537.000
       407   13 Jun 2027 09:49:55.441   13 Jun 2027 09:49:56.503             1.062           254.219
       408   13 Jun 2027 09:50:03.687   13 Jun 2027 09:50:04.659             0.972           190.750
       409   13 Jun 2027 09:50:35.911   13 Jun 2027 09:50:37.985             2.074           300.437
       410   13 Jun 2027 09:50:59.568   13 Jun 2027 09:51:01.549             1.981             0.906
       411   13 Jun 2027 09:51:30.488   13 Jun 2027 09:51:36.221             5.733           815.750
       412   13 Jun 2027 09:52:05.256   13 Jun 2027 09:52:05.695             0.439            33.219
       413   13 Jun 2027 11:21:31.470   13 Jun 2027 11:21:45.413            13.943          5586.094
       414   13 Jun 2027 11:25:01.806   13 Jun 2027 11:25:06.578             4.772          1137.719
       415   13 Jun 2027 11:25:56.644   13 Jun 2027 11:25:58.294             1.650           763.312
       416   13 Jun 2027 11:27:12.574   13 Jun 2027 11:27:24.266            11.692          2321.250
       417   13 Jun 2027 11:27:43.649   13 Jun 2027 11:27:44.394             0.745           372.500
       418   13 Jun 2027 11:27:48.361   13 Jun 2027 11:27:49.112             0.751            41.094
