uniorb/output/strategy_4/Camera/Camera_KinoSat_110409.txt

KinoSat_110409
-------------------------
    Access    *     Start Time (UTCG)     *     Stop Time (UTCG)  *   Duration (s) *   Data (Mbytes)
         1   01 Jun 2027 03:11:47.973   01 Jun 2027 03:12:47.740            59.767         29883.500
         2   01 Jun 2027 03:13:05.032   01 Jun 2027 03:13:14.215             9.183          4591.500
         3   01 Jun 2027 03:13:34.003   01 Jun 2027 03:13:49.494            15.491          7745.500
         4   01 Jun 2027 03:14:13.261   01 Jun 2027 03:14:19.730             6.469          3234.500
         5   01 Jun 2027 03:14:58.918   01 Jun 2027 03:15:05.988             7.070          3535.000
         6   01 Jun 2027 03:15:40.641   01 Jun 2027 03:15:41.686             1.045           522.500
         7   01 Jun 2027 03:16:14.608   01 Jun 2027 03:16:26.047            11.439          5719.500
         8   01 Jun 2027 03:16:35.883   01 Jun 2027 03:16:42.579             6.696          3348.000
         9   01 Jun 2027 03:17:09.075   01 Jun 2027 03:17:09.075             0.000             0.000
        10   01 Jun 2027 03:17:25.819   01 Jun 2027 03:17:29.651             3.832          1916.000
        11   01 Jun 2027 03:18:54.211   01 Jun 2027 03:18:58.277             4.066          2033.000
        12   01 Jun 2027 03:19:50.727   01 Jun 2027 03:20:14.012            23.285         11642.500
        13   01 Jun 2027 04:49:22.328   01 Jun 2027 04:51:16.091           113.763         56881.500
        14   01 Jun 2027 04:51:38.627   01 Jun 2027 04:51:48.191             9.564          4782.000
        15   01 Jun 2027 04:53:21.263   01 Jun 2027 04:53:41.814            20.551         10275.500
        16   01 Jun 2027 04:55:58.760   01 Jun 2027 04:56:43.689            44.929         22464.500
        17   01 Jun 2027 06:26:05.169   01 Jun 2027 06:28:37.322           152.153         76076.500
        18   01 Jun 2027 06:29:15.673   01 Jun 2027 06:29:35.995            20.322         10161.000
        19   01 Jun 2027 06:30:56.655   01 Jun 2027 06:31:18.823            22.168         11084.000
        20   01 Jun 2027 06:32:28.157   01 Jun 2027 06:32:40.537            12.380          6190.000
        21   01 Jun 2027 08:04:08.339   01 Jun 2027 08:06:26.552           138.213         69106.500
        22   01 Jun 2027 08:06:32.463   01 Jun 2027 08:07:05.521            33.058         16529.000
        23   01 Jun 2027 08:07:37.826   01 Jun 2027 08:07:56.037            18.211          9105.500
        24   01 Jun 2027 08:08:14.499   01 Jun 2027 08:08:17.784             3.285          1642.500
        25   01 Jun 2027 09:37:49.547   01 Jun 2027 09:41:29.089           219.542        109771.000
        26   01 Jun 2027 09:44:02.065   01 Jun 2027 09:44:24.328            22.263         11131.500
        27   02 Jun 2027 03:23:18.402   02 Jun 2027 03:29:57.860           399.458        199729.000
        28   02 Jun 2027 03:30:42.111   02 Jun 2027 03:30:54.771            12.660          6330.000
        29   02 Jun 2027 03:31:47.956   02 Jun 2027 03:31:51.283             3.327          1663.500
        30   02 Jun 2027 03:32:10.949   02 Jun 2027 03:32:29.836            18.887          9443.500
        31   02 Jun 2027 05:01:16.477   02 Jun 2027 05:04:46.465           209.988        104994.000
        32   02 Jun 2027 05:05:50.704   02 Jun 2027 05:05:59.127             8.423          4211.500
        33   02 Jun 2027 05:07:35.189   02 Jun 2027 05:08:45.085            69.896         34948.000
        34   02 Jun 2027 06:38:11.868   02 Jun 2027 06:43:31.395           319.527        159763.500
        35   02 Jun 2027 06:44:37.898   02 Jun 2027 06:44:42.050             4.152          2076.000
        36   02 Jun 2027 08:16:04.311   02 Jun 2027 08:20:16.240           251.929        125964.500
        37   02 Jun 2027 09:50:11.499   02 Jun 2027 09:51:22.810            71.311         35655.500
        38   02 Jun 2027 09:52:10.691   02 Jun 2027 09:55:28.309           197.618         98809.000
        39   03 Jun 2027 03:36:12.184   03 Jun 2027 03:43:42.380           450.196        225098.000
        40   03 Jun 2027 03:44:24.473   03 Jun 2027 03:44:46.784            22.311         11155.500
        41   03 Jun 2027 05:13:37.748   03 Jun 2027 05:20:40.952           423.204        211602.000
        42   03 Jun 2027 06:50:46.251   03 Jun 2027 06:55:10.378           264.127        132063.500
        43   03 Jun 2027 06:55:43.440   03 Jun 2027 06:56:31.375            47.935         23967.500
        44   03 Jun 2027 08:27:53.355   03 Jun 2027 08:32:14.305           260.950        130475.000
        45   03 Jun 2027 10:02:46.149   03 Jun 2027 10:02:49.969             3.820          1910.000
        46   03 Jun 2027 10:04:24.308   03 Jun 2027 10:07:13.532           169.224         84612.000
        47   04 Jun 2027 03:48:47.162   04 Jun 2027 03:55:40.830           413.668        206834.000
        48   04 Jun 2027 03:55:43.143   04 Jun 2027 03:56:43.731            60.588         30294.000
        49   04 Jun 2027 05:25:50.553   04 Jun 2027 05:32:33.560           403.007        201503.500
        50   04 Jun 2027 07:03:06.499   04 Jun 2027 07:07:48.015           281.516        140758.000
        51   04 Jun 2027 08:39:44.352   04 Jun 2027 08:44:40.361           296.009        148004.500
        52   04 Jun 2027 10:18:22.502   04 Jun 2027 10:18:42.746            20.244         10122.000
        53   05 Jun 2027 04:01:58.710   05 Jun 2027 04:08:45.275           406.565        203282.500
        54   05 Jun 2027 05:38:20.889   05 Jun 2027 05:44:40.110           379.221        189610.500
        55   05 Jun 2027 07:15:54.952   05 Jun 2027 07:20:16.967           262.015        131007.500
        56   05 Jun 2027 08:52:47.267   05 Jun 2027 08:56:09.386           202.119        101059.500
        57   06 Jun 2027 04:14:07.499   06 Jun 2027 04:20:43.949           396.450        198225.000
        58   06 Jun 2027 05:50:06.175   06 Jun 2027 05:56:12.877           366.702        183351.000
        59   06 Jun 2027 05:56:22.175   06 Jun 2027 05:56:27.311             5.136          2568.000
        60   06 Jun 2027 07:27:57.465   06 Jun 2027 07:32:26.334           268.869        134434.500
        61   06 Jun 2027 09:03:57.144   06 Jun 2027 09:08:08.269           251.125        125562.500
        62   06 Jun 2027 09:08:12.326   06 Jun 2027 09:08:58.462            46.136         23068.000
        63   07 Jun 2027 04:25:30.903   07 Jun 2027 04:28:01.888           150.985         75492.500
        64   07 Jun 2027 04:29:05.172   07 Jun 2027 04:32:54.603           229.431        114715.500
        65   07 Jun 2027 06:02:08.023   07 Jun 2027 06:08:31.609           383.586        191793.000
        66   07 Jun 2027 07:41:06.335   07 Jun 2027 07:44:20.346           194.011         97005.500
        67   07 Jun 2027 09:13:45.322   07 Jun 2027 09:15:12.961            87.639         43819.500
        68   07 Jun 2027 09:16:04.962   07 Jun 2027 09:19:58.467           233.505        116752.500
        69   07 Jun 2027 09:20:18.351   07 Jun 2027 09:21:17.515            59.164         29582.000
        70   08 Jun 2027 03:00:42.077   08 Jun 2027 03:01:54.364            72.287         36143.500
        71   08 Jun 2027 03:02:24.665   08 Jun 2027 03:07:14.550           289.885        144942.500
        72   08 Jun 2027 04:37:26.113   08 Jun 2027 04:44:54.833           448.720        224360.000
        73   08 Jun 2027 06:14:28.993   08 Jun 2027 06:20:19.799           350.806        175403.000
        74   08 Jun 2027 06:20:23.064   08 Jun 2027 06:20:38.600            15.536          7768.000
        75   08 Jun 2027 07:52:28.281   08 Jun 2027 07:56:22.674           234.393        117196.500
        76   08 Jun 2027 09:25:36.966   08 Jun 2027 09:31:58.187           381.221        190610.500
        77   08 Jun 2027 09:32:14.895   08 Jun 2027 09:33:14.555            59.660         29830.000
        78   09 Jun 2027 03:12:02.295   09 Jun 2027 03:14:08.408           126.113         63056.500
        79   09 Jun 2027 03:14:12.588   09 Jun 2027 03:19:33.723           321.135        160567.500
        80   09 Jun 2027 03:20:10.572   09 Jun 2027 03:20:34.357            23.785         11892.500
        81   09 Jun 2027 04:49:36.745   09 Jun 2027 04:56:58.361           441.616        220808.000
        82   09 Jun 2027 06:26:19.990   09 Jun 2027 06:32:32.877           372.887        186443.500
        83   09 Jun 2027 06:32:37.150   09 Jun 2027 06:32:58.095            20.945         10472.500
        84   09 Jun 2027 08:04:25.338   09 Jun 2027 08:08:32.399           247.061        123530.500
        85   09 Jun 2027 09:38:24.645   09 Jun 2027 09:44:59.898           395.253        197626.500
        86   10 Jun 2027 03:23:32.626   10 Jun 2027 03:31:41.934           489.308        244654.000
        87   10 Jun 2027 03:32:15.385   10 Jun 2027 03:33:01.135            45.750         22875.000
        88   10 Jun 2027 05:01:31.081   10 Jun 2027 05:08:59.772           448.691        224345.500
        89   10 Jun 2027 06:38:39.487   10 Jun 2027 06:43:45.871           306.384        153192.000
        90   10 Jun 2027 06:44:54.403   10 Jun 2027 06:44:56.486             2.083          1041.500
        91   10 Jun 2027 08:16:19.210   10 Jun 2027 08:20:30.865           251.655        125827.500
        92   10 Jun 2027 09:50:26.159   10 Jun 2027 09:51:37.174            71.015         35507.500
        93   10 Jun 2027 09:52:08.911   10 Jun 2027 09:55:42.596           213.685        106842.500
        94   11 Jun 2027 03:36:26.675   11 Jun 2027 03:43:56.971           450.296        225148.000
        95   11 Jun 2027 03:44:01.117   11 Jun 2027 03:45:01.387            60.270         30135.000
        96   11 Jun 2027 05:13:52.483   11 Jun 2027 05:20:46.954           414.471        207235.500
        97   11 Jun 2027 06:51:02.913   11 Jun 2027 06:55:24.979           262.066        131033.000
        98   11 Jun 2027 06:56:00.239   11 Jun 2027 06:56:45.977            45.738         22869.000
        99   11 Jun 2027 08:28:07.948   11 Jun 2027 08:32:28.885           260.937        130468.500
       100   11 Jun 2027 10:03:00.844   11 Jun 2027 10:03:04.297             3.453          1726.500
       101   11 Jun 2027 10:04:39.195   11 Jun 2027 10:07:28.072           168.877         84438.500
       102   12 Jun 2027 03:49:02.929   12 Jun 2027 03:55:55.311           412.382        206191.000
       103   12 Jun 2027 03:55:57.754   12 Jun 2027 03:56:58.201            60.447         30223.500
       104   12 Jun 2027 05:26:04.822   12 Jun 2027 05:32:48.268           403.446        201723.000
       105   12 Jun 2027 07:03:22.926   12 Jun 2027 07:08:02.921           279.995        139997.500
       106   12 Jun 2027 08:39:59.693   12 Jun 2027 08:44:55.255           295.562        147781.000
       107   12 Jun 2027 10:18:37.159   12 Jun 2027 10:18:57.232            20.073         10036.500
       108   13 Jun 2027 04:02:13.947   13 Jun 2027 04:08:59.826           405.879        202939.500
       109   13 Jun 2027 05:38:35.896   13 Jun 2027 05:44:54.788           378.892        189446.000
       110   13 Jun 2027 07:16:09.491   13 Jun 2027 07:20:31.838           262.347        131173.500
       111   13 Jun 2027 08:52:10.579   13 Jun 2027 08:56:24.084           253.505        126752.500
