uniorb/output/strategy_4/Camera/Camera_KinoSat_111003.txt

KinoSat_111003
-------------------------
    Access    *     Start Time (UTCG)     *     Stop Time (UTCG)  *   Duration (s) *   Data (Mbytes)
         1   01 Jun 2027 03:46:17.055   01 Jun 2027 03:47:44.407            87.352         43676.000
         2   01 Jun 2027 03:47:58.744   01 Jun 2027 03:48:11.890            13.146          6573.000
         3   01 Jun 2027 03:48:20.640   01 Jun 2027 03:48:22.821             2.181          1090.500
         4   01 Jun 2027 03:48:36.093   01 Jun 2027 03:48:42.095             6.002          3001.000
         5   01 Jun 2027 05:22:38.690   01 Jun 2027 05:24:39.625           120.935         60467.500
         6   01 Jun 2027 05:24:59.593   01 Jun 2027 05:24:59.593             0.000             0.000
         7   01 Jun 2027 05:25:03.559   01 Jun 2027 05:25:04.813             1.254           627.000
         8   01 Jun 2027 05:25:32.079   01 Jun 2027 05:25:39.051             6.972          3486.000
         9   01 Jun 2027 06:56:08.220   01 Jun 2027 06:58:09.054           120.834         60417.000
        10   01 Jun 2027 06:58:38.138   01 Jun 2027 06:58:47.529             9.391          4695.500
        11   01 Jun 2027 07:01:50.051   01 Jun 2027 07:01:54.020             3.969          1984.500
        12   01 Jun 2027 07:02:46.881   01 Jun 2027 07:02:57.300            10.419          5209.500
        13   01 Jun 2027 07:04:37.057   01 Jun 2027 07:04:37.219             0.162            81.000
        14   01 Jun 2027 08:33:39.548   01 Jun 2027 08:36:07.910           148.362         74181.000
        15   01 Jun 2027 10:10:35.075   01 Jun 2027 10:13:19.678           164.603         82301.500
        16   01 Jun 2027 10:14:03.299   01 Jun 2027 10:14:07.825             4.526          2263.000
        17   01 Jun 2027 10:15:08.609   01 Jun 2027 10:15:13.178             4.569          2284.500
        18   01 Jun 2027 10:15:59.590   01 Jun 2027 10:16:01.604             2.014          1007.000
        19   01 Jun 2027 11:47:25.543   01 Jun 2027 11:49:21.555           116.012         58006.000
        20   01 Jun 2027 11:50:57.428   01 Jun 2027 11:50:58.056             0.628           314.000
        21   01 Jun 2027 11:51:27.773   01 Jun 2027 11:51:33.689             5.916          2958.000
        22   02 Jun 2027 03:58:08.080   02 Jun 2027 03:58:47.912            39.832         19916.000
        23   02 Jun 2027 04:00:18.169   02 Jun 2027 04:00:26.161             7.992          3996.000
        24   02 Jun 2027 05:34:40.247   02 Jun 2027 05:37:32.973           172.726         86363.000
        25   02 Jun 2027 07:09:08.499   02 Jun 2027 07:12:08.478           179.979         89989.500
        26   02 Jun 2027 07:12:30.714   02 Jun 2027 07:12:51.284            20.570         10285.000
        27   02 Jun 2027 07:14:58.039   02 Jun 2027 07:15:13.524            15.485          7742.500
        28   02 Jun 2027 07:16:08.735   02 Jun 2027 07:16:22.370            13.635          6817.500
        29   02 Jun 2027 07:16:32.222   02 Jun 2027 07:16:34.180             1.958           979.000
        30   02 Jun 2027 08:45:47.204   02 Jun 2027 08:49:57.076           249.872        124608.937
        31   02 Jun 2027 08:50:49.174   02 Jun 2027 08:50:52.628             3.454          1514.406
        32   02 Jun 2027 10:23:28.087   02 Jun 2027 10:24:05.318            37.231         18574.125
        33   02 Jun 2027 10:24:56.086   02 Jun 2027 10:25:00.211             4.125          1061.938
        34   02 Jun 2027 10:25:33.709   02 Jun 2027 10:25:36.034             2.325           213.313
        35   02 Jun 2027 10:26:05.861   02 Jun 2027 10:26:08.652             2.791           508.969
        36   02 Jun 2027 10:26:41.925   02 Jun 2027 10:26:43.782             1.857           786.094
        37   02 Jun 2027 10:27:34.301   02 Jun 2027 10:27:42.078             7.777          1053.969
        38   02 Jun 2027 10:27:46.628   02 Jun 2027 10:27:47.399             0.771           142.187
        39   02 Jun 2027 11:59:28.088   02 Jun 2027 11:59:41.583            13.495          6652.281
        40   03 Jun 2027 04:10:18.226   03 Jun 2027 04:11:06.657            48.431         24215.500
        41   03 Jun 2027 04:12:58.691   03 Jun 2027 04:12:58.691             0.000             0.000
        42   03 Jun 2027 04:13:16.441   03 Jun 2027 04:13:24.436             7.995          3997.500
        43   03 Jun 2027 05:46:49.616   03 Jun 2027 05:49:07.131           137.515         68757.500
        44   03 Jun 2027 07:21:58.883   03 Jun 2027 07:24:15.972           137.089         66310.938
        45   03 Jun 2027 07:24:55.011   03 Jun 2027 07:25:00.101             5.090           205.125
        46   03 Jun 2027 07:25:24.658   03 Jun 2027 07:25:25.144             0.486           133.031
        47   03 Jun 2027 07:27:17.264   03 Jun 2027 07:27:28.408            11.144          2833.656
        48   03 Jun 2027 07:28:12.962   03 Jun 2027 07:28:13.469             0.507           202.906
        49   03 Jun 2027 07:28:25.725   03 Jun 2027 07:28:30.110             4.385           325.750
        50   03 Jun 2027 08:58:22.089   03 Jun 2027 08:58:34.084            11.995          5736.687
        51   03 Jun 2027 09:03:26.960   03 Jun 2027 09:03:32.593             5.633          2423.469
        52   03 Jun 2027 09:04:21.630   03 Jun 2027 09:04:33.185            11.555          1525.969
        53   03 Jun 2027 10:35:36.367   03 Jun 2027 10:35:52.657            16.290          6037.906
        54   03 Jun 2027 10:37:22.497   03 Jun 2027 10:37:30.428             7.931           319.656
        55   03 Jun 2027 10:38:12.942   03 Jun 2027 10:38:16.582             3.640            85.875
        56   03 Jun 2027 10:38:47.004   03 Jun 2027 10:38:47.282             0.278            86.812
        57   03 Jun 2027 10:39:10.710   03 Jun 2027 10:39:10.835             0.125             4.687
        58   03 Jun 2027 10:40:08.128   03 Jun 2027 10:40:10.251             2.123           675.437
        59   03 Jun 2027 10:40:13.004   03 Jun 2027 10:40:14.049             1.045            46.656
        60   04 Jun 2027 03:00:55.650   04 Jun 2027 03:01:30.914            35.264         17632.000
        61   04 Jun 2027 04:22:56.891   04 Jun 2027 04:23:29.799            32.908         16454.000
        62   04 Jun 2027 04:25:06.770   04 Jun 2027 04:25:30.320            23.550         11775.000
        63   04 Jun 2027 05:58:43.093   04 Jun 2027 06:00:59.536           136.443         68221.500
        64   04 Jun 2027 06:01:31.864   04 Jun 2027 06:02:01.504            29.640         14820.000
        65   04 Jun 2027 06:02:10.396   04 Jun 2027 06:02:41.919            31.523         15761.500
        66   04 Jun 2027 07:33:40.832   04 Jun 2027 07:34:01.516            20.684          9162.937
        67   04 Jun 2027 07:35:15.958   04 Jun 2027 07:35:20.937             4.979          1985.656
        68   04 Jun 2027 07:35:28.976   04 Jun 2027 07:35:31.107             2.131           114.719
        69   04 Jun 2027 07:37:16.550   04 Jun 2027 07:37:20.357             3.807          1162.156
        70   04 Jun 2027 07:37:48.505   04 Jun 2027 07:37:52.378             3.873           806.844
        71   04 Jun 2027 07:39:14.184   04 Jun 2027 07:39:18.106             3.922          1934.844
        72   04 Jun 2027 07:39:38.023   04 Jun 2027 07:39:39.977             1.954           579.406
        73   04 Jun 2027 07:40:05.775   04 Jun 2027 07:40:07.176             1.401           631.469
        74   04 Jun 2027 07:40:23.995   04 Jun 2027 07:40:25.340             1.345           525.594
        75   04 Jun 2027 09:09:53.765   04 Jun 2027 09:10:08.871            15.106          5973.125
        76   04 Jun 2027 09:13:40.674   04 Jun 2027 09:13:45.421             4.747           424.906
        77   04 Jun 2027 09:15:08.561   04 Jun 2027 09:15:12.595             4.034           786.594
        78   04 Jun 2027 10:48:14.137   04 Jun 2027 10:48:33.430            19.293          7972.344
        79   04 Jun 2027 10:50:19.334   04 Jun 2027 10:50:24.471             5.137            28.750
        80   04 Jun 2027 10:51:08.651   04 Jun 2027 10:51:09.752             1.101           488.844
        81   04 Jun 2027 10:51:44.634   04 Jun 2027 10:51:49.008             4.374           638.031
        82   05 Jun 2027 03:00:00.000   05 Jun 2027 03:00:21.028            21.028         10514.000
        83   05 Jun 2027 03:10:48.646   05 Jun 2027 03:12:01.478            72.832         36416.000
        84   05 Jun 2027 03:14:02.270   05 Jun 2027 03:14:07.878             5.608          2804.000
        85   05 Jun 2027 04:33:45.628   05 Jun 2027 04:34:10.449            24.821         12410.500
        86   05 Jun 2027 04:34:11.765   05 Jun 2027 04:34:58.815            47.050         23525.000
        87   05 Jun 2027 04:36:09.531   05 Jun 2027 04:36:10.608             1.077           538.500
        88   05 Jun 2027 04:37:32.075   05 Jun 2027 04:37:48.197            16.122          8061.000
        89   05 Jun 2027 06:09:05.349   05 Jun 2027 06:09:30.250            24.901         12450.500
        90   05 Jun 2027 06:10:28.294   05 Jun 2027 06:12:13.368           105.074         52114.563
        91   05 Jun 2027 06:13:09.468   05 Jun 2027 06:13:13.110             3.642          1365.438
        92   05 Jun 2027 07:45:13.807   05 Jun 2027 07:45:24.427            10.620          3309.406
        93   05 Jun 2027 07:47:16.454   05 Jun 2027 07:47:22.520             6.066          2215.719
        94   05 Jun 2027 07:49:24.708   05 Jun 2027 07:49:28.985             4.277          1428.438
        95   05 Jun 2027 07:49:52.955   05 Jun 2027 07:49:53.332             0.377           184.438
        96   05 Jun 2027 07:50:06.140   05 Jun 2027 07:50:13.384             7.244           212.781
        97   05 Jun 2027 07:50:56.860   05 Jun 2027 07:50:58.373             1.513           571.688
        98   05 Jun 2027 07:52:33.356   05 Jun 2027 07:52:41.399             8.043          2317.687
        99   05 Jun 2027 09:22:15.767   05 Jun 2027 09:22:28.315            12.548          4927.500
       100   05 Jun 2027 09:25:53.643   05 Jun 2027 09:25:56.589             2.946            67.656
       101   05 Jun 2027 09:26:27.953   05 Jun 2027 09:26:34.511             6.558           328.687
       102   05 Jun 2027 09:26:47.626   05 Jun 2027 09:26:47.856             0.230             7.844
       103   05 Jun 2027 09:27:19.591   05 Jun 2027 09:27:25.625             6.034           687.437
       104   05 Jun 2027 11:00:15.586   05 Jun 2027 11:00:29.183            13.597          5970.781
       105   05 Jun 2027 11:02:18.169   05 Jun 2027 11:02:23.596             5.427          2371.375
       106   05 Jun 2027 11:02:46.289   05 Jun 2027 11:02:46.478             0.189            88.563
       107   05 Jun 2027 11:03:11.869   05 Jun 2027 11:03:14.108             2.239           793.469
       108   05 Jun 2027 11:03:43.190   05 Jun 2027 11:03:44.658             1.468            58.344
       109   05 Jun 2027 11:04:05.910   05 Jun 2027 11:04:08.301             2.391           484.687
       110   06 Jun 2027 03:11:07.826   06 Jun 2027 03:11:15.410             7.584          3792.000
       111   06 Jun 2027 03:12:20.593   06 Jun 2027 03:12:38.440            17.847          8923.500
       112   06 Jun 2027 03:22:50.144   06 Jun 2027 03:24:10.121            79.977         39988.500
       113   06 Jun 2027 04:45:03.151   06 Jun 2027 04:46:16.130            72.979         36489.500
       114   06 Jun 2027 04:47:05.212   06 Jun 2027 04:47:44.819            39.607         19803.500
       115   06 Jun 2027 06:20:09.999   06 Jun 2027 06:21:39.250            89.251         44625.500
       116   06 Jun 2027 06:22:33.630   06 Jun 2027 06:22:37.091             3.461          1250.781
       117   06 Jun 2027 06:23:16.939   06 Jun 2027 06:23:20.651             3.712          1245.250
       118   06 Jun 2027 06:23:23.482   06 Jun 2027 06:23:25.076             1.594            49.656
       119   06 Jun 2027 06:23:58.870   06 Jun 2027 06:23:58.870             0.000             0.000
       120   06 Jun 2027 06:24:32.242   06 Jun 2027 06:24:35.652             3.410          1616.187
       121   06 Jun 2027 06:25:15.335   06 Jun 2027 06:25:17.586             2.251           184.563
       122   06 Jun 2027 06:26:21.884   06 Jun 2027 06:26:27.033             5.149          1825.312
       123   06 Jun 2027 06:26:37.296   06 Jun 2027 06:26:38.666             1.370           277.375
       124   06 Jun 2027 06:27:04.534   06 Jun 2027 06:27:08.944             4.410           677.156
       125   06 Jun 2027 06:28:18.501   06 Jun 2027 06:28:21.629             3.128          1564.000
       126   06 Jun 2027 07:57:24.317   06 Jun 2027 07:57:29.529             5.212           219.750
       127   06 Jun 2027 07:59:16.424   06 Jun 2027 07:59:25.180             8.756          2178.844
       128   06 Jun 2027 08:00:34.230   06 Jun 2027 08:00:35.355             1.125            79.063
       129   06 Jun 2027 08:01:26.445   06 Jun 2027 08:01:32.179             5.734          1361.687
       130   06 Jun 2027 08:02:06.974   06 Jun 2027 08:02:14.213             7.239           547.750
       131   06 Jun 2027 08:03:19.378   06 Jun 2027 08:03:26.070             6.692          1933.281
       132   06 Jun 2027 08:03:27.020   06 Jun 2027 08:03:27.675             0.655            29.687
       133   06 Jun 2027 08:04:48.926   06 Jun 2027 08:04:49.370             0.444           222.000
       134   06 Jun 2027 09:34:19.608   06 Jun 2027 09:34:35.452            15.844          6093.875
       135   06 Jun 2027 09:37:53.474   06 Jun 2027 09:37:58.164             4.690          1948.031
       136   06 Jun 2027 09:38:10.546   06 Jun 2027 09:38:10.681             0.135            24.375
       137   06 Jun 2027 09:38:50.586   06 Jun 2027 09:38:53.571             2.985           646.688
       138   06 Jun 2027 09:39:21.351   06 Jun 2027 09:39:40.732            19.381           627.937
       139   06 Jun 2027 11:12:14.807   06 Jun 2027 11:12:29.406            14.599          6809.875
       140   06 Jun 2027 11:13:24.130   06 Jun 2027 11:13:30.132             6.002           707.719
       141   06 Jun 2027 11:14:30.361   06 Jun 2027 11:14:37.468             7.107           414.656
       142   06 Jun 2027 11:15:34.225   06 Jun 2027 11:15:39.795             5.570          1773.656
       143   06 Jun 2027 11:16:02.338   06 Jun 2027 11:16:06.928             4.590           219.312
       144   07 Jun 2027 03:22:36.221   07 Jun 2027 03:23:15.704            39.483         19741.500
       145   07 Jun 2027 03:34:46.895   07 Jun 2027 03:35:25.994            39.099         19549.500
       146   07 Jun 2027 04:56:48.699   07 Jun 2027 04:58:09.439            80.740         40370.000
       147   07 Jun 2027 04:58:51.445   07 Jun 2027 05:00:09.481            78.036         39018.000
       148   07 Jun 2027 05:01:05.824   07 Jun 2027 05:01:05.824             0.000             0.000
       149   07 Jun 2027 05:01:33.745   07 Jun 2027 05:01:39.071             5.326          2663.000
       150   07 Jun 2027 06:31:39.395   07 Jun 2027 06:32:51.263            71.868         35791.343
       151   07 Jun 2027 06:33:00.482   07 Jun 2027 06:33:02.372             1.890           288.094
       152   07 Jun 2027 06:33:42.290   07 Jun 2027 06:33:42.290             0.000             0.000
       153   07 Jun 2027 06:34:10.154   07 Jun 2027 06:34:13.926             3.772          1497.437
       154   07 Jun 2027 06:35:40.899   07 Jun 2027 06:35:45.602             4.703          1868.781
       155   07 Jun 2027 06:37:10.148   07 Jun 2027 06:37:10.148             0.000             0.000
       156   07 Jun 2027 06:37:26.522   07 Jun 2027 06:37:32.958             6.436          2980.844
       157   07 Jun 2027 06:38:42.073   07 Jun 2027 06:38:45.633             3.560          1658.000
       158   07 Jun 2027 06:39:21.503   07 Jun 2027 06:39:26.577             5.074          1051.594
       159   07 Jun 2027 08:09:25.590   07 Jun 2027 08:09:31.285             5.695          2345.094
       160   07 Jun 2027 08:11:15.780   07 Jun 2027 08:11:28.291            12.511          2044.219
       161   07 Jun 2027 08:12:18.501   07 Jun 2027 08:12:21.942             3.441          1365.656
       162   07 Jun 2027 08:14:55.405   07 Jun 2027 08:14:57.634             2.229           663.719
       163   07 Jun 2027 08:15:26.128   07 Jun 2027 08:15:28.131             2.003           890.438
       164   07 Jun 2027 08:16:18.502   07 Jun 2027 08:16:22.783             4.281           921.281
       165   07 Jun 2027 08:16:28.606   07 Jun 2027 08:16:29.149             0.543           181.969
       166   07 Jun 2027 09:46:11.231   07 Jun 2027 09:46:28.120            16.889          7622.062
       167   07 Jun 2027 09:47:35.971   07 Jun 2027 09:47:44.015             8.044           712.562
       168   07 Jun 2027 09:49:52.236   07 Jun 2027 09:49:56.067             3.831          1577.687
       169   07 Jun 2027 09:50:24.451   07 Jun 2027 09:50:25.185             0.734           286.219
       170   07 Jun 2027 09:50:31.756   07 Jun 2027 09:50:32.596             0.840            87.250
       171   07 Jun 2027 09:50:56.941   07 Jun 2027 09:50:57.824             0.883           261.875
       172   07 Jun 2027 09:51:03.912   07 Jun 2027 09:51:04.295             0.383           125.688
       173   07 Jun 2027 09:51:26.410   07 Jun 2027 09:51:29.982             3.572           552.125
       174   07 Jun 2027 09:52:13.988   07 Jun 2027 09:52:19.513             5.525          1093.594
       175   07 Jun 2027 11:24:16.249   07 Jun 2027 11:24:31.678            15.429          5835.281
       176   07 Jun 2027 11:24:51.220   07 Jun 2027 11:24:53.088             1.868           481.969
       177   07 Jun 2027 11:26:15.057   07 Jun 2027 11:26:20.642             5.585          2234.000
       178   07 Jun 2027 11:28:21.115   07 Jun 2027 11:28:24.816             3.701          1608.188
       179   08 Jun 2027 03:34:38.083   08 Jun 2027 03:34:43.393             5.310          2655.000
       180   08 Jun 2027 03:35:35.306   08 Jun 2027 03:35:49.115            13.809          6904.500
       181   08 Jun 2027 05:10:35.673   08 Jun 2027 05:14:09.684           214.011        107005.500
       182   08 Jun 2027 06:44:25.193   08 Jun 2027 06:45:48.433            83.240         41569.906
       183   08 Jun 2027 06:46:22.674   08 Jun 2027 06:46:27.080             4.406           391.094
       184   08 Jun 2027 06:47:40.857   08 Jun 2027 06:47:44.307             3.450          1565.313
       185   08 Jun 2027 06:49:09.682   08 Jun 2027 06:49:17.717             8.035          2402.281
       186   08 Jun 2027 06:50:00.435   08 Jun 2027 06:50:06.963             6.528           967.406
       187   08 Jun 2027 06:50:45.638   08 Jun 2027 06:50:52.401             6.763          1067.281
       188   08 Jun 2027 06:51:12.202   08 Jun 2027 06:51:13.963             1.761           385.250
       189   08 Jun 2027 06:51:55.136   08 Jun 2027 06:52:04.386             9.250          1067.031
       190   08 Jun 2027 08:21:28.989   08 Jun 2027 08:21:30.893             1.904           574.719
       191   08 Jun 2027 08:23:14.408   08 Jun 2027 08:23:18.299             3.891          1800.406
       192   08 Jun 2027 08:26:03.454   08 Jun 2027 08:26:06.846             3.392          1028.656
       193   08 Jun 2027 08:26:37.829   08 Jun 2027 08:26:40.248             2.419           946.344
       194   08 Jun 2027 08:27:22.043   08 Jun 2027 08:27:24.133             2.090           166.437
       195   08 Jun 2027 08:28:12.549   08 Jun 2027 08:28:15.522             2.973           219.906
       196   08 Jun 2027 09:58:24.032   08 Jun 2027 09:58:36.706            12.674          5798.094
       197   08 Jun 2027 09:59:17.234   08 Jun 2027 09:59:19.025             1.791           375.906
       198   08 Jun 2027 10:01:22.877   08 Jun 2027 10:01:28.763             5.886           644.062
       199   08 Jun 2027 10:02:36.237   08 Jun 2027 10:02:38.282             2.045          1014.000
       200   08 Jun 2027 10:03:03.062   08 Jun 2027 10:03:04.971             1.909           510.344
       201   08 Jun 2027 10:03:18.739   08 Jun 2027 10:03:19.904             1.165           430.250
       202   08 Jun 2027 10:03:25.154   08 Jun 2027 10:03:25.537             0.383           126.812
       203   08 Jun 2027 10:04:23.727   08 Jun 2027 10:04:27.945             4.218          1525.625
       204   08 Jun 2027 11:35:29.770   08 Jun 2027 11:35:46.278            16.508          5387.156
       205   08 Jun 2027 11:40:03.173   08 Jun 2027 11:40:09.206             6.033          2364.969
       206   08 Jun 2027 11:40:22.195   08 Jun 2027 11:40:22.426             0.231           115.500
       207   09 Jun 2027 03:46:32.074   09 Jun 2027 03:46:52.604            20.530         10265.000
       208   09 Jun 2027 03:47:55.453   09 Jun 2027 03:47:59.424             3.971          1985.500
       209   09 Jun 2027 05:22:54.481   09 Jun 2027 05:25:48.504           174.023         87011.500
       210   09 Jun 2027 05:26:03.018   09 Jun 2027 05:26:21.487            18.469          9234.500
       211   09 Jun 2027 06:56:23.317   09 Jun 2027 06:58:08.169           104.852         50761.500
       212   09 Jun 2027 06:58:40.895   09 Jun 2027 06:58:42.551             1.656            83.656
       213   09 Jun 2027 06:58:43.910   09 Jun 2027 06:58:44.608             0.698            42.469
       214   09 Jun 2027 06:59:28.396   09 Jun 2027 06:59:30.191             1.795           813.938
       215   09 Jun 2027 07:00:47.423   09 Jun 2027 07:00:47.423             0.000             0.000
       216   09 Jun 2027 07:01:52.867   09 Jun 2027 07:02:04.328            11.461          4458.625
       217   09 Jun 2027 07:02:16.344   09 Jun 2027 07:02:17.093             0.749           311.250
       218   09 Jun 2027 07:03:13.322   09 Jun 2027 07:03:17.613             4.291          1322.813
       219   09 Jun 2027 07:03:44.591   09 Jun 2027 07:03:49.542             4.951           843.063
       220   09 Jun 2027 07:04:37.686   09 Jun 2027 07:04:42.759             5.073          1500.469
       221   09 Jun 2027 08:33:55.375   09 Jun 2027 08:34:00.436             5.061          2028.906
       222   09 Jun 2027 08:39:04.898   09 Jun 2027 08:39:09.252             4.354           684.937
       223   09 Jun 2027 08:39:59.175   09 Jun 2027 08:40:02.719             3.544          1424.969
       224   09 Jun 2027 10:10:50.311   09 Jun 2027 10:11:01.793            11.482          5419.750
       225   09 Jun 2027 10:13:59.134   09 Jun 2027 10:14:04.995             5.861           153.438
       226   09 Jun 2027 10:14:36.535   09 Jun 2027 10:14:42.664             6.129           985.625
       227   09 Jun 2027 10:14:57.666   09 Jun 2027 10:15:04.096             6.430           404.531
       228   09 Jun 2027 10:16:00.261   09 Jun 2027 10:16:03.975             3.714          1302.000
       229   09 Jun 2027 10:16:16.637   09 Jun 2027 10:16:21.787             5.150           268.906
       230   09 Jun 2027 10:16:32.231   09 Jun 2027 10:16:33.246             1.015           326.375
       231   09 Jun 2027 11:47:41.045   09 Jun 2027 11:47:54.349            13.304          6464.969
       232   09 Jun 2027 11:49:34.517   09 Jun 2027 11:49:37.391             2.874           340.594
       233   09 Jun 2027 11:50:43.061   09 Jun 2027 11:50:46.593             3.532          1115.844
       234   09 Jun 2027 11:51:13.892   09 Jun 2027 11:51:16.500             2.608           853.094
       235   09 Jun 2027 11:52:08.688   09 Jun 2027 11:52:09.120             0.432            78.062
       236   10 Jun 2027 03:58:22.347   10 Jun 2027 03:58:31.587             9.240          4620.000
       237   10 Jun 2027 03:59:28.011   10 Jun 2027 03:59:34.605             6.594          3297.000
       238   10 Jun 2027 03:59:40.367   10 Jun 2027 03:59:41.347             0.980           490.000
       239   10 Jun 2027 05:34:56.342   10 Jun 2027 05:37:47.618           171.276         85638.000
       240   10 Jun 2027 07:09:25.493   10 Jun 2027 07:11:30.043           124.550         62275.000
       241   10 Jun 2027 07:11:36.624   10 Jun 2027 07:11:39.097             2.473          1178.812
       242   10 Jun 2027 07:13:06.631   10 Jun 2027 07:13:14.168             7.537          1963.250
       243   10 Jun 2027 07:13:34.969   10 Jun 2027 07:13:38.356             3.387           290.344
       244   10 Jun 2027 07:14:31.298   10 Jun 2027 07:14:34.274             2.976          1176.531
       245   10 Jun 2027 07:16:38.749   10 Jun 2027 07:16:44.893             6.144          2647.250
       246   10 Jun 2027 07:16:47.253   10 Jun 2027 07:16:48.287             1.034            73.750
       247   10 Jun 2027 08:46:02.567   10 Jun 2027 08:46:13.720            11.153          3674.125
       248   10 Jun 2027 08:51:04.394   10 Jun 2027 08:51:08.917             4.523          1318.531
       249   10 Jun 2027 08:51:15.918   10 Jun 2027 08:51:20.860             4.942           217.625
       250   10 Jun 2027 08:52:15.281   10 Jun 2027 08:52:18.497             3.216           834.375
       251   10 Jun 2027 10:23:44.543   10 Jun 2027 10:23:57.504            12.961          5785.969
       252   10 Jun 2027 10:26:03.817   10 Jun 2027 10:26:04.483             0.666            15.844
       253   10 Jun 2027 10:26:25.431   10 Jun 2027 10:26:26.754             1.323           581.406
       254   10 Jun 2027 10:26:57.223   10 Jun 2027 10:27:01.988             4.765           780.281
       255   10 Jun 2027 10:27:52.891   10 Jun 2027 10:28:01.676             8.785          1152.719
       256   10 Jun 2027 10:28:02.205   10 Jun 2027 10:28:03.025             0.820            16.531
       257   10 Jun 2027 11:59:43.364   10 Jun 2027 12:00:00.000            16.636          8065.250
       258   11 Jun 2027 04:10:33.331   11 Jun 2027 04:11:23.115            49.784         24892.000
       259   11 Jun 2027 05:47:05.011   11 Jun 2027 05:49:22.617           137.606         68803.000
       260   11 Jun 2027 07:22:14.127   11 Jun 2027 07:24:31.146           137.019         64996.031
       261   11 Jun 2027 07:25:11.345   11 Jun 2027 07:25:15.148             3.803           237.187
       262   11 Jun 2027 07:25:38.733   11 Jun 2027 07:25:39.954             1.221            40.219
       263   11 Jun 2027 07:27:14.276   11 Jun 2027 07:27:18.926             4.650          2220.844
       264   11 Jun 2027 07:28:22.328   11 Jun 2027 07:28:25.580             3.252          1479.812
       265   11 Jun 2027 07:28:29.507   11 Jun 2027 07:28:31.708             2.201           122.719
       266   11 Jun 2027 07:28:40.704   11 Jun 2027 07:28:41.918             1.214           281.125
       267   11 Jun 2027 08:58:37.793   11 Jun 2027 08:58:46.122             8.329          3751.094
       268   11 Jun 2027 09:01:16.534   11 Jun 2027 09:01:19.596             3.062           186.344
       269   11 Jun 2027 09:01:46.778   11 Jun 2027 09:01:49.842             3.064           617.906
       270   11 Jun 2027 09:02:42.948   11 Jun 2027 09:02:50.623             7.675           928.812
       271   11 Jun 2027 09:03:02.562   11 Jun 2027 09:03:04.104             1.542           240.531
       272   11 Jun 2027 09:03:52.093   11 Jun 2027 09:03:56.007             3.914          1439.406
       273   11 Jun 2027 09:04:22.268   11 Jun 2027 09:04:22.586             0.318            63.625
       274   11 Jun 2027 09:04:39.999   11 Jun 2027 09:04:49.655             9.656            75.187
       275   11 Jun 2027 10:35:51.589   11 Jun 2027 10:36:04.494            12.905          6393.594
       276   11 Jun 2027 10:37:27.895   11 Jun 2027 10:37:37.711             9.816           100.031
       277   11 Jun 2027 10:38:30.298   11 Jun 2027 10:38:35.152             4.854          1643.344
       278   11 Jun 2027 10:39:08.540   11 Jun 2027 10:39:09.045             0.505           179.688
       279   11 Jun 2027 10:39:26.228   11 Jun 2027 10:39:26.818             0.590             8.656
       280   11 Jun 2027 10:40:26.195   11 Jun 2027 10:40:29.135             2.940           665.094
       281   11 Jun 2027 10:40:29.529   11 Jun 2027 10:40:30.257             0.728            12.313
       282   12 Jun 2027 03:00:15.212   12 Jun 2027 03:00:24.639             9.427          4713.500
       283   12 Jun 2027 03:00:32.318   12 Jun 2027 03:00:45.961            13.643          6821.500
       284   12 Jun 2027 03:01:22.416   12 Jun 2027 03:01:46.598            24.182         12091.000
       285   12 Jun 2027 04:23:09.776   12 Jun 2027 04:23:21.566            11.790          5895.000
       286   12 Jun 2027 04:24:00.003   12 Jun 2027 04:24:02.214             2.211          1105.500
       287   12 Jun 2027 04:24:30.711   12 Jun 2027 04:25:22.293            51.582         25791.000
       288   12 Jun 2027 05:58:58.069   12 Jun 2027 06:01:46.483           168.414         84207.000
       289   12 Jun 2027 06:02:07.843   12 Jun 2027 06:02:11.923             4.080          2040.000
       290   12 Jun 2027 07:33:55.602   12 Jun 2027 07:34:38.282            42.680         19713.781
       291   12 Jun 2027 07:35:45.326   12 Jun 2027 07:35:46.708             1.382            63.250
       292   12 Jun 2027 07:37:39.706   12 Jun 2027 07:37:42.287             2.581          1249.938
       293   12 Jun 2027 07:39:13.957   12 Jun 2027 07:39:19.539             5.582          2146.219
       294   12 Jun 2027 07:39:53.846   12 Jun 2027 07:39:57.155             3.309           600.344
       295   12 Jun 2027 07:40:22.489   12 Jun 2027 07:40:26.820             4.331           652.687
       296   12 Jun 2027 07:40:55.021   12 Jun 2027 07:40:58.558             3.537           881.281
       297   12 Jun 2027 09:10:09.541   12 Jun 2027 09:10:24.234            14.693          5388.188
       298   12 Jun 2027 09:13:46.932   12 Jun 2027 09:13:50.280             3.348          1267.000
       299   12 Jun 2027 09:14:59.578   12 Jun 2027 09:15:02.612             3.034           175.406
       300   12 Jun 2027 09:15:36.613   12 Jun 2027 09:15:37.457             0.844           401.281
       301   12 Jun 2027 09:15:41.591   12 Jun 2027 09:15:46.195             4.604           129.187
       302   12 Jun 2027 09:16:23.248   12 Jun 2027 09:16:28.032             4.784           917.781
       303   12 Jun 2027 10:48:29.588   12 Jun 2027 10:48:42.711            13.123          5230.687
       304   12 Jun 2027 10:50:36.644   12 Jun 2027 10:50:39.931             3.287            87.344
       305   12 Jun 2027 10:52:00.131   12 Jun 2027 10:52:06.832             6.701           634.531
       306   13 Jun 2027 03:00:00.000   13 Jun 2027 03:00:09.699             9.699          4849.500
       307   13 Jun 2027 03:11:03.756   13 Jun 2027 03:12:16.462            72.706         36353.000
       308   13 Jun 2027 03:12:59.904   13 Jun 2027 03:12:59.904             0.000             0.000
       309   13 Jun 2027 03:13:40.510   13 Jun 2027 03:14:16.791            36.281         18140.500
       310   13 Jun 2027 04:34:00.470   13 Jun 2027 04:34:24.426            23.956         11978.000
       311   13 Jun 2027 04:34:41.251   13 Jun 2027 04:35:14.981            33.730         16865.000
       312   13 Jun 2027 06:09:20.277   13 Jun 2027 06:09:46.190            25.913         12956.500
       313   13 Jun 2027 06:10:42.858   13 Jun 2027 06:12:47.777           124.919         61917.437
       314   13 Jun 2027 06:12:58.887   13 Jun 2027 06:12:58.887             0.000             0.000
       315   13 Jun 2027 06:13:23.283   13 Jun 2027 06:13:24.925             1.642           821.000
       316   13 Jun 2027 06:13:37.457   13 Jun 2027 06:13:40.518             3.061           558.750
       317   13 Jun 2027 06:14:41.979   13 Jun 2027 06:14:46.568             4.589          1920.656
       318   13 Jun 2027 07:45:28.611   13 Jun 2027 07:45:34.340             5.729          2689.844
       319   13 Jun 2027 07:46:22.424   13 Jun 2027 07:46:31.131             8.707           547.063
       320   13 Jun 2027 07:49:41.711   13 Jun 2027 07:49:45.212             3.501          1484.594
       321   13 Jun 2027 07:51:12.982   13 Jun 2027 07:51:18.435             5.453          2163.625
       322   13 Jun 2027 07:52:48.272   13 Jun 2027 07:52:55.753             7.481          2319.875
       323   13 Jun 2027 09:22:31.140   13 Jun 2027 09:22:43.934            12.794          6305.156
       324   13 Jun 2027 09:26:09.242   13 Jun 2027 09:26:14.750             5.508          1947.063
       325   13 Jun 2027 09:26:42.541   13 Jun 2027 09:26:44.706             2.165           299.000
       326   13 Jun 2027 09:27:08.749   13 Jun 2027 09:27:10.183             1.434           163.281
       327   13 Jun 2027 09:27:31.841   13 Jun 2027 09:27:35.295             3.454           204.063
       328   13 Jun 2027 11:00:30.753   13 Jun 2027 11:00:43.904            13.151          5866.281
       329   13 Jun 2027 11:00:54.731   13 Jun 2027 11:01:06.487            11.756           261.094
       330   13 Jun 2027 11:01:18.164   13 Jun 2027 11:01:19.495             1.331            38.437
       331   13 Jun 2027 11:01:57.681   13 Jun 2027 11:02:01.773             4.092          1112.469
       332   13 Jun 2027 11:02:37.001   13 Jun 2027 11:02:40.133             3.132           755.531
       333   13 Jun 2027 11:03:57.036   13 Jun 2027 11:04:04.970             7.934          2332.750
       334   13 Jun 2027 11:04:24.074   13 Jun 2027 11:04:27.530             3.456           597.000
