uniorb/output/strategy_4/Camera/Camera_KinoSat_111509.txt

KinoSat_111509
-------------------------
    Access    *     Start Time (UTCG)     *     Stop Time (UTCG)  *   Duration (s) *   Data (Mbytes)
         1   01 Jun 2027 04:17:36.339   01 Jun 2027 04:19:51.911           135.572         67786.000
         2   01 Jun 2027 04:21:20.732   01 Jun 2027 04:21:32.252            11.520          5760.000
         3   01 Jun 2027 04:21:42.107   01 Jun 2027 04:21:43.728             1.621           810.500
         4   01 Jun 2027 04:23:09.819   01 Jun 2027 04:23:29.032            19.213          9606.500
         5   01 Jun 2027 05:41:40.023   01 Jun 2027 05:42:45.793            65.770         32885.000
         6   01 Jun 2027 05:43:02.277   01 Jun 2027 05:43:15.714            13.437          6718.500
         7   01 Jun 2027 07:17:37.194   01 Jun 2027 07:20:09.308           152.114         76057.000
         8   01 Jun 2027 08:51:26.986   01 Jun 2027 08:53:47.742           140.756         70378.000
         9   01 Jun 2027 08:54:23.479   01 Jun 2027 08:54:34.924            11.445          5722.500
        10   01 Jun 2027 10:28:30.188   01 Jun 2027 10:30:22.967           112.779         56389.500
        11   01 Jun 2027 10:33:56.325   01 Jun 2027 10:34:47.256            50.931         25465.500
        12   01 Jun 2027 10:35:23.307   01 Jun 2027 10:35:51.057            27.750         13875.000
        13   02 Jun 2027 04:30:10.283   02 Jun 2027 04:32:01.170           110.887         55443.500
        14   02 Jun 2027 04:33:01.803   02 Jun 2027 04:33:17.648            15.845          7922.500
        15   02 Jun 2027 04:33:56.877   02 Jun 2027 04:34:04.934             8.057          4028.500
        16   02 Jun 2027 05:53:34.566   02 Jun 2027 05:55:03.531            88.965         44482.500
        17   02 Jun 2027 07:29:55.044   02 Jun 2027 07:33:22.955           207.911        103955.500
        18   02 Jun 2027 09:03:25.239   02 Jun 2027 09:06:14.203           168.964         84482.000
        19   02 Jun 2027 09:09:04.409   02 Jun 2027 09:09:04.409             0.000             0.000
        20   02 Jun 2027 09:10:33.544   02 Jun 2027 09:11:20.815            47.271         23635.500
        21   02 Jun 2027 09:11:54.872   02 Jun 2027 09:11:56.382             1.510           755.000
        22   02 Jun 2027 10:40:56.334   02 Jun 2027 10:41:53.443            57.109         28325.250
        23   02 Jun 2027 10:43:14.845   02 Jun 2027 10:43:19.721             4.876          1487.813
        24   02 Jun 2027 10:44:23.419   02 Jun 2027 10:44:30.362             6.943          1759.969
        25   02 Jun 2027 10:45:03.030   02 Jun 2027 10:45:04.833             1.803            43.250
        26   02 Jun 2027 10:45:45.647   02 Jun 2027 10:45:48.698             3.051           581.187
        27   02 Jun 2027 10:46:02.553   02 Jun 2027 10:46:04.467             1.914           129.469
        28   02 Jun 2027 10:47:04.165   02 Jun 2027 10:47:10.237             6.072          1796.844
        29   02 Jun 2027 10:47:14.287   02 Jun 2027 10:47:14.849             0.562           111.000
        30   02 Jun 2027 10:47:32.020   02 Jun 2027 10:47:35.771             3.751           524.875
        31   03 Jun 2027 03:03:45.643   03 Jun 2027 03:04:10.017            24.374         12187.000
        32   03 Jun 2027 03:04:48.165   03 Jun 2027 03:05:07.086            18.921          9460.500
        33   03 Jun 2027 03:06:49.283   03 Jun 2027 03:07:06.422            17.139          8569.500
        34   03 Jun 2027 03:07:50.633   03 Jun 2027 03:08:00.145             9.512          4756.000
        35   03 Jun 2027 03:09:26.080   03 Jun 2027 03:09:28.547             2.467          1233.500
        36   03 Jun 2027 04:41:49.062   03 Jun 2027 04:42:12.941            23.879         11939.500
        37   03 Jun 2027 04:43:02.511   03 Jun 2027 04:44:58.016           115.505         57752.500
        38   03 Jun 2027 04:46:00.738   03 Jun 2027 04:46:07.056             6.318          3159.000
        39   03 Jun 2027 06:05:25.453   03 Jun 2027 06:06:48.176            82.723         41361.500
        40   03 Jun 2027 06:07:04.986   03 Jun 2027 06:07:05.800             0.814           407.000
        41   03 Jun 2027 06:07:46.283   03 Jun 2027 06:07:46.283             0.000             0.000
        42   03 Jun 2027 07:41:57.089   03 Jun 2027 07:42:30.247            33.158         15716.344
        43   03 Jun 2027 07:42:56.328   03 Jun 2027 07:42:57.889             1.561           698.687
        44   03 Jun 2027 07:43:56.821   03 Jun 2027 07:44:03.393             6.572          1725.156
        45   03 Jun 2027 07:44:32.527   03 Jun 2027 07:44:34.318             1.791           169.188
        46   03 Jun 2027 07:45:21.125   03 Jun 2027 07:45:21.125             0.000             0.000
        47   03 Jun 2027 09:16:24.656   03 Jun 2027 09:16:33.252             8.596          2768.844
        48   03 Jun 2027 09:17:46.222   03 Jun 2027 09:17:51.174             4.952          2099.250
        49   03 Jun 2027 09:18:12.640   03 Jun 2027 09:18:14.755             2.115           603.406
        50   03 Jun 2027 09:19:21.005   03 Jun 2027 09:19:23.993             2.988          1314.125
        51   03 Jun 2027 09:20:58.469   03 Jun 2027 09:21:06.925             8.456          2592.656
        52   03 Jun 2027 09:22:41.182   03 Jun 2027 09:22:48.676             7.494          1280.844
        53   03 Jun 2027 09:23:24.636   03 Jun 2027 09:23:26.734             2.098           961.156
        54   03 Jun 2027 09:23:47.062   03 Jun 2027 09:23:49.038             1.976           635.250
        55   03 Jun 2027 10:53:04.422   03 Jun 2027 10:53:15.433            11.011          3986.406
        56   03 Jun 2027 10:55:10.091   03 Jun 2027 10:55:12.722             2.631           148.469
        57   03 Jun 2027 10:56:23.344   03 Jun 2027 10:56:26.878             3.534          1205.813
        58   03 Jun 2027 10:57:42.479   03 Jun 2027 10:57:46.321             3.842          1864.281
        59   03 Jun 2027 10:57:52.890   03 Jun 2027 10:57:53.473             0.583           205.281
        60   03 Jun 2027 10:58:15.149   03 Jun 2027 10:58:17.154             2.005           608.344
        61   03 Jun 2027 10:59:05.923   03 Jun 2027 10:59:08.810             2.887           821.813
        62   03 Jun 2027 10:59:17.015   03 Jun 2027 10:59:19.593             2.578           194.500
        63   04 Jun 2027 03:15:54.001   04 Jun 2027 03:16:53.667            59.666         29833.000
        64   04 Jun 2027 03:17:03.242   04 Jun 2027 03:17:38.986            35.744         17872.000
        65   04 Jun 2027 03:18:21.360   04 Jun 2027 03:19:23.601            62.241         31120.500
        66   04 Jun 2027 03:19:35.694   04 Jun 2027 03:20:12.716            37.022         18511.000
        67   04 Jun 2027 03:20:29.997   04 Jun 2027 03:20:45.489            15.492          7746.000
        68   04 Jun 2027 03:21:23.656   04 Jun 2027 03:21:27.264             3.608          1804.000
        69   04 Jun 2027 04:54:13.055   04 Jun 2027 04:54:41.861            28.806         14403.000
        70   04 Jun 2027 04:55:01.596   04 Jun 2027 04:56:08.922            67.326         33208.594
        71   04 Jun 2027 04:57:42.775   04 Jun 2027 04:57:45.920             3.145          1364.188
        72   04 Jun 2027 06:17:35.633   04 Jun 2027 06:17:46.672            11.039          5434.250
        73   04 Jun 2027 06:18:49.013   04 Jun 2027 06:18:55.853             6.840          1762.594
        74   04 Jun 2027 06:19:17.851   04 Jun 2027 06:19:20.048             2.197           504.344
        75   04 Jun 2027 06:20:18.780   04 Jun 2027 06:20:19.997             1.217           608.500
        76   04 Jun 2027 07:54:06.812   04 Jun 2027 07:54:13.716             6.904          1814.719
        77   04 Jun 2027 07:55:28.252   04 Jun 2027 07:55:35.888             7.636          1542.625
        78   04 Jun 2027 07:55:43.709   04 Jun 2027 07:55:44.422             0.713           244.406
        79   04 Jun 2027 07:56:45.868   04 Jun 2027 07:56:52.060             6.192          1114.969
        80   04 Jun 2027 09:29:36.316   04 Jun 2027 09:29:44.601             8.285          3820.531
        81   04 Jun 2027 09:30:40.467   04 Jun 2027 09:30:43.047             2.580           166.656
        82   04 Jun 2027 09:32:15.236   04 Jun 2027 09:32:22.636             7.400          1362.312
        83   04 Jun 2027 09:33:01.158   04 Jun 2027 09:33:03.535             2.377           761.406
        84   04 Jun 2027 09:34:29.101   04 Jun 2027 09:34:31.056             1.955           966.594
        85   04 Jun 2027 09:35:46.144   04 Jun 2027 09:35:49.368             3.224          1108.562
        86   04 Jun 2027 11:05:39.407   04 Jun 2027 11:05:48.915             9.508          4450.062
        87   04 Jun 2027 11:08:48.893   04 Jun 2027 11:08:53.624             4.731          1003.281
        88   04 Jun 2027 11:09:37.778   04 Jun 2027 11:09:39.851             2.073           673.438
        89   04 Jun 2027 11:09:54.199   04 Jun 2027 11:09:57.273             3.074            78.156
        90   04 Jun 2027 11:10:29.557   04 Jun 2027 11:10:33.177             3.620           623.250
        91   04 Jun 2027 11:10:54.902   04 Jun 2027 11:10:56.607             1.705           217.688
        92   04 Jun 2027 11:11:15.359   04 Jun 2027 11:11:17.583             2.224           408.500
        93   04 Jun 2027 11:11:30.432   04 Jun 2027 11:11:36.394             5.962           386.875
        94   05 Jun 2027 03:27:58.842   05 Jun 2027 03:28:11.245            12.403          6201.500
        95   05 Jun 2027 03:29:00.946   05 Jun 2027 03:31:46.542           165.596         82798.000
        96   05 Jun 2027 03:33:18.617   05 Jun 2027 03:33:27.401             8.784          4392.000
        97   05 Jun 2027 03:34:02.018   05 Jun 2027 03:34:08.135             6.117          3058.500
        98   05 Jun 2027 03:35:35.196   05 Jun 2027 03:35:46.013            10.817          5408.500
        99   05 Jun 2027 05:06:09.637   05 Jun 2027 05:06:48.005            38.368         19184.000
       100   05 Jun 2027 05:07:16.422   05 Jun 2027 05:08:19.464            63.042         30946.813
       101   05 Jun 2027 05:09:00.863   05 Jun 2027 05:09:02.899             2.036           966.313
       102   05 Jun 2027 05:09:38.647   05 Jun 2027 05:09:42.673             4.026           815.344
       103   05 Jun 2027 06:30:15.637   05 Jun 2027 06:30:24.021             8.384          3777.562
       104   05 Jun 2027 06:30:33.764   05 Jun 2027 06:30:35.460             1.696            52.937
       105   05 Jun 2027 06:32:19.085   05 Jun 2027 06:32:25.272             6.187          3068.187
       106   05 Jun 2027 08:06:00.843   05 Jun 2027 08:06:07.270             6.427          1791.187
       107   05 Jun 2027 08:07:04.667   05 Jun 2027 08:07:10.979             6.312          1638.094
       108   05 Jun 2027 08:07:35.174   05 Jun 2027 08:07:35.605             0.431           188.344
       109   05 Jun 2027 08:08:26.013   05 Jun 2027 08:08:28.872             2.859          1215.938
       110   05 Jun 2027 08:09:14.162   05 Jun 2027 08:09:19.916             5.754          1194.719
       111   05 Jun 2027 08:09:31.337   05 Jun 2027 08:09:31.337             0.000             0.000
       112   05 Jun 2027 09:40:58.458   05 Jun 2027 09:41:12.632            14.174          2852.906
       113   05 Jun 2027 09:42:41.583   05 Jun 2027 09:42:47.569             5.986          2460.875
       114   05 Jun 2027 09:43:24.628   05 Jun 2027 09:43:26.156             1.528           670.344
       115   05 Jun 2027 09:44:02.650   05 Jun 2027 09:44:06.775             4.125           544.906
       116   05 Jun 2027 09:45:03.212   05 Jun 2027 09:45:07.043             3.831          1625.719
       117   05 Jun 2027 09:46:32.007   05 Jun 2027 09:46:41.264             9.257           971.219
       118   05 Jun 2027 09:47:02.392   05 Jun 2027 09:47:04.593             2.201           660.250
       119   05 Jun 2027 09:47:57.262   05 Jun 2027 09:48:00.299             3.037           483.125
       120   05 Jun 2027 11:17:11.382   05 Jun 2027 11:17:23.575            12.193          5640.594
       121   05 Jun 2027 11:19:19.103   05 Jun 2027 11:19:20.248             1.145           198.188
       122   05 Jun 2027 11:20:01.616   05 Jun 2027 11:20:05.260             3.644          1283.125
       123   05 Jun 2027 11:20:13.050   05 Jun 2027 11:20:16.823             3.773            58.812
       124   05 Jun 2027 11:20:55.619   05 Jun 2027 11:20:58.473             2.854          1165.750
       125   05 Jun 2027 11:21:31.234   05 Jun 2027 11:21:41.811            10.577          1023.781
       126   05 Jun 2027 11:22:30.832   05 Jun 2027 11:22:35.014             4.182          1531.906
       127   05 Jun 2027 11:22:48.516   05 Jun 2027 11:22:49.392             0.876           421.938
       128   06 Jun 2027 03:41:04.151   06 Jun 2027 03:44:43.227           219.076        109538.000
       129   06 Jun 2027 03:47:41.952   06 Jun 2027 03:47:42.191             0.239           119.500
       130   06 Jun 2027 03:48:01.799   06 Jun 2027 03:48:43.189            41.390         20695.000
       131   06 Jun 2027 05:07:00.638   06 Jun 2027 05:07:17.970            17.332          8666.000
       132   06 Jun 2027 05:18:05.935   06 Jun 2027 05:19:24.590            78.655         39263.125
       133   06 Jun 2027 05:20:34.946   06 Jun 2027 05:20:36.059             1.113           240.469
       134   06 Jun 2027 05:21:03.173   06 Jun 2027 05:21:05.552             2.379           538.938
       135   06 Jun 2027 06:41:03.571   06 Jun 2027 06:41:14.472            10.901          4923.031
       136   06 Jun 2027 06:41:55.118   06 Jun 2027 06:41:58.455             3.337          1270.188
       137   06 Jun 2027 06:42:25.473   06 Jun 2027 06:42:26.084             0.611           176.500
       138   06 Jun 2027 06:42:36.998   06 Jun 2027 06:42:40.321             3.323            82.938
       139   06 Jun 2027 06:43:41.014   06 Jun 2027 06:43:44.284             3.270          1604.094
       140   06 Jun 2027 06:44:59.912   06 Jun 2027 06:45:06.842             6.930          1581.656
       141   06 Jun 2027 08:16:30.273   06 Jun 2027 08:16:37.683             7.410          2347.188
       142   06 Jun 2027 08:18:02.287   06 Jun 2027 08:18:07.129             4.842          1893.375
       143   06 Jun 2027 08:18:44.978   06 Jun 2027 08:18:49.031             4.053           661.219
       144   06 Jun 2027 08:20:17.466   06 Jun 2027 08:20:23.326             5.860          2237.344
       145   06 Jun 2027 08:20:37.094   06 Jun 2027 08:20:39.065             1.971           273.906
       146   06 Jun 2027 08:20:43.705   06 Jun 2027 08:20:44.423             0.718            93.844
       147   06 Jun 2027 08:20:56.342   06 Jun 2027 08:20:56.342             0.000             0.000
       148   06 Jun 2027 08:21:39.633   06 Jun 2027 08:21:43.796             4.163          1725.313
       149   06 Jun 2027 08:21:59.431   06 Jun 2027 08:22:00.937             1.506           130.812
       150   06 Jun 2027 09:52:31.515   06 Jun 2027 09:52:41.946            10.431          3057.656
       151   06 Jun 2027 09:53:16.342   06 Jun 2027 09:53:17.636             1.294           387.781
       152   06 Jun 2027 09:54:42.233   06 Jun 2027 09:54:44.685             2.452            64.594
       153   06 Jun 2027 09:55:43.629   06 Jun 2027 09:55:51.900             8.271          1842.000
       154   06 Jun 2027 09:56:08.180   06 Jun 2027 09:56:09.382             1.202           342.344
       155   06 Jun 2027 09:57:07.823   06 Jun 2027 09:57:11.239             3.416          1328.000
       156   06 Jun 2027 09:57:55.566   06 Jun 2027 09:57:57.809             2.243           475.531
       157   06 Jun 2027 09:58:02.887   06 Jun 2027 09:58:05.053             2.166           158.688
       158   06 Jun 2027 09:58:39.880   06 Jun 2027 09:58:43.002             3.122           992.938
       159   06 Jun 2027 09:59:51.986   06 Jun 2027 09:59:54.148             2.162           867.094
       160   06 Jun 2027 11:29:33.571   06 Jun 2027 11:29:51.171            17.600          7172.750
       161   06 Jun 2027 11:31:12.987   06 Jun 2027 11:31:21.718             8.731          1622.031
       162   06 Jun 2027 11:31:28.082   06 Jun 2027 11:31:29.042             0.960           141.937
       163   06 Jun 2027 11:32:15.001   06 Jun 2027 11:32:18.938             3.937           910.031
       164   06 Jun 2027 11:32:32.777   06 Jun 2027 11:32:34.098             1.321           432.469
       165   06 Jun 2027 11:33:18.034   06 Jun 2027 11:33:22.238             4.204           210.406
       166   06 Jun 2027 11:33:46.247   06 Jun 2027 11:33:47.753             1.506           750.281
       167   06 Jun 2027 11:35:03.022   06 Jun 2027 11:35:09.083             6.061          2119.063
       168   06 Jun 2027 11:35:19.743   06 Jun 2027 11:35:21.394             1.651           245.313
       169   07 Jun 2027 03:53:30.923   07 Jun 2027 03:55:56.609           145.686         72843.000
       170   07 Jun 2027 03:55:59.414   07 Jun 2027 03:56:31.335            31.921         15960.500
       171   07 Jun 2027 04:00:18.572   07 Jun 2027 04:00:41.495            22.923         11461.500
       172   07 Jun 2027 05:18:25.619   07 Jun 2027 05:18:31.753             6.134          3067.000
       173   07 Jun 2027 05:19:38.486   07 Jun 2027 05:19:56.241            17.755          8877.500
       174   07 Jun 2027 05:30:08.688   07 Jun 2027 05:31:25.518            76.830         38415.000
       175   07 Jun 2027 06:52:21.091   07 Jun 2027 06:52:55.512            34.421         16464.438
       176   07 Jun 2027 06:53:16.100   07 Jun 2027 06:53:21.536             5.436           550.281
       177   07 Jun 2027 06:54:49.343   07 Jun 2027 06:54:53.843             4.500          1431.469
       178   07 Jun 2027 06:56:18.014   07 Jun 2027 06:56:24.818             6.804          2319.844
       179   07 Jun 2027 06:57:16.892   07 Jun 2027 06:57:20.157             3.265          1249.406
       180   07 Jun 2027 08:27:27.740   07 Jun 2027 08:27:33.376             5.636          2606.375
       181   07 Jun 2027 08:29:29.924   07 Jun 2027 08:29:36.096             6.172          1969.375
       182   07 Jun 2027 08:31:06.786   07 Jun 2027 08:31:12.061             5.275          2462.406
       183   07 Jun 2027 08:32:37.830   07 Jun 2027 08:32:43.821             5.991          2350.844
       184   07 Jun 2027 08:33:05.565   07 Jun 2027 08:33:07.271             1.706           435.719
       185   07 Jun 2027 08:33:40.149   07 Jun 2027 08:33:41.412             1.263           611.375
       186   07 Jun 2027 08:33:45.738   07 Jun 2027 08:33:48.905             3.167            66.781
       187   07 Jun 2027 08:35:26.408   07 Jun 2027 08:35:30.565             4.157          2000.000
       188   07 Jun 2027 10:04:42.582   07 Jun 2027 10:04:53.287            10.705          3989.625
       189   07 Jun 2027 10:05:58.717   07 Jun 2027 10:05:59.150             0.433           161.969
       190   07 Jun 2027 10:06:47.111   07 Jun 2027 10:06:50.726             3.615           902.531
       191   07 Jun 2027 10:08:07.093   07 Jun 2027 10:08:11.537             4.444           415.906
       192   07 Jun 2027 10:08:21.885   07 Jun 2027 10:08:26.112             4.227           323.375
       193   07 Jun 2027 10:09:27.559   07 Jun 2027 10:09:31.767             4.208           637.750
       194   07 Jun 2027 10:09:52.956   07 Jun 2027 10:09:56.817             3.861           222.063
       195   07 Jun 2027 10:10:24.754   07 Jun 2027 10:10:26.433             1.679           648.156
       196   07 Jun 2027 10:11:08.703   07 Jun 2027 10:11:11.826             3.123          1320.937
       197   07 Jun 2027 10:11:24.868   07 Jun 2027 10:11:25.811             0.943           267.500
       198   07 Jun 2027 10:12:06.703   07 Jun 2027 10:12:07.293             0.590           295.000
       199   07 Jun 2027 11:41:37.421   07 Jun 2027 11:41:49.013            11.592          5244.219
       200   07 Jun 2027 11:44:21.887   07 Jun 2027 11:44:25.198             3.311           351.719
       201   07 Jun 2027 11:45:29.002   07 Jun 2027 11:45:32.714             3.712           576.687
       202   07 Jun 2027 11:45:40.349   07 Jun 2027 11:45:41.633             1.284           238.594
       203   07 Jun 2027 11:46:22.766   07 Jun 2027 11:46:31.664             8.898          1178.531
       204   07 Jun 2027 11:47:14.040   07 Jun 2027 11:47:17.491             3.451          1324.250
       205   07 Jun 2027 11:47:24.359   07 Jun 2027 11:47:27.079             2.720           137.625
       206   07 Jun 2027 11:47:33.392   07 Jun 2027 11:47:35.521             2.129            74.500
       207   08 Jun 2027 04:05:43.309   08 Jun 2027 04:07:18.474            95.165         47582.500
       208   08 Jun 2027 04:08:41.134   08 Jun 2027 04:08:45.225             4.091          2045.500
       209   08 Jun 2027 04:08:58.502   08 Jun 2027 04:09:28.463            29.961         14980.500
       210   08 Jun 2027 04:09:34.804   08 Jun 2027 04:09:40.420             5.616          2808.000
       211   08 Jun 2027 04:10:31.763   08 Jun 2027 04:10:53.665            21.902         10951.000
       212   08 Jun 2027 04:12:31.816   08 Jun 2027 04:12:42.729            10.913          5456.500
       213   08 Jun 2027 05:29:54.106   08 Jun 2027 05:30:41.017            46.911         23455.500
       214   08 Jun 2027 05:31:43.160   08 Jun 2027 05:31:46.955             3.795          1897.500
       215   08 Jun 2027 05:42:09.820   08 Jun 2027 05:42:42.134            32.314         16157.000
       216   08 Jun 2027 07:04:06.848   08 Jun 2027 07:05:21.959            75.111         37555.500
       217   08 Jun 2027 07:06:19.456   08 Jun 2027 07:06:28.560             9.104          4488.876
       218   08 Jun 2027 07:06:43.672   08 Jun 2027 07:06:47.446             3.774           172.500
       219   08 Jun 2027 07:07:33.573   08 Jun 2027 07:07:36.401             2.828          1410.812
       220   08 Jun 2027 07:09:01.991   08 Jun 2027 07:09:01.991             0.000             0.000
       221   08 Jun 2027 07:09:38.307   08 Jun 2027 07:09:43.265             4.958          2479.000
       222   08 Jun 2027 08:38:57.104   08 Jun 2027 08:39:08.644            11.540          3575.375
       223   08 Jun 2027 08:39:42.930   08 Jun 2027 08:39:44.487             1.557           107.875
       224   08 Jun 2027 08:40:54.844   08 Jun 2027 08:40:57.863             3.019           385.594
       225   08 Jun 2027 08:41:26.099   08 Jun 2027 08:41:31.890             5.791           816.031
       226   08 Jun 2027 08:42:19.099   08 Jun 2027 08:42:24.818             5.719          1196.438
       227   08 Jun 2027 08:42:50.417   08 Jun 2027 08:42:51.287             0.870           180.031
       228   08 Jun 2027 08:44:38.065   08 Jun 2027 08:44:46.927             8.862          2348.219
       229   08 Jun 2027 08:46:03.035   08 Jun 2027 08:46:07.773             4.738          1584.406
       230   08 Jun 2027 08:46:20.498   08 Jun 2027 08:46:29.283             8.785           349.781
       231   08 Jun 2027 08:47:14.571   08 Jun 2027 08:47:17.377             2.806           363.687
       232   08 Jun 2027 10:16:43.622   08 Jun 2027 10:16:53.282             9.660          4783.313
       233   08 Jun 2027 10:19:47.829   08 Jun 2027 10:19:52.051             4.222          2063.625
       234   08 Jun 2027 10:21:00.953   08 Jun 2027 10:21:00.988             0.035            12.469
       235   08 Jun 2027 10:21:44.802   08 Jun 2027 10:21:48.312             3.510           659.969
       236   08 Jun 2027 10:22:04.220   08 Jun 2027 10:22:05.451             1.231            97.500
       237   08 Jun 2027 10:22:46.165   08 Jun 2027 10:22:51.616             5.451           703.000
       238   08 Jun 2027 10:23:02.466   08 Jun 2027 10:23:02.647             0.181            74.875
       239   08 Jun 2027 10:23:16.576   08 Jun 2027 10:23:17.519             0.943           365.625
       240   08 Jun 2027 10:23:26.755   08 Jun 2027 10:23:29.809             3.054           288.625
       241   08 Jun 2027 10:23:44.346   08 Jun 2027 10:23:46.740             2.394           355.875
       242   08 Jun 2027 11:53:28.928   08 Jun 2027 11:53:42.472            13.544          5912.313
       243   08 Jun 2027 11:53:55.153   08 Jun 2027 11:53:58.865             3.712           339.812
       244   08 Jun 2027 11:55:43.232   08 Jun 2027 11:55:48.907             5.675          1713.719
       245   08 Jun 2027 11:56:19.498   08 Jun 2027 11:56:22.544             3.046           954.875
       246   08 Jun 2027 11:57:09.160   08 Jun 2027 11:57:12.820             3.660          1162.531
       247   08 Jun 2027 11:57:44.590   08 Jun 2027 11:57:48.583             3.993           992.812
       248   08 Jun 2027 11:57:56.474   08 Jun 2027 11:58:01.917             5.443           183.531
       249   08 Jun 2027 11:59:16.226   08 Jun 2027 11:59:24.113             7.887          2322.156
       250   08 Jun 2027 11:59:49.114   08 Jun 2027 11:59:54.995             5.881           691.031
       251   09 Jun 2027 04:17:53.541   09 Jun 2027 04:18:29.610            36.069         18034.500
       252   09 Jun 2027 04:18:47.885   09 Jun 2027 04:19:50.780            62.895         31447.500
       253   09 Jun 2027 04:21:35.641   09 Jun 2027 04:21:50.146            14.505          7252.500
       254   09 Jun 2027 04:21:56.413   09 Jun 2027 04:21:58.290             1.877           938.500
       255   09 Jun 2027 04:22:22.029   09 Jun 2027 04:22:58.222            36.193         18096.500
       256   09 Jun 2027 05:41:56.413   09 Jun 2027 05:42:39.251            42.838         21419.000
       257   09 Jun 2027 07:17:53.980   09 Jun 2027 07:20:10.293           136.313         67065.437
       258   09 Jun 2027 07:20:25.576   09 Jun 2027 07:20:29.264             3.688           362.750
       259   09 Jun 2027 07:21:11.763   09 Jun 2027 07:21:13.963             2.200           834.219
       260   09 Jun 2027 08:51:43.349   09 Jun 2027 08:51:53.259             9.910          3895.375
       261   09 Jun 2027 08:53:31.926   09 Jun 2027 08:53:34.077             2.151           858.312
       262   09 Jun 2027 08:55:25.741   09 Jun 2027 08:55:28.910             3.169          1028.969
       263   09 Jun 2027 08:57:26.899   09 Jun 2027 08:57:31.867             4.968          1537.375
       264   09 Jun 2027 08:58:07.201   09 Jun 2027 08:58:11.211             4.010           842.031
       265   09 Jun 2027 08:58:18.333   09 Jun 2027 08:58:18.809             0.476           131.719
       266   09 Jun 2027 08:58:44.412   09 Jun 2027 08:58:46.574             2.162           800.094
       267   09 Jun 2027 08:59:33.117   09 Jun 2027 08:59:39.144             6.027          1288.719
       268   09 Jun 2027 10:28:47.749   09 Jun 2027 10:29:09.053            21.304          5982.562
       269   09 Jun 2027 10:30:40.492   09 Jun 2027 10:30:46.308             5.816          2005.594
       270   09 Jun 2027 10:33:13.020   09 Jun 2027 10:33:20.769             7.749          3099.219
       271   09 Jun 2027 10:33:28.061   09 Jun 2027 10:33:35.998             7.937           206.125
       272   09 Jun 2027 10:34:22.784   09 Jun 2027 10:34:25.750             2.966          1277.219
       273   09 Jun 2027 10:35:01.092   09 Jun 2027 10:35:03.552             2.460           951.375
       274   09 Jun 2027 10:35:36.596   09 Jun 2027 10:35:39.418             2.822           872.844
       275   09 Jun 2027 10:35:42.991   09 Jun 2027 10:35:43.754             0.763           111.656
       276   10 Jun 2027 04:30:27.945   10 Jun 2027 04:33:14.402           166.457         83228.500
       277   10 Jun 2027 04:34:21.176   10 Jun 2027 04:34:43.453            22.277         11138.500
       278   10 Jun 2027 05:53:50.537   10 Jun 2027 05:54:31.880            41.343         20671.500
       279   10 Jun 2027 05:56:06.156   10 Jun 2027 05:56:08.401             2.245          1122.500
       280   10 Jun 2027 05:56:14.001   10 Jun 2027 05:56:15.798             1.797           898.500
       281   10 Jun 2027 07:30:13.054   10 Jun 2027 07:32:03.911           110.857         53022.813
       282   10 Jun 2027 07:33:02.773   10 Jun 2027 07:33:07.778             5.005          1834.656
       283   10 Jun 2027 09:03:41.623   10 Jun 2027 09:03:52.291            10.668          3740.875
       284   10 Jun 2027 09:06:32.585   10 Jun 2027 09:06:34.742             2.157           673.812
       285   10 Jun 2027 09:07:31.131   10 Jun 2027 09:07:35.094             3.963          1130.594
       286   10 Jun 2027 09:09:21.951   10 Jun 2027 09:09:25.336             3.385          1415.750
       287   10 Jun 2027 09:10:43.532   10 Jun 2027 09:10:48.346             4.814          2329.063
       288   10 Jun 2027 09:11:38.986   10 Jun 2027 09:11:42.293             3.307          1476.000
       289   10 Jun 2027 09:12:06.496   10 Jun 2027 09:12:07.606             1.110           164.812
       290   10 Jun 2027 10:41:15.075   10 Jun 2027 10:41:27.025            11.950          5558.781
       291   10 Jun 2027 10:45:45.634   10 Jun 2027 10:45:54.059             8.425          1527.844
       292   10 Jun 2027 10:46:16.742   10 Jun 2027 10:46:18.285             1.543           476.219
       293   10 Jun 2027 10:47:20.534   10 Jun 2027 10:47:24.571             4.037          1833.687
       294   10 Jun 2027 10:47:33.434   10 Jun 2027 10:47:34.985             1.551           198.438
       295   11 Jun 2027 03:04:02.168   11 Jun 2027 03:04:08.408             6.240          3120.000
       296   11 Jun 2027 03:04:32.149   11 Jun 2027 03:05:03.255            31.106         15553.000
       297   11 Jun 2027 03:05:18.564   11 Jun 2027 03:05:26.517             7.953          3976.500
       298   11 Jun 2027 03:05:49.306   11 Jun 2027 03:05:53.901             4.595          2297.500
       299   11 Jun 2027 03:06:06.287   11 Jun 2027 03:06:09.805             3.518          1759.000
       300   11 Jun 2027 03:07:03.454   11 Jun 2027 03:07:22.551            19.097          9548.500
       301   11 Jun 2027 03:08:24.378   11 Jun 2027 03:08:34.591            10.213          5106.500
       302   11 Jun 2027 03:08:56.930   11 Jun 2027 03:08:58.795             1.865           932.500
       303   11 Jun 2027 03:09:21.847   11 Jun 2027 03:09:29.784             7.937          3968.500
       304   11 Jun 2027 03:09:48.647   11 Jun 2027 03:09:54.147             5.500          2750.000
       305   11 Jun 2027 04:42:06.057   11 Jun 2027 04:43:46.681           100.624         50312.000
       306   11 Jun 2027 04:43:58.057   11 Jun 2027 04:44:34.033            35.976         17988.000
       307   11 Jun 2027 04:45:40.009   11 Jun 2027 04:45:46.459             6.450          3225.000
       308   11 Jun 2027 04:46:00.364   11 Jun 2027 04:46:09.286             8.922          4461.000
       309   11 Jun 2027 06:05:40.576   11 Jun 2027 06:06:43.385            62.809         31404.500
       310   11 Jun 2027 06:07:21.540   11 Jun 2027 06:07:21.540             0.000             0.000
       311   11 Jun 2027 06:08:01.381   11 Jun 2027 06:08:20.250            18.869          8202.657
       312   11 Jun 2027 07:42:14.949   11 Jun 2027 07:42:27.085            12.136          2855.250
       313   11 Jun 2027 07:42:52.154   11 Jun 2027 07:42:53.667             1.513           363.719
       314   11 Jun 2027 07:43:11.692   11 Jun 2027 07:43:13.464             1.772           563.281
       315   11 Jun 2027 07:43:19.446   11 Jun 2027 07:43:20.555             1.109           147.188
       316   11 Jun 2027 07:44:01.480   11 Jun 2027 07:44:03.962             2.482           569.187
       317   11 Jun 2027 07:44:43.602   11 Jun 2027 07:44:45.980             2.378          1188.875
       318   11 Jun 2027 07:45:16.357   11 Jun 2027 07:45:19.240             2.883           838.000
       319   11 Jun 2027 09:16:48.931   11 Jun 2027 09:16:56.171             7.240          2637.750
       320   11 Jun 2027 09:18:11.677   11 Jun 2027 09:18:13.825             2.148           302.125
       321   11 Jun 2027 09:18:56.788   11 Jun 2027 09:19:05.934             9.146           806.281
       322   11 Jun 2027 09:19:55.273   11 Jun 2027 09:19:59.181             3.908           501.969
       323   11 Jun 2027 09:21:13.578   11 Jun 2027 09:21:13.578             0.000             0.000
       324   11 Jun 2027 09:21:19.348   11 Jun 2027 09:21:23.339             3.991          1393.594
       325   11 Jun 2027 09:22:19.875   11 Jun 2027 09:22:25.856             5.981           283.469
       326   11 Jun 2027 09:24:01.533   11 Jun 2027 09:24:06.530             4.997          2413.188
       327   11 Jun 2027 10:53:21.520   11 Jun 2027 10:53:30.055             8.535          4108.344
       328   11 Jun 2027 10:55:57.536   11 Jun 2027 10:55:57.968             0.432           120.656
       329   11 Jun 2027 10:56:37.771   11 Jun 2027 10:56:40.207             2.436          1142.781
       330   11 Jun 2027 10:57:20.840   11 Jun 2027 10:57:25.059             4.219           350.250
       331   11 Jun 2027 10:57:48.702   11 Jun 2027 10:57:51.508             2.806           187.625
       332   11 Jun 2027 10:58:14.132   11 Jun 2027 10:58:15.470             1.338           495.844
       333   11 Jun 2027 10:59:17.842   11 Jun 2027 10:59:22.294             4.452          1710.438
       334   11 Jun 2027 10:59:31.761   11 Jun 2027 10:59:32.586             0.825           295.844
       335   11 Jun 2027 10:59:42.371   11 Jun 2027 10:59:43.698             1.327           305.781
       336   12 Jun 2027 03:16:10.739   12 Jun 2027 03:17:10.523            59.784         29892.000
       337   12 Jun 2027 03:17:25.972   12 Jun 2027 03:17:43.671            17.699          8849.500
       338   12 Jun 2027 03:17:54.673   12 Jun 2027 03:17:58.262             3.589          1794.500
       339   12 Jun 2027 03:18:06.407   12 Jun 2027 03:18:36.383            29.976         14988.000
       340   12 Jun 2027 03:18:55.406   12 Jun 2027 03:19:10.870            15.464          7732.000
       341   12 Jun 2027 03:19:17.703   12 Jun 2027 03:19:20.055             2.352          1176.000
       342   12 Jun 2027 03:19:28.023   12 Jun 2027 03:19:38.533            10.510          5255.000
       343   12 Jun 2027 03:20:41.063   12 Jun 2027 03:20:44.156             3.093          1546.500
       344   12 Jun 2027 03:21:01.000   12 Jun 2027 03:21:38.315            37.315         18657.500
       345   12 Jun 2027 03:22:27.969   12 Jun 2027 03:22:30.310             2.341          1170.500
       346   12 Jun 2027 04:54:29.240   12 Jun 2027 04:54:59.735            30.495         15247.500
       347   12 Jun 2027 04:55:18.253   12 Jun 2027 04:56:57.419            99.166         47650.750
       348   12 Jun 2027 04:58:09.507   12 Jun 2027 04:58:13.366             3.859          1669.000
       349   12 Jun 2027 06:17:52.078   12 Jun 2027 06:18:03.772            11.694          4717.750
       350   12 Jun 2027 06:19:05.311   12 Jun 2027 06:19:10.306             4.995          1816.375
       351   12 Jun 2027 06:19:33.077   12 Jun 2027 06:19:35.137             2.060           484.938
       352   12 Jun 2027 06:20:34.228   12 Jun 2027 06:20:35.281             1.053           526.500
       353   12 Jun 2027 07:54:23.872   12 Jun 2027 07:54:31.499             7.627          2068.656
       354   12 Jun 2027 07:55:21.046   12 Jun 2027 07:55:25.441             4.395          1429.750
       355   12 Jun 2027 07:56:28.829   12 Jun 2027 07:56:32.784             3.955          1833.875
       356   12 Jun 2027 07:57:22.507   12 Jun 2027 07:57:26.255             3.748           972.687
       357   12 Jun 2027 07:57:54.577   12 Jun 2027 07:57:57.375             2.798           343.281
       358   12 Jun 2027 09:29:33.186   12 Jun 2027 09:29:39.844             6.658          2897.781
       359   12 Jun 2027 09:30:53.840   12 Jun 2027 09:30:58.265             4.425          1934.531
       360   12 Jun 2027 09:31:50.080   12 Jun 2027 09:31:57.611             7.531          1619.219
       361   12 Jun 2027 09:32:51.494   12 Jun 2027 09:32:57.086             5.592           613.750
       362   12 Jun 2027 09:34:46.788   12 Jun 2027 09:35:02.547            15.759          2738.625
       363   12 Jun 2027 09:36:01.239   12 Jun 2027 09:36:04.079             2.840          1140.750
       364   12 Jun 2027 11:05:57.592   12 Jun 2027 11:06:09.249            11.657          4202.031
       365   12 Jun 2027 11:09:05.947   12 Jun 2027 11:09:16.356            10.409          1004.781
       366   12 Jun 2027 11:09:41.942   12 Jun 2027 11:09:46.071             4.129           777.875
       367   12 Jun 2027 11:10:06.368   12 Jun 2027 11:10:11.021             4.653           634.281
       368   12 Jun 2027 11:10:25.150   12 Jun 2027 11:10:28.620             3.470           441.531
       369   12 Jun 2027 11:11:03.414   12 Jun 2027 11:11:08.664             5.250          1087.313
       370   12 Jun 2027 11:11:55.209   12 Jun 2027 11:12:01.755             6.546          1359.219
       371   13 Jun 2027 03:28:15.826   13 Jun 2027 03:28:25.646             9.820          4910.000
       372   13 Jun 2027 03:29:17.461   13 Jun 2027 03:31:35.408           137.947         68973.500
       373   13 Jun 2027 03:31:46.583   13 Jun 2027 03:31:53.097             6.514          3257.000
       374   13 Jun 2027 03:32:14.140   13 Jun 2027 03:33:03.725            49.585         24792.500
       375   13 Jun 2027 05:06:26.073   13 Jun 2027 05:07:04.956            38.883         19441.500
       376   13 Jun 2027 05:07:29.764   13 Jun 2027 05:08:47.583            77.819         38818.281
       377   13 Jun 2027 05:09:58.143   13 Jun 2027 05:10:02.569             4.426          2205.000
       378   13 Jun 2027 06:30:28.508   13 Jun 2027 06:30:38.214             9.706          4274.656
       379   13 Jun 2027 06:30:48.473   13 Jun 2027 06:30:50.202             1.729           298.344
       380   13 Jun 2027 06:30:54.272   13 Jun 2027 06:30:56.315             2.043            78.250
       381   13 Jun 2027 06:31:26.210   13 Jun 2027 06:31:26.210             0.000             0.000
       382   13 Jun 2027 06:32:30.737   13 Jun 2027 06:32:34.513             3.776          1888.000
       383   13 Jun 2027 06:32:50.992   13 Jun 2027 06:32:57.643             6.651          1280.750
       384   13 Jun 2027 08:06:16.926   13 Jun 2027 08:06:26.385             9.459          1814.094
       385   13 Jun 2027 08:07:22.460   13 Jun 2027 08:07:26.895             4.435          1701.062
       386   13 Jun 2027 08:07:50.252   13 Jun 2027 08:07:53.610             3.358           128.813
       387   13 Jun 2027 08:08:13.240   13 Jun 2027 08:08:13.847             0.607           228.156
       388   13 Jun 2027 08:08:23.425   13 Jun 2027 08:08:24.813             1.388            69.437
       389   13 Jun 2027 08:08:59.917   13 Jun 2027 08:08:59.917             0.000             0.000
       390   13 Jun 2027 08:09:37.703   13 Jun 2027 08:09:43.562             5.859          1651.406
       391   13 Jun 2027 09:41:14.097   13 Jun 2027 09:41:26.344            12.247          2548.594
       392   13 Jun 2027 09:42:59.340   13 Jun 2027 09:43:06.218             6.878          2535.031
       393   13 Jun 2027 09:43:43.823   13 Jun 2027 09:43:45.977             2.154           680.062
       394   13 Jun 2027 09:44:16.450   13 Jun 2027 09:44:18.387             1.937           392.219
       395   13 Jun 2027 09:45:21.443   13 Jun 2027 09:45:24.827             3.384          1679.156
       396   13 Jun 2027 09:45:45.328   13 Jun 2027 09:45:47.354             2.026           640.656
       397   13 Jun 2027 09:47:15.620   13 Jun 2027 09:47:19.072             3.452          1475.063
       398   13 Jun 2027 09:48:14.179   13 Jun 2027 09:48:15.837             1.658           541.500
       399   13 Jun 2027 11:17:30.265   13 Jun 2027 11:17:45.284            15.019          6115.937
       400   13 Jun 2027 11:19:36.938   13 Jun 2027 11:19:37.670             0.732           294.094
       401   13 Jun 2027 11:19:59.918   13 Jun 2027 11:20:03.507             3.589           695.250
       402   13 Jun 2027 11:20:35.258   13 Jun 2027 11:20:37.028             1.770           511.219
       403   13 Jun 2027 11:21:15.740   13 Jun 2027 11:21:16.674             0.934            77.500
       404   13 Jun 2027 11:21:47.141   13 Jun 2027 11:21:59.017            11.876           692.000
       405   13 Jun 2027 11:22:50.726   13 Jun 2027 11:22:57.667             6.941          1243.469
       406   13 Jun 2027 11:23:26.184   13 Jun 2027 11:23:34.069             7.885           760.406
       407   13 Jun 2027 11:23:47.965   13 Jun 2027 11:23:49.544             1.579           434.250
