uniorb/output/strategy_4/Camera/Camera_KinoSat_110802.txt

KinoSat_110802
-------------------------
    Access    *     Start Time (UTCG)     *     Stop Time (UTCG)  *   Duration (s) *   Data (Mbytes)
         1   01 Jun 2027 04:02:09.879   01 Jun 2027 04:03:29.335            79.456         39728.000
         2   01 Jun 2027 04:04:17.954   01 Jun 2027 04:04:47.319            29.365         14682.500
         3   01 Jun 2027 04:05:15.332   01 Jun 2027 04:05:15.332             0.000             0.000
         4   01 Jun 2027 04:06:45.248   01 Jun 2027 04:06:50.606             5.358          2679.000
         5   01 Jun 2027 04:07:21.802   01 Jun 2027 04:07:25.521             3.719          1859.500
         6   01 Jun 2027 04:07:54.083   01 Jun 2027 04:08:02.408             8.325          4162.500
         7   01 Jun 2027 05:37:02.910   01 Jun 2027 05:38:41.224            98.314         49157.000
         8   01 Jun 2027 05:39:31.668   01 Jun 2027 05:40:07.460            35.792         17896.000
         9   01 Jun 2027 05:40:23.503   01 Jun 2027 05:40:30.946             7.443          3721.500
        10   01 Jun 2027 05:45:56.453   01 Jun 2027 05:46:03.162             6.709          3354.500
        11   01 Jun 2027 07:14:56.535   01 Jun 2027 07:17:03.774           127.239         63619.500
        12   01 Jun 2027 07:18:02.507   01 Jun 2027 07:18:12.662            10.155          5077.500
        13   01 Jun 2027 07:18:36.706   01 Jun 2027 07:18:51.370            14.664          7332.000
        14   01 Jun 2027 07:21:50.716   01 Jun 2027 07:21:57.645             6.929          3464.500
        15   01 Jun 2027 08:51:40.471   01 Jun 2027 08:54:23.479           163.008         81504.000
        16   01 Jun 2027 08:55:19.046   01 Jun 2027 08:55:23.025             3.979          1989.500
        17   01 Jun 2027 08:56:24.667   01 Jun 2027 08:56:37.558            12.891          6445.500
        18   01 Jun 2027 08:57:45.267   01 Jun 2027 08:58:07.235            21.968         10984.000
        19   01 Jun 2027 10:29:46.729   01 Jun 2027 10:31:48.572           121.843         60921.500
        20   01 Jun 2027 10:32:42.055   01 Jun 2027 10:33:01.056            19.001          9500.500
        21   01 Jun 2027 10:33:27.426   01 Jun 2027 10:33:51.725            24.299         12149.500
        22   02 Jun 2027 04:16:07.965   02 Jun 2027 04:16:48.853            40.888         20444.000
        23   02 Jun 2027 04:18:54.819   02 Jun 2027 04:18:54.819             0.000             0.000
        24   02 Jun 2027 04:19:19.080   02 Jun 2027 04:19:24.581             5.501          2750.500
        25   02 Jun 2027 05:49:55.353   02 Jun 2027 05:52:12.744           137.391         68695.500
        26   02 Jun 2027 05:52:43.136   02 Jun 2027 05:53:28.898            45.762         22881.000
        27   02 Jun 2027 05:54:25.114   02 Jun 2027 05:54:25.123             0.009             4.500
        28   02 Jun 2027 05:58:08.955   02 Jun 2027 05:58:19.488            10.533          5266.500
        29   02 Jun 2027 05:58:25.636   02 Jun 2027 05:58:25.779             0.143            71.500
        30   02 Jun 2027 07:27:04.158   02 Jun 2027 07:30:24.366           200.208        100104.000
        31   02 Jun 2027 07:32:03.739   02 Jun 2027 07:32:37.397            33.658         16829.000
        32   02 Jun 2027 07:33:07.847   02 Jun 2027 07:33:09.134             1.287           643.500
        33   02 Jun 2027 09:04:18.740   02 Jun 2027 09:07:59.338           220.598        110299.000
        34   02 Jun 2027 09:09:52.097   02 Jun 2027 09:10:11.121            19.024          9512.000
        35   02 Jun 2027 10:41:00.653   02 Jun 2027 10:41:20.048            19.395          9538.033
        36   02 Jun 2027 10:43:32.312   02 Jun 2027 10:43:39.982             7.670          1523.469
        37   02 Jun 2027 10:45:25.169   02 Jun 2027 10:45:26.848             1.679           691.844
        38   03 Jun 2027 04:28:20.742   03 Jun 2027 04:30:14.498           113.756         56878.000
        39   03 Jun 2027 06:02:19.207   03 Jun 2027 06:05:00.413           161.206         80603.000
        40   03 Jun 2027 06:06:26.954   03 Jun 2027 06:06:29.085             2.131          1065.500
        41   03 Jun 2027 06:06:50.554   03 Jun 2027 06:07:04.986            14.432          7216.000
        42   03 Jun 2027 06:08:55.362   03 Jun 2027 06:09:03.411             8.049          4024.500
        43   03 Jun 2027 06:09:11.753   03 Jun 2027 06:09:11.753             0.000             0.000
        44   03 Jun 2027 06:09:54.276   03 Jun 2027 06:10:14.798            20.522         10261.000
        45   03 Jun 2027 06:10:21.644   03 Jun 2027 06:10:24.459             2.815          1407.500
        46   03 Jun 2027 07:39:29.518   03 Jun 2027 07:39:34.414             4.896          1930.469
        47   03 Jun 2027 07:43:55.877   03 Jun 2027 07:43:56.821             0.944           308.250
        48   03 Jun 2027 07:45:09.698   03 Jun 2027 07:45:13.166             3.468           157.156
        49   03 Jun 2027 07:45:46.774   03 Jun 2027 07:45:50.070             3.296          1050.250
        50   03 Jun 2027 09:16:28.848   03 Jun 2027 09:16:42.946            14.098          5591.250
        51   03 Jun 2027 09:21:25.641   03 Jun 2027 09:21:28.957             3.316          1136.125
        52   03 Jun 2027 10:53:15.433   03 Jun 2027 10:53:32.073            16.640          7298.562
        53   03 Jun 2027 10:55:31.165   03 Jun 2027 10:55:34.894             3.729           110.719
        54   03 Jun 2027 10:55:41.839   03 Jun 2027 10:55:43.430             1.591           145.062
        55   03 Jun 2027 10:57:05.070   03 Jun 2027 10:57:06.159             1.089           386.406
        56   03 Jun 2027 10:57:27.274   03 Jun 2027 10:57:28.047             0.773            73.969
        57   04 Jun 2027 03:03:54.059   04 Jun 2027 03:04:20.360            26.301         13150.500
        58   04 Jun 2027 04:40:26.457   04 Jun 2027 04:43:56.471           210.014        105007.000
        59   04 Jun 2027 06:15:35.287   04 Jun 2027 06:16:42.479            67.192         33596.000
        60   04 Jun 2027 06:17:06.273   04 Jun 2027 06:17:09.773             3.500          1077.031
        61   04 Jun 2027 06:18:27.033   04 Jun 2027 06:18:30.659             3.626          1813.000
        62   04 Jun 2027 06:18:33.219   04 Jun 2027 06:18:33.219             0.000             0.000
        63   04 Jun 2027 06:19:01.712   04 Jun 2027 06:19:06.126             4.414          1016.594
        64   04 Jun 2027 06:19:38.246   04 Jun 2027 06:19:40.375             2.129           637.344
        65   04 Jun 2027 06:20:30.808   04 Jun 2027 06:20:31.730             0.922           375.875
        66   04 Jun 2027 06:21:33.049   04 Jun 2027 06:21:37.198             4.149           260.188
        67   04 Jun 2027 06:22:01.126   04 Jun 2027 06:22:03.678             2.552           607.719
        68   04 Jun 2027 07:57:02.044   04 Jun 2027 07:57:02.622             0.578           111.500
        69   04 Jun 2027 07:57:28.248   04 Jun 2027 07:57:30.267             2.019           199.000
        70   04 Jun 2027 07:58:02.034   04 Jun 2027 07:58:02.760             0.726           137.250
        71   04 Jun 2027 09:29:29.715   04 Jun 2027 09:29:42.697            12.982          4902.031
        72   04 Jun 2027 09:33:26.671   04 Jun 2027 09:33:28.499             1.828           453.562
        73   04 Jun 2027 11:05:32.733   04 Jun 2027 11:05:46.143            13.410          6208.188
        74   04 Jun 2027 11:09:36.878   04 Jun 2027 11:09:37.778             0.900           322.688
        75   05 Jun 2027 03:16:01.280   05 Jun 2027 03:16:22.525            21.245         10622.500
        76   05 Jun 2027 03:18:24.200   05 Jun 2027 03:18:24.200             0.000             0.000
        77   05 Jun 2027 04:52:36.784   05 Jun 2027 04:55:36.631           179.847         89923.500
        78   05 Jun 2027 06:27:46.990   05 Jun 2027 06:29:29.629           102.639         50224.219
        79   05 Jun 2027 06:30:24.021   05 Jun 2027 06:30:24.981             0.960           191.625
        80   05 Jun 2027 06:30:33.764   05 Jun 2027 06:30:35.460             1.696            52.937
        81   05 Jun 2027 06:32:19.085   05 Jun 2027 06:32:25.272             6.187          3068.187
        82   05 Jun 2027 06:33:31.213   05 Jun 2027 06:33:34.863             3.650          1791.187
        83   05 Jun 2027 06:33:40.745   05 Jun 2027 06:33:42.595             1.850            78.344
        84   05 Jun 2027 06:34:09.024   05 Jun 2027 06:34:09.228             0.204            48.156
        85   05 Jun 2027 08:04:07.768   05 Jun 2027 08:04:10.480             2.712           890.562
        86   05 Jun 2027 09:41:24.457   05 Jun 2027 09:41:35.460            11.003          5359.562
        87   05 Jun 2027 09:44:11.614   05 Jun 2027 09:44:13.829             2.215           332.625
        88   05 Jun 2027 09:45:33.094   05 Jun 2027 09:45:35.810             2.716          1006.656
        89   05 Jun 2027 09:45:50.823   05 Jun 2027 09:45:52.242             1.419           453.125
        90   05 Jun 2027 11:17:36.990   05 Jun 2027 11:17:51.341            14.351          5417.844
        91   05 Jun 2027 11:19:43.499   05 Jun 2027 11:19:46.500             3.001           701.188
        92   06 Jun 2027 03:28:34.609   06 Jun 2027 03:28:39.916             5.307          2653.500
        93   06 Jun 2027 03:28:57.992   06 Jun 2027 03:28:58.650             0.658           329.000
        94   06 Jun 2027 03:31:02.937   06 Jun 2027 03:31:17.559            14.622          7311.000
        95   06 Jun 2027 05:04:24.016   06 Jun 2027 05:08:09.688           225.672        112836.000
        96   06 Jun 2027 06:39:17.082   06 Jun 2027 06:40:23.446            66.364         29970.094
        97   06 Jun 2027 06:41:07.382   06 Jun 2027 06:41:09.260             1.878           619.125
        98   06 Jun 2027 06:42:36.998   06 Jun 2027 06:42:40.321             3.323            82.938
        99   06 Jun 2027 06:44:18.859   06 Jun 2027 06:44:24.394             5.535          2444.781
       100   06 Jun 2027 06:45:17.169   06 Jun 2027 06:45:21.729             4.560          1258.750
       101   06 Jun 2027 06:45:59.421   06 Jun 2027 06:46:04.050             4.629          1140.250
       102   06 Jun 2027 08:15:46.558   06 Jun 2027 08:15:50.838             4.280           915.563
       103   06 Jun 2027 09:54:04.236   06 Jun 2027 09:54:14.954            10.718          5196.500
       104   06 Jun 2027 09:55:40.718   06 Jun 2027 09:55:41.656             0.938           356.156
       105   06 Jun 2027 09:57:11.239   06 Jun 2027 09:57:16.842             5.603          2401.406
       106   06 Jun 2027 09:57:36.090   06 Jun 2027 09:57:37.390             1.300           557.375
       107   06 Jun 2027 11:29:30.843   06 Jun 2027 11:29:43.520            12.677          4966.875
       108   07 Jun 2027 03:39:09.048   07 Jun 2027 03:39:21.286            12.238          6119.000
       109   07 Jun 2027 03:41:03.586   07 Jun 2027 03:41:30.168            26.582         13291.000
       110   07 Jun 2027 05:15:04.139   07 Jun 2027 05:15:31.263            27.124         13562.000
       111   07 Jun 2027 05:16:09.399   07 Jun 2027 05:17:37.597            88.198         44099.000
       112   07 Jun 2027 05:18:28.398   07 Jun 2027 05:19:33.972            65.574         32787.000
       113   07 Jun 2027 05:20:29.727   07 Jun 2027 05:20:33.242             3.515          1757.500
       114   07 Jun 2027 06:51:00.068   07 Jun 2027 06:52:46.430           106.362         52501.562
       115   07 Jun 2027 06:53:37.864   07 Jun 2027 06:53:49.231            11.367          1472.562
       116   07 Jun 2027 06:54:01.755   07 Jun 2027 06:54:02.373             0.618           258.125
       117   07 Jun 2027 06:54:36.380   07 Jun 2027 06:54:38.870             2.490           694.531
       118   07 Jun 2027 06:55:03.779   07 Jun 2027 06:55:06.207             2.428           733.219
       119   07 Jun 2027 06:56:36.911   07 Jun 2027 06:56:36.911             0.000             0.000
       120   07 Jun 2027 06:57:16.892   07 Jun 2027 06:57:22.865             5.973          1839.937
       121   07 Jun 2027 06:58:25.103   07 Jun 2027 06:58:27.509             2.406           461.750
       122   07 Jun 2027 08:28:06.605   07 Jun 2027 08:28:18.503            11.898          5031.031
       123   07 Jun 2027 08:30:40.750   07 Jun 2027 08:30:46.772             6.022           415.937
       124   07 Jun 2027 08:33:21.575   07 Jun 2027 08:33:25.090             3.515           146.094
       125   07 Jun 2027 08:33:30.387   07 Jun 2027 08:33:32.643             2.256           110.688
       126   07 Jun 2027 08:34:01.954   07 Jun 2027 08:34:05.893             3.939           407.781
       127   07 Jun 2027 08:34:25.451   07 Jun 2027 08:34:25.676             0.225           112.500
       128   07 Jun 2027 10:06:01.939   07 Jun 2027 10:06:14.591            12.652          5694.281
       129   07 Jun 2027 10:07:35.250   07 Jun 2027 10:07:38.295             3.045            78.094
       130   07 Jun 2027 10:08:58.198   07 Jun 2027 10:09:02.847             4.649           285.875
       131   07 Jun 2027 10:09:20.555   07 Jun 2027 10:09:22.705             2.150           553.375
       132   07 Jun 2027 10:09:34.169   07 Jun 2027 10:09:38.580             4.411            13.437
       133   07 Jun 2027 10:09:45.850   07 Jun 2027 10:09:47.884             2.034           227.187
       134   07 Jun 2027 11:39:07.085   07 Jun 2027 11:39:18.628            11.543          4900.844
       135   08 Jun 2027 03:50:51.672   08 Jun 2027 03:51:08.439            16.767          8383.500
       136   08 Jun 2027 03:55:44.244   08 Jun 2027 03:56:02.696            18.452          9226.000
       137   08 Jun 2027 05:25:49.016   08 Jun 2027 05:27:44.796           115.780         57890.000
       138   08 Jun 2027 05:27:53.501   08 Jun 2027 05:28:50.290            56.789         28394.500
       139   08 Jun 2027 05:31:18.303   08 Jun 2027 05:31:43.160            24.857         12428.500
       140   08 Jun 2027 07:03:18.054   08 Jun 2027 07:05:02.093           104.039         50642.718
       141   08 Jun 2027 07:05:44.530   08 Jun 2027 07:05:46.675             2.145           147.031
       142   08 Jun 2027 07:06:13.283   08 Jun 2027 07:06:15.209             1.926           209.156
       143   08 Jun 2027 07:06:43.672   08 Jun 2027 07:06:47.446             3.774           172.500
       144   08 Jun 2027 07:08:16.433   08 Jun 2027 07:08:16.433             0.000             0.000
       145   08 Jun 2027 07:08:40.772   08 Jun 2027 07:08:50.635             9.863          2852.156
       146   08 Jun 2027 07:09:28.666   08 Jun 2027 07:09:32.913             4.247           484.844
       147   08 Jun 2027 07:10:23.749   08 Jun 2027 07:10:36.158            12.409          1375.750
       148   08 Jun 2027 08:40:02.648   08 Jun 2027 08:40:09.042             6.394          2939.281
       149   08 Jun 2027 08:40:59.891   08 Jun 2027 08:41:06.435             6.544           692.406
       150   08 Jun 2027 08:42:45.015   08 Jun 2027 08:42:49.300             4.285           317.969
       151   08 Jun 2027 08:43:11.701   08 Jun 2027 08:43:17.539             5.838           591.875
       152   08 Jun 2027 08:43:30.878   08 Jun 2027 08:43:33.006             2.128           300.906
       153   08 Jun 2027 08:44:02.908   08 Jun 2027 08:44:04.400             1.492           365.719
       154   08 Jun 2027 08:44:10.507   08 Jun 2027 08:44:14.273             3.766           190.844
       155   08 Jun 2027 08:45:18.217   08 Jun 2027 08:45:20.625             2.408           932.781
       156   08 Jun 2027 08:45:59.436   08 Jun 2027 08:45:59.734             0.298           118.312
       157   08 Jun 2027 08:46:09.305   08 Jun 2027 08:46:15.494             6.189           107.219
       158   08 Jun 2027 10:18:01.193   08 Jun 2027 10:18:16.049            14.856          7316.406
       159   08 Jun 2027 10:19:40.619   08 Jun 2027 10:19:47.829             7.210          1401.656
       160   08 Jun 2027 10:21:23.344   08 Jun 2027 10:21:25.848             2.504          1038.719
       161   08 Jun 2027 10:21:56.031   08 Jun 2027 10:21:58.305             2.274           484.250
       162   08 Jun 2027 11:51:38.948   08 Jun 2027 11:51:40.715             1.767           517.844
       163   09 Jun 2027 04:02:23.784   09 Jun 2027 04:02:48.499            24.715         12357.500
       164   09 Jun 2027 04:06:30.809   09 Jun 2027 04:06:41.137            10.328          5164.000
       165   09 Jun 2027 04:06:50.039   09 Jun 2027 04:06:50.775             0.736           368.000
       166   09 Jun 2027 05:37:17.384   09 Jun 2027 05:39:46.913           149.529         74764.500
       167   09 Jun 2027 05:39:55.823   09 Jun 2027 05:40:22.956            27.133         13566.500
       168   09 Jun 2027 07:15:11.410   09 Jun 2027 07:17:17.979           126.569         63266.469
       169   09 Jun 2027 07:17:37.792   09 Jun 2027 07:17:44.808             7.016           563.531
       170   09 Jun 2027 07:18:18.674   09 Jun 2027 07:18:20.878             2.204           692.781
       171   09 Jun 2027 07:20:13.968   09 Jun 2027 07:20:22.466             8.498          2948.875
       172   09 Jun 2027 07:20:45.068   09 Jun 2027 07:20:47.382             2.314           609.125
       173   09 Jun 2027 08:51:55.459   09 Jun 2027 08:52:07.507            12.048          5293.750
       174   09 Jun 2027 08:52:27.043   09 Jun 2027 08:52:30.087             3.044           266.344
       175   09 Jun 2027 08:52:57.069   09 Jun 2027 08:52:58.618             1.549           651.031
       176   09 Jun 2027 08:54:36.873   09 Jun 2027 08:54:37.803             0.930           361.188
       177   09 Jun 2027 08:55:36.166   09 Jun 2027 08:55:36.934             0.768            34.406
       178   09 Jun 2027 08:55:53.692   09 Jun 2027 08:55:55.404             1.712           523.687
       179   09 Jun 2027 08:56:25.530   09 Jun 2027 08:56:27.507             1.977           389.594
       180   09 Jun 2027 08:56:52.926   09 Jun 2027 08:56:54.594             1.668           411.719
       181   09 Jun 2027 10:29:48.904   09 Jun 2027 10:30:00.993            12.089          5478.594
       182   09 Jun 2027 10:30:23.288   09 Jun 2027 10:30:26.185             2.897            37.781
       183   09 Jun 2027 10:31:45.465   09 Jun 2027 10:31:50.570             5.105          1973.813
       184   09 Jun 2027 10:33:16.822   09 Jun 2027 10:33:18.567             1.745           632.187
       185   09 Jun 2027 10:33:44.603   09 Jun 2027 10:33:46.412             1.809           516.938
       186   09 Jun 2027 10:33:53.467   09 Jun 2027 10:33:54.360             0.893            60.625
       187   10 Jun 2027 04:16:22.221   10 Jun 2027 04:16:40.201            17.980          8990.000
       188   10 Jun 2027 04:17:04.612   10 Jun 2027 04:17:09.490             4.878          2439.000
       189   10 Jun 2027 04:17:32.425   10 Jun 2027 04:17:36.622             4.197          2098.500
       190   10 Jun 2027 04:17:39.448   10 Jun 2027 04:18:02.832            23.384         11692.000
       191   10 Jun 2027 05:50:10.277   10 Jun 2027 05:52:52.090           161.813         80906.500
       192   10 Jun 2027 05:55:25.332   10 Jun 2027 05:55:27.513             2.181          1090.500
       193   10 Jun 2027 05:56:06.156   10 Jun 2027 05:56:14.001             7.845          3922.500
       194   10 Jun 2027 05:57:10.634   10 Jun 2027 05:57:17.106             6.472          3236.000
       195   10 Jun 2027 05:58:24.580   10 Jun 2027 05:58:34.726            10.146          5073.000
       196   10 Jun 2027 05:58:37.219   10 Jun 2027 05:58:40.701             3.482          1741.000
       197   10 Jun 2027 07:27:19.412   10 Jun 2027 07:28:56.282            96.870         45588.749
       198   10 Jun 2027 07:29:01.623   10 Jun 2027 07:29:06.211             4.588            61.406
       199   10 Jun 2027 07:29:42.878   10 Jun 2027 07:29:44.573             1.695           298.156
       200   10 Jun 2027 07:30:50.380   10 Jun 2027 07:30:51.041             0.661           302.937
       201   10 Jun 2027 07:33:23.727   10 Jun 2027 07:33:26.875             3.148           373.562
       202   10 Jun 2027 09:04:33.975   10 Jun 2027 09:04:47.089            13.114          4924.250
       203   10 Jun 2027 09:07:22.023   10 Jun 2027 09:07:28.095             6.072           950.844
       204   10 Jun 2027 09:08:05.695   10 Jun 2027 09:08:06.921             1.226           495.219
       205   10 Jun 2027 09:08:42.618   10 Jun 2027 09:08:45.244             2.626           868.687
       206   10 Jun 2027 09:09:00.895   10 Jun 2027 09:09:02.162             1.267           242.031
       207   10 Jun 2027 09:10:06.767   10 Jun 2027 09:10:10.383             3.616             6.781
       208   10 Jun 2027 10:41:15.241   10 Jun 2027 10:41:30.517            15.276          6744.156
       209   10 Jun 2027 10:43:54.016   10 Jun 2027 10:43:55.087             1.071           131.438
       210   10 Jun 2027 10:44:32.682   10 Jun 2027 10:44:33.200             0.518             2.250
       211   10 Jun 2027 10:45:42.657   10 Jun 2027 10:45:54.059            11.402          1864.719
       212   11 Jun 2027 04:28:35.290   11 Jun 2027 04:30:30.637           115.347         57673.500
       213   11 Jun 2027 06:02:35.826   11 Jun 2027 06:05:15.999           160.173         80086.500
       214   11 Jun 2027 06:05:28.790   11 Jun 2027 06:05:43.927            15.137          7568.500
       215   11 Jun 2027 06:07:04.493   11 Jun 2027 06:07:21.540            17.047          8523.500
       216   11 Jun 2027 06:08:01.381   11 Jun 2027 06:08:01.381             0.000             0.000
       217   11 Jun 2027 06:08:22.484   11 Jun 2027 06:08:22.484             0.000             0.000
       218   11 Jun 2027 06:08:33.488   11 Jun 2027 06:08:38.511             5.023          2511.500
       219   11 Jun 2027 06:09:12.349   11 Jun 2027 06:09:17.884             5.535          1832.469
       220   11 Jun 2027 06:09:27.263   11 Jun 2027 06:09:27.263             0.000             0.000
       221   11 Jun 2027 06:10:10.026   11 Jun 2027 06:10:16.917             6.891          1602.781
       222   11 Jun 2027 06:10:36.386   11 Jun 2027 06:10:38.844             2.458           171.844
       223   11 Jun 2027 07:45:26.323   11 Jun 2027 07:45:28.030             1.707           221.344
       224   11 Jun 2027 07:46:06.627   11 Jun 2027 07:46:11.550             4.923          1206.156
       225   11 Jun 2027 09:16:43.067   11 Jun 2027 09:16:56.171            13.104          6538.156
       226   11 Jun 2027 09:20:15.739   11 Jun 2027 09:20:21.061             5.322           467.344
       227   11 Jun 2027 09:20:56.737   11 Jun 2027 09:21:02.629             5.892           224.062
       228   11 Jun 2027 09:21:41.225   11 Jun 2027 09:21:45.060             3.835          1155.250
       229   11 Jun 2027 10:53:30.055   11 Jun 2027 10:53:42.782            12.727          6099.969
       230   11 Jun 2027 10:55:53.675   11 Jun 2027 10:55:54.583             0.908           349.531
       231   11 Jun 2027 10:57:42.698   11 Jun 2027 10:57:45.269             2.571           112.438
       232   12 Jun 2027 03:04:14.492   12 Jun 2027 03:04:36.183            21.691         10845.500
       233   12 Jun 2027 04:40:41.263   12 Jun 2027 04:43:35.204           173.941         86970.500
       234   12 Jun 2027 06:15:50.107   12 Jun 2027 06:17:40.915           110.808         55395.656
       235   12 Jun 2027 06:18:41.966   12 Jun 2027 06:18:46.018             4.052          1845.250
       236   12 Jun 2027 06:18:48.981   12 Jun 2027 06:18:55.880             6.899            92.594
       237   12 Jun 2027 06:19:33.077   12 Jun 2027 06:19:35.137             2.060           484.938
       238   12 Jun 2027 06:20:47.912   12 Jun 2027 06:20:51.444             3.532          1735.469
       239   12 Jun 2027 06:21:48.454   12 Jun 2027 06:21:52.079             3.625           254.437
       240   12 Jun 2027 06:22:16.606   12 Jun 2027 06:22:18.929             2.323           595.313
       241   12 Jun 2027 07:57:16.990   12 Jun 2027 07:57:18.345             1.355           124.063
       242   12 Jun 2027 07:57:42.790   12 Jun 2027 07:57:43.592             0.802           137.094
       243   12 Jun 2027 09:29:44.483   12 Jun 2027 09:29:56.831            12.348          5406.625
       244   12 Jun 2027 09:33:27.820   12 Jun 2027 09:33:32.419             4.599          2252.688
       245   12 Jun 2027 09:33:45.170   12 Jun 2027 09:33:47.169             1.999           398.469
       246   12 Jun 2027 11:05:47.788   12 Jun 2027 11:06:00.125            12.337          5933.594
       247   13 Jun 2027 03:16:15.798   13 Jun 2027 03:16:38.355            22.557         11278.500
       248   13 Jun 2027 04:52:51.606   13 Jun 2027 04:56:01.094           189.488         94744.000
       249   13 Jun 2027 06:28:01.884   13 Jun 2027 06:29:38.957            97.073         48005.469
       250   13 Jun 2027 06:30:38.926   13 Jun 2027 06:30:39.920             0.994           160.406
       251   13 Jun 2027 06:30:51.768   13 Jun 2027 06:30:54.272             2.504           102.969
       252   13 Jun 2027 06:31:15.922   13 Jun 2027 06:31:15.922             0.000             0.000
       253   13 Jun 2027 06:32:34.513   13 Jun 2027 06:32:41.133             6.620          3132.531
       254   13 Jun 2027 06:33:47.221   13 Jun 2027 06:33:53.109             5.888          1757.156
       255   13 Jun 2027 06:33:56.420   13 Jun 2027 06:33:56.420             0.000             0.000
       256   13 Jun 2027 06:34:22.981   13 Jun 2027 06:34:27.551             4.570           909.875
       257   13 Jun 2027 08:04:22.031   13 Jun 2027 08:04:22.918             0.887           245.906
       258   13 Jun 2027 09:41:48.084   13 Jun 2027 09:42:01.014            12.930          5079.438
       259   13 Jun 2027 09:45:15.944   13 Jun 2027 09:45:18.172             2.228           114.531
       260   13 Jun 2027 09:45:48.640   13 Jun 2027 09:45:50.916             2.276           952.125
       261   13 Jun 2027 09:45:58.042   13 Jun 2027 09:46:04.057             6.015           207.250
       262   13 Jun 2027 11:17:51.858   13 Jun 2027 11:18:04.825            12.967          5862.719
       263   13 Jun 2027 11:20:54.266   13 Jun 2027 11:20:55.780             1.514           565.687
