uniorb/output/strategy_4/Camera/Camera_KinoSat_111201.txt

KinoSat_111201
-------------------------
    Access    *     Start Time (UTCG)     *     Stop Time (UTCG)  *   Duration (s) *   Data (Mbytes)
         1   01 Jun 2027 03:58:34.346   01 Jun 2027 03:59:50.329            75.983         37991.500
         2   01 Jun 2027 04:10:03.584   01 Jun 2027 04:11:08.430            64.846         32423.000
         3   01 Jun 2027 04:11:13.908   01 Jun 2027 04:11:36.993            23.085         11542.500
         4   01 Jun 2027 05:32:42.883   01 Jun 2027 05:33:41.871            58.988         29494.000
         5   01 Jun 2027 05:34:18.598   01 Jun 2027 05:34:39.562            20.964         10482.000
         6   01 Jun 2027 05:34:44.484   01 Jun 2027 05:34:52.929             8.445          4222.500
         7   01 Jun 2027 07:08:02.981   01 Jun 2027 07:09:01.580            58.599         29299.500
         8   01 Jun 2027 07:09:34.813   01 Jun 2027 07:10:51.679            76.866         38433.000
         9   01 Jun 2027 07:13:04.978   01 Jun 2027 07:13:13.970             8.992          4496.000
        10   01 Jun 2027 07:14:02.138   01 Jun 2027 07:14:02.138             0.000             0.000
        11   01 Jun 2027 08:44:32.932   01 Jun 2027 08:46:46.867           133.935         66967.500
        12   01 Jun 2027 08:48:51.312   01 Jun 2027 08:48:51.312             0.000             0.000
        13   01 Jun 2027 08:49:18.662   01 Jun 2027 08:49:27.502             8.840          4420.000
        14   01 Jun 2027 08:50:25.590   01 Jun 2027 08:50:37.152            11.562          5781.000
        15   01 Jun 2027 08:51:14.257   01 Jun 2027 08:51:41.185            26.928         13464.000
        16   01 Jun 2027 10:21:37.706   01 Jun 2027 10:23:29.932           112.226         56113.000
        17   01 Jun 2027 10:23:50.913   01 Jun 2027 10:24:09.860            18.947          9473.500
        18   01 Jun 2027 10:25:27.066   01 Jun 2027 10:25:37.600            10.534          5267.000
        19   01 Jun 2027 10:25:51.112   01 Jun 2027 10:25:54.008             2.896          1448.000
        20   01 Jun 2027 10:26:23.306   01 Jun 2027 10:26:32.931             9.625          4812.500
        21   01 Jun 2027 11:59:31.940   01 Jun 2027 12:00:00.000            28.060         14030.000
        22   02 Jun 2027 04:09:50.462   02 Jun 2027 04:10:37.843            47.381         23690.500
        23   02 Jun 2027 04:22:02.841   02 Jun 2027 04:22:45.643            42.802         21401.000
        24   02 Jun 2027 04:22:52.522   02 Jun 2027 04:23:02.786            10.264          5132.000
        25   02 Jun 2027 05:44:18.814   02 Jun 2027 05:45:25.435            66.621         33310.500
        26   02 Jun 2027 05:46:14.357   02 Jun 2027 05:47:05.065            50.708         25354.000
        27   02 Jun 2027 05:48:21.354   02 Jun 2027 05:48:36.052            14.698          7349.000
        28   02 Jun 2027 07:19:12.512   02 Jun 2027 07:21:15.456           122.944         61472.000
        29   02 Jun 2027 07:21:21.910   02 Jun 2027 07:22:32.115            70.205         35102.500
        30   02 Jun 2027 07:24:32.694   02 Jun 2027 07:24:50.243            17.549          8774.500
        31   02 Jun 2027 07:25:46.774   02 Jun 2027 07:25:49.017             2.243          1121.500
        32   02 Jun 2027 08:56:46.260   02 Jun 2027 08:59:34.092           167.832         83916.000
        33   02 Jun 2027 09:02:55.461   02 Jun 2027 09:04:06.231            70.770         35385.000
        34   02 Jun 2027 10:33:28.784   02 Jun 2027 10:34:07.217            38.433         17112.282
        35   02 Jun 2027 10:34:43.399   02 Jun 2027 10:34:44.362             0.963           295.875
        36   02 Jun 2027 10:36:12.824   02 Jun 2027 10:36:18.704             5.880          2091.312
        37   02 Jun 2027 10:37:09.281   02 Jun 2027 10:37:15.159             5.878          1580.437
        38   02 Jun 2027 10:37:25.374   02 Jun 2027 10:37:28.517             3.143           218.062
        39   02 Jun 2027 10:37:36.650   02 Jun 2027 10:37:39.388             2.738           235.406
        40   02 Jun 2027 10:38:01.820   02 Jun 2027 10:38:03.538             1.718           489.406
        41   02 Jun 2027 10:39:11.727   02 Jun 2027 10:39:18.084             6.357          1609.906
        42   02 Jun 2027 10:39:36.271   02 Jun 2027 10:39:38.332             2.061           543.187
        43   02 Jun 2027 10:39:46.848   02 Jun 2027 10:39:47.104             0.256            60.219
        44   03 Jun 2027 03:00:00.000   03 Jun 2027 03:00:14.780            14.780          7390.000
        45   03 Jun 2027 03:00:18.443   03 Jun 2027 03:00:18.443             0.000             0.000
        46   03 Jun 2027 03:01:12.072   03 Jun 2027 03:01:20.142             8.070          4035.000
        47   03 Jun 2027 03:03:10.109   03 Jun 2027 03:03:32.323            22.214         11107.000
        48   03 Jun 2027 04:21:56.197   03 Jun 2027 04:22:44.258            48.061         24030.500
        49   03 Jun 2027 04:22:51.062   03 Jun 2027 04:22:55.766             4.704          2352.000
        50   03 Jun 2027 04:23:41.298   03 Jun 2027 04:23:49.643             8.345          4172.500
        51   03 Jun 2027 04:34:16.620   03 Jun 2027 04:34:37.083            20.463         10231.500
        52   03 Jun 2027 05:55:48.028   03 Jun 2027 05:57:11.236            83.208         41604.000
        53   03 Jun 2027 05:57:48.168   03 Jun 2027 05:58:13.791            25.623         12811.500
        54   03 Jun 2027 05:58:32.765   03 Jun 2027 05:58:35.468             2.703          1351.500
        55   03 Jun 2027 06:00:31.421   03 Jun 2027 06:00:38.548             7.127          3563.500
        56   03 Jun 2027 07:30:43.217   03 Jun 2027 07:32:22.979            99.762         47938.313
        57   03 Jun 2027 07:32:58.842   03 Jun 2027 07:32:59.246             0.404            31.594
        58   03 Jun 2027 07:33:26.011   03 Jun 2027 07:33:28.377             2.366           507.469
        59   03 Jun 2027 07:34:03.930   03 Jun 2027 07:34:05.639             1.709           723.812
        60   03 Jun 2027 07:35:11.589   03 Jun 2027 07:35:16.353             4.764          1810.438
        61   03 Jun 2027 07:36:22.866   03 Jun 2027 07:36:27.268             4.402          1179.656
        62   03 Jun 2027 07:36:53.964   03 Jun 2027 07:36:55.690             1.726           669.813
        63   03 Jun 2027 07:37:40.731   03 Jun 2027 07:37:42.462             1.731           740.562
        64   03 Jun 2027 07:38:29.325   03 Jun 2027 07:38:33.317             3.992          1464.469
        65   03 Jun 2027 07:38:41.862   03 Jun 2027 07:38:44.216             2.354           184.219
        66   03 Jun 2027 07:39:35.581   03 Jun 2027 07:39:39.067             3.486          1598.906
        67   03 Jun 2027 09:08:40.267   03 Jun 2027 09:08:52.870            12.603          6104.750
        68   03 Jun 2027 09:12:47.624   03 Jun 2027 09:12:49.901             2.277           960.562
        69   03 Jun 2027 09:14:04.022   03 Jun 2027 09:14:09.879             5.857          2121.344
        70   03 Jun 2027 09:15:00.213   03 Jun 2027 09:15:05.467             5.254          1382.750
        71   03 Jun 2027 09:15:39.258   03 Jun 2027 09:15:41.435             2.177           244.969
        72   03 Jun 2027 09:15:50.308   03 Jun 2027 09:15:53.619             3.311           221.906
        73   03 Jun 2027 10:45:34.633   03 Jun 2027 10:45:43.524             8.891          4445.500
        74   03 Jun 2027 10:46:03.789   03 Jun 2027 10:46:08.418             4.629           993.969
        75   03 Jun 2027 10:48:55.677   03 Jun 2027 10:49:02.226             6.549          1964.187
        76   03 Jun 2027 10:49:29.094   03 Jun 2027 10:49:30.384             1.290           540.719
        77   03 Jun 2027 10:49:42.737   03 Jun 2027 10:49:46.232             3.495           265.656
        78   03 Jun 2027 10:50:16.005   03 Jun 2027 10:50:19.610             3.605           818.812
        79   03 Jun 2027 10:50:36.470   03 Jun 2027 10:50:38.570             2.100           516.687
        80   03 Jun 2027 10:51:16.205   03 Jun 2027 10:51:16.996             0.791            83.375
        81   03 Jun 2027 10:51:37.156   03 Jun 2027 10:51:38.992             1.836           507.062
        82   03 Jun 2027 10:51:46.304   03 Jun 2027 10:51:47.262             0.958           145.062
        83   04 Jun 2027 03:10:03.219   04 Jun 2027 03:11:25.806            82.587         41293.500
        84   04 Jun 2027 03:11:58.068   04 Jun 2027 03:12:06.258             8.190          4095.000
        85   04 Jun 2027 03:13:09.493   04 Jun 2027 03:13:18.665             9.172          4586.000
        86   04 Jun 2027 03:13:26.521   04 Jun 2027 03:13:26.521             0.000             0.000
        87   04 Jun 2027 03:13:30.441   04 Jun 2027 03:13:49.585            19.144          9572.000
        88   04 Jun 2027 03:14:25.719   04 Jun 2027 03:15:04.539            38.820         19410.000
        89   04 Jun 2027 04:33:52.049   04 Jun 2027 04:34:18.575            26.526         13263.000
        90   04 Jun 2027 04:35:41.328   04 Jun 2027 04:35:41.328             0.000             0.000
        91   04 Jun 2027 06:09:51.842   04 Jun 2027 06:12:27.301           155.459         75651.906
        92   04 Jun 2027 07:43:36.706   04 Jun 2027 07:43:53.414            16.708          3488.031
        93   04 Jun 2027 07:45:02.124   04 Jun 2027 07:45:03.196             1.072           354.969
        94   04 Jun 2027 07:45:55.412   04 Jun 2027 07:46:01.513             6.101           884.375
        95   04 Jun 2027 07:46:14.699   04 Jun 2027 07:46:18.399             3.700           191.937
        96   04 Jun 2027 07:47:11.218   04 Jun 2027 07:47:15.583             4.365          1439.625
        97   04 Jun 2027 07:48:31.732   04 Jun 2027 07:48:37.952             6.220          2048.875
        98   04 Jun 2027 07:49:04.598   04 Jun 2027 07:49:06.314             1.716           239.469
        99   04 Jun 2027 07:50:09.401   04 Jun 2027 07:50:17.403             8.002          1597.844
       100   04 Jun 2027 07:50:39.379   04 Jun 2027 07:50:43.149             3.770           361.594
       101   04 Jun 2027 07:50:57.238   04 Jun 2027 07:51:02.689             5.451           440.281
       102   04 Jun 2027 07:51:17.332   04 Jun 2027 07:51:18.248             0.916           295.875
       103   04 Jun 2027 07:52:10.161   04 Jun 2027 07:52:10.994             0.833           416.500
       104   04 Jun 2027 09:21:01.251   04 Jun 2027 09:21:13.853            12.602          4196.406
       105   04 Jun 2027 09:24:05.029   04 Jun 2027 09:24:10.092             5.063           653.281
       106   04 Jun 2027 09:24:26.018   04 Jun 2027 09:24:27.452             1.434           156.063
       107   04 Jun 2027 09:24:46.004   04 Jun 2027 09:24:48.097             2.093           153.719
       108   04 Jun 2027 09:24:54.060   04 Jun 2027 09:24:54.859             0.799           186.344
       109   04 Jun 2027 09:26:11.640   04 Jun 2027 09:26:11.812             0.172            27.375
       110   04 Jun 2027 09:27:12.431   04 Jun 2027 09:27:16.109             3.678          1823.562
       111   04 Jun 2027 09:27:45.477   04 Jun 2027 09:27:50.806             5.329           516.344
       112   04 Jun 2027 10:58:05.033   04 Jun 2027 10:58:21.022            15.989          6936.187
       113   04 Jun 2027 11:01:20.218   04 Jun 2027 11:01:25.405             5.187           255.750
       114   04 Jun 2027 11:01:35.390   04 Jun 2027 11:01:36.542             1.152           312.031
       115   04 Jun 2027 11:01:56.619   04 Jun 2027 11:01:57.774             1.155           440.313
       116   04 Jun 2027 11:02:22.561   04 Jun 2027 11:02:25.317             2.756           567.969
       117   04 Jun 2027 11:03:11.516   04 Jun 2027 11:03:15.008             3.492          1322.437
       118   04 Jun 2027 11:03:38.303   04 Jun 2027 11:03:40.570             2.267           479.594
       119   05 Jun 2027 03:22:22.170   05 Jun 2027 03:24:46.441           144.271         72135.500
       120   05 Jun 2027 03:25:15.609   05 Jun 2027 03:26:22.253            66.644         33322.000
       121   05 Jun 2027 04:45:43.624   05 Jun 2027 04:45:53.133             9.509          4754.500
       122   05 Jun 2027 04:45:56.648   05 Jun 2027 04:46:18.567            21.919         10959.500
       123   05 Jun 2027 06:22:06.248   05 Jun 2027 06:23:47.063           100.815         46887.906
       124   05 Jun 2027 06:24:05.004   05 Jun 2027 06:24:07.215             2.211           367.687
       125   05 Jun 2027 06:24:23.004   05 Jun 2027 06:24:25.255             2.251           493.406
       126   05 Jun 2027 06:24:56.827   05 Jun 2027 06:25:00.894             4.067           970.000
       127   05 Jun 2027 07:56:10.359   05 Jun 2027 07:56:16.291             5.932          2779.281
       128   05 Jun 2027 07:58:13.215   05 Jun 2027 07:58:18.332             5.117           377.844
       129   05 Jun 2027 07:59:32.706   05 Jun 2027 07:59:37.455             4.749          1008.781
       130   05 Jun 2027 08:01:19.235   05 Jun 2027 08:01:27.695             8.460          2723.000
       131   05 Jun 2027 08:01:32.913   05 Jun 2027 08:01:32.913             0.000             0.000
       132   05 Jun 2027 08:02:42.757   05 Jun 2027 08:02:49.532             6.775          2345.687
       133   05 Jun 2027 08:03:39.411   05 Jun 2027 08:03:45.137             5.726          1410.594
       134   05 Jun 2027 08:03:50.394   05 Jun 2027 08:03:51.660             1.266            45.562
       135   05 Jun 2027 08:04:06.062   05 Jun 2027 08:04:07.747             1.685           103.687
       136   05 Jun 2027 09:33:14.888   05 Jun 2027 09:33:24.125             9.237          4470.562
       137   05 Jun 2027 09:36:55.158   05 Jun 2027 09:37:12.311            17.153           905.344
       138   05 Jun 2027 09:38:10.909   05 Jun 2027 09:38:14.688             3.779          1342.063
       139   05 Jun 2027 09:38:30.997   05 Jun 2027 09:38:32.640             1.643           397.469
       140   05 Jun 2027 09:39:48.810   05 Jun 2027 09:39:53.576             4.766           969.437
       141   05 Jun 2027 11:10:10.703   05 Jun 2027 11:10:22.864            12.161          5110.625
       142   05 Jun 2027 11:10:34.766   05 Jun 2027 11:10:35.241             0.475           204.219
       143   05 Jun 2027 11:13:08.359   05 Jun 2027 11:13:11.927             3.568           962.469
       144   05 Jun 2027 11:13:32.225   05 Jun 2027 11:13:33.837             1.612           618.875
       145   05 Jun 2027 11:13:43.782   05 Jun 2027 11:13:45.058             1.276           310.781
       146   05 Jun 2027 11:13:56.135   05 Jun 2027 11:14:03.811             7.676           236.313
       147   05 Jun 2027 11:14:25.376   05 Jun 2027 11:14:28.185             2.809           663.469
       148   05 Jun 2027 11:14:57.530   05 Jun 2027 11:14:59.808             2.278           917.031
       149   06 Jun 2027 03:34:50.789   06 Jun 2027 03:36:57.579           126.790         63395.000
       150   06 Jun 2027 03:37:44.871   06 Jun 2027 03:38:47.271            62.400         31200.000
       151   06 Jun 2027 04:57:47.847   06 Jun 2027 04:57:57.739             9.892          4946.000
       152   06 Jun 2027 04:58:48.566   06 Jun 2027 04:58:58.802            10.236          5118.000
       153   06 Jun 2027 05:00:40.975   06 Jun 2027 05:00:48.827             7.852          3926.000
       154   06 Jun 2027 06:34:16.859   06 Jun 2027 06:35:43.224            86.365         43090.657
       155   06 Jun 2027 06:35:59.441   06 Jun 2027 06:36:01.939             2.498           139.281
       156   06 Jun 2027 06:36:32.782   06 Jun 2027 06:36:34.234             1.452           714.938
       157   06 Jun 2027 06:36:44.783   06 Jun 2027 06:36:46.894             2.111           131.656
       158   06 Jun 2027 06:37:16.289   06 Jun 2027 06:37:23.400             7.111           648.656
       159   06 Jun 2027 08:09:22.074   06 Jun 2027 08:09:27.152             5.078          2497.719
       160   06 Jun 2027 08:09:58.623   06 Jun 2027 08:10:00.986             2.363           151.531
       161   06 Jun 2027 08:11:01.892   06 Jun 2027 08:11:08.461             6.569           661.094
       162   06 Jun 2027 08:12:27.738   06 Jun 2027 08:12:31.176             3.438          1430.719
       163   06 Jun 2027 08:13:02.396   06 Jun 2027 08:13:04.954             2.558           957.781
       164   06 Jun 2027 08:13:32.232   06 Jun 2027 08:13:39.414             7.182           799.656
       165   06 Jun 2027 08:14:07.826   06 Jun 2027 08:14:09.076             1.250            51.156
       166   06 Jun 2027 08:14:37.871   06 Jun 2027 08:14:38.685             0.814           367.344
       167   06 Jun 2027 08:15:09.080   06 Jun 2027 08:15:11.444             2.364           944.250
       168   06 Jun 2027 08:15:52.755   06 Jun 2027 08:15:55.368             2.613           866.000
       169   06 Jun 2027 08:16:00.474   06 Jun 2027 08:16:01.495             1.021           155.969
       170   06 Jun 2027 09:45:44.215   06 Jun 2027 09:45:54.186             9.971          4806.719
       171   06 Jun 2027 09:48:26.994   06 Jun 2027 09:48:28.931             1.937           794.594
       172   06 Jun 2027 09:49:19.326   06 Jun 2027 09:49:25.071             5.745          1274.969
       173   06 Jun 2027 09:50:19.183   06 Jun 2027 09:50:24.037             4.854          1042.813
       174   06 Jun 2027 09:51:09.704   06 Jun 2027 09:51:17.137             7.433          1427.094
       175   06 Jun 2027 11:23:14.083   06 Jun 2027 11:23:25.397            11.314          5346.969
       176   06 Jun 2027 11:23:55.225   06 Jun 2027 11:23:59.607             4.382           623.406
       177   06 Jun 2027 11:25:17.107   06 Jun 2027 11:25:22.911             5.804          1009.656
       178   06 Jun 2027 11:25:56.047   06 Jun 2027 11:25:59.267             3.220           353.375
       179   06 Jun 2027 11:26:24.398   06 Jun 2027 11:26:27.769             3.371           363.906
       180   06 Jun 2027 11:27:11.076   06 Jun 2027 11:27:17.112             6.036          1066.813
       181   06 Jun 2027 11:27:37.041   06 Jun 2027 11:27:39.909             2.868           208.719
       182   07 Jun 2027 03:46:24.558   07 Jun 2027 03:47:01.250            36.692         18346.000
       183   07 Jun 2027 03:47:13.916   07 Jun 2027 03:48:02.640            48.724         24362.000
       184   07 Jun 2027 03:48:25.216   07 Jun 2027 03:48:53.841            28.625         14312.500
       185   07 Jun 2027 03:49:46.658   07 Jun 2027 03:50:03.769            17.111          8555.500
       186   07 Jun 2027 05:09:43.746   07 Jun 2027 05:11:03.961            80.215         40107.500
       187   07 Jun 2027 06:46:21.432   07 Jun 2027 06:47:57.349            95.917         46954.718
       188   07 Jun 2027 06:48:11.345   07 Jun 2027 06:48:13.007             1.662           357.469
       189   07 Jun 2027 06:48:46.329   07 Jun 2027 06:48:48.291             1.962           741.438
       190   07 Jun 2027 08:21:31.840   07 Jun 2027 08:21:38.826             6.986          2937.500
       191   07 Jun 2027 08:22:59.345   07 Jun 2027 08:23:04.656             5.311          2172.937
       192   07 Jun 2027 08:24:18.419   07 Jun 2027 08:24:24.202             5.783           761.125
       193   07 Jun 2027 08:25:04.823   07 Jun 2027 08:25:07.152             2.329          1164.500
       194   07 Jun 2027 08:25:36.745   07 Jun 2027 08:25:47.881            11.136          1029.687
       195   07 Jun 2027 08:26:01.093   07 Jun 2027 08:26:02.199             1.106           354.375
       196   07 Jun 2027 08:26:28.802   07 Jun 2027 08:26:34.338             5.536           792.781
       197   07 Jun 2027 08:26:49.284   07 Jun 2027 08:26:50.687             1.403           154.500
       198   07 Jun 2027 08:27:03.706   07 Jun 2027 08:27:06.572             2.866            45.563
       199   07 Jun 2027 09:57:45.531   07 Jun 2027 09:57:57.689            12.158          5394.906
       200   07 Jun 2027 10:00:16.942   07 Jun 2027 10:00:20.916             3.974           261.719
       201   07 Jun 2027 10:00:28.786   07 Jun 2027 10:00:29.674             0.888            69.625
       202   07 Jun 2027 10:00:44.234   07 Jun 2027 10:00:46.790             2.556           163.469
       203   07 Jun 2027 10:01:05.091   07 Jun 2027 10:01:07.321             2.230           535.094
       204   07 Jun 2027 10:02:16.932   07 Jun 2027 10:02:19.744             2.812           815.969
       205   07 Jun 2027 10:02:28.984   07 Jun 2027 10:02:30.902             1.918            86.594
       206   07 Jun 2027 10:03:15.296   07 Jun 2027 10:03:16.800             1.504           695.406
       207   07 Jun 2027 11:35:19.856   07 Jun 2027 11:35:32.697            12.841          5136.531
       208   07 Jun 2027 11:36:52.445   07 Jun 2027 11:36:54.176             1.731           215.156
       209   07 Jun 2027 11:37:37.956   07 Jun 2027 11:37:40.860             2.904           109.313
       210   07 Jun 2027 11:38:00.567   07 Jun 2027 11:38:06.728             6.161           124.125
       211   07 Jun 2027 11:38:51.477   07 Jun 2027 11:38:54.151             2.674           913.594
       212   07 Jun 2027 11:39:28.669   07 Jun 2027 11:39:33.628             4.959           515.281
       213   07 Jun 2027 11:39:50.147   07 Jun 2027 11:39:51.312             1.165           222.719
       214   08 Jun 2027 03:47:31.668   08 Jun 2027 03:47:40.132             8.464          4232.000
       215   08 Jun 2027 03:58:21.299   08 Jun 2027 03:59:03.419            42.120         21060.000
       216   08 Jun 2027 03:59:09.323   08 Jun 2027 04:01:04.397           115.074         57537.000
       217   08 Jun 2027 04:01:48.362   08 Jun 2027 04:01:48.362             0.000             0.000
       218   08 Jun 2027 05:22:19.414   08 Jun 2027 05:22:53.387            33.973         16986.500
       219   08 Jun 2027 05:23:31.460   08 Jun 2027 05:23:31.460             0.000             0.000
       220   08 Jun 2027 05:24:57.989   08 Jun 2027 05:25:03.753             5.764          2882.000
       221   08 Jun 2027 06:58:05.501   08 Jun 2027 06:59:55.442           109.941         54640.375
       222   08 Jun 2027 07:00:46.751   08 Jun 2027 07:00:47.526             0.775           387.500
       223   08 Jun 2027 07:00:53.445   08 Jun 2027 07:00:58.720             5.275          1051.875
       224   08 Jun 2027 07:01:33.605   08 Jun 2027 07:01:36.766             3.161           983.219
       225   08 Jun 2027 08:32:55.984   08 Jun 2027 08:33:03.931             7.947          2947.125
       226   08 Jun 2027 08:35:03.608   08 Jun 2027 08:35:09.513             5.905          2356.125
       227   08 Jun 2027 08:36:07.228   08 Jun 2027 08:36:09.911             2.683          1214.000
       228   08 Jun 2027 08:37:07.000   08 Jun 2027 08:37:17.909            10.909          1490.406
       229   08 Jun 2027 08:37:50.729   08 Jun 2027 08:37:58.338             7.609           455.875
       230   08 Jun 2027 08:38:21.091   08 Jun 2027 08:38:24.292             3.201           684.531
       231   08 Jun 2027 08:38:40.981   08 Jun 2027 08:38:43.471             2.490           514.000
       232   08 Jun 2027 08:38:52.384   08 Jun 2027 08:38:52.384             0.000             0.000
       233   08 Jun 2027 08:39:39.478   08 Jun 2027 08:39:44.487             5.009          1747.062
       234   08 Jun 2027 10:09:32.111   08 Jun 2027 10:09:47.514            15.403          7018.906
       235   08 Jun 2027 10:13:11.359   08 Jun 2027 10:13:13.190             1.831           451.906
       236   08 Jun 2027 10:13:51.065   08 Jun 2027 10:13:55.278             4.213          1011.875
       237   08 Jun 2027 10:13:55.324   08 Jun 2027 10:13:55.476             0.152             1.438
       238   08 Jun 2027 10:14:35.089   08 Jun 2027 10:14:36.526             1.437            60.375
       239   08 Jun 2027 10:14:50.013   08 Jun 2027 10:14:51.096             1.083           169.875
       240   08 Jun 2027 11:47:49.931   08 Jun 2027 11:48:01.793            11.862          5002.875
       241   08 Jun 2027 11:48:48.665   08 Jun 2027 11:48:50.813             2.148           745.031
       242   08 Jun 2027 11:51:00.476   08 Jun 2027 11:51:04.502             4.026          1684.375
       243   08 Jun 2027 11:51:14.178   08 Jun 2027 11:51:16.568             2.390           302.375
       244   08 Jun 2027 11:51:32.096   08 Jun 2027 11:51:34.339             2.243            62.031
       245   09 Jun 2027 03:58:48.052   09 Jun 2027 03:59:13.176            25.124         12562.000
       246   09 Jun 2027 04:10:19.340   09 Jun 2027 04:11:14.980            55.640         27820.000
       247   09 Jun 2027 05:32:58.497   09 Jun 2027 05:33:57.092            58.595         29297.500
       248   09 Jun 2027 05:34:33.995   09 Jun 2027 05:35:30.692            56.697         28348.500
       249   09 Jun 2027 07:08:15.456   09 Jun 2027 07:09:18.194            62.738         31369.000
       250   09 Jun 2027 07:09:49.621   09 Jun 2027 07:10:55.905            66.284         30965.719
       251   09 Jun 2027 07:11:08.744   09 Jun 2027 07:11:10.264             1.520           173.875
       252   09 Jun 2027 07:12:33.219   09 Jun 2027 07:12:33.219             0.000             0.000
       253   09 Jun 2027 07:13:10.795   09 Jun 2027 07:13:20.220             9.425          3217.719
       254   09 Jun 2027 07:14:15.225   09 Jun 2027 07:14:20.157             4.932          1695.281
       255   09 Jun 2027 08:44:50.018   09 Jun 2027 08:44:56.654             6.636          1523.937
       256   09 Jun 2027 08:47:03.728   09 Jun 2027 08:47:12.072             8.344          2333.906
       257   09 Jun 2027 08:48:12.690   09 Jun 2027 08:48:13.459             0.769           330.969
       258   09 Jun 2027 08:49:08.894   09 Jun 2027 08:49:15.908             7.014          1293.875
       259   09 Jun 2027 08:49:55.733   09 Jun 2027 08:49:57.758             2.025           962.812
       260   09 Jun 2027 08:50:31.772   09 Jun 2027 08:50:35.757             3.985           916.656
       261   09 Jun 2027 08:50:55.341   09 Jun 2027 08:50:57.340             1.999           415.875
       262   09 Jun 2027 08:51:31.879   09 Jun 2027 08:51:34.487             2.608           667.063
       263   09 Jun 2027 08:52:18.520   09 Jun 2027 08:52:19.034             0.514           257.000
       264   09 Jun 2027 10:21:53.358   09 Jun 2027 10:22:07.068            13.710          5009.219
       265   09 Jun 2027 10:23:56.037   09 Jun 2027 10:23:59.718             3.681           369.656
       266   09 Jun 2027 10:24:48.805   09 Jun 2027 10:24:52.993             4.188           696.031
       267   09 Jun 2027 10:25:59.340   09 Jun 2027 10:26:02.759             3.419          1093.750
       268   09 Jun 2027 10:26:27.473   09 Jun 2027 10:26:29.036             1.563           585.344
       269   09 Jun 2027 10:27:04.171   09 Jun 2027 10:27:06.139             1.968           863.094
       270   09 Jun 2027 10:27:25.083   09 Jun 2027 10:27:26.371             1.288           188.719
       271   09 Jun 2027 11:59:47.627   09 Jun 2027 12:00:00.000            12.373          6164.375
       272   10 Jun 2027 04:10:05.549   10 Jun 2027 04:10:41.347            35.798         17899.000
       273   10 Jun 2027 04:22:18.565   10 Jun 2027 04:23:09.478            50.913         25456.500
       274   10 Jun 2027 05:44:34.278   10 Jun 2027 05:45:40.567            66.289         33144.500
       275   10 Jun 2027 05:46:29.553   10 Jun 2027 05:46:56.759            27.206         13603.000
       276   10 Jun 2027 05:48:36.605   10 Jun 2027 05:48:52.164            15.559          7779.500
       277   10 Jun 2027 07:19:27.117   10 Jun 2027 07:21:32.618           125.501         62750.500
       278   10 Jun 2027 07:21:37.398   10 Jun 2027 07:21:42.038             4.640          2320.000
       279   10 Jun 2027 07:23:28.340   10 Jun 2027 07:23:37.434             9.094          4330.250
       280   10 Jun 2027 07:25:08.581   10 Jun 2027 07:25:16.237             7.656          2848.344
       281   10 Jun 2027 07:26:32.725   10 Jun 2027 07:26:37.475             4.750          2278.500
       282   10 Jun 2027 08:57:01.544   10 Jun 2027 08:57:14.695            13.151          5389.313
       283   10 Jun 2027 08:57:57.743   10 Jun 2027 08:58:04.446             6.703           103.844
       284   10 Jun 2027 09:00:03.816   10 Jun 2027 09:00:04.679             0.863           386.031
       285   10 Jun 2027 09:01:16.773   10 Jun 2027 09:01:19.251             2.478          1195.156
       286   10 Jun 2027 09:01:49.700   10 Jun 2027 09:01:52.611             2.911           423.781
       287   10 Jun 2027 09:02:12.453   10 Jun 2027 09:02:14.105             1.652           620.062
       288   10 Jun 2027 09:03:32.737   10 Jun 2027 09:03:38.648             5.911          1899.875
       289   10 Jun 2027 09:04:11.911   10 Jun 2027 09:04:14.406             2.495           785.687
       290   10 Jun 2027 09:04:22.261   10 Jun 2027 09:04:22.560             0.299           149.500
       291   10 Jun 2027 10:33:44.376   10 Jun 2027 10:33:56.007            11.631          5467.594
       292   10 Jun 2027 10:36:58.369   10 Jun 2027 10:37:00.471             2.102           128.250
       293   10 Jun 2027 10:37:48.455   10 Jun 2027 10:37:50.807             2.352           764.750
       294   10 Jun 2027 10:38:02.877   10 Jun 2027 10:38:04.297             1.420            19.188
       295   10 Jun 2027 10:38:39.170   10 Jun 2027 10:38:45.293             6.123           650.719
       296   10 Jun 2027 10:39:08.796   10 Jun 2027 10:39:10.705             1.909           421.250
       297   10 Jun 2027 10:39:53.206   10 Jun 2027 10:39:56.401             3.195           588.219
       298   10 Jun 2027 10:40:04.717   10 Jun 2027 10:40:10.122             5.405           243.281
       299   11 Jun 2027 03:00:00.000   11 Jun 2027 03:00:14.487            14.487          7243.500
       300   11 Jun 2027 03:00:44.759   11 Jun 2027 03:00:57.973            13.214          6607.000
       301   11 Jun 2027 03:01:30.104   11 Jun 2027 03:01:30.104             0.000             0.000
       302   11 Jun 2027 03:01:34.772   11 Jun 2027 03:01:42.502             7.730          3865.000
       303   11 Jun 2027 03:01:57.279   11 Jun 2027 03:01:57.754             0.475           237.500
       304   11 Jun 2027 03:03:25.417   11 Jun 2027 03:03:46.837            21.420         10710.000
       305   11 Jun 2027 03:04:18.123   11 Jun 2027 03:04:37.546            19.423          9711.500
       306   11 Jun 2027 04:22:11.428   11 Jun 2027 04:22:56.202            44.774         22387.000
       307   11 Jun 2027 04:34:33.346   11 Jun 2027 04:34:52.008            18.662          9331.000
       308   11 Jun 2027 05:56:02.846   11 Jun 2027 05:57:26.006            83.160         41580.000
       309   11 Jun 2027 05:58:04.496   11 Jun 2027 05:58:48.792            44.296         22148.000
       310   11 Jun 2027 06:00:06.632   11 Jun 2027 06:00:10.720             4.088          2044.000
       311   11 Jun 2027 06:01:03.169   11 Jun 2027 06:01:12.718             9.549          4774.500
       312   11 Jun 2027 07:30:57.488   11 Jun 2027 07:32:03.939            66.451         32922.844
       313   11 Jun 2027 07:33:06.485   11 Jun 2027 07:33:14.150             7.665          1919.781
       314   11 Jun 2027 07:33:43.856   11 Jun 2027 07:33:45.264             1.408           506.875
       315   11 Jun 2027 07:35:28.437   11 Jun 2027 07:35:32.595             4.158          1765.094
       316   11 Jun 2027 07:36:38.466   11 Jun 2027 07:36:44.775             6.309          1102.844
       317   11 Jun 2027 07:37:11.665   11 Jun 2027 07:37:15.292             3.627           724.594
       318   11 Jun 2027 07:37:40.876   11 Jun 2027 07:37:43.555             2.679           651.250
       319   11 Jun 2027 07:38:08.434   11 Jun 2027 07:38:14.857             6.423           324.719
       320   11 Jun 2027 07:38:30.164   11 Jun 2027 07:38:31.727             1.563           264.094
       321   11 Jun 2027 07:39:27.205   11 Jun 2027 07:39:30.657             3.452          1135.469
       322   11 Jun 2027 09:08:55.816   11 Jun 2027 09:09:06.713            10.897          4711.625
       323   11 Jun 2027 09:13:02.794   11 Jun 2027 09:13:04.925             2.131           928.500
       324   11 Jun 2027 09:14:21.114   11 Jun 2027 09:14:27.345             6.231          2169.281
       325   11 Jun 2027 09:15:49.780   11 Jun 2027 09:15:57.173             7.393          2457.937
       326   11 Jun 2027 09:16:05.767   11 Jun 2027 09:16:08.514             2.747           222.531
       327   11 Jun 2027 10:45:51.508   11 Jun 2027 10:45:57.647             6.139          3069.500
       328   11 Jun 2027 10:46:06.128   11 Jun 2027 10:46:11.877             5.749          2578.031
       329   11 Jun 2027 10:48:26.551   11 Jun 2027 10:48:32.647             6.096          1994.281
       330   11 Jun 2027 10:48:55.194   11 Jun 2027 10:48:57.328             2.134           353.406
       331   11 Jun 2027 10:49:50.628   11 Jun 2027 10:49:53.642             3.014          1493.500
       332   11 Jun 2027 10:50:05.918   11 Jun 2027 10:50:07.973             2.055           383.625
       333   11 Jun 2027 10:51:09.126   11 Jun 2027 10:51:11.303             2.177          1088.500
       334   11 Jun 2027 10:51:31.414   11 Jun 2027 10:51:36.422             5.008           598.531
       335   11 Jun 2027 10:51:54.107   11 Jun 2027 10:51:56.807             2.700           552.656
       336   11 Jun 2027 10:52:03.190   11 Jun 2027 10:52:16.323            13.133           199.469
       337   12 Jun 2027 03:10:19.447   12 Jun 2027 03:11:33.361            73.914         36957.000
       338   12 Jun 2027 03:12:08.208   12 Jun 2027 03:12:08.454             0.246           123.000
       339   12 Jun 2027 03:12:17.414   12 Jun 2027 03:12:29.900            12.486          6243.000
       340   12 Jun 2027 03:12:50.026   12 Jun 2027 03:12:56.745             6.719          3359.500
       341   12 Jun 2027 03:13:32.744   12 Jun 2027 03:13:33.245             0.501           250.500
       342   12 Jun 2027 03:13:44.966   12 Jun 2027 03:14:04.505            19.539          9769.500
       343   12 Jun 2027 04:34:07.301   12 Jun 2027 04:34:33.258            25.957         12978.500
       344   12 Jun 2027 06:10:07.675   12 Jun 2027 06:13:00.894           173.219         86609.500
       345   12 Jun 2027 06:13:06.743   12 Jun 2027 06:13:12.965             6.222          2716.219
       346   12 Jun 2027 07:43:51.541   12 Jun 2027 07:44:07.918            16.377          4046.750
       347   12 Jun 2027 07:45:20.114   12 Jun 2027 07:45:21.296             1.182           408.219
       348   12 Jun 2027 07:46:25.210   12 Jun 2027 07:46:26.995             1.785           408.469
       349   12 Jun 2027 07:46:43.636   12 Jun 2027 07:46:43.636             0.000             0.000
       350   12 Jun 2027 07:47:28.024   12 Jun 2027 07:47:35.041             7.017          1858.688
       351   12 Jun 2027 07:48:47.645   12 Jun 2027 07:48:52.784             5.139          2018.125
       352   12 Jun 2027 07:50:20.124   12 Jun 2027 07:50:26.150             6.026          2241.156
       353   12 Jun 2027 07:50:57.627   12 Jun 2027 07:50:59.787             2.160           411.344
       354   12 Jun 2027 07:51:43.294   12 Jun 2027 07:51:46.054             2.760          1359.594
       355   12 Jun 2027 09:21:17.284   12 Jun 2027 09:21:33.596            16.312          7046.812
       356   12 Jun 2027 09:23:35.313   12 Jun 2027 09:23:40.485             5.172          1105.750
       357   12 Jun 2027 09:23:59.635   12 Jun 2027 09:24:03.802             4.167           589.719
       358   12 Jun 2027 09:24:41.386   12 Jun 2027 09:24:43.370             1.984           131.406
       359   12 Jun 2027 09:25:09.740   12 Jun 2027 09:25:10.591             0.851           346.750
       360   12 Jun 2027 09:26:35.732   12 Jun 2027 09:26:44.319             8.587          1415.531
       361   12 Jun 2027 09:27:44.557   12 Jun 2027 09:27:47.777             3.220           559.563
       362   12 Jun 2027 10:58:20.846   12 Jun 2027 10:58:32.987            12.141          5862.844
       363   12 Jun 2027 11:00:50.069   12 Jun 2027 11:00:52.293             2.224           551.312
       364   12 Jun 2027 11:01:42.218   12 Jun 2027 11:01:44.284             2.066           194.625
       365   12 Jun 2027 11:01:57.540   12 Jun 2027 11:02:02.930             5.390           288.906
       366   12 Jun 2027 11:02:08.442   12 Jun 2027 11:02:09.032             0.590            58.000
       367   12 Jun 2027 11:03:02.475   12 Jun 2027 11:03:06.080             3.605          1287.969
       368   12 Jun 2027 11:03:55.269   12 Jun 2027 11:03:57.683             2.414           525.781
       369   13 Jun 2027 03:22:37.819   13 Jun 2027 03:24:49.872           132.053         66026.500
       370   13 Jun 2027 03:25:21.747   13 Jun 2027 03:26:10.366            48.619         24309.500
       371   13 Jun 2027 04:45:58.876   13 Jun 2027 04:46:32.987            34.111         17055.500
       372   13 Jun 2027 06:22:22.430   13 Jun 2027 06:24:18.349           115.919         57065.437
       373   13 Jun 2027 06:24:20.907   13 Jun 2027 06:24:21.393             0.486            12.938
       374   13 Jun 2027 06:24:39.504   13 Jun 2027 06:24:41.957             2.453           470.156
       375   13 Jun 2027 06:25:12.766   13 Jun 2027 06:25:15.924             3.158           934.219
       376   13 Jun 2027 07:56:27.502   13 Jun 2027 07:56:35.698             8.196          3210.844
       377   13 Jun 2027 07:58:22.968   13 Jun 2027 07:58:25.008             2.040           162.781
       378   13 Jun 2027 07:59:17.409   13 Jun 2027 07:59:21.072             3.663          1478.625
       379   13 Jun 2027 08:00:46.057   13 Jun 2027 08:00:51.287             5.230          1759.187
       380   13 Jun 2027 08:01:17.427   13 Jun 2027 08:01:20.834             3.407           771.531
       381   13 Jun 2027 08:02:50.914   13 Jun 2027 08:02:56.485             5.571          2318.500
       382   13 Jun 2027 08:03:00.996   13 Jun 2027 08:03:01.510             0.514            10.906
       383   13 Jun 2027 08:03:56.462   13 Jun 2027 08:04:00.125             3.663          1417.969
       384   13 Jun 2027 08:04:05.680   13 Jun 2027 08:04:07.629             1.949            65.438
       385   13 Jun 2027 08:04:21.548   13 Jun 2027 08:04:22.031             0.483            65.344
       386   13 Jun 2027 09:33:29.874   13 Jun 2027 09:33:40.691            10.817          4671.281
       387   13 Jun 2027 09:36:41.850   13 Jun 2027 09:36:42.496             0.646            41.719
       388   13 Jun 2027 09:37:56.537   13 Jun 2027 09:38:00.175             3.638          1749.531
       389   13 Jun 2027 09:38:35.277   13 Jun 2027 09:38:39.800             4.523           728.719
       390   13 Jun 2027 09:39:33.554   13 Jun 2027 09:39:37.419             3.865          1520.875
       391   13 Jun 2027 09:40:09.639   13 Jun 2027 09:40:11.964             2.325           915.094
       392   13 Jun 2027 11:10:27.171   13 Jun 2027 11:10:42.093            14.922          6602.469
       393   13 Jun 2027 11:10:50.894   13 Jun 2027 11:10:51.800             0.906           222.094
       394   13 Jun 2027 11:14:22.933   13 Jun 2027 11:14:26.984             4.051          1449.531
