uniorb/output/strategy_4/Camera/Camera_KinoSat_111507.txt

KinoSat_111507
-------------------------
    Access    *     Start Time (UTCG)     *     Stop Time (UTCG)  *   Duration (s) *   Data (Mbytes)
         1   01 Jun 2027 03:00:00.000   01 Jun 2027 03:00:38.579            38.579         19289.500
         2   01 Jun 2027 03:01:48.909   01 Jun 2027 03:01:48.909             0.000             0.000
         3   01 Jun 2027 03:02:19.613   01 Jun 2027 03:02:21.974             2.361          1180.500
         4   01 Jun 2027 03:02:58.419   01 Jun 2027 03:03:02.562             4.143          2071.500
         5   01 Jun 2027 03:03:09.986   01 Jun 2027 03:03:14.715             4.729          2364.500
         6   01 Jun 2027 03:04:30.947   01 Jun 2027 03:04:44.566            13.619          6809.500
         7   01 Jun 2027 03:04:52.878   01 Jun 2027 03:05:06.727            13.849          6924.500
         8   01 Jun 2027 04:36:58.929   01 Jun 2027 04:38:38.851            99.922         49961.000
         9   01 Jun 2027 04:38:50.897   01 Jun 2027 04:38:51.801             0.904           452.000
        10   01 Jun 2027 04:40:37.606   01 Jun 2027 04:40:56.210            18.604          9302.000
        11   01 Jun 2027 04:41:25.062   01 Jun 2027 04:41:50.054            24.992         12496.000
        12   01 Jun 2027 06:00:37.951   01 Jun 2027 06:01:56.497            78.546         39273.000
        13   01 Jun 2027 07:37:01.288   01 Jun 2027 07:38:51.985           110.697         55348.500
        14   01 Jun 2027 07:39:24.835   01 Jun 2027 07:39:54.459            29.624         14812.000
        15   01 Jun 2027 07:40:28.436   01 Jun 2027 07:40:28.436             0.000             0.000
        16   01 Jun 2027 09:11:06.453   01 Jun 2027 09:12:58.265           111.812         55906.000
        17   01 Jun 2027 09:13:12.688   01 Jun 2027 09:13:14.268             1.580           790.000
        18   01 Jun 2027 09:14:09.030   01 Jun 2027 09:14:25.916            16.886          8443.000
        19   01 Jun 2027 09:15:27.548   01 Jun 2027 09:16:10.896            43.348         21674.000
        20   01 Jun 2027 09:19:01.054   01 Jun 2027 09:19:03.906             2.852          1426.000
        21   01 Jun 2027 10:48:08.902   01 Jun 2027 10:50:38.704           149.802         74901.000
        22   01 Jun 2027 10:51:13.015   01 Jun 2027 10:51:21.849             8.834          4417.000
        23   01 Jun 2027 10:53:11.101   01 Jun 2027 10:53:18.721             7.620          3810.000
        24   01 Jun 2027 10:53:35.064   01 Jun 2027 10:53:45.089            10.025          5012.500
        25   02 Jun 2027 03:11:05.785   02 Jun 2027 03:12:07.280            61.495         30747.500
        26   02 Jun 2027 03:12:13.689   02 Jun 2027 03:12:52.482            38.793         19396.500
        27   02 Jun 2027 03:13:16.699   02 Jun 2027 03:13:33.362            16.663          8331.500
        28   02 Jun 2027 03:15:53.446   02 Jun 2027 03:15:56.897             3.451          1725.500
        29   02 Jun 2027 03:16:18.467   02 Jun 2027 03:16:34.440            15.973          7986.500
        30   02 Jun 2027 04:50:11.372   02 Jun 2027 04:53:44.154           212.782        106391.000
        31   02 Jun 2027 06:12:42.892   02 Jun 2027 06:13:36.972            54.080         27040.000
        32   02 Jun 2027 07:49:11.865   02 Jun 2027 07:52:11.374           179.509         89754.500
        33   02 Jun 2027 09:24:17.994   02 Jun 2027 09:25:48.345            90.351         45175.500
        34   02 Jun 2027 09:26:35.375   02 Jun 2027 09:26:47.500            12.125          5948.218
        35   02 Jun 2027 09:27:55.510   02 Jun 2027 09:28:01.921             6.411           948.375
        36   02 Jun 2027 09:28:09.455   02 Jun 2027 09:28:11.866             2.411            19.406
        37   02 Jun 2027 09:28:43.434   02 Jun 2027 09:28:43.967             0.533             4.906
        38   02 Jun 2027 09:29:05.620   02 Jun 2027 09:29:08.576             2.956            92.687
        39   02 Jun 2027 09:29:34.137   02 Jun 2027 09:29:35.341             1.204           219.531
        40   02 Jun 2027 09:30:36.795   02 Jun 2027 09:30:42.826             6.031          1856.344
        41   02 Jun 2027 09:30:55.565   02 Jun 2027 09:30:56.438             0.873            42.531
        42   02 Jun 2027 09:30:57.301   02 Jun 2027 09:30:57.786             0.485            26.969
        43   02 Jun 2027 11:00:40.146   02 Jun 2027 11:00:50.587            10.441          4313.125
        44   02 Jun 2027 11:02:05.140   02 Jun 2027 11:02:09.633             4.493          1596.250
        45   02 Jun 2027 11:02:48.004   02 Jun 2027 11:02:49.042             1.038           467.125
        46   02 Jun 2027 11:03:56.305   02 Jun 2027 11:04:02.147             5.842          1069.375
        47   02 Jun 2027 11:04:37.031   02 Jun 2027 11:04:38.712             1.681           683.500
        48   02 Jun 2027 11:04:48.708   02 Jun 2027 11:04:52.915             4.207            91.375
        49   02 Jun 2027 11:05:03.284   02 Jun 2027 11:05:05.629             2.345            60.625
        50   02 Jun 2027 11:06:05.734   02 Jun 2027 11:06:09.729             3.995          1521.906
        51   02 Jun 2027 11:06:15.766   02 Jun 2027 11:06:17.633             1.867           188.656
        52   02 Jun 2027 11:06:35.893   02 Jun 2027 11:06:39.077             3.184           361.437
        53   02 Jun 2027 11:06:50.964   02 Jun 2027 11:06:51.763             0.799           371.469
        54   03 Jun 2027 03:23:05.442   03 Jun 2027 03:23:49.715            44.273         22136.500
        55   03 Jun 2027 03:24:11.256   03 Jun 2027 03:26:36.681           145.425         72712.500
        56   03 Jun 2027 03:26:47.444   03 Jun 2027 03:27:14.368            26.924         13462.000
        57   03 Jun 2027 05:01:18.267   03 Jun 2027 05:01:56.337            38.070         19035.000
        58   03 Jun 2027 05:02:08.816   03 Jun 2027 05:02:56.644            47.828         23422.500
        59   03 Jun 2027 05:03:35.529   03 Jun 2027 05:03:37.347             1.818           706.500
        60   03 Jun 2027 05:04:18.524   03 Jun 2027 05:04:19.236             0.712           307.094
        61   03 Jun 2027 05:04:38.029   03 Jun 2027 05:04:40.083             2.054            64.156
        62   03 Jun 2027 06:24:47.066   03 Jun 2027 06:24:59.148            12.082          3869.438
        63   03 Jun 2027 06:25:32.610   03 Jun 2027 06:25:34.368             1.758           873.938
        64   03 Jun 2027 06:25:39.820   03 Jun 2027 06:25:40.902             1.082           170.375
        65   03 Jun 2027 06:26:09.197   03 Jun 2027 06:26:12.356             3.159           884.219
        66   03 Jun 2027 06:27:26.426   03 Jun 2027 06:27:27.933             1.507           753.500
        67   03 Jun 2027 06:27:41.248   03 Jun 2027 06:27:46.257             5.009          1861.063
        68   03 Jun 2027 08:01:16.098   03 Jun 2027 08:01:20.126             4.028          1830.313
        69   03 Jun 2027 08:01:49.174   03 Jun 2027 08:01:52.903             3.729           478.719
        70   03 Jun 2027 08:02:44.184   03 Jun 2027 08:02:46.596             2.412           988.344
        71   03 Jun 2027 08:02:59.220   03 Jun 2027 08:03:00.710             1.490           353.219
        72   03 Jun 2027 08:03:43.961   03 Jun 2027 08:03:47.451             3.490          1242.625
        73   03 Jun 2027 08:04:36.928   03 Jun 2027 08:04:39.141             2.213          1106.500
        74   03 Jun 2027 09:36:26.618   03 Jun 2027 09:36:32.836             6.218          2877.000
        75   03 Jun 2027 09:37:49.633   03 Jun 2027 09:37:55.524             5.891          2249.500
        76   03 Jun 2027 09:38:11.951   03 Jun 2027 09:38:13.086             1.135           372.469
        77   03 Jun 2027 09:39:21.658   03 Jun 2027 09:39:23.874             2.216          1060.875
        78   03 Jun 2027 09:40:10.462   03 Jun 2027 09:40:16.138             5.676          1336.656
        79   03 Jun 2027 09:41:28.882   03 Jun 2027 09:41:30.725             1.843           630.906
        80   03 Jun 2027 09:42:48.140   03 Jun 2027 09:42:52.713             4.573          2197.719
        81   03 Jun 2027 11:12:24.453   03 Jun 2027 11:12:36.530            12.077          5005.188
        82   03 Jun 2027 11:14:23.443   03 Jun 2027 11:14:28.548             5.105          1180.906
        83   03 Jun 2027 11:14:59.289   03 Jun 2027 11:15:01.342             2.053           817.094
        84   03 Jun 2027 11:15:35.426   03 Jun 2027 11:15:37.995             2.569           505.469
        85   03 Jun 2027 11:16:02.775   03 Jun 2027 11:16:04.485             1.710           751.063
        86   03 Jun 2027 11:16:37.982   03 Jun 2027 11:16:40.915             2.933           647.937
        87   03 Jun 2027 11:17:02.561   03 Jun 2027 11:17:02.940             0.379            92.844
        88   03 Jun 2027 11:17:41.831   03 Jun 2027 11:17:46.034             4.203           615.000
        89   03 Jun 2027 11:17:48.545   03 Jun 2027 11:17:48.746             0.201            35.188
        90   04 Jun 2027 03:36:10.535   04 Jun 2027 03:39:56.934           226.399        113199.500
        91   04 Jun 2027 03:40:40.055   04 Jun 2027 03:40:41.673             1.618           809.000
        92   04 Jun 2027 03:42:24.843   04 Jun 2027 03:42:31.879             7.036          3518.000
        93   04 Jun 2027 03:43:16.460   04 Jun 2027 03:43:59.380            42.920         21460.000
        94   04 Jun 2027 05:13:16.036   04 Jun 2027 05:14:41.031            84.995         42490.875
        95   04 Jun 2027 05:15:28.510   04 Jun 2027 05:15:30.323             1.813           360.250
        96   04 Jun 2027 05:16:07.298   04 Jun 2027 05:16:09.168             1.870           796.500
        97   04 Jun 2027 05:16:26.037   04 Jun 2027 05:16:35.915             9.878           476.969
        98   04 Jun 2027 06:37:14.006   04 Jun 2027 06:37:28.766            14.760          4383.937
        99   04 Jun 2027 06:37:42.180   04 Jun 2027 06:37:42.180             0.000             0.000
       100   04 Jun 2027 06:37:44.089   04 Jun 2027 06:37:49.604             5.515           418.875
       101   04 Jun 2027 06:39:20.980   04 Jun 2027 06:39:27.937             6.957          2579.844
       102   04 Jun 2027 06:39:44.283   04 Jun 2027 06:39:46.173             1.890           510.812
       103   04 Jun 2027 08:13:00.550   04 Jun 2027 08:13:07.996             7.446          2558.125
       104   04 Jun 2027 08:13:52.211   04 Jun 2027 08:13:54.432             2.221           597.500
       105   04 Jun 2027 08:15:13.095   04 Jun 2027 08:15:17.391             4.296          1851.094
       106   04 Jun 2027 08:15:41.352   04 Jun 2027 08:15:44.944             3.592           454.906
       107   04 Jun 2027 08:15:50.495   04 Jun 2027 08:15:50.495             0.000             0.000
       108   04 Jun 2027 08:16:17.715   04 Jun 2027 08:16:23.611             5.896          1024.094
       109   04 Jun 2027 08:17:09.175   04 Jun 2027 08:17:12.129             2.954          1247.406
       110   04 Jun 2027 09:47:44.084   04 Jun 2027 09:47:52.727             8.643          2676.781
       111   04 Jun 2027 09:49:50.487   04 Jun 2027 09:49:56.789             6.302          2787.531
       112   04 Jun 2027 09:50:37.171   04 Jun 2027 09:50:39.841             2.670           231.156
       113   04 Jun 2027 09:51:07.401   04 Jun 2027 09:51:07.401             0.000             0.000
       114   04 Jun 2027 09:51:16.758   04 Jun 2027 09:51:20.196             3.438           427.687
       115   04 Jun 2027 09:53:37.190   04 Jun 2027 09:53:45.433             8.243          2599.812
       116   04 Jun 2027 09:54:26.168   04 Jun 2027 09:54:30.921             4.753          1272.969
       117   04 Jun 2027 09:55:01.968   04 Jun 2027 09:55:05.151             3.183           967.500
       118   04 Jun 2027 11:24:28.473   04 Jun 2027 11:24:41.816            13.343          5612.344
       119   04 Jun 2027 11:25:17.504   04 Jun 2027 11:25:18.717             1.213           281.187
       120   04 Jun 2027 11:26:30.127   04 Jun 2027 11:26:34.252             4.125          1607.312
       121   04 Jun 2027 11:27:03.025   04 Jun 2027 11:27:04.157             1.132           291.125
       122   04 Jun 2027 11:27:41.805   04 Jun 2027 11:27:46.771             4.966          1103.844
       123   04 Jun 2027 11:28:19.324   04 Jun 2027 11:28:20.601             1.277           514.750
       124   04 Jun 2027 11:28:53.093   04 Jun 2027 11:28:55.020             1.927           647.125
       125   04 Jun 2027 11:29:03.178   04 Jun 2027 11:29:04.273             1.095           204.937
       126   04 Jun 2027 11:29:26.479   04 Jun 2027 11:29:31.182             4.703           217.500
       127   04 Jun 2027 11:29:42.661   04 Jun 2027 11:29:54.564            11.903           108.500
       128   05 Jun 2027 03:48:31.229   05 Jun 2027 03:51:51.255           200.026        100013.000
       129   05 Jun 2027 03:54:27.103   05 Jun 2027 03:54:30.622             3.519          1759.500
       130   05 Jun 2027 03:55:21.239   05 Jun 2027 03:55:55.371            34.132         17066.000
       131   05 Jun 2027 05:13:41.787   05 Jun 2027 05:13:46.280             4.493          2246.500
       132   05 Jun 2027 05:25:14.982   05 Jun 2027 05:26:36.333            81.351         40404.468
       133   05 Jun 2027 06:47:52.582   05 Jun 2027 06:48:05.882            13.300          4419.531
       134   05 Jun 2027 06:49:29.101   05 Jun 2027 06:49:33.512             4.411          1434.531
       135   05 Jun 2027 06:49:47.378   05 Jun 2027 06:49:49.168             1.790            95.687
       136   05 Jun 2027 06:50:19.756   05 Jun 2027 06:50:19.756             0.000             0.000
       137   05 Jun 2027 06:50:50.834   05 Jun 2027 06:50:54.507             3.673          1641.875
       138   05 Jun 2027 06:51:47.220   05 Jun 2027 06:51:49.651             2.431          1181.906
       139   05 Jun 2027 08:23:01.113   05 Jun 2027 08:23:05.164             4.051          2025.500
       140   05 Jun 2027 08:23:15.216   05 Jun 2027 08:23:16.461             1.245           599.719
       141   05 Jun 2027 08:24:43.905   05 Jun 2027 08:24:47.855             3.950          1718.031
       142   05 Jun 2027 08:25:31.573   05 Jun 2027 08:25:35.597             4.024          1241.531
       143   05 Jun 2027 08:26:23.625   05 Jun 2027 08:26:31.698             8.073           891.344
       144   05 Jun 2027 08:27:46.208   05 Jun 2027 08:27:51.094             4.886          2328.437
       145   05 Jun 2027 08:28:31.350   05 Jun 2027 08:28:34.127             2.777          1190.562
       146   05 Jun 2027 08:28:56.635   05 Jun 2027 08:28:58.311             1.676           442.000
       147   05 Jun 2027 09:59:47.943   05 Jun 2027 09:59:55.645             7.702          3801.844
       148   05 Jun 2027 10:01:54.524   05 Jun 2027 10:01:57.062             2.538           897.656
       149   05 Jun 2027 10:03:10.086   05 Jun 2027 10:03:11.483             1.397           181.031
       150   05 Jun 2027 10:03:33.726   05 Jun 2027 10:03:35.969             2.243           410.344
       151   05 Jun 2027 10:04:48.210   05 Jun 2027 10:04:50.280             2.070           898.594
       152   05 Jun 2027 10:05:12.464   05 Jun 2027 10:05:14.689             2.225           527.844
       153   05 Jun 2027 10:05:37.023   05 Jun 2027 10:05:38.240             1.217           494.344
       154   05 Jun 2027 10:06:07.355   05 Jun 2027 10:06:14.545             7.190           871.906
       155   05 Jun 2027 10:06:33.090   05 Jun 2027 10:06:33.780             0.690           264.594
       156   05 Jun 2027 10:06:59.287   05 Jun 2027 10:07:03.534             4.247           733.313
       157   05 Jun 2027 11:36:48.978   05 Jun 2027 11:37:03.452            14.474          6222.344
       158   05 Jun 2027 11:38:20.899   05 Jun 2027 11:38:22.188             1.289           348.750
       159   05 Jun 2027 11:38:55.766   05 Jun 2027 11:38:59.463             3.697           452.313
       160   05 Jun 2027 11:39:27.493   05 Jun 2027 11:39:29.519             2.026           875.938
       161   05 Jun 2027 11:40:21.366   05 Jun 2027 11:40:24.616             3.250          1418.156
       162   05 Jun 2027 11:40:30.073   05 Jun 2027 11:40:30.674             0.601           170.531
       163   05 Jun 2027 11:40:51.943   05 Jun 2027 11:40:52.690             0.747           353.719
       164   05 Jun 2027 11:41:20.229   05 Jun 2027 11:41:25.150             4.921           718.312
       165   05 Jun 2027 11:42:01.650   05 Jun 2027 11:42:10.463             8.813           988.281
       166   05 Jun 2027 11:42:24.785   05 Jun 2027 11:42:25.799             1.014            90.219
       167   05 Jun 2027 11:42:29.800   05 Jun 2027 11:42:33.120             3.320            27.094
       168   06 Jun 2027 04:00:46.972   06 Jun 2027 04:03:59.876           192.904         96452.000
       169   06 Jun 2027 04:05:21.827   06 Jun 2027 04:05:44.481            22.654         11327.000
       170   06 Jun 2027 04:06:52.564   06 Jun 2027 04:07:03.210            10.646          5323.000
       171   06 Jun 2027 05:25:00.305   06 Jun 2027 05:25:41.889            41.584         20792.000
       172   06 Jun 2027 05:37:14.027   06 Jun 2027 05:38:10.252            56.225         28112.500
       173   06 Jun 2027 06:59:28.315   06 Jun 2027 06:59:49.098            20.783          9604.000
       174   06 Jun 2027 07:00:20.706   06 Jun 2027 07:00:22.465             1.759           268.687
       175   06 Jun 2027 07:01:24.313   06 Jun 2027 07:01:29.194             4.881          1772.250
       176   06 Jun 2027 07:01:50.722   06 Jun 2027 07:01:53.256             2.534           141.219
       177   06 Jun 2027 07:02:03.616   06 Jun 2027 07:02:05.872             2.256           186.969
       178   06 Jun 2027 07:03:26.091   06 Jun 2027 07:03:31.513             5.422          2201.500
       179   06 Jun 2027 07:03:56.210   06 Jun 2027 07:03:56.210             0.000             0.000
       180   06 Jun 2027 07:04:23.095   06 Jun 2027 07:04:27.155             4.060          1033.594
       181   06 Jun 2027 08:34:21.226   06 Jun 2027 08:34:24.355             3.129          1471.656
       182   06 Jun 2027 08:34:56.254   06 Jun 2027 08:34:57.262             1.008           196.656
       183   06 Jun 2027 08:35:49.398   06 Jun 2027 08:36:00.994            11.596           464.031
       184   06 Jun 2027 08:36:45.131   06 Jun 2027 08:36:47.432             2.301          1111.875
       185   06 Jun 2027 08:37:57.806   06 Jun 2027 08:38:00.450             2.644           895.562
       186   06 Jun 2027 08:38:31.002   06 Jun 2027 08:38:35.853             4.851           843.469
       187   06 Jun 2027 08:40:24.013   06 Jun 2027 08:40:26.909             2.896          1167.344
       188   06 Jun 2027 08:41:05.771   06 Jun 2027 08:41:05.771             0.000             0.000
       189   06 Jun 2027 08:42:25.471   06 Jun 2027 08:42:35.247             9.776          2955.031
       190   06 Jun 2027 10:11:55.916   06 Jun 2027 10:12:04.458             8.542          3875.594
       191   06 Jun 2027 10:15:01.070   06 Jun 2027 10:15:07.437             6.367          2203.125
       192   06 Jun 2027 10:16:11.584   06 Jun 2027 10:16:20.119             8.535          1412.844
       193   06 Jun 2027 10:17:05.775   06 Jun 2027 10:17:10.350             4.575          1426.750
       194   06 Jun 2027 10:17:53.901   06 Jun 2027 10:17:57.152             3.251          1276.344
       195   06 Jun 2027 10:18:40.134   06 Jun 2027 10:18:42.900             2.766          1320.812
       196   06 Jun 2027 10:19:02.459   06 Jun 2027 10:19:03.496             1.037           414.875
       197   06 Jun 2027 10:19:17.571   06 Jun 2027 10:19:17.770             0.199            99.500
       198   06 Jun 2027 11:48:38.831   06 Jun 2027 11:48:50.593            11.762          5619.250
       199   06 Jun 2027 11:50:15.909   06 Jun 2027 11:50:24.985             9.076          1202.781
       200   06 Jun 2027 11:50:41.706   06 Jun 2027 11:50:44.557             2.851           106.406
       201   06 Jun 2027 11:50:48.788   06 Jun 2027 11:50:52.578             3.790           132.219
       202   06 Jun 2027 11:51:27.878   06 Jun 2027 11:51:31.214             3.336           957.656
       203   06 Jun 2027 11:52:44.654   06 Jun 2027 11:52:49.833             5.179          1065.438
       204   06 Jun 2027 11:53:32.789   06 Jun 2027 11:53:38.545             5.756          1342.375
       205   06 Jun 2027 11:54:57.326   06 Jun 2027 11:55:01.734             4.408          1464.969
       206   06 Jun 2027 11:55:11.404   06 Jun 2027 11:55:14.237             2.833           302.188
       207   07 Jun 2027 04:12:52.464   07 Jun 2027 04:15:10.122           137.658         68829.000
       208   07 Jun 2027 04:16:37.494   07 Jun 2027 04:18:05.361            87.867         43933.500
       209   07 Jun 2027 05:37:06.319   07 Jun 2027 05:37:45.274            38.955         19477.500
       210   07 Jun 2027 05:38:49.202   07 Jun 2027 05:38:58.440             9.238          4619.000
       211   07 Jun 2027 05:49:35.740   07 Jun 2027 05:49:41.300             5.560          2780.000
       212   07 Jun 2027 07:10:57.021   07 Jun 2027 07:12:16.891            79.870         38441.344
       213   07 Jun 2027 07:12:59.969   07 Jun 2027 07:13:03.330             3.361           802.875
       214   07 Jun 2027 07:13:18.706   07 Jun 2027 07:13:21.213             2.507           273.781
       215   07 Jun 2027 07:14:48.069   07 Jun 2027 07:14:57.121             9.052          2219.750
       216   07 Jun 2027 07:16:11.011   07 Jun 2027 07:16:11.011             0.000             0.000
       217   07 Jun 2027 07:16:45.601   07 Jun 2027 07:16:53.248             7.647          3282.688
       218   07 Jun 2027 08:45:51.160   07 Jun 2027 08:45:51.456             0.296           148.000
       219   07 Jun 2027 08:46:02.538   07 Jun 2027 08:46:07.377             4.839          1788.219
       220   07 Jun 2027 08:46:45.806   07 Jun 2027 08:46:47.148             1.342            48.562
       221   07 Jun 2027 08:48:19.537   07 Jun 2027 08:48:23.292             3.755           484.906
       222   07 Jun 2027 08:49:34.299   07 Jun 2027 08:49:34.859             0.560           271.000
       223   07 Jun 2027 08:50:32.773   07 Jun 2027 08:50:35.174             2.401          1014.656
       224   07 Jun 2027 08:52:38.073   07 Jun 2027 08:52:42.736             4.663          1609.875
       225   07 Jun 2027 08:52:59.738   07 Jun 2027 08:52:59.757             0.019             9.500
       226   07 Jun 2027 08:53:03.678   07 Jun 2027 08:53:07.219             3.541           330.406
       227   07 Jun 2027 08:53:52.289   07 Jun 2027 08:53:59.255             6.966          1059.062
       228   07 Jun 2027 08:54:49.759   07 Jun 2027 08:54:57.831             8.072          1519.625
       229   07 Jun 2027 10:23:51.179   07 Jun 2027 10:24:02.487            11.308          5199.656
       230   07 Jun 2027 10:25:30.249   07 Jun 2027 10:25:31.379             1.130           456.313
       231   07 Jun 2027 10:26:48.819   07 Jun 2027 10:26:53.863             5.044          1850.531
       232   07 Jun 2027 10:28:06.809   07 Jun 2027 10:28:07.826             1.017           352.313
       233   07 Jun 2027 10:28:41.782   07 Jun 2027 10:28:44.429             2.647           807.469
       234   07 Jun 2027 10:28:53.204   07 Jun 2027 10:28:53.882             0.678           129.063
       235   07 Jun 2027 10:29:14.615   07 Jun 2027 10:29:16.044             1.429            60.281
       236   07 Jun 2027 10:30:27.074   07 Jun 2027 10:30:32.945             5.871          1801.438
       237   07 Jun 2027 10:30:54.022   07 Jun 2027 10:30:57.356             3.334           641.219
       238   07 Jun 2027 10:31:10.286   07 Jun 2027 10:31:19.587             9.301           312.719
       239   08 Jun 2027 04:25:18.636   08 Jun 2027 04:27:50.254           151.618         75809.000
       240   08 Jun 2027 04:28:41.733   08 Jun 2027 04:29:24.888            43.155         21577.500
       241   08 Jun 2027 05:49:02.562   08 Jun 2027 05:49:22.942            20.380         10190.000
       242   08 Jun 2027 05:50:39.817   08 Jun 2027 05:50:42.432             2.615          1307.500
       243   08 Jun 2027 07:25:15.746   08 Jun 2027 07:26:55.508            99.762         49233.031
       244   08 Jun 2027 07:28:11.377   08 Jun 2027 07:28:20.762             9.385          1962.312
       245   08 Jun 2027 08:58:47.372   08 Jun 2027 08:58:55.452             8.080          4000.719
       246   08 Jun 2027 09:00:30.968   08 Jun 2027 09:00:32.713             1.745           820.937
       247   08 Jun 2027 09:02:02.559   08 Jun 2027 09:02:06.451             3.892          1487.469
       248   08 Jun 2027 09:03:27.468   08 Jun 2027 09:03:35.245             7.777          2241.250
       249   08 Jun 2027 09:04:32.161   08 Jun 2027 09:04:42.836            10.675          1448.594
       250   08 Jun 2027 09:05:41.425   08 Jun 2027 09:05:46.138             4.713          1830.906
       251   08 Jun 2027 09:06:42.231   08 Jun 2027 09:06:50.106             7.875          1516.531
       252   08 Jun 2027 10:36:13.368   08 Jun 2027 10:36:25.184            11.816          5853.375
       253   08 Jun 2027 10:38:18.054   08 Jun 2027 10:38:26.452             8.398          1071.500
       254   08 Jun 2027 10:39:36.991   08 Jun 2027 10:39:43.271             6.280          2037.875
       255   08 Jun 2027 10:40:05.176   08 Jun 2027 10:40:10.414             5.238           107.062
       256   08 Jun 2027 10:40:40.583   08 Jun 2027 10:40:41.628             1.045            30.250
       257   08 Jun 2027 10:40:53.220   08 Jun 2027 10:40:55.395             2.175           362.250
       258   08 Jun 2027 10:41:22.335   08 Jun 2027 10:41:25.130             2.795           346.562
       259   08 Jun 2027 10:42:28.599   08 Jun 2027 10:42:34.852             6.253          1983.406
       260   08 Jun 2027 10:42:40.391   08 Jun 2027 10:42:40.803             0.412           126.844
       261   08 Jun 2027 10:42:47.315   08 Jun 2027 10:42:47.713             0.398           110.219
       262   08 Jun 2027 10:42:58.622   08 Jun 2027 10:42:59.186             0.564           106.844
       263   09 Jun 2027 03:00:00.000   09 Jun 2027 03:00:17.823            17.823          8911.500
       264   09 Jun 2027 03:01:23.640   09 Jun 2027 03:01:30.134             6.494          3247.000
       265   09 Jun 2027 03:01:40.569   09 Jun 2027 03:01:55.048            14.479          7239.500
       266   09 Jun 2027 03:02:42.066   09 Jun 2027 03:02:48.837             6.771          3385.500
       267   09 Jun 2027 03:03:17.415   09 Jun 2027 03:03:27.197             9.782          4891.000
       268   09 Jun 2027 03:04:05.862   09 Jun 2027 03:04:06.972             1.110           555.000
       269   09 Jun 2027 03:04:45.161   09 Jun 2027 03:05:04.223            19.062          9531.000
       270   09 Jun 2027 03:05:12.071   09 Jun 2027 03:05:17.557             5.486          2743.000
       271   09 Jun 2027 03:05:24.338   09 Jun 2027 03:05:25.139             0.801           400.500
       272   09 Jun 2027 04:37:14.212   09 Jun 2027 04:39:31.510           137.298         68649.000
       273   09 Jun 2027 04:40:04.065   09 Jun 2027 04:40:21.333            17.268          8634.000
       274   09 Jun 2027 06:00:54.554   09 Jun 2027 06:02:12.826            78.272         39136.000
       275   09 Jun 2027 06:03:11.784   09 Jun 2027 06:03:22.064            10.280          5140.000
       276   09 Jun 2027 07:37:21.094   09 Jun 2027 07:37:43.822            22.728         11197.625
       277   09 Jun 2027 07:38:14.286   09 Jun 2027 07:38:17.918             3.632           865.844
       278   09 Jun 2027 07:38:45.906   09 Jun 2027 07:38:49.110             3.204           840.031
       279   09 Jun 2027 07:39:16.636   09 Jun 2027 07:39:17.932             1.296            72.875
       280   09 Jun 2027 07:40:11.290   09 Jun 2027 07:40:14.743             3.453          1639.250
       281   09 Jun 2027 09:09:30.987   09 Jun 2027 09:09:38.582             7.595          3797.500
       282   09 Jun 2027 09:11:26.360   09 Jun 2027 09:11:31.291             4.931           584.719
       283   09 Jun 2027 09:13:04.928   09 Jun 2027 09:13:10.638             5.710          1877.281
       284   09 Jun 2027 09:13:30.940   09 Jun 2027 09:13:33.604             2.664           526.063
       285   09 Jun 2027 09:14:26.160   09 Jun 2027 09:14:27.705             1.545           676.094
       286   09 Jun 2027 09:15:44.279   09 Jun 2027 09:15:49.192             4.913          1882.844
       287   09 Jun 2027 09:16:21.364   09 Jun 2027 09:16:22.013             0.649           159.062
       288   09 Jun 2027 09:17:54.709   09 Jun 2027 09:18:03.749             9.040          2691.937
       289   09 Jun 2027 09:18:30.783   09 Jun 2027 09:18:35.923             5.140           692.500
       290   09 Jun 2027 09:19:08.957   09 Jun 2027 09:19:09.913             0.956           407.000
       291   09 Jun 2027 10:48:24.662   09 Jun 2027 10:48:36.024            11.362          4312.219
       292   09 Jun 2027 10:50:19.296   09 Jun 2027 10:50:24.049             4.753          1501.469
       293   09 Jun 2027 10:52:06.747   09 Jun 2027 10:52:16.996            10.249           869.031
       294   09 Jun 2027 10:52:53.589   09 Jun 2027 10:53:00.201             6.612           772.594
       295   09 Jun 2027 10:53:21.987   09 Jun 2027 10:53:28.330             6.343           159.125
       296   09 Jun 2027 10:53:35.781   09 Jun 2027 10:53:37.901             2.120           209.531
       297   09 Jun 2027 10:54:30.300   09 Jun 2027 10:54:33.067             2.767          1250.687
       298   09 Jun 2027 10:54:33.730   09 Jun 2027 10:54:36.268             2.538            20.719
       299   09 Jun 2027 10:54:57.449   09 Jun 2027 10:54:59.599             2.150           539.812
       300   10 Jun 2027 03:11:20.591   10 Jun 2027 03:12:23.343            62.752         31376.000
       301   10 Jun 2027 03:12:29.984   10 Jun 2027 03:12:51.521            21.537         10768.500
       302   10 Jun 2027 03:13:22.737   10 Jun 2027 03:13:50.931            28.194         14097.000
       303   10 Jun 2027 03:13:52.878   10 Jun 2027 03:13:56.693             3.815          1907.500
       304   10 Jun 2027 03:14:42.766   10 Jun 2027 03:15:18.082            35.316         17658.000
       305   10 Jun 2027 03:15:56.257   10 Jun 2027 03:16:03.833             7.576          3788.000
       306   10 Jun 2027 03:16:17.990   10 Jun 2027 03:16:32.985            14.995          7497.500
       307   10 Jun 2027 03:16:58.089   10 Jun 2027 03:17:07.683             9.594          4797.000
       308   10 Jun 2027 04:50:27.671   10 Jun 2027 04:51:08.891            41.220         20610.000
       309   10 Jun 2027 04:51:10.386   10 Jun 2027 04:52:33.242            82.856         41428.000
       310   10 Jun 2027 04:53:16.546   10 Jun 2027 04:53:21.537             4.991          2495.500
       311   10 Jun 2027 06:13:00.119   10 Jun 2027 06:13:12.023            11.904          5693.219
       312   10 Jun 2027 06:14:32.220   10 Jun 2027 06:14:37.840             5.620          2171.719
       313   10 Jun 2027 07:49:28.908   10 Jun 2027 07:49:38.332             9.424          3451.125
       314   10 Jun 2027 07:50:22.724   10 Jun 2027 07:50:28.860             6.136          1135.000
       315   10 Jun 2027 07:51:31.405   10 Jun 2027 07:51:36.967             5.562          1954.531
       316   10 Jun 2027 09:24:36.720   10 Jun 2027 09:24:44.162             7.442          2845.625
       317   10 Jun 2027 09:25:44.454   10 Jun 2027 09:25:48.842             4.388          1226.813
       318   10 Jun 2027 09:26:06.161   10 Jun 2027 09:26:07.178             1.017           412.188
       319   10 Jun 2027 09:27:41.817   10 Jun 2027 09:27:47.539             5.722          1503.125
       320   10 Jun 2027 09:28:27.357   10 Jun 2027 09:28:27.357             0.000             0.000
       321   10 Jun 2027 09:28:35.985   10 Jun 2027 09:28:37.584             1.599           799.219
       322   10 Jun 2027 09:28:58.844   10 Jun 2027 09:29:01.136             2.292            26.000
       323   10 Jun 2027 09:29:53.122   10 Jun 2027 09:29:55.239             2.117           979.906
       324   10 Jun 2027 09:30:40.071   10 Jun 2027 09:30:45.931             5.860          1401.000
       325   10 Jun 2027 09:31:04.628   10 Jun 2027 09:31:07.146             2.518           435.406
       326   10 Jun 2027 09:31:14.304   10 Jun 2027 09:31:15.091             0.787            86.031
       327   10 Jun 2027 11:00:58.473   10 Jun 2027 11:01:06.654             8.181          3875.344
       328   10 Jun 2027 11:04:13.274   10 Jun 2027 11:04:17.664             4.390          1151.094
       329   10 Jun 2027 11:04:51.265   10 Jun 2027 11:04:54.270             3.005           807.844
       330   10 Jun 2027 11:05:16.022   10 Jun 2027 11:05:20.066             4.044           679.750
       331   10 Jun 2027 11:05:24.448   10 Jun 2027 11:05:26.523             2.075           136.938
       332   10 Jun 2027 11:06:22.449   10 Jun 2027 11:06:28.199             5.750          1484.750
       333   10 Jun 2027 11:06:41.566   10 Jun 2027 11:06:42.481             0.915           294.656
       334   10 Jun 2027 11:06:50.910   10 Jun 2027 11:06:52.482             1.572           263.406
       335   10 Jun 2027 11:07:07.742   10 Jun 2027 11:07:08.746             1.004           476.875
       336   11 Jun 2027 03:23:22.714   11 Jun 2027 03:24:03.278            40.564         20282.000
       337   11 Jun 2027 03:24:27.534   11 Jun 2027 03:26:51.605           144.071         72035.500
       338   11 Jun 2027 03:27:04.670   11 Jun 2027 03:27:28.722            24.052         12026.000
       339   11 Jun 2027 03:28:49.991   11 Jun 2027 03:29:19.814            29.823         14911.500
       340   11 Jun 2027 05:01:34.894   11 Jun 2027 05:02:12.962            38.068         19034.000
       341   11 Jun 2027 05:02:26.249   11 Jun 2027 05:03:05.263            39.014         19223.687
       342   11 Jun 2027 05:03:53.266   11 Jun 2027 05:03:55.673             2.407           784.344
       343   11 Jun 2027 05:04:34.160   11 Jun 2027 05:04:34.817             0.657           264.531
       344   11 Jun 2027 05:04:57.679   11 Jun 2027 05:04:58.244             0.565           222.594
       345   11 Jun 2027 06:25:03.214   11 Jun 2027 06:25:09.357             6.143          3071.500
       346   11 Jun 2027 06:26:14.400   11 Jun 2027 06:26:20.386             5.986          2653.594
       347   11 Jun 2027 06:26:25.725   11 Jun 2027 06:26:26.995             1.270            19.250
       348   11 Jun 2027 06:27:41.682   11 Jun 2027 06:27:43.372             1.690           845.000
       349   11 Jun 2027 06:27:58.351   11 Jun 2027 06:28:02.838             4.487          1740.469
       350   11 Jun 2027 08:01:40.056   11 Jun 2027 08:01:49.004             8.948          4009.156
       351   11 Jun 2027 08:02:07.150   11 Jun 2027 08:02:08.255             1.105           532.937
       352   11 Jun 2027 08:03:02.927   11 Jun 2027 08:03:08.235             5.308          1017.719
       353   11 Jun 2027 08:03:21.138   11 Jun 2027 08:03:22.721             1.583           162.750
       354   11 Jun 2027 08:04:09.337   11 Jun 2027 08:04:11.688             2.351           717.000
       355   11 Jun 2027 09:36:43.976   11 Jun 2027 09:36:51.445             7.469          2877.937
       356   11 Jun 2027 09:38:07.409   11 Jun 2027 09:38:15.712             8.303          2320.813
       357   11 Jun 2027 09:39:06.293   11 Jun 2027 09:39:08.649             2.356          1105.281
       358   11 Jun 2027 09:40:28.594   11 Jun 2027 09:40:34.057             5.463          1574.063
       359   11 Jun 2027 09:41:00.104   11 Jun 2027 09:41:01.650             1.546           372.375
       360   11 Jun 2027 09:41:44.620   11 Jun 2027 09:41:49.023             4.403           619.344
       361   11 Jun 2027 09:43:04.158   11 Jun 2027 09:43:12.731             8.573          2154.563
       362   11 Jun 2027 11:12:39.203   11 Jun 2027 11:12:51.356            12.153          5616.469
       363   11 Jun 2027 11:14:49.734   11 Jun 2027 11:14:53.791             4.057          1551.375
       364   11 Jun 2027 11:15:35.288   11 Jun 2027 11:15:38.144             2.856           866.906
       365   11 Jun 2027 11:15:52.010   11 Jun 2027 11:15:56.141             4.131           269.531
       366   11 Jun 2027 11:16:58.617   11 Jun 2027 11:17:05.679             7.062          1208.188
       367   11 Jun 2027 11:17:43.284   11 Jun 2027 11:17:46.949             3.665          1175.156
       368   11 Jun 2027 11:18:03.885   11 Jun 2027 11:18:06.649             2.764           461.906
       369   12 Jun 2027 03:36:27.434   12 Jun 2027 03:40:11.437           224.003        112001.500
       370   12 Jun 2027 03:40:20.895   12 Jun 2027 03:40:29.601             8.706          4353.000
       371   12 Jun 2027 03:41:27.491   12 Jun 2027 03:41:31.923             4.432          2216.000
       372   12 Jun 2027 03:44:14.904   12 Jun 2027 03:44:15.502             0.598           299.000
       373   12 Jun 2027 05:02:40.182   12 Jun 2027 05:02:44.096             3.914          1957.000
       374   12 Jun 2027 05:13:32.377   12 Jun 2027 05:14:49.671            77.294         37737.875
       375   12 Jun 2027 05:15:43.832   12 Jun 2027 05:15:45.145             1.313           366.719
       376   12 Jun 2027 05:16:21.792   12 Jun 2027 05:16:23.278             1.486           702.281
       377   12 Jun 2027 05:16:41.695   12 Jun 2027 05:16:50.452             8.757           434.000
       378   12 Jun 2027 06:37:30.040   12 Jun 2027 06:37:37.982             7.942          3812.094
       379   12 Jun 2027 06:37:58.580   12 Jun 2027 06:37:59.794             1.214           406.406
       380   12 Jun 2027 06:38:24.885   12 Jun 2027 06:38:27.143             2.258           784.094
       381   12 Jun 2027 06:39:36.173   12 Jun 2027 06:39:43.355             7.182          1888.594
       382   12 Jun 2027 06:40:01.376   12 Jun 2027 06:40:02.559             1.183           563.156
       383   12 Jun 2027 08:13:15.936   12 Jun 2027 08:13:26.321            10.385          2346.344
       384   12 Jun 2027 08:14:31.644   12 Jun 2027 08:14:38.632             6.988          1888.187
       385   12 Jun 2027 08:14:52.622   12 Jun 2027 08:14:57.195             4.573            23.406
       386   12 Jun 2027 08:15:50.292   12 Jun 2027 08:15:51.490             1.198           569.469
       387   12 Jun 2027 08:16:02.231   12 Jun 2027 08:16:03.920             1.689           123.281
       388   12 Jun 2027 08:16:32.351   12 Jun 2027 08:16:35.302             2.951           888.469
       389   12 Jun 2027 08:17:25.528   12 Jun 2027 08:17:25.528             0.000             0.000
       390   12 Jun 2027 08:17:25.813   12 Jun 2027 08:17:28.609             2.796          1226.875
       391   12 Jun 2027 09:47:58.845   12 Jun 2027 09:48:07.135             8.290          2740.188
       392   12 Jun 2027 09:50:48.843   12 Jun 2027 09:50:51.756             2.913          1269.531
       393   12 Jun 2027 09:51:27.000   12 Jun 2027 09:51:27.567             0.567           159.188
       394   12 Jun 2027 09:52:32.368   12 Jun 2027 09:52:46.193            13.825          1848.625
       395   12 Jun 2027 09:53:02.180   12 Jun 2027 09:53:03.511             1.331           498.188
       396   12 Jun 2027 09:53:12.630   12 Jun 2027 09:53:15.075             2.445           164.875
       397   12 Jun 2027 09:53:28.270   12 Jun 2027 09:53:29.591             1.321            97.375
       398   12 Jun 2027 09:54:04.872   12 Jun 2027 09:54:07.427             2.555          1102.531
       399   12 Jun 2027 09:54:46.175   12 Jun 2027 09:54:47.237             1.062           190.344
       400   12 Jun 2027 09:55:16.759   12 Jun 2027 09:55:18.672             1.913           922.563
       401   12 Jun 2027 11:24:45.624   12 Jun 2027 11:25:00.806            15.182          5453.094
       402   12 Jun 2027 11:26:45.348   12 Jun 2027 11:26:50.575             5.227          1575.531
       403   12 Jun 2027 11:28:47.717   12 Jun 2027 11:28:56.452             8.735          2177.344
       404   12 Jun 2027 11:29:35.500   12 Jun 2027 11:29:38.758             3.258           894.156
       405   12 Jun 2027 11:29:55.353   12 Jun 2027 11:29:58.147             2.794           518.594
       406   12 Jun 2027 11:30:55.411   12 Jun 2027 11:31:00.098             4.687          1789.500
       407   13 Jun 2027 03:48:48.307   13 Jun 2027 03:51:44.444           176.137         88068.500
       408   13 Jun 2027 03:53:03.673   13 Jun 2027 03:53:23.898            20.225         10112.500
       409   13 Jun 2027 03:55:08.465   13 Jun 2027 03:55:19.425            10.960          5480.000
       410   13 Jun 2027 05:13:55.175   13 Jun 2027 05:14:04.065             8.890          4445.000
       411   13 Jun 2027 05:25:32.851   13 Jun 2027 05:26:58.888            86.037         43018.500
       412   13 Jun 2027 06:48:06.918   13 Jun 2027 06:48:15.416             8.498          4249.000
       413   13 Jun 2027 06:48:49.659   13 Jun 2027 06:48:53.605             3.946          1625.063
       414   13 Jun 2027 06:49:46.009   13 Jun 2027 06:49:48.435             2.426           734.906
       415   13 Jun 2027 06:50:05.389   13 Jun 2027 06:50:07.464             2.075           146.406
       416   13 Jun 2027 06:51:08.512   13 Jun 2027 06:51:13.742             5.230          1687.031
       417   13 Jun 2027 06:51:42.750   13 Jun 2027 06:51:42.750             0.000             0.000
       418   13 Jun 2027 06:52:04.301   13 Jun 2027 06:52:06.922             2.621          1217.156
       419   13 Jun 2027 08:23:10.963   13 Jun 2027 08:23:13.441             2.478          1239.000
       420   13 Jun 2027 08:23:20.532   13 Jun 2027 08:23:25.244             4.712           847.344
       421   13 Jun 2027 08:24:18.676   13 Jun 2027 08:24:22.401             3.725          1441.625
       422   13 Jun 2027 08:25:18.710   13 Jun 2027 08:25:21.879             3.169          1574.844
       423   13 Jun 2027 08:26:13.042   13 Jun 2027 08:26:16.550             3.508           791.250
       424   13 Jun 2027 08:27:52.061   13 Jun 2027 08:27:57.071             5.010          2481.437
       425   13 Jun 2027 08:28:10.549   13 Jun 2027 08:28:11.226             0.677           232.125
       426   13 Jun 2027 08:29:12.821   13 Jun 2027 08:29:21.438             8.617          1521.563
       427   13 Jun 2027 10:00:05.816   13 Jun 2027 10:00:12.173             6.357          3178.500
       428   13 Jun 2027 10:02:08.510   13 Jun 2027 10:02:23.805            15.295          4043.500
       429   13 Jun 2027 10:03:40.768   13 Jun 2027 10:03:43.137             2.369           532.875
       430   13 Jun 2027 10:04:35.464   13 Jun 2027 10:04:38.759             3.295          1488.375
       431   13 Jun 2027 10:05:53.059   13 Jun 2027 10:05:57.800             4.741          2321.875
       432   13 Jun 2027 10:06:10.713   13 Jun 2027 10:06:12.787             2.074           403.531
       433   13 Jun 2027 10:06:52.023   13 Jun 2027 10:06:53.977             1.954           918.562
       434   13 Jun 2027 10:07:30.531   13 Jun 2027 10:07:31.101             0.570           285.000
       435   13 Jun 2027 11:37:06.078   13 Jun 2027 11:37:19.389            13.311          6148.906
       436   13 Jun 2027 11:38:35.623   13 Jun 2027 11:38:41.155             5.532          1400.000
       437   13 Jun 2027 11:38:59.703   13 Jun 2027 11:39:01.274             1.571           339.312
       438   13 Jun 2027 11:39:43.803   13 Jun 2027 11:39:47.080             3.277           884.156
       439   13 Jun 2027 11:40:37.124   13 Jun 2027 11:40:40.011             2.887          1372.625
       440   13 Jun 2027 11:40:47.722   13 Jun 2027 11:40:51.143             3.421           240.969
       441   13 Jun 2027 11:41:06.541   13 Jun 2027 11:41:09.817             3.276           269.875
       442   13 Jun 2027 11:41:35.940   13 Jun 2027 11:41:39.068             3.128           673.312
       443   13 Jun 2027 11:42:19.084   13 Jun 2027 11:42:25.587             6.503           980.062
       444   13 Jun 2027 11:42:40.891   13 Jun 2027 11:42:42.021             1.130            81.656
       445   13 Jun 2027 11:42:45.477   13 Jun 2027 11:42:48.628             3.151            49.000
       446   13 Jun 2027 11:43:06.859   13 Jun 2027 11:43:07.486             0.627           240.844
