uniorb/output/strategy_4/Camera/Camera_KinoSat_111507.txt

KinoSat_111507
-------------------------
    Access    *     Start Time (UTCG)     *     Stop Time (UTCG)  *   Duration (s) *   Data (Mbytes)
         1   01 Jun 2027 03:00:00.000   01 Jun 2027 03:00:38.579            38.579         19289.500
         2   01 Jun 2027 03:01:48.909   01 Jun 2027 03:01:48.909             0.000             0.000
         3   01 Jun 2027 03:02:19.613   01 Jun 2027 03:02:21.974             2.361          1180.500
         4   01 Jun 2027 03:02:58.419   01 Jun 2027 03:03:02.562             4.143          2071.500
         5   01 Jun 2027 03:03:09.986   01 Jun 2027 03:03:14.715             4.729          2364.500
         6   01 Jun 2027 03:04:30.947   01 Jun 2027 03:04:44.566            13.619          6809.500
         7   01 Jun 2027 03:04:52.878   01 Jun 2027 03:05:06.727            13.849          6924.500
         8   01 Jun 2027 04:36:58.929   01 Jun 2027 04:38:38.851            99.922         49961.000
         9   01 Jun 2027 04:38:50.897   01 Jun 2027 04:38:51.801             0.904           452.000
        10   01 Jun 2027 04:40:37.606   01 Jun 2027 04:40:56.210            18.604          9302.000
        11   01 Jun 2027 04:41:25.062   01 Jun 2027 04:41:50.054            24.992         12496.000
        12   01 Jun 2027 06:00:37.951   01 Jun 2027 06:01:56.497            78.546         39273.000
        13   01 Jun 2027 07:37:01.288   01 Jun 2027 07:38:51.985           110.697         55348.500
        14   01 Jun 2027 07:39:24.835   01 Jun 2027 07:39:54.459            29.624         14812.000
        15   01 Jun 2027 07:40:28.436   01 Jun 2027 07:40:28.436             0.000             0.000
        16   01 Jun 2027 09:11:06.453   01 Jun 2027 09:12:58.265           111.812         55906.000
        17   01 Jun 2027 09:15:27.548   01 Jun 2027 09:16:10.896            43.348         21674.000
        18   01 Jun 2027 09:18:12.308   01 Jun 2027 09:18:37.631            25.323         12661.500
        19   01 Jun 2027 09:19:01.054   01 Jun 2027 09:19:03.906             2.852          1426.000
        20   01 Jun 2027 10:48:08.902   01 Jun 2027 10:50:44.399           155.497         77748.500
        21   01 Jun 2027 10:51:13.015   01 Jun 2027 10:51:21.849             8.834          4417.000
        22   01 Jun 2027 10:53:11.101   01 Jun 2027 10:53:18.721             7.620          3810.000
        23   01 Jun 2027 10:53:35.064   01 Jun 2027 10:53:45.089            10.025          5012.500
        24   02 Jun 2027 03:11:05.785   02 Jun 2027 03:12:07.280            61.495         30747.500
        25   02 Jun 2027 03:12:13.689   02 Jun 2027 03:12:31.938            18.249          9124.500
        26   02 Jun 2027 03:12:40.810   02 Jun 2027 03:12:41.181             0.371           185.500
        27   02 Jun 2027 03:12:52.482   02 Jun 2027 03:12:57.765             5.283          2641.500
        28   02 Jun 2027 03:13:03.400   02 Jun 2027 03:13:04.376             0.976           488.000
        29   02 Jun 2027 03:13:20.193   02 Jun 2027 03:13:36.726            16.533          8266.500
        30   02 Jun 2027 03:13:42.989   02 Jun 2027 03:13:49.960             6.971          3485.500
        31   02 Jun 2027 03:14:19.308   02 Jun 2027 03:14:19.308             0.000             0.000
        32   02 Jun 2027 03:15:07.190   02 Jun 2027 03:15:20.207            13.017          6508.500
        33   02 Jun 2027 03:15:53.446   02 Jun 2027 03:15:54.631             1.185           592.500
        34   02 Jun 2027 03:16:39.009   02 Jun 2027 03:16:42.240             3.231          1615.500
        35   02 Jun 2027 04:50:11.372   02 Jun 2027 04:53:44.154           212.782        106391.000
        36   02 Jun 2027 06:12:42.892   02 Jun 2027 06:13:36.972            54.080         27040.000
        37   02 Jun 2027 07:49:11.865   02 Jun 2027 07:52:10.271           178.406         89203.000
        38   02 Jun 2027 07:52:25.941   02 Jun 2027 07:52:31.660             5.719          2859.500
        39   02 Jun 2027 09:24:17.994   02 Jun 2027 09:26:24.129           126.135         62284.437
        40   02 Jun 2027 09:27:25.162   02 Jun 2027 09:27:25.162             0.000             0.000
        41   02 Jun 2027 09:28:08.834   02 Jun 2027 09:28:14.547             5.713          2856.500
        42   02 Jun 2027 09:28:36.961   02 Jun 2027 09:28:39.142             2.181           764.531
        43   02 Jun 2027 09:29:01.649   02 Jun 2027 09:29:03.281             1.632           574.125
        44   02 Jun 2027 09:29:37.392   02 Jun 2027 09:29:37.786             0.394           197.000
        45   02 Jun 2027 09:30:21.443   02 Jun 2027 09:30:27.245             5.802          2160.156
        46   02 Jun 2027 09:30:53.547   02 Jun 2027 09:30:54.204             0.657           328.500
        47   02 Jun 2027 09:30:55.565   02 Jun 2027 09:30:57.301             1.736           535.969
        48   02 Jun 2027 11:00:40.146   02 Jun 2027 11:00:50.587            10.441          4682.187
        49   02 Jun 2027 11:02:05.140   02 Jun 2027 11:02:09.633             4.493          1596.250
        50   02 Jun 2027 11:02:48.004   02 Jun 2027 11:02:49.042             1.038           467.125
        51   02 Jun 2027 11:02:55.557   02 Jun 2027 11:02:57.445             1.888           148.625
        52   02 Jun 2027 11:03:34.300   02 Jun 2027 11:03:39.962             5.662           461.406
        53   02 Jun 2027 11:04:45.784   02 Jun 2027 11:04:52.915             7.131          1597.656
        54   02 Jun 2027 11:05:03.284   02 Jun 2027 11:05:05.629             2.345            60.625
        55   02 Jun 2027 11:06:05.734   02 Jun 2027 11:06:09.729             3.995          1521.906
        56   02 Jun 2027 11:06:15.766   02 Jun 2027 11:06:17.633             1.867           188.656
        57   02 Jun 2027 11:06:35.893   02 Jun 2027 11:06:39.077             3.184           361.437
        58   02 Jun 2027 11:06:50.964   02 Jun 2027 11:06:51.763             0.799           371.469
        59   03 Jun 2027 03:23:05.442   03 Jun 2027 03:23:49.715            44.273         22136.500
        60   03 Jun 2027 03:24:11.256   03 Jun 2027 03:26:26.993           135.737         67868.500
        61   03 Jun 2027 03:26:38.527   03 Jun 2027 03:26:47.444             8.917          4458.500
        62   03 Jun 2027 03:28:19.436   03 Jun 2027 03:28:34.381            14.945          7472.500
        63   03 Jun 2027 05:01:18.267   03 Jun 2027 05:01:56.337            38.070         19035.000
        64   03 Jun 2027 05:02:08.816   03 Jun 2027 05:03:12.921            64.105         31070.281
        65   03 Jun 2027 05:03:35.529   03 Jun 2027 05:03:37.347             1.818           706.500
        66   03 Jun 2027 06:24:47.066   03 Jun 2027 06:24:59.148            12.082          4958.594
        67   03 Jun 2027 06:25:34.368   03 Jun 2027 06:25:37.877             3.509            54.938
        68   03 Jun 2027 06:25:40.902   03 Jun 2027 06:25:44.517             3.615            33.813
        69   03 Jun 2027 06:26:16.075   03 Jun 2027 06:26:16.075             0.000             0.000
        70   03 Jun 2027 06:27:26.426   03 Jun 2027 06:27:33.764             7.338          2759.812
        71   03 Jun 2027 06:27:47.826   03 Jun 2027 06:27:47.826             0.000             0.000
        72   03 Jun 2027 08:01:16.098   03 Jun 2027 08:01:22.816             6.718          2250.469
        73   03 Jun 2027 08:02:12.557   03 Jun 2027 08:02:16.380             3.823          1510.687
        74   03 Jun 2027 08:02:47.917   03 Jun 2027 08:02:53.112             5.195           241.438
        75   03 Jun 2027 08:03:04.197   03 Jun 2027 08:03:04.939             0.742           155.531
        76   03 Jun 2027 08:03:52.603   03 Jun 2027 08:03:56.962             4.359           780.469
        77   03 Jun 2027 09:36:26.618   03 Jun 2027 09:36:31.743             5.125          2313.594
        78   03 Jun 2027 09:37:49.633   03 Jun 2027 09:37:55.524             5.891          2249.500
        79   03 Jun 2027 09:38:11.951   03 Jun 2027 09:38:13.086             1.135           372.469
        80   03 Jun 2027 09:39:21.658   03 Jun 2027 09:39:23.874             2.216          1060.875
        81   03 Jun 2027 09:40:10.462   03 Jun 2027 09:40:16.138             5.676          1336.656
        82   03 Jun 2027 09:41:28.882   03 Jun 2027 09:41:30.725             1.843           630.906
        83   03 Jun 2027 09:42:48.140   03 Jun 2027 09:42:52.713             4.573          2197.719
        84   03 Jun 2027 11:12:24.453   03 Jun 2027 11:12:36.530            12.077          5782.313
        85   03 Jun 2027 11:14:59.289   03 Jun 2027 11:15:01.342             2.053           817.094
        86   03 Jun 2027 11:15:48.607   03 Jun 2027 11:15:56.797             8.190          1230.250
        87   03 Jun 2027 11:16:42.964   03 Jun 2027 11:16:48.455             5.491          1255.906
        88   03 Jun 2027 11:17:33.537   03 Jun 2027 11:17:39.137             5.600           968.000
        89   03 Jun 2027 11:18:01.193   03 Jun 2027 11:18:06.830             5.637           605.062
        90   03 Jun 2027 11:18:24.700   03 Jun 2027 11:18:27.701             3.001           526.187
        91   03 Jun 2027 11:18:40.177   03 Jun 2027 11:18:45.403             5.226           345.187
        92   04 Jun 2027 03:36:10.535   04 Jun 2027 03:40:14.175           243.640        121820.000
        93   04 Jun 2027 03:40:30.446   04 Jun 2027 03:40:36.936             6.490          3245.000
        94   04 Jun 2027 03:42:24.843   04 Jun 2027 03:42:28.863             4.020          2010.000
        95   04 Jun 2027 03:43:05.200   04 Jun 2027 03:43:16.460            11.260          5630.000
        96   04 Jun 2027 05:02:26.028   04 Jun 2027 05:02:30.494             4.466          2233.000
        97   04 Jun 2027 05:13:16.036   04 Jun 2027 05:14:20.788            64.752         32159.531
        98   04 Jun 2027 05:15:28.510   04 Jun 2027 05:15:30.323             1.813           360.250
        99   04 Jun 2027 05:16:07.298   04 Jun 2027 05:16:09.168             1.870           796.500
       100   04 Jun 2027 05:16:26.037   04 Jun 2027 05:16:35.915             9.878           476.969
       101   04 Jun 2027 06:37:14.006   04 Jun 2027 06:37:22.233             8.227          3701.750
       102   04 Jun 2027 06:37:42.180   04 Jun 2027 06:37:42.180             0.000             0.000
       103   04 Jun 2027 06:37:44.089   04 Jun 2027 06:37:49.604             5.515           418.875
       104   04 Jun 2027 06:39:20.980   04 Jun 2027 06:39:27.937             6.957          2579.844
       105   04 Jun 2027 06:39:44.283   04 Jun 2027 06:39:46.173             1.890           510.812
       106   04 Jun 2027 08:13:00.550   04 Jun 2027 08:13:07.996             7.446          2860.187
       107   04 Jun 2027 08:14:13.860   04 Jun 2027 08:14:23.964            10.104          1822.312
       108   04 Jun 2027 08:14:37.608   04 Jun 2027 08:14:42.150             4.542            88.344
       109   04 Jun 2027 08:15:44.944   04 Jun 2027 08:15:47.571             2.627           995.281
       110   04 Jun 2027 08:16:17.715   04 Jun 2027 08:16:19.603             1.888           850.625
       111   04 Jun 2027 08:17:09.175   04 Jun 2027 08:17:12.129             2.954          1247.406
       112   04 Jun 2027 09:47:44.084   04 Jun 2027 09:47:52.727             8.643          2676.781
       113   04 Jun 2027 09:49:50.487   04 Jun 2027 09:49:56.789             6.302          2787.531
       114   04 Jun 2027 09:50:37.171   04 Jun 2027 09:50:39.841             2.670           231.156
       115   04 Jun 2027 09:51:07.401   04 Jun 2027 09:51:07.401             0.000             0.000
       116   04 Jun 2027 09:51:16.758   04 Jun 2027 09:51:20.196             3.438           427.687
       117   04 Jun 2027 09:53:37.190   04 Jun 2027 09:53:45.433             8.243          2599.812
       118   04 Jun 2027 09:54:26.168   04 Jun 2027 09:54:30.921             4.753          1272.969
       119   04 Jun 2027 09:55:01.968   04 Jun 2027 09:55:05.151             3.183           967.500
       120   04 Jun 2027 11:24:28.473   04 Jun 2027 11:24:41.816            13.343          5483.031
       121   04 Jun 2027 11:26:15.894   04 Jun 2027 11:26:17.881             1.987            14.219
       122   04 Jun 2027 11:26:53.709   04 Jun 2027 11:27:01.515             7.806           649.469
       123   04 Jun 2027 11:28:32.385   04 Jun 2027 11:28:39.184             6.799          2203.563
       124   04 Jun 2027 11:29:19.519   04 Jun 2027 11:29:24.465             4.946           962.531
       125   04 Jun 2027 11:29:39.189   04 Jun 2027 11:29:42.661             3.472           460.125
       126   04 Jun 2027 11:30:39.258   04 Jun 2027 11:30:44.261             5.003          1768.656
       127   05 Jun 2027 03:48:31.229   05 Jun 2027 03:51:19.083           167.854         83927.000
       128   05 Jun 2027 03:51:41.562   05 Jun 2027 03:51:58.952            17.390          8695.000
       129   05 Jun 2027 03:55:02.889   05 Jun 2027 03:55:07.777             4.888          2444.000
       130   05 Jun 2027 03:55:21.239   05 Jun 2027 03:55:55.371            34.132         17066.000
       131   05 Jun 2027 05:13:41.787   05 Jun 2027 05:13:46.280             4.493          2246.500
       132   05 Jun 2027 05:15:00.164   05 Jun 2027 05:15:01.162             0.998           499.000
       133   05 Jun 2027 05:25:14.982   05 Jun 2027 05:26:42.679            87.697         43848.500
       134   05 Jun 2027 06:47:52.582   05 Jun 2027 06:48:20.096            27.514         13102.374
       135   05 Jun 2027 06:48:43.170   05 Jun 2027 06:48:45.272             2.102           287.031
       136   05 Jun 2027 06:49:29.101   05 Jun 2027 06:49:30.880             1.779           571.094
       137   05 Jun 2027 06:49:47.378   05 Jun 2027 06:49:49.168             1.790            95.687
       138   05 Jun 2027 06:50:50.834   05 Jun 2027 06:50:50.834             0.000             0.000
       139   05 Jun 2027 06:51:13.470   05 Jun 2027 06:51:19.357             5.887          2349.250
       140   05 Jun 2027 06:51:47.220   05 Jun 2027 06:51:49.651             2.431           620.750
       141   05 Jun 2027 08:23:01.113   05 Jun 2027 08:23:06.441             5.328          2462.719
       142   05 Jun 2027 08:24:01.388   05 Jun 2027 08:24:05.991             4.603          1442.875
       143   05 Jun 2027 08:24:51.844   05 Jun 2027 08:24:57.175             5.331          1048.344
       144   05 Jun 2027 08:26:14.905   05 Jun 2027 08:26:17.384             2.479           729.281
       145   05 Jun 2027 08:26:31.698   05 Jun 2027 08:26:32.986             1.288           252.281
       146   05 Jun 2027 08:28:04.927   05 Jun 2027 08:28:04.927             0.000             0.000
       147   05 Jun 2027 08:28:53.897   05 Jun 2027 08:29:05.700            11.803          2342.063
       148   05 Jun 2027 09:59:47.943   05 Jun 2027 09:59:55.645             7.702          3570.937
       149   05 Jun 2027 10:01:50.832   05 Jun 2027 10:02:00.666             9.834          3540.438
       150   05 Jun 2027 10:03:20.595   05 Jun 2027 10:03:21.655             1.060           510.187
       151   05 Jun 2027 10:04:19.455   05 Jun 2027 10:04:23.615             4.160          1429.031
       152   05 Jun 2027 10:04:55.573   05 Jun 2027 10:04:56.803             1.230           230.094
       153   05 Jun 2027 10:05:14.689   05 Jun 2027 10:05:15.982             1.293           401.906
       154   05 Jun 2027 10:05:37.023   05 Jun 2027 10:05:38.240             1.217           494.344
       155   05 Jun 2027 10:06:07.355   05 Jun 2027 10:06:14.545             7.190           871.906
       156   05 Jun 2027 10:06:33.090   05 Jun 2027 10:06:33.780             0.690           264.594
       157   05 Jun 2027 10:06:59.287   05 Jun 2027 10:07:03.534             4.247           733.313
       158   05 Jun 2027 11:36:48.978   05 Jun 2027 11:37:03.452            14.474          6084.719
       159   05 Jun 2027 11:38:41.292   05 Jun 2027 11:38:42.556             1.264           239.562
       160   05 Jun 2027 11:39:27.493   05 Jun 2027 11:39:29.519             2.026           875.938
       161   05 Jun 2027 11:40:30.073   05 Jun 2027 11:40:30.674             0.601           170.531
       162   05 Jun 2027 11:40:51.943   05 Jun 2027 11:40:52.690             0.747           353.719
       163   05 Jun 2027 11:41:20.229   05 Jun 2027 11:41:25.150             4.921           718.312
       164   05 Jun 2027 11:42:01.650   05 Jun 2027 11:42:10.463             8.813           988.281
       165   05 Jun 2027 11:42:24.785   05 Jun 2027 11:42:25.799             1.014            90.219
       166   05 Jun 2027 11:42:29.800   05 Jun 2027 11:42:33.120             3.320            27.094
       167   06 Jun 2027 04:00:46.972   06 Jun 2027 04:03:18.820           151.848         75924.000
       168   06 Jun 2027 04:03:37.361   06 Jun 2027 04:03:43.877             6.516          3258.000
       169   06 Jun 2027 04:04:11.657   06 Jun 2027 04:04:16.202             4.545          2272.500
       170   06 Jun 2027 04:04:48.293   06 Jun 2027 04:04:48.293             0.000             0.000
       171   06 Jun 2027 04:05:03.280   06 Jun 2027 04:05:21.827            18.547          9273.500
       172   06 Jun 2027 04:06:00.132   06 Jun 2027 04:06:32.287            32.155         16077.500
       173   06 Jun 2027 04:07:35.278   06 Jun 2027 04:07:38.076             2.798          1399.000
       174   06 Jun 2027 05:25:42.282   06 Jun 2027 05:25:46.957             4.675          2337.500
       175   06 Jun 2027 05:25:54.795   06 Jun 2027 05:25:54.795             0.000             0.000
       176   06 Jun 2027 05:27:00.734   06 Jun 2027 05:27:11.719            10.985          5492.500
       177   06 Jun 2027 05:37:14.027   06 Jun 2027 05:38:10.252            56.225         28112.500
       178   06 Jun 2027 06:59:28.315   06 Jun 2027 07:00:20.706            52.391         26195.500
       179   06 Jun 2027 07:00:25.559   06 Jun 2027 07:00:29.458             3.899           265.001
       180   06 Jun 2027 07:01:57.633   06 Jun 2027 07:02:01.606             3.973          1440.125
       181   06 Jun 2027 07:03:26.091   06 Jun 2027 07:03:31.513             5.422          2201.500
       182   06 Jun 2027 07:03:56.210   06 Jun 2027 07:04:02.443             6.233           193.438
       183   06 Jun 2027 08:34:21.226   06 Jun 2027 08:34:27.654             6.428          2637.906
       184   06 Jun 2027 08:35:33.547   06 Jun 2027 08:35:34.549             1.002           501.000
       185   06 Jun 2027 08:35:49.398   06 Jun 2027 08:36:00.994            11.596          1128.438
       186   06 Jun 2027 08:36:44.696   06 Jun 2027 08:36:45.131             0.435           217.500
       187   06 Jun 2027 08:38:15.621   06 Jun 2027 08:38:31.002            15.381          3916.469
       188   06 Jun 2027 08:39:46.658   06 Jun 2027 08:39:51.424             4.766          2364.250
       189   06 Jun 2027 08:41:05.771   06 Jun 2027 08:41:09.083             3.312          1359.844
       190   06 Jun 2027 08:42:25.471   06 Jun 2027 08:42:28.458             2.987          1369.844
       191   06 Jun 2027 10:11:55.916   06 Jun 2027 10:12:03.256             7.340          2905.844
       192   06 Jun 2027 10:12:53.717   06 Jun 2027 10:12:55.470             1.753           108.500
       193   06 Jun 2027 10:13:49.390   06 Jun 2027 10:13:50.570             1.180           382.094
       194   06 Jun 2027 10:14:40.166   06 Jun 2027 10:14:47.222             7.056          1289.625
       195   06 Jun 2027 10:15:43.706   06 Jun 2027 10:15:50.809             7.103          1332.375
       196   06 Jun 2027 10:16:20.119   06 Jun 2027 10:16:21.507             1.388           266.719
       197   06 Jun 2027 10:16:51.030   06 Jun 2027 10:16:53.563             2.533           874.469
       198   06 Jun 2027 10:17:03.955   06 Jun 2027 10:17:05.775             1.820           324.750
       199   06 Jun 2027 10:17:13.058   06 Jun 2027 10:17:15.971             2.913           227.594
       200   06 Jun 2027 10:17:34.814   06 Jun 2027 10:17:36.631             1.817           588.844
       201   06 Jun 2027 10:18:02.401   06 Jun 2027 10:18:04.315             1.914           265.625
       202   06 Jun 2027 10:18:30.355   06 Jun 2027 10:18:31.848             1.493           717.219
       203   06 Jun 2027 10:18:49.183   06 Jun 2027 10:18:50.999             1.816           443.156
       204   06 Jun 2027 10:19:02.041   06 Jun 2027 10:19:02.459             0.418           208.563
       205   06 Jun 2027 11:48:38.831   06 Jun 2027 11:48:50.593            11.762          5525.312
       206   06 Jun 2027 11:51:52.753   06 Jun 2027 11:51:58.675             5.922           777.344
       207   06 Jun 2027 11:52:44.654   06 Jun 2027 11:52:49.833             5.179          1065.438
       208   06 Jun 2027 11:53:32.789   06 Jun 2027 11:53:38.545             5.756          1342.375
       209   06 Jun 2027 11:54:57.326   06 Jun 2027 11:55:01.734             4.408          1464.969
       210   06 Jun 2027 11:55:11.404   06 Jun 2027 11:55:14.237             2.833           302.188
       211   07 Jun 2027 04:12:52.464   07 Jun 2027 04:13:43.127            50.663         25331.500
       212   07 Jun 2027 04:14:44.302   07 Jun 2027 04:15:10.122            25.820         12910.000
       213   07 Jun 2027 04:15:46.937   07 Jun 2027 04:15:55.807             8.870          4435.000
       214   07 Jun 2027 04:16:36.864   07 Jun 2027 04:16:46.343             9.479          4739.500
       215   07 Jun 2027 04:17:20.691   07 Jun 2027 04:17:35.084            14.393          7196.500
       216   07 Jun 2027 05:37:06.319   07 Jun 2027 05:38:24.925            78.606         39303.000
       217   07 Jun 2027 05:38:58.440   07 Jun 2027 05:39:00.488             2.048          1024.000
       218   07 Jun 2027 05:49:35.740   07 Jun 2027 05:49:41.300             5.560          2780.000
       219   07 Jun 2027 07:10:57.021   07 Jun 2027 07:12:19.335            82.314         41157.000
       220   07 Jun 2027 07:12:59.969   07 Jun 2027 07:13:54.094            54.125         25402.250
       221   07 Jun 2027 07:15:24.003   07 Jun 2027 07:15:30.126             6.123          2809.656
       222   07 Jun 2027 07:15:52.659   07 Jun 2027 07:15:55.059             2.400           390.406
       223   07 Jun 2027 08:45:51.160   07 Jun 2027 08:45:59.800             8.640          4179.500
       224   07 Jun 2027 08:46:44.252   07 Jun 2027 08:46:47.148             2.896          1303.563
       225   07 Jun 2027 08:48:19.537   07 Jun 2027 08:48:23.292             3.755           484.906
       226   07 Jun 2027 08:50:15.933   07 Jun 2027 08:50:23.497             7.564          3440.781
       227   07 Jun 2027 08:51:46.557   07 Jun 2027 08:51:53.944             7.387          2305.750
       228   07 Jun 2027 08:52:52.782   07 Jun 2027 08:52:53.625             0.843           421.500
       229   07 Jun 2027 08:53:20.038   07 Jun 2027 08:53:23.172             3.134           863.563
       230   07 Jun 2027 08:53:47.581   07 Jun 2027 08:53:50.566             2.985           676.250
       231   07 Jun 2027 08:54:31.468   07 Jun 2027 08:54:36.848             5.380          1224.344
       232   07 Jun 2027 10:23:51.179   07 Jun 2027 10:24:02.487            11.308          5566.094
       233   07 Jun 2027 10:25:30.249   07 Jun 2027 10:25:31.379             1.130           456.313
       234   07 Jun 2027 10:26:48.819   07 Jun 2027 10:26:53.863             5.044          1850.531
       235   07 Jun 2027 10:28:06.809   07 Jun 2027 10:28:07.826             1.017           352.313
       236   07 Jun 2027 10:28:41.782   07 Jun 2027 10:28:44.429             2.647           807.469
       237   07 Jun 2027 10:29:14.615   07 Jun 2027 10:29:16.044             1.429            60.281
       238   07 Jun 2027 10:30:43.970   07 Jun 2027 10:30:49.961             5.991           997.156
       239   07 Jun 2027 10:31:02.609   07 Jun 2027 10:31:05.858             3.249           395.250
       240   08 Jun 2027 04:25:18.636   08 Jun 2027 04:26:16.199            57.563         28781.500
       241   08 Jun 2027 04:26:25.825   08 Jun 2027 04:26:45.888            20.063         10031.500
       242   08 Jun 2027 04:27:42.005   08 Jun 2027 04:27:49.238             7.233          3616.500
       243   08 Jun 2027 04:28:26.914   08 Jun 2027 04:28:52.298            25.384         12692.000
       244   08 Jun 2027 04:29:24.888   08 Jun 2027 04:30:08.967            44.079         22039.500
       245   08 Jun 2027 05:49:02.562   08 Jun 2027 05:49:44.152            41.590         20795.000
       246   08 Jun 2027 07:25:15.746   08 Jun 2027 07:27:24.802           129.056         63315.156
       247   08 Jun 2027 07:27:48.440   08 Jun 2027 07:27:50.293             1.853           695.625
       248   08 Jun 2027 07:28:20.762   08 Jun 2027 07:28:20.762             0.000             0.000
       249   08 Jun 2027 08:58:47.372   08 Jun 2027 08:58:55.452             8.080          3024.000
       250   08 Jun 2027 09:00:37.307   08 Jun 2027 09:00:43.045             5.738           198.094
       251   08 Jun 2027 09:01:14.960   08 Jun 2027 09:01:16.996             2.036            80.875
       252   08 Jun 2027 09:02:02.559   08 Jun 2027 09:02:06.451             3.892          1306.969
       253   08 Jun 2027 09:03:45.806   08 Jun 2027 09:03:50.395             4.589          2147.750
       254   08 Jun 2027 09:04:42.836   08 Jun 2027 09:04:43.765             0.929           333.594
       255   08 Jun 2027 09:05:36.816   08 Jun 2027 09:05:38.850             2.034           438.031
       256   08 Jun 2027 09:05:53.702   08 Jun 2027 09:05:54.588             0.886           383.656
       257   08 Jun 2027 09:06:27.385   08 Jun 2027 09:06:32.496             5.111          1024.906
       258   08 Jun 2027 09:07:21.397   08 Jun 2027 09:07:22.288             0.891           445.500
       259   08 Jun 2027 10:36:13.368   08 Jun 2027 10:36:25.184            11.816          5723.531
       260   08 Jun 2027 10:38:31.779   08 Jun 2027 10:38:36.224             4.445          1426.813
       261   08 Jun 2027 10:38:44.548   08 Jun 2027 10:38:45.636             1.088           196.531
       262   08 Jun 2027 10:39:34.296   08 Jun 2027 10:39:39.166             4.870          1520.625
       263   08 Jun 2027 10:40:26.847   08 Jun 2027 10:40:29.852             3.005           785.875
       264   08 Jun 2027 10:40:41.628   08 Jun 2027 10:40:43.513             1.885           335.688
       265   08 Jun 2027 10:40:51.349   08 Jun 2027 10:40:53.220             1.871            83.344
       266   08 Jun 2027 10:41:22.335   08 Jun 2027 10:41:25.130             2.795           346.562
       267   08 Jun 2027 10:42:28.599   08 Jun 2027 10:42:34.852             6.253          1983.406
       268   08 Jun 2027 10:42:40.391   08 Jun 2027 10:42:40.803             0.412           126.844
       269   08 Jun 2027 10:42:43.788   08 Jun 2027 10:42:45.178             1.390            33.969
       270   09 Jun 2027 03:00:00.000   09 Jun 2027 03:00:49.330            49.330         24665.000
       271   09 Jun 2027 03:02:27.958   09 Jun 2027 03:02:31.121             3.163          1581.500
       272   09 Jun 2027 03:04:45.161   09 Jun 2027 03:05:07.658            22.497         11248.500
       273   09 Jun 2027 04:37:14.212   09 Jun 2027 04:38:33.819            79.607         39803.500
       274   09 Jun 2027 04:39:58.719   09 Jun 2027 04:40:03.018             4.299          2149.500
       275   09 Jun 2027 04:40:41.826   09 Jun 2027 04:41:00.794            18.968          9484.000
       276   09 Jun 2027 06:00:54.554   09 Jun 2027 06:02:12.826            78.272         39136.000
       277   09 Jun 2027 06:02:52.602   09 Jun 2027 06:03:22.064            29.462         14731.000
       278   09 Jun 2027 07:37:21.094   09 Jun 2027 07:38:17.918            56.824         28208.312
       279   09 Jun 2027 07:38:45.906   09 Jun 2027 07:38:49.110             3.204           840.031
       280   09 Jun 2027 07:39:26.624   09 Jun 2027 07:39:29.767             3.143           312.125
       281   09 Jun 2027 07:40:23.274   09 Jun 2027 07:40:25.638             2.364           811.000
       282   09 Jun 2027 09:09:30.987   09 Jun 2027 09:09:37.894             6.907          2395.469
       283   09 Jun 2027 09:12:04.855   09 Jun 2027 09:12:12.119             7.264          3051.000
       284   09 Jun 2027 09:13:14.106   09 Jun 2027 09:13:16.701             2.595           286.812
       285   09 Jun 2027 09:14:04.525   09 Jun 2027 09:14:14.951            10.426          1049.531
       286   09 Jun 2027 09:14:44.028   09 Jun 2027 09:14:47.587             3.559           558.375
       287   09 Jun 2027 09:15:14.722   09 Jun 2027 09:15:21.180             6.458           728.187
       288   09 Jun 2027 09:16:28.567   09 Jun 2027 09:16:31.816             3.249          1384.000
       289   09 Jun 2027 09:17:53.856   09 Jun 2027 09:17:55.618             1.762           518.500
       290   09 Jun 2027 09:18:30.783   09 Jun 2027 09:18:35.923             5.140           692.500
       291   09 Jun 2027 09:19:08.957   09 Jun 2027 09:19:09.913             0.956           407.000
       292   09 Jun 2027 10:48:24.662   09 Jun 2027 10:48:36.623            11.961          5878.250
       293   09 Jun 2027 10:49:54.642   09 Jun 2027 10:49:58.542             3.900           166.719
       294   09 Jun 2027 10:50:33.243   09 Jun 2027 10:50:34.657             1.414           435.844
       295   09 Jun 2027 10:51:16.292   09 Jun 2027 10:51:22.439             6.147          1301.094
       296   09 Jun 2027 10:52:06.747   09 Jun 2027 10:52:16.996            10.249           869.031
       297   09 Jun 2027 10:52:28.866   09 Jun 2027 10:52:30.190             1.324           223.438
       298   09 Jun 2027 10:53:01.984   09 Jun 2027 10:53:04.239             2.255           262.344
       299   09 Jun 2027 10:53:29.076   09 Jun 2027 10:53:30.549             1.473           640.875
       300   09 Jun 2027 10:54:29.868   09 Jun 2027 10:54:33.730             3.862          1690.219
       301   09 Jun 2027 10:54:50.158   09 Jun 2027 10:54:51.859             1.701           513.375
       302   10 Jun 2027 03:11:20.591   10 Jun 2027 03:12:23.343            62.752         31376.000
       303   10 Jun 2027 03:12:29.984   10 Jun 2027 03:12:51.521            21.537         10768.500
       304   10 Jun 2027 03:13:22.737   10 Jun 2027 03:13:35.093            12.356          6178.000
       305   10 Jun 2027 03:13:50.931   10 Jun 2027 03:14:59.424            68.493         34246.500
       306   10 Jun 2027 03:16:17.990   10 Jun 2027 03:16:32.985            14.995          7497.500
       307   10 Jun 2027 04:50:27.671   10 Jun 2027 04:52:27.413           119.742         59871.000
       308   10 Jun 2027 04:52:33.242   10 Jun 2027 04:52:41.588             8.346          4029.281
       309   10 Jun 2027 06:13:00.119   10 Jun 2027 06:13:19.430            19.311          8014.562
       310   10 Jun 2027 06:14:32.220   10 Jun 2027 06:14:37.840             5.620          2171.719
       311   10 Jun 2027 07:49:28.908   10 Jun 2027 07:49:38.332             9.424          3451.125
       312   10 Jun 2027 07:50:22.724   10 Jun 2027 07:50:28.860             6.136          1135.000
       313   10 Jun 2027 07:50:37.086   10 Jun 2027 07:50:39.682             2.596           257.063
       314   10 Jun 2027 07:51:01.888   10 Jun 2027 07:51:04.592             2.704           693.938
       315   10 Jun 2027 07:51:10.819   10 Jun 2027 07:51:14.017             3.198           194.594
       316   10 Jun 2027 07:52:10.658   10 Jun 2027 07:52:13.773             3.115          1226.656
       317   10 Jun 2027 07:52:37.001   10 Jun 2027 07:52:42.504             5.503           270.844
       318   10 Jun 2027 09:24:36.720   10 Jun 2027 09:24:44.162             7.442          2578.469
       319   10 Jun 2027 09:25:44.454   10 Jun 2027 09:25:48.842             4.388          1226.813
       320   10 Jun 2027 09:26:06.161   10 Jun 2027 09:26:07.178             1.017           412.188
       321   10 Jun 2027 09:27:41.817   10 Jun 2027 09:27:47.539             5.722          1503.125
       322   10 Jun 2027 09:28:27.357   10 Jun 2027 09:28:29.557             2.200           529.594
       323   10 Jun 2027 09:29:38.353   10 Jun 2027 09:29:44.893             6.540          1949.000
       324   10 Jun 2027 09:30:50.664   10 Jun 2027 09:30:54.631             3.967          1798.188
       325   10 Jun 2027 09:31:14.304   10 Jun 2027 09:31:15.091             0.787            86.031
       326   10 Jun 2027 11:00:58.473   10 Jun 2027 11:01:06.654             8.181          3875.344
       327   10 Jun 2027 11:03:04.467   10 Jun 2027 11:03:08.571             4.104           517.688
       328   10 Jun 2027 11:04:13.274   10 Jun 2027 11:04:17.664             4.390          1151.094
       329   10 Jun 2027 11:04:54.270   10 Jun 2027 11:04:56.119             1.849           729.406
       330   10 Jun 2027 11:05:04.452   10 Jun 2027 11:05:09.468             5.016           147.281
       331   10 Jun 2027 11:05:20.066   10 Jun 2027 11:05:21.955             1.889           126.375
       332   10 Jun 2027 11:06:22.449   10 Jun 2027 11:06:28.199             5.750          1484.750
       333   10 Jun 2027 11:06:41.566   10 Jun 2027 11:06:42.481             0.915           294.656
       334   10 Jun 2027 11:06:50.910   10 Jun 2027 11:06:52.482             1.572           263.406
       335   10 Jun 2027 11:07:07.742   10 Jun 2027 11:07:08.746             1.004           476.875
       336   11 Jun 2027 03:23:22.714   11 Jun 2027 03:24:03.278            40.564         20282.000
       337   11 Jun 2027 03:24:27.534   11 Jun 2027 03:27:28.722           181.188         90594.000
       338   11 Jun 2027 05:01:34.894   11 Jun 2027 05:02:12.962            38.068         19034.000
       339   11 Jun 2027 05:02:26.249   11 Jun 2027 05:03:08.679            42.430         20566.719
       340   11 Jun 2027 05:03:53.266   11 Jun 2027 05:03:55.673             2.407           784.344
       341   11 Jun 2027 05:04:34.160   11 Jun 2027 05:04:34.817             0.657           264.531
       342   11 Jun 2027 06:25:03.214   11 Jun 2027 06:25:09.357             6.143          3071.500
       343   11 Jun 2027 06:26:14.400   11 Jun 2027 06:26:20.386             5.986          2822.437
       344   11 Jun 2027 06:26:25.725   11 Jun 2027 06:26:26.995             1.270            19.250
       345   11 Jun 2027 06:27:41.682   11 Jun 2027 06:27:43.372             1.690           845.000
       346   11 Jun 2027 06:27:58.351   11 Jun 2027 06:28:02.838             4.487          1740.469
       347   11 Jun 2027 08:01:40.056   11 Jun 2027 08:01:49.004             8.948          3957.875
       348   11 Jun 2027 08:02:07.150   11 Jun 2027 08:02:08.255             1.105           532.937
       349   11 Jun 2027 08:03:02.927   11 Jun 2027 08:03:08.235             5.308          1017.719
       350   11 Jun 2027 08:03:21.138   11 Jun 2027 08:03:22.721             1.583           162.750
       351   11 Jun 2027 08:04:09.337   11 Jun 2027 08:04:11.688             2.351           717.000
       352   11 Jun 2027 09:36:43.976   11 Jun 2027 09:36:51.445             7.469          2877.937
       353   11 Jun 2027 09:38:07.409   11 Jun 2027 09:38:15.712             8.303          2320.813
       354   11 Jun 2027 09:38:30.924   11 Jun 2027 09:38:34.041             3.117           378.875
       355   11 Jun 2027 09:39:38.224   11 Jun 2027 09:39:40.712             2.488           997.844
       356   11 Jun 2027 09:40:28.594   11 Jun 2027 09:40:34.057             5.463          1457.031
       357   11 Jun 2027 09:41:00.104   11 Jun 2027 09:41:01.650             1.546           372.375
       358   11 Jun 2027 09:41:44.620   11 Jun 2027 09:41:49.023             4.403           619.344
       359   11 Jun 2027 09:43:04.158   11 Jun 2027 09:43:12.731             8.573          2154.563
       360   11 Jun 2027 11:12:39.203   11 Jun 2027 11:13:01.207            22.004          8048.094
       361   11 Jun 2027 11:14:49.734   11 Jun 2027 11:14:53.791             4.057          1551.375
       362   11 Jun 2027 11:15:35.288   11 Jun 2027 11:15:38.144             2.856           866.906
       363   11 Jun 2027 11:15:52.010   11 Jun 2027 11:15:56.141             4.131           269.531
       364   11 Jun 2027 11:16:58.617   11 Jun 2027 11:17:05.679             7.062          1208.188
       365   11 Jun 2027 11:17:43.284   11 Jun 2027 11:17:46.949             3.665          1175.156
       366   11 Jun 2027 11:18:03.885   11 Jun 2027 11:18:06.649             2.764           461.906
       367   12 Jun 2027 03:36:27.434   12 Jun 2027 03:40:11.437           224.003        112001.500
       368   12 Jun 2027 03:43:07.370   12 Jun 2027 03:43:07.370             0.000             0.000
       369   12 Jun 2027 03:43:22.786   12 Jun 2027 03:43:32.669             9.883          4941.500
       370   12 Jun 2027 05:02:44.756   12 Jun 2027 05:02:49.722             4.966          2483.000
       371   12 Jun 2027 05:13:32.377   12 Jun 2027 05:15:04.963            92.586         44030.719
       372   12 Jun 2027 05:15:43.832   12 Jun 2027 05:15:45.145             1.313           366.719
       373   12 Jun 2027 05:16:21.792   12 Jun 2027 05:16:23.278             1.486           702.281
       374   12 Jun 2027 05:16:41.695   12 Jun 2027 05:16:50.452             8.757           434.000
       375   12 Jun 2027 06:37:30.040   12 Jun 2027 06:37:37.982             7.942          3943.000
       376   12 Jun 2027 06:37:58.580   12 Jun 2027 06:37:59.794             1.214           406.406
       377   12 Jun 2027 06:38:02.098   12 Jun 2027 06:38:04.085             1.987            72.000
       378   12 Jun 2027 06:38:35.738   12 Jun 2027 06:38:35.738             0.000             0.000
       379   12 Jun 2027 06:39:06.511   12 Jun 2027 06:39:09.862             3.351          1619.500
       380   12 Jun 2027 08:13:15.936   12 Jun 2027 08:13:19.858             3.922          1816.187
       381   12 Jun 2027 08:14:31.644   12 Jun 2027 08:14:38.632             6.988          1888.187
       382   12 Jun 2027 08:14:52.622   12 Jun 2027 08:14:57.195             4.573            23.406
       383   12 Jun 2027 08:15:50.292   12 Jun 2027 08:15:51.490             1.198           569.469
       384   12 Jun 2027 08:16:02.231   12 Jun 2027 08:16:03.920             1.689           123.281
       385   12 Jun 2027 08:16:32.351   12 Jun 2027 08:16:35.302             2.951           888.469
       386   12 Jun 2027 08:17:25.528   12 Jun 2027 08:17:28.609             3.081          1217.969
       387   12 Jun 2027 09:47:58.845   12 Jun 2027 09:48:07.135             8.290          2740.188
       388   12 Jun 2027 09:50:08.218   12 Jun 2027 09:50:16.873             8.655          2867.094
       389   12 Jun 2027 09:51:21.906   12 Jun 2027 09:51:24.529             2.623          1033.219
       390   12 Jun 2027 09:51:31.314   12 Jun 2027 09:51:33.212             1.898           212.031
       391   12 Jun 2027 09:52:32.368   12 Jun 2027 09:52:46.193            13.825          1848.625
       392   12 Jun 2027 09:53:34.721   12 Jun 2027 09:53:36.193             1.472           239.656
       393   12 Jun 2027 09:53:38.003   12 Jun 2027 09:53:42.103             4.100            30.813
       394   12 Jun 2027 09:54:53.957   12 Jun 2027 09:55:00.686             6.729          1857.125
       395   12 Jun 2027 09:55:25.937   12 Jun 2027 09:55:28.325             2.388           735.375
       396   12 Jun 2027 11:24:45.624   12 Jun 2027 11:25:00.806            15.182          5453.094
       397   12 Jun 2027 11:26:41.117   12 Jun 2027 11:26:45.348             4.231          1742.719
       398   12 Jun 2027 11:27:38.042   12 Jun 2027 11:27:43.327             5.285           626.813
       399   12 Jun 2027 11:27:45.549   12 Jun 2027 11:27:45.804             0.255            38.188
       400   12 Jun 2027 11:28:56.452   12 Jun 2027 11:29:00.194             3.742           667.594
       401   12 Jun 2027 11:29:35.500   12 Jun 2027 11:29:38.758             3.258           894.156
       402   12 Jun 2027 11:29:55.353   12 Jun 2027 11:29:58.147             2.794           518.594
       403   12 Jun 2027 11:30:55.411   12 Jun 2027 11:31:00.098             4.687          1789.500
       404   13 Jun 2027 03:48:48.307   13 Jun 2027 03:51:44.444           176.137         88068.500
       405   13 Jun 2027 03:53:03.673   13 Jun 2027 03:53:16.058            12.385          6192.500
       406   13 Jun 2027 03:54:43.253   13 Jun 2027 03:54:46.388             3.135          1567.500
       407   13 Jun 2027 03:55:08.465   13 Jun 2027 03:55:19.425            10.960          5480.000
       408   13 Jun 2027 05:13:55.175   13 Jun 2027 05:14:04.065             8.890          4445.000
       409   13 Jun 2027 05:25:32.851   13 Jun 2027 05:26:58.888            86.037         43018.500
       410   13 Jun 2027 06:48:06.918   13 Jun 2027 06:48:28.670            21.752          9014.313
       411   13 Jun 2027 06:48:59.080   13 Jun 2027 06:49:03.928             4.848           294.406
       412   13 Jun 2027 06:49:46.009   13 Jun 2027 06:49:47.332             1.323           403.594
       413   13 Jun 2027 06:50:05.389   13 Jun 2027 06:50:07.464             2.075           146.406
       414   13 Jun 2027 06:51:08.512   13 Jun 2027 06:51:13.742             5.230          1687.031
       415   13 Jun 2027 06:52:30.132   13 Jun 2027 06:52:35.704             5.572          2024.375
       416   13 Jun 2027 08:23:10.963   13 Jun 2027 08:23:20.532             9.569          2500.875
       417   13 Jun 2027 08:24:18.676   13 Jun 2027 08:24:22.401             3.725          1441.625
       418   13 Jun 2027 08:25:09.649   13 Jun 2027 08:25:18.243             8.594          1176.875
       419   13 Jun 2027 08:26:12.609   13 Jun 2027 08:26:16.550             3.941          1684.344
       420   13 Jun 2027 08:27:52.061   13 Jun 2027 08:27:57.071             5.010          2481.437
       421   13 Jun 2027 08:28:10.549   13 Jun 2027 08:28:11.226             0.677           232.125
       422   13 Jun 2027 08:29:12.821   13 Jun 2027 08:29:21.438             8.617          1521.563
       423   13 Jun 2027 10:00:05.816   13 Jun 2027 10:00:10.505             4.689          2083.250
       424   13 Jun 2027 10:02:10.630   13 Jun 2027 10:02:13.344             2.714           887.281
       425   13 Jun 2027 10:03:40.768   13 Jun 2027 10:03:43.137             2.369           532.875
       426   13 Jun 2027 10:05:03.197   13 Jun 2027 10:05:06.321             3.124           866.656
       427   13 Jun 2027 10:05:18.512   13 Jun 2027 10:05:20.369             1.857           181.344
       428   13 Jun 2027 10:05:37.199   13 Jun 2027 10:05:37.868             0.669           272.250
       429   13 Jun 2027 10:05:58.724   13 Jun 2027 10:06:01.703             2.979           625.750
       430   13 Jun 2027 10:06:40.955   13 Jun 2027 10:06:46.478             5.523          1226.625
       431   13 Jun 2027 10:07:04.301   13 Jun 2027 10:07:10.352             6.051           505.656
       432   13 Jun 2027 11:37:06.078   13 Jun 2027 11:37:19.389            13.311          6258.594
       433   13 Jun 2027 11:38:35.623   13 Jun 2027 11:38:41.155             5.532          1400.000
       434   13 Jun 2027 11:38:59.703   13 Jun 2027 11:39:01.274             1.571           339.312
       435   13 Jun 2027 11:39:43.803   13 Jun 2027 11:39:47.080             3.277           884.156
       436   13 Jun 2027 11:40:37.124   13 Jun 2027 11:40:40.011             2.887          1372.625
       437   13 Jun 2027 11:40:47.722   13 Jun 2027 11:40:51.143             3.421           240.969
       438   13 Jun 2027 11:41:06.541   13 Jun 2027 11:41:09.817             3.276           269.875
       439   13 Jun 2027 11:41:35.940   13 Jun 2027 11:41:39.068             3.128           673.312
       440   13 Jun 2027 11:42:19.084   13 Jun 2027 11:42:25.587             6.503           980.062
       441   13 Jun 2027 11:42:40.891   13 Jun 2027 11:42:42.021             1.130            81.656
       442   13 Jun 2027 11:42:45.477   13 Jun 2027 11:42:48.628             3.151            49.000
       443   13 Jun 2027 11:43:06.859   13 Jun 2027 11:43:07.486             0.627           240.844
