uniorb/output/strategy_4/Camera/Camera_KinoSat_110305.txt

KinoSat_110305
-------------------------
    Access    *     Start Time (UTCG)     *     Stop Time (UTCG)  *   Duration (s) *   Data (Mbytes)
         1   01 Jun 2027 03:56:13.158   01 Jun 2027 03:58:07.571           114.413         57206.500
         2   01 Jun 2027 03:58:34.989   01 Jun 2027 03:58:58.603            23.614         11807.000
         3   01 Jun 2027 04:01:06.645   01 Jun 2027 04:01:58.770            52.125         26062.500
         4   01 Jun 2027 04:02:58.843   01 Jun 2027 04:03:11.332            12.489          6244.500
         5   01 Jun 2027 05:33:19.237   01 Jun 2027 05:36:56.489           217.252        108626.000
         6   01 Jun 2027 05:37:49.907   01 Jun 2027 05:38:07.247            17.340          8670.000
         7   01 Jun 2027 07:11:14.738   01 Jun 2027 07:13:54.153           159.415         79707.500
         8   01 Jun 2027 07:14:06.761   01 Jun 2027 07:14:13.144             6.383          3191.500
         9   01 Jun 2027 07:14:27.106   01 Jun 2027 07:14:34.245             7.139          3569.500
        10   01 Jun 2027 07:14:49.003   01 Jun 2027 07:15:02.269            13.266          6633.000
        11   01 Jun 2027 08:44:20.334   01 Jun 2027 08:47:37.463           197.129         98564.500
        12   01 Jun 2027 08:50:06.377   01 Jun 2027 08:50:36.111            29.734         14867.000
        13   01 Jun 2027 08:52:17.890   01 Jun 2027 08:52:21.881             3.991          1995.500
        14   02 Jun 2027 04:08:30.577   02 Jun 2027 04:15:49.246           438.669        219334.500
        15   02 Jun 2027 05:45:15.291   02 Jun 2027 05:50:33.243           317.952        158976.000
        16   02 Jun 2027 05:50:34.584   02 Jun 2027 05:50:51.173            16.589          8294.500
        17   02 Jun 2027 07:23:14.031   02 Jun 2027 07:27:24.883           250.852        125426.000
        18   02 Jun 2027 08:56:51.543   02 Jun 2027 09:04:16.152           444.609        222304.500
        19   03 Jun 2027 04:20:24.463   03 Jun 2027 04:27:49.841           445.378        222689.000
        20   03 Jun 2027 05:57:08.732   03 Jun 2027 06:02:53.004           344.272        172136.000
        21   03 Jun 2027 06:02:54.901   03 Jun 2027 06:03:51.782            56.881         28440.500
        22   03 Jun 2027 07:35:02.152   03 Jun 2027 07:39:24.155           262.003        131001.500
        23   03 Jun 2027 09:11:00.043   03 Jun 2027 09:15:19.614           259.571        129785.500
        24   04 Jun 2027 03:00:00.000   04 Jun 2027 03:02:42.678           162.678         81339.000
        25   04 Jun 2027 03:02:44.848   04 Jun 2027 03:03:53.595            68.747         34373.500
        26   04 Jun 2027 04:32:33.364   04 Jun 2027 04:39:49.188           435.824        217912.000
        27   04 Jun 2027 06:09:47.471   04 Jun 2027 06:14:17.527           270.056        135028.000
        28   04 Jun 2027 06:15:11.059   04 Jun 2027 06:15:38.585            27.526         13763.000
        29   04 Jun 2027 07:47:04.079   04 Jun 2027 07:51:20.544           256.465        128232.500
        30   04 Jun 2027 09:23:26.436   04 Jun 2027 09:26:22.781           176.345         88172.500
        31   05 Jun 2027 03:06:08.801   05 Jun 2027 03:06:41.794            32.993         16496.500
        32   05 Jun 2027 03:07:50.415   05 Jun 2027 03:14:47.010           416.595        208297.500
        33   05 Jun 2027 03:14:55.567   05 Jun 2027 03:15:51.908            56.341         28170.500
        34   05 Jun 2027 04:44:57.582   05 Jun 2027 04:51:39.622           402.040        201020.000
        35   05 Jun 2027 06:23:29.276   05 Jun 2027 06:26:53.921           204.645        102322.500
        36   05 Jun 2027 07:59:25.030   05 Jun 2027 08:03:13.632           228.602        114301.000
        37   05 Jun 2027 09:36:55.283   05 Jun 2027 09:37:53.752            58.469         29234.500
        38   06 Jun 2027 03:21:02.584   06 Jun 2027 03:26:48.338           345.754        172877.000
        39   06 Jun 2027 03:26:48.470   06 Jun 2027 03:27:51.877            63.407         31703.500
        40   06 Jun 2027 04:57:23.093   06 Jun 2027 05:03:45.609           382.516        191258.000
        41   06 Jun 2027 06:35:44.168   06 Jun 2027 06:39:19.834           215.666        107833.000
        42   06 Jun 2027 08:11:33.283   06 Jun 2027 08:15:12.482           219.199        109599.500
        43   07 Jun 2027 03:33:14.568   07 Jun 2027 03:39:50.352           395.784        197892.000
        44   07 Jun 2027 05:09:32.831   07 Jun 2027 05:15:18.464           345.633        172816.500
        45   07 Jun 2027 06:47:03.594   07 Jun 2027 06:51:33.770           270.176        135088.000
        46   07 Jun 2027 08:23:15.349   07 Jun 2027 08:27:15.094           239.745        119872.500
        47   07 Jun 2027 08:27:19.998   07 Jun 2027 08:27:57.583            37.585         18792.500
        48   08 Jun 2027 03:44:43.493   08 Jun 2027 03:51:59.765           436.272        218136.000
        49   08 Jun 2027 05:21:14.048   08 Jun 2027 05:27:38.097           384.049        192024.500
        50   08 Jun 2027 06:59:54.667   08 Jun 2027 07:03:15.160           200.493        100246.500
        51   08 Jun 2027 08:34:57.401   08 Jun 2027 08:39:01.257           243.856        121928.000
        52   08 Jun 2027 08:39:31.833   08 Jun 2027 08:40:20.640            48.807         24403.500
        53   09 Jun 2027 03:56:27.962   09 Jun 2027 04:04:00.331           452.369        226184.500
        54   09 Jun 2027 05:33:33.980   09 Jun 2027 05:39:37.737           363.757        181878.500
        55   09 Jun 2027 07:11:53.746   09 Jun 2027 07:15:27.632           213.886        106943.000
        56   09 Jun 2027 08:44:35.420   09 Jun 2027 08:50:56.081           380.661        190330.500
        57   09 Jun 2027 08:52:08.243   09 Jun 2027 08:52:36.570            28.327         14163.500
        58   10 Jun 2027 04:08:45.102   10 Jun 2027 04:16:03.903           438.801        219400.500
        59   10 Jun 2027 05:45:29.936   10 Jun 2027 05:50:47.204           317.268        158634.000
        60   10 Jun 2027 05:50:49.497   10 Jun 2027 05:51:42.240            52.743         26371.500
        61   10 Jun 2027 05:51:46.059   10 Jun 2027 05:52:03.491            17.432          8716.000
        62   10 Jun 2027 07:23:51.720   10 Jun 2027 07:27:39.553           227.833        113916.500
        63   10 Jun 2027 08:57:06.322   10 Jun 2027 09:04:14.406           428.084        214042.000
        64   11 Jun 2027 04:20:39.217   11 Jun 2027 04:28:04.730           445.513        222756.500
        65   11 Jun 2027 05:57:23.825   11 Jun 2027 06:03:07.127           343.302        171651.000
        66   11 Jun 2027 06:03:45.160   11 Jun 2027 06:04:06.330            21.170         10585.000
        67   11 Jun 2027 07:35:16.741   11 Jun 2027 07:39:38.798           262.057        131028.500
        68   11 Jun 2027 09:11:14.813   11 Jun 2027 09:15:34.179           259.366        129683.000
        69   12 Jun 2027 03:00:00.000   12 Jun 2027 03:02:57.620           177.620         88810.000
        70   12 Jun 2027 03:03:08.266   12 Jun 2027 03:04:08.338            60.072         30036.000
        71   12 Jun 2027 04:32:48.718   12 Jun 2027 04:40:03.880           435.162        217581.000
        72   12 Jun 2027 06:10:02.534   12 Jun 2027 06:14:32.027           269.493        134746.500
        73   12 Jun 2027 06:15:25.176   12 Jun 2027 06:15:53.255            28.079         14039.500
        74   12 Jun 2027 07:46:42.992   12 Jun 2027 07:51:35.318           292.326        146163.000
        75   12 Jun 2027 09:23:42.149   12 Jun 2027 09:26:37.330           175.181         87590.500
        76   13 Jun 2027 03:06:24.292   13 Jun 2027 03:06:56.509            32.217         16108.500
        77   13 Jun 2027 03:08:05.357   13 Jun 2027 03:15:01.928           416.571        208285.500
        78   13 Jun 2027 03:15:13.856   13 Jun 2027 03:16:06.552            52.696         26348.000
        79   13 Jun 2027 04:45:12.288   13 Jun 2027 04:51:54.403           402.115        201057.500
        80   13 Jun 2027 06:23:43.664   13 Jun 2027 06:27:08.419           204.755        102377.500
        81   13 Jun 2027 07:59:40.785   13 Jun 2027 08:03:28.431           227.646        113823.000
        82   13 Jun 2027 09:37:29.710   13 Jun 2027 09:38:08.400            38.690         19345.000
