uniorb/output/strategy_4/Camera/Camera_KinoSat_111902.txt

KinoSat_111902
-------------------------
    Access    *     Start Time (UTCG)     *     Stop Time (UTCG)  *   Duration (s) *   Data (Mbytes)
         1   01 Jun 2027 03:29:31.061   01 Jun 2027 03:31:39.081           128.020         64010.000
         2   01 Jun 2027 03:32:01.655   01 Jun 2027 03:32:26.875            25.220         12610.000
         3   01 Jun 2027 05:07:47.395   01 Jun 2027 05:07:58.502            11.107          5553.500
         4   01 Jun 2027 05:08:49.287   01 Jun 2027 05:10:16.616            87.329         43664.500
         5   01 Jun 2027 05:11:05.331   01 Jun 2027 05:11:10.040             4.709          2354.500
         6   01 Jun 2027 05:13:16.677   01 Jun 2027 05:13:21.184             4.507          2253.500
         7   01 Jun 2027 05:13:50.645   01 Jun 2027 05:13:55.799             5.154          2577.000
         8   01 Jun 2027 05:15:56.432   01 Jun 2027 05:16:29.061            32.629         16314.500
         9   01 Jun 2027 06:45:57.991   01 Jun 2027 06:46:36.408            38.417         19208.500
        10   01 Jun 2027 06:47:04.878   01 Jun 2027 06:47:37.307            32.429         16214.500
        11   01 Jun 2027 06:48:38.296   01 Jun 2027 06:48:45.139             6.843          3421.500
        12   01 Jun 2027 08:10:07.353   01 Jun 2027 08:12:07.964           120.611         60305.500
        13   01 Jun 2027 08:12:35.055   01 Jun 2027 08:12:35.055             0.000             0.000
        14   01 Jun 2027 09:45:50.431   01 Jun 2027 09:46:08.220            17.789          8894.500
        15   01 Jun 2027 09:47:52.967   01 Jun 2027 09:48:22.607            29.640         14820.000
        16   01 Jun 2027 11:20:47.829   01 Jun 2027 11:21:18.093            30.264         15132.000
        17   01 Jun 2027 11:23:23.992   01 Jun 2027 11:23:51.341            27.349         13674.500
        18   01 Jun 2027 11:27:25.912   01 Jun 2027 11:27:47.058            21.146         10573.000
        19   02 Jun 2027 03:42:07.327   02 Jun 2027 03:44:48.721           161.394         80697.000
        20   02 Jun 2027 03:47:08.240   02 Jun 2027 03:47:12.236             3.996          1998.000
        21   02 Jun 2027 05:20:52.757   02 Jun 2027 05:23:08.710           135.953         67976.500
        22   02 Jun 2027 05:23:56.105   02 Jun 2027 05:24:34.938            38.833         19416.500
        23   02 Jun 2027 05:27:26.817   02 Jun 2027 05:28:31.479            64.662         32331.000
        24   02 Jun 2027 06:46:54.382   02 Jun 2027 06:47:22.577            28.195         14097.500
        25   02 Jun 2027 06:57:54.476   02 Jun 2027 06:59:36.202           101.726         50863.000
        26   02 Jun 2027 06:59:55.150   02 Jun 2027 07:00:56.003            60.853         30426.500
        27   02 Jun 2027 07:01:12.840   02 Jun 2027 07:01:13.335             0.495           247.500
        28   02 Jun 2027 08:20:54.770   02 Jun 2027 08:22:29.773            95.003         47501.500
        29   02 Jun 2027 09:56:26.424   02 Jun 2027 09:56:32.523             6.099          3049.500
        30   02 Jun 2027 09:57:36.136   02 Jun 2027 09:58:54.372            78.236         38703.500
        31   02 Jun 2027 10:00:15.071   02 Jun 2027 10:00:19.919             4.848          1831.500
        32   02 Jun 2027 10:00:40.939   02 Jun 2027 10:00:41.936             0.997           333.656
        33   02 Jun 2027 11:36:25.965   02 Jun 2027 11:36:55.027            29.062         14313.344
        34   02 Jun 2027 11:37:30.493   02 Jun 2027 11:37:33.163             2.670           756.531
        35   02 Jun 2027 11:38:17.503   02 Jun 2027 11:38:21.533             4.030          1299.094
        36   02 Jun 2027 11:38:39.472   02 Jun 2027 11:38:39.949             0.477            57.281
        37   02 Jun 2027 11:39:15.070   02 Jun 2027 11:39:19.849             4.779          1021.625
        38   02 Jun 2027 11:39:50.432   02 Jun 2027 11:39:55.069             4.637           955.719
        39   03 Jun 2027 03:54:16.163   03 Jun 2027 03:56:50.949           154.786         77393.000
        40   03 Jun 2027 05:33:21.044   03 Jun 2027 05:35:20.444           119.400         59700.000
        41   03 Jun 2027 05:36:41.687   03 Jun 2027 05:36:55.786            14.099          7049.500
        42   03 Jun 2027 05:38:56.270   03 Jun 2027 05:40:03.021            66.751         31975.813
        43   03 Jun 2027 06:58:15.236   03 Jun 2027 06:58:26.845            11.609          5804.500
        44   03 Jun 2027 06:58:57.699   03 Jun 2027 06:58:57.699             0.000             0.000
        45   03 Jun 2027 06:59:27.106   03 Jun 2027 06:59:33.436             6.330          2477.812
        46   03 Jun 2027 07:09:57.465   03 Jun 2027 07:10:06.126             8.661          3519.531
        47   03 Jun 2027 08:32:10.816   03 Jun 2027 08:32:28.732            17.916          8958.000
        48   03 Jun 2027 08:32:41.946   03 Jun 2027 08:32:46.476             4.530           988.875
        49   03 Jun 2027 08:33:14.233   03 Jun 2027 08:33:17.653             3.420           826.250
        50   03 Jun 2027 08:34:45.475   03 Jun 2027 08:34:49.916             4.441          2143.188
        51   03 Jun 2027 08:36:09.874   03 Jun 2027 08:36:16.738             6.864          2098.094
        52   03 Jun 2027 08:37:06.041   03 Jun 2027 08:37:09.211             3.170          1537.125
        53   03 Jun 2027 10:07:18.159   03 Jun 2027 10:07:26.949             8.790          4388.719
        54   03 Jun 2027 10:08:01.750   03 Jun 2027 10:08:04.841             3.091           369.656
        55   03 Jun 2027 10:09:19.895   03 Jun 2027 10:09:23.811             3.916          1670.656
        56   03 Jun 2027 10:10:17.813   03 Jun 2027 10:10:21.603             3.790          1276.375
        57   03 Jun 2027 10:12:59.269   03 Jun 2027 10:13:08.207             8.938          3696.188
        58   03 Jun 2027 10:13:34.765   03 Jun 2027 10:13:37.022             2.257           286.063
        59   03 Jun 2027 11:47:37.495   03 Jun 2027 11:47:57.919            20.424         10062.875
        60   03 Jun 2027 11:49:58.438   03 Jun 2027 11:50:02.383             3.945          1935.625
        61   03 Jun 2027 11:50:48.852   03 Jun 2027 11:50:49.943             1.091           545.500
        62   03 Jun 2027 11:51:00.090   03 Jun 2027 11:51:03.945             3.855          1220.687
        63   03 Jun 2027 11:51:38.119   03 Jun 2027 11:51:50.349            12.230           821.937
        64   04 Jun 2027 04:06:35.004   04 Jun 2027 04:07:05.998            30.994         15497.000
        65   04 Jun 2027 04:07:07.429   04 Jun 2027 04:08:41.717            94.288         47144.000
        66   04 Jun 2027 04:11:32.929   04 Jun 2027 04:11:53.507            20.578         10289.000
        67   04 Jun 2027 05:45:31.875   04 Jun 2027 05:47:12.542           100.667         50333.500
        68   04 Jun 2027 05:48:47.421   04 Jun 2027 05:49:06.801            19.380          9690.000
        69   04 Jun 2027 05:50:22.657   04 Jun 2027 05:51:27.088            64.431         31254.656
        70   04 Jun 2027 07:09:41.399   04 Jun 2027 07:09:59.624            18.225          6770.750
        71   04 Jun 2027 07:10:56.661   04 Jun 2027 07:11:00.598             3.937          1686.656
        72   04 Jun 2027 07:11:43.637   04 Jun 2027 07:11:48.411             4.774          1052.500
        73   04 Jun 2027 07:21:58.570   04 Jun 2027 07:22:06.368             7.798          2536.750
        74   04 Jun 2027 08:43:55.824   04 Jun 2027 08:44:12.349            16.525          7261.437
        75   04 Jun 2027 08:45:59.431   04 Jun 2027 08:46:03.340             3.909          1541.656
        76   04 Jun 2027 08:46:45.386   04 Jun 2027 08:46:46.992             1.606           356.188
        77   04 Jun 2027 08:48:08.536   04 Jun 2027 08:48:12.391             3.855          1859.469
        78   04 Jun 2027 08:48:59.334   04 Jun 2027 08:49:01.868             2.534          1234.062
        79   04 Jun 2027 10:18:47.792   04 Jun 2027 10:18:53.848             6.056          2469.875
        80   04 Jun 2027 10:20:35.710   04 Jun 2027 10:20:39.774             4.064          1746.844
        81   04 Jun 2027 10:21:15.631   04 Jun 2027 10:21:18.271             2.640           975.562
        82   04 Jun 2027 10:22:38.739   04 Jun 2027 10:22:38.739             0.000             0.000
        83   04 Jun 2027 10:24:16.750   04 Jun 2027 10:24:26.668             9.918          3801.687
        84   04 Jun 2027 10:25:45.539   04 Jun 2027 10:25:46.613             1.074           393.625
        85   04 Jun 2027 10:27:04.121   04 Jun 2027 10:27:08.628             4.507          1748.188
        86   04 Jun 2027 11:58:35.492   04 Jun 2027 11:58:56.002            20.510          9301.906
        87   05 Jun 2027 04:19:19.806   05 Jun 2027 04:19:43.408            23.602         11801.000
        88   05 Jun 2027 04:19:46.658   05 Jun 2027 04:19:58.089            11.431          5715.500
        89   05 Jun 2027 04:20:29.338   05 Jun 2027 04:21:01.911            32.573         16286.500
        90   05 Jun 2027 04:21:09.329   05 Jun 2027 04:21:24.972            15.643          7821.500
        91   05 Jun 2027 04:21:34.072   05 Jun 2027 04:21:51.009            16.937          8468.500
        92   05 Jun 2027 04:22:14.695   05 Jun 2027 04:22:46.881            32.186         16093.000
        93   05 Jun 2027 04:23:15.306   05 Jun 2027 04:23:16.775             1.469           734.500
        94   05 Jun 2027 04:23:29.712   05 Jun 2027 04:23:37.204             7.492          3746.000
        95   05 Jun 2027 04:24:29.998   05 Jun 2027 04:24:39.876             9.878          4939.000
        96   05 Jun 2027 05:58:20.446   05 Jun 2027 06:00:37.420           136.974         68487.000
        97   05 Jun 2027 06:01:16.173   05 Jun 2027 06:01:24.264             8.091          4045.500
        98   05 Jun 2027 06:01:45.721   05 Jun 2027 06:02:44.422            58.701         29164.126
        99   05 Jun 2027 07:21:45.817   05 Jun 2027 07:22:00.212            14.395          6805.906
       100   05 Jun 2027 08:57:43.268   05 Jun 2027 08:58:05.995            22.727         11343.094
       101   05 Jun 2027 08:58:08.602   05 Jun 2027 08:58:08.602             0.000             0.000
       102   05 Jun 2027 08:58:43.252   05 Jun 2027 08:58:48.739             5.487          1163.250
       103   05 Jun 2027 09:00:06.317   05 Jun 2027 09:00:06.317             0.000             0.000
       104   05 Jun 2027 09:00:22.676   05 Jun 2027 09:00:27.539             4.863          2019.812
       105   05 Jun 2027 09:00:41.720   05 Jun 2027 09:00:44.129             2.409           212.125
       106   05 Jun 2027 10:31:32.663   05 Jun 2027 10:31:43.104            10.441          2532.125
       107   05 Jun 2027 10:33:28.431   05 Jun 2027 10:33:31.240             2.809           792.063
       108   05 Jun 2027 10:34:03.146   05 Jun 2027 10:34:03.146             0.000             0.000
       109   05 Jun 2027 10:36:16.786   05 Jun 2027 10:36:29.312            12.526          5054.750
       110   05 Jun 2027 10:37:34.815   05 Jun 2027 10:37:37.228             2.413            76.156
       111   05 Jun 2027 10:38:06.552   05 Jun 2027 10:38:10.400             3.848           881.406
       112   06 Jun 2027 03:00:00.000   06 Jun 2027 03:00:29.206            29.206         14603.000
       113   06 Jun 2027 04:31:57.376   06 Jun 2027 04:32:42.111            44.735         22367.500
       114   06 Jun 2027 04:32:51.161   06 Jun 2027 04:33:34.616            43.455         21727.500
       115   06 Jun 2027 04:33:35.919   06 Jun 2027 04:34:12.199            36.280         18140.000
       116   06 Jun 2027 04:34:53.147   06 Jun 2027 04:34:55.389             2.242          1121.000
       117   06 Jun 2027 04:34:56.453   06 Jun 2027 04:35:09.845            13.392          6696.000
       118   06 Jun 2027 04:36:34.079   06 Jun 2027 04:36:43.881             9.802          4901.000
       119   06 Jun 2027 06:10:17.348   06 Jun 2027 06:13:00.031           162.683         81052.937
       120   06 Jun 2027 06:14:30.982   06 Jun 2027 06:14:34.893             3.911           448.281
       121   06 Jun 2027 07:33:40.886   06 Jun 2027 07:33:56.897            16.011          6088.156
       122   06 Jun 2027 07:34:59.777   06 Jun 2027 07:34:59.777             0.000             0.000
       123   06 Jun 2027 07:35:17.136   06 Jun 2027 07:35:21.714             4.578          2206.312
       124   06 Jun 2027 07:35:37.311   06 Jun 2027 07:35:41.567             4.256           373.062
       125   06 Jun 2027 07:35:48.512   06 Jun 2027 07:35:50.543             2.031           150.094
       126   06 Jun 2027 09:10:00.535   06 Jun 2027 09:10:23.202            22.667         10551.500
       127   06 Jun 2027 09:10:36.901   06 Jun 2027 09:10:37.712             0.811            77.125
       128   06 Jun 2027 09:10:58.130   06 Jun 2027 09:11:06.651             8.521            25.875
       129   06 Jun 2027 09:12:03.033   06 Jun 2027 09:12:05.281             2.248          1035.437
       130   06 Jun 2027 09:12:57.080   06 Jun 2027 09:13:01.122             4.042          1363.937
       131   06 Jun 2027 10:43:31.055   06 Jun 2027 10:43:39.765             8.710          3654.250
       132   06 Jun 2027 10:45:44.283   06 Jun 2027 10:45:46.076             1.793           294.094
       133   06 Jun 2027 10:46:37.462   06 Jun 2027 10:46:46.928             9.466           993.500
       134   06 Jun 2027 10:48:16.162   06 Jun 2027 10:48:16.162             0.000             0.000
       135   06 Jun 2027 10:49:26.827   06 Jun 2027 10:49:41.188            14.361          4740.344
       136   06 Jun 2027 10:50:58.029   06 Jun 2027 10:51:00.712             2.683           836.594
       137   06 Jun 2027 10:51:26.224   06 Jun 2027 10:51:27.279             1.055           482.219
       138   06 Jun 2027 10:51:40.792   06 Jun 2027 10:51:41.867             1.075           422.281
       139   07 Jun 2027 03:05:49.878   07 Jun 2027 03:06:03.327            13.449          6724.500
       140   07 Jun 2027 03:07:27.094   07 Jun 2027 03:08:01.150            34.056         17028.000
       141   07 Jun 2027 03:09:40.547   07 Jun 2027 03:09:47.319             6.772          3386.000
       142   07 Jun 2027 03:10:00.244   07 Jun 2027 03:10:08.846             8.602          4301.000
       143   07 Jun 2027 03:11:16.271   07 Jun 2027 03:11:29.872            13.601          6800.500
       144   07 Jun 2027 03:11:41.894   07 Jun 2027 03:11:49.258             7.364          3682.000
       145   07 Jun 2027 03:12:34.671   07 Jun 2027 03:12:59.932            25.261         12630.500
       146   07 Jun 2027 04:43:51.223   07 Jun 2027 04:43:56.839             5.616          2808.000
       147   07 Jun 2027 04:44:09.174   07 Jun 2027 04:46:31.261           142.087         71043.500
       148   07 Jun 2027 04:47:25.851   07 Jun 2027 04:47:46.524            20.673         10336.500
       149   07 Jun 2027 04:48:09.116   07 Jun 2027 04:48:22.650            13.534          6767.000
       150   07 Jun 2027 04:48:50.822   07 Jun 2027 04:48:57.323             6.501          3250.500
       151   07 Jun 2027 04:49:15.205   07 Jun 2027 04:49:29.522            14.317          7158.500
       152   07 Jun 2027 04:49:39.838   07 Jun 2027 04:49:44.486             4.648          2324.000
       153   07 Jun 2027 06:21:55.519   07 Jun 2027 06:22:35.901            40.382         20191.000
       154   07 Jun 2027 06:23:03.521   07 Jun 2027 06:23:11.853             8.332          1269.188
       155   07 Jun 2027 06:26:09.375   07 Jun 2027 06:26:11.917             2.542            26.063
       156   07 Jun 2027 06:26:13.196   07 Jun 2027 06:26:17.154             3.958            39.969
       157   07 Jun 2027 07:45:31.675   07 Jun 2027 07:45:44.141            12.466          6213.750
       158   07 Jun 2027 07:47:01.052   07 Jun 2027 07:47:05.010             3.958          1958.562
       159   07 Jun 2027 07:47:26.970   07 Jun 2027 07:47:28.572             1.602           230.469
       160   07 Jun 2027 07:48:02.098   07 Jun 2027 07:48:04.227             2.129           479.750
       161   07 Jun 2027 09:22:02.992   07 Jun 2027 09:22:07.564             4.572          2251.844
       162   07 Jun 2027 09:23:03.105   07 Jun 2027 09:23:10.682             7.577           792.656
       163   07 Jun 2027 09:23:35.727   07 Jun 2027 09:23:38.893             3.166           141.344
       164   07 Jun 2027 09:24:42.027   07 Jun 2027 09:24:46.755             4.728          1889.844
       165   07 Jun 2027 10:56:30.379   07 Jun 2027 10:56:35.811             5.432          2371.594
       166   07 Jun 2027 11:00:04.272   07 Jun 2027 11:00:14.742            10.470          3939.687
       167   07 Jun 2027 11:00:22.868   07 Jun 2027 11:00:22.868             0.000             0.000
       168   07 Jun 2027 11:01:10.872   07 Jun 2027 11:01:18.370             7.498          1754.063
       169   07 Jun 2027 11:01:43.502   07 Jun 2027 11:01:46.249             2.747           708.156
       170   07 Jun 2027 11:02:10.339   07 Jun 2027 11:02:10.638             0.299             7.594
       171   07 Jun 2027 11:03:29.886   07 Jun 2027 11:03:29.886             0.000             0.000
       172   07 Jun 2027 11:03:53.237   07 Jun 2027 11:03:56.938             3.701          1662.250
       173   08 Jun 2027 03:17:51.637   08 Jun 2027 03:18:17.969            26.332         13166.000
       174   08 Jun 2027 03:18:55.435   08 Jun 2027 03:21:36.116           160.681         80340.500
       175   08 Jun 2027 03:21:56.610   08 Jun 2027 03:22:17.737            21.127         10563.500
       176   08 Jun 2027 04:56:00.152   08 Jun 2027 04:57:01.618            61.466         30733.000
       177   08 Jun 2027 04:57:09.294   08 Jun 2027 04:58:10.736            61.442         28404.062
       178   08 Jun 2027 04:58:41.758   08 Jun 2027 04:58:45.767             4.009           969.437
       179   08 Jun 2027 05:00:48.145   08 Jun 2027 05:00:53.267             5.122          2231.031
       180   08 Jun 2027 05:02:16.926   08 Jun 2027 05:02:19.816             2.890          1445.000
       181   08 Jun 2027 06:34:18.602   08 Jun 2027 06:34:29.309            10.707          3695.031
       182   08 Jun 2027 06:38:04.438   08 Jun 2027 06:38:06.558             2.120           489.438
       183   08 Jun 2027 07:57:41.746   08 Jun 2027 07:57:53.821            12.075          5519.750
       184   08 Jun 2027 07:58:12.912   08 Jun 2027 07:58:15.999             3.087           517.687
       185   08 Jun 2027 07:58:42.279   08 Jun 2027 07:58:42.924             0.645           289.438
       186   08 Jun 2027 08:00:18.352   08 Jun 2027 08:00:24.303             5.951          2383.969
       187   08 Jun 2027 08:00:26.543   08 Jun 2027 08:00:28.465             1.922            36.344
       188   08 Jun 2027 08:00:29.929   08 Jun 2027 08:00:29.929             0.000             0.000
       189   08 Jun 2027 08:00:45.923   08 Jun 2027 08:00:47.019             1.096           545.562
       190   08 Jun 2027 09:34:12.792   08 Jun 2027 09:34:23.726            10.934          3822.281
       191   08 Jun 2027 09:35:36.400   08 Jun 2027 09:35:41.625             5.225          1822.656
       192   08 Jun 2027 09:36:02.798   08 Jun 2027 09:36:06.545             3.747           333.219
       193   08 Jun 2027 09:36:41.538   08 Jun 2027 09:36:42.989             1.451           659.563
       194   08 Jun 2027 11:09:22.501   08 Jun 2027 11:09:33.162            10.661          2337.969
       195   08 Jun 2027 11:12:12.371   08 Jun 2027 11:12:23.371            11.000          4509.375
       196   08 Jun 2027 11:13:25.307   08 Jun 2027 11:13:25.307             0.000             0.000
       197   08 Jun 2027 11:15:33.447   08 Jun 2027 11:15:44.013            10.566          5179.844
       198   08 Jun 2027 11:15:57.055   08 Jun 2027 11:15:59.577             2.522           375.281
       199   09 Jun 2027 03:29:49.629   09 Jun 2027 03:30:22.620            32.991         16495.500
       200   09 Jun 2027 03:30:25.351   09 Jun 2027 03:32:58.898           153.547         76773.500
       201   09 Jun 2027 03:33:31.263   09 Jun 2027 03:34:08.286            37.023         18511.500
       202   09 Jun 2027 03:35:59.582   09 Jun 2027 03:36:08.080             8.498          4249.000
       203   09 Jun 2027 03:36:29.273   09 Jun 2027 03:36:31.951             2.678          1339.000
       204   09 Jun 2027 05:08:05.967   09 Jun 2027 05:08:13.053             7.086          3543.000
       205   09 Jun 2027 05:09:06.951   09 Jun 2027 05:10:50.980           104.029         51683.250
       206   09 Jun 2027 05:11:46.196   09 Jun 2027 05:11:48.510             2.314           408.281
       207   09 Jun 2027 05:16:09.019   09 Jun 2027 05:16:26.658            17.639          7068.812
       208   09 Jun 2027 06:46:15.618   09 Jun 2027 06:46:27.437            11.819          4922.000
       209   09 Jun 2027 06:46:39.425   09 Jun 2027 06:46:41.505             2.080           374.625
       210   09 Jun 2027 06:46:48.326   09 Jun 2027 06:46:49.023             0.697           213.156
       211   09 Jun 2027 06:48:02.330   09 Jun 2027 06:48:06.708             4.378          1009.000
       212   09 Jun 2027 06:48:29.185   09 Jun 2027 06:48:30.681             1.496           671.656
       213   09 Jun 2027 06:49:39.816   09 Jun 2027 06:49:40.973             1.157            82.187
       214   09 Jun 2027 08:10:22.016   09 Jun 2027 08:10:38.223            16.207          8013.875
       215   09 Jun 2027 08:10:53.339   09 Jun 2027 08:10:55.425             2.086           262.281
       216   09 Jun 2027 08:12:24.203   09 Jun 2027 08:12:30.854             6.651          2545.188
       217   09 Jun 2027 09:46:07.185   09 Jun 2027 09:46:11.756             4.571          1983.906
       218   09 Jun 2027 09:47:43.663   09 Jun 2027 09:47:48.186             4.523          2057.875
       219   09 Jun 2027 09:48:24.262   09 Jun 2027 09:48:30.538             6.276           286.125
       220   09 Jun 2027 09:49:20.559   09 Jun 2027 09:49:26.714             6.155          1528.531
       221   09 Jun 2027 11:21:04.696   09 Jun 2027 11:21:12.023             7.327          2738.344
       222   09 Jun 2027 11:23:46.028   09 Jun 2027 11:23:54.602             8.574          4120.812
       223   09 Jun 2027 11:24:34.396   09 Jun 2027 11:24:42.151             7.755           798.656
       224   09 Jun 2027 11:25:35.613   09 Jun 2027 11:25:36.693             1.080           332.969
       225   09 Jun 2027 11:27:29.960   09 Jun 2027 11:27:34.851             4.891          2318.906
       226   09 Jun 2027 11:27:55.686   09 Jun 2027 11:27:59.337             3.651           629.125
       227   10 Jun 2027 03:42:27.314   10 Jun 2027 03:44:07.296            99.982         49991.000
       228   10 Jun 2027 03:45:57.042   10 Jun 2027 03:46:40.832            43.790         21895.000
       229   10 Jun 2027 05:21:10.796   10 Jun 2027 05:23:34.012           143.216         71608.000
       230   10 Jun 2027 05:24:52.232   10 Jun 2027 05:24:56.736             4.504          2252.000
       231   10 Jun 2027 05:27:23.635   10 Jun 2027 05:27:58.158            34.523         17014.281
       232   10 Jun 2027 06:47:08.008   10 Jun 2027 06:47:21.794            13.786          5632.156
       233   10 Jun 2027 06:58:12.121   10 Jun 2027 06:58:15.864             3.743          1871.500
       234   10 Jun 2027 06:58:21.246   10 Jun 2027 06:58:24.282             3.036           608.719
       235   10 Jun 2027 08:21:10.033   10 Jun 2027 08:21:29.481            19.448          8472.156
       236   10 Jun 2027 08:22:03.604   10 Jun 2027 08:22:07.321             3.717           914.156
       237   10 Jun 2027 08:22:47.410   10 Jun 2027 08:22:59.217            11.807           742.375
       238   10 Jun 2027 08:24:18.225   10 Jun 2027 08:24:24.013             5.788          2349.187
       239   10 Jun 2027 08:24:31.938   10 Jun 2027 08:24:33.672             1.734           153.469
       240   10 Jun 2027 09:56:29.413   10 Jun 2027 09:56:35.309             5.896          1872.375
       241   10 Jun 2027 09:57:52.681   10 Jun 2027 09:57:57.497             4.816          1304.656
       242   10 Jun 2027 10:00:33.096   10 Jun 2027 10:00:37.113             4.017          1903.031
       243   10 Jun 2027 10:01:00.511   10 Jun 2027 10:01:02.652             2.141           345.125
       244   10 Jun 2027 10:02:14.510   10 Jun 2027 10:02:17.237             2.727          1319.219
       245   10 Jun 2027 11:32:37.810   10 Jun 2027 11:32:47.791             9.981          3791.969
       246   10 Jun 2027 11:35:23.290   10 Jun 2027 11:35:32.417             9.127          4027.375
       247   10 Jun 2027 11:36:49.268   10 Jun 2027 11:36:52.589             3.321          1419.250
       248   10 Jun 2027 11:37:48.125   10 Jun 2027 11:37:50.853             2.728           785.719
       249   10 Jun 2027 11:38:34.698   10 Jun 2027 11:38:40.822             6.124          1308.281
       250   10 Jun 2027 11:38:55.161   10 Jun 2027 11:38:55.891             0.730            79.687
       251   10 Jun 2027 11:39:12.693   10 Jun 2027 11:39:17.372             4.679           453.000
       252   10 Jun 2027 11:39:28.157   10 Jun 2027 11:39:28.471             0.314            38.969
       253   10 Jun 2027 11:40:08.570   10 Jun 2027 11:40:12.904             4.334          1024.969
       254   11 Jun 2027 03:54:34.324   11 Jun 2027 03:56:19.307           104.983         52491.500
       255   11 Jun 2027 03:56:21.531   11 Jun 2027 03:57:31.816            70.285         35142.500
       256   11 Jun 2027 03:59:03.369   11 Jun 2027 03:59:08.662             5.293          2646.500
       257   11 Jun 2027 04:00:03.361   11 Jun 2027 04:00:27.283            23.922         11961.000
       258   11 Jun 2027 04:00:53.693   11 Jun 2027 04:00:55.872             2.179          1089.500
       259   11 Jun 2027 05:33:40.576   11 Jun 2027 05:35:35.098           114.522         57261.000
       260   11 Jun 2027 05:36:03.797   11 Jun 2027 05:36:32.768            28.971         13565.844
       261   11 Jun 2027 05:39:11.162   11 Jun 2027 05:39:27.230            16.068          4233.656
       262   11 Jun 2027 05:39:39.708   11 Jun 2027 05:39:40.262             0.554            96.188
       263   11 Jun 2027 06:58:32.146   11 Jun 2027 06:58:44.575            12.429          6214.500
       264   11 Jun 2027 06:59:13.821   11 Jun 2027 06:59:16.434             2.613          1170.562
       265   11 Jun 2027 07:10:14.880   11 Jun 2027 07:10:25.991            11.111          3654.594
       266   11 Jun 2027 08:32:27.664   11 Jun 2027 08:32:51.629            23.965         10119.000
       267   11 Jun 2027 08:34:29.505   11 Jun 2027 08:34:33.030             3.525          1389.281
       268   11 Jun 2027 08:35:20.279   11 Jun 2027 08:35:20.279             0.000             0.000
       269   11 Jun 2027 08:36:26.378   11 Jun 2027 08:36:35.056             8.678          3023.375
       270   11 Jun 2027 08:37:23.300   11 Jun 2027 08:37:27.279             3.979          1507.625
       271   11 Jun 2027 10:07:34.066   11 Jun 2027 10:07:38.650             4.584          2170.031
       272   11 Jun 2027 10:08:21.329   11 Jun 2027 10:08:22.366             1.037           473.813
       273   11 Jun 2027 10:09:36.424   11 Jun 2027 10:09:41.336             4.912          1654.844
       274   11 Jun 2027 10:10:35.048   11 Jun 2027 10:10:38.031             2.983          1131.313
       275   11 Jun 2027 10:12:34.131   11 Jun 2027 10:12:39.644             5.513          2429.000
       276   11 Jun 2027 10:13:38.336   11 Jun 2027 10:13:40.091             1.755           610.437
       277   11 Jun 2027 10:13:55.002   11 Jun 2027 10:14:04.842             9.840           249.125
       278   11 Jun 2027 11:47:58.995   11 Jun 2027 11:48:19.903            20.908         10317.312
       279   11 Jun 2027 11:50:16.356   11 Jun 2027 11:50:26.368            10.012          1965.313
       280   11 Jun 2027 11:51:08.806   11 Jun 2027 11:51:12.448             3.642          1286.719
       281   11 Jun 2027 11:51:28.256   11 Jun 2027 11:51:29.368             1.112           405.156
       282   11 Jun 2027 11:51:55.370   11 Jun 2027 11:52:05.799            10.429           812.563
       283   12 Jun 2027 04:06:53.638   12 Jun 2027 04:08:03.659            70.021         35010.500
       284   12 Jun 2027 04:08:04.828   12 Jun 2027 04:08:48.456            43.628         21814.000
       285   12 Jun 2027 04:08:58.774   12 Jun 2027 04:09:05.764             6.990          3495.000
       286   12 Jun 2027 04:09:06.485   12 Jun 2027 04:09:12.092             5.607          2803.500
       287   12 Jun 2027 04:09:48.778   12 Jun 2027 04:10:02.912            14.134          7067.000
       288   12 Jun 2027 04:10:15.759   12 Jun 2027 04:10:39.103            23.344         11672.000
       289   12 Jun 2027 04:11:01.774   12 Jun 2027 04:11:01.774             0.000             0.000
       290   12 Jun 2027 04:12:40.468   12 Jun 2027 04:12:49.885             9.417          4708.500
       291   12 Jun 2027 05:45:41.329   12 Jun 2027 05:47:36.376           115.047         57523.500
       292   12 Jun 2027 05:49:23.651   12 Jun 2027 05:50:15.739            52.088         25963.407
       293   12 Jun 2027 05:50:37.276   12 Jun 2027 05:50:38.159             0.883           420.625
       294   12 Jun 2027 05:51:19.172   12 Jun 2027 05:51:20.215             1.043           427.125
       295   12 Jun 2027 07:10:00.731   12 Jun 2027 07:10:18.618            17.887          8514.219
       296   12 Jun 2027 07:10:30.561   12 Jun 2027 07:10:30.561             0.000             0.000
       297   12 Jun 2027 07:11:12.803   12 Jun 2027 07:11:17.138             4.335          1644.031
       298   12 Jun 2027 07:11:59.953   12 Jun 2027 07:12:01.125             1.172           586.000
       299   12 Jun 2027 07:22:16.552   12 Jun 2027 07:22:25.554             9.002          2353.219
       300   12 Jun 2027 08:44:13.489   12 Jun 2027 08:44:36.278            22.789         10470.500
       301   12 Jun 2027 08:47:02.056   12 Jun 2027 08:47:08.385             6.329          3153.094
       302   12 Jun 2027 08:48:24.988   12 Jun 2027 08:48:29.491             4.503          1819.000
       303   12 Jun 2027 08:49:14.412   12 Jun 2027 08:49:17.334             2.922          1136.687
       304   12 Jun 2027 10:19:03.243   12 Jun 2027 10:19:08.341             5.098          2462.063
       305   12 Jun 2027 10:20:55.246   12 Jun 2027 10:20:59.334             4.088          1856.469
       306   12 Jun 2027 10:21:34.615   12 Jun 2027 10:21:36.714             2.099           942.187
       307   12 Jun 2027 10:22:53.582   12 Jun 2027 10:22:59.628             6.046           666.938
       308   12 Jun 2027 10:24:32.168   12 Jun 2027 10:24:34.678             2.510            52.281
       309   12 Jun 2027 10:25:52.852   12 Jun 2027 10:26:02.913            10.061          2442.938
       310   12 Jun 2027 10:27:21.505   12 Jun 2027 10:27:26.628             5.123          1900.719
       311   13 Jun 2027 04:19:38.072   13 Jun 2027 04:20:51.447            73.375         36687.500
       312   13 Jun 2027 04:21:39.763   13 Jun 2027 04:22:20.235            40.472         20236.000
       313   13 Jun 2027 05:58:01.626   13 Jun 2027 06:00:37.605           155.979         77989.500
       314   13 Jun 2027 06:02:00.042   13 Jun 2027 06:02:45.403            45.361         22680.500
       315   13 Jun 2027 06:03:09.416   13 Jun 2027 06:03:13.806             4.390          2195.000
       316   13 Jun 2027 07:22:03.247   13 Jun 2027 07:22:23.028            19.781          9881.844
       317   13 Jun 2027 08:58:00.858   13 Jun 2027 08:58:27.790            26.932         12359.000
       318   13 Jun 2027 08:59:35.997   13 Jun 2027 08:59:40.719             4.722          2131.469
       319   13 Jun 2027 09:01:23.105   13 Jun 2027 09:01:30.095             6.990          3199.563
       320   13 Jun 2027 10:31:50.037   13 Jun 2027 10:31:58.033             7.996          2126.687
       321   13 Jun 2027 10:33:47.690   13 Jun 2027 10:33:49.598             1.908           772.844
       322   13 Jun 2027 10:34:16.685   13 Jun 2027 10:34:18.495             1.810           654.781
       323   13 Jun 2027 10:36:34.652   13 Jun 2027 10:36:43.987             9.335          3952.375
       324   13 Jun 2027 10:36:50.231   13 Jun 2027 10:36:52.392             2.161           180.219
       325   13 Jun 2027 10:37:35.829   13 Jun 2027 10:37:38.518             2.689           614.125
       326   13 Jun 2027 10:37:48.730   13 Jun 2027 10:37:50.751             2.021            26.531
       327   13 Jun 2027 10:38:26.268   13 Jun 2027 10:38:29.292             3.024           985.656
       328   13 Jun 2027 10:38:37.462   13 Jun 2027 10:38:45.888             8.426           255.313
       329   13 Jun 2027 10:39:51.165   13 Jun 2027 10:39:54.236             3.071          1178.000
