uniorb/output/strategy_4/Camera/Camera_KinoSat_111208.txt

KinoSat_111208
-------------------------
    Access    *     Start Time (UTCG)     *     Stop Time (UTCG)  *   Duration (s) *   Data (Mbytes)
         1   01 Jun 2027 03:02:30.718   01 Jun 2027 03:03:09.986            39.268         19634.000
         2   01 Jun 2027 03:04:28.110   01 Jun 2027 03:04:30.947             2.837          1418.500
         3   01 Jun 2027 03:04:44.566   01 Jun 2027 03:05:07.676            23.110         11555.000
         4   01 Jun 2027 03:05:38.131   01 Jun 2027 03:05:50.583            12.452          6226.000
         5   01 Jun 2027 03:06:16.329   01 Jun 2027 03:06:21.741             5.412          2706.000
         6   01 Jun 2027 04:26:37.621   01 Jun 2027 04:27:48.975            71.354         35677.000
         7   01 Jun 2027 06:00:24.156   01 Jun 2027 06:02:36.243           132.087         66043.500
         8   01 Jun 2027 07:36:24.492   01 Jun 2027 07:38:15.024           110.532         55266.000
         9   01 Jun 2027 07:39:00.466   01 Jun 2027 07:39:24.835            24.369         12184.500
        10   01 Jun 2027 07:41:25.005   01 Jun 2027 07:41:37.861            12.856          6428.000
        11   01 Jun 2027 07:41:59.187   01 Jun 2027 07:42:00.297             1.110           555.000
        12   01 Jun 2027 07:43:32.818   01 Jun 2027 07:43:32.818             0.000             0.000
        13   01 Jun 2027 07:44:15.107   01 Jun 2027 07:44:31.976            16.869          8434.500
        14   01 Jun 2027 09:13:26.964   01 Jun 2027 09:15:27.548           120.584         60292.000
        15   01 Jun 2027 09:16:10.896   01 Jun 2027 09:17:01.773            50.877         25438.500
        16   01 Jun 2027 09:17:38.248   01 Jun 2027 09:17:50.280            12.032          6016.000
        17   01 Jun 2027 09:18:55.109   01 Jun 2027 09:18:58.804             3.695          1847.500
        18   01 Jun 2027 09:20:13.112   01 Jun 2027 09:20:39.329            26.217         13108.500
        19   01 Jun 2027 10:50:21.716   01 Jun 2027 10:50:28.331             6.615          3307.500
        20   01 Jun 2027 10:50:39.610   01 Jun 2027 10:53:15.713           156.103         78051.500
        21   01 Jun 2027 10:53:21.762   01 Jun 2027 10:53:28.817             7.055          3527.500
        22   01 Jun 2027 10:55:38.661   01 Jun 2027 10:55:38.661             0.000             0.000
        23   01 Jun 2027 10:56:07.883   01 Jun 2027 10:56:09.009             1.126           563.000
        24   02 Jun 2027 03:15:07.377   02 Jun 2027 03:16:34.520            87.143         43571.500
        25   02 Jun 2027 03:16:42.240   02 Jun 2027 03:17:21.075            38.835         19417.500
        26   02 Jun 2027 03:17:56.508   02 Jun 2027 03:18:01.136             4.628          2314.000
        27   02 Jun 2027 04:38:32.416   02 Jun 2027 04:38:49.268            16.852          8426.000
        28   02 Jun 2027 04:40:07.261   02 Jun 2027 04:40:07.761             0.500           250.000
        29   02 Jun 2027 04:40:20.853   02 Jun 2027 04:40:38.654            17.801          8900.500
        30   02 Jun 2027 06:14:51.581   02 Jun 2027 06:18:20.128           208.547        104273.500
        31   02 Jun 2027 07:48:21.007   02 Jun 2027 07:51:21.159           180.152         90076.000
        32   02 Jun 2027 07:52:31.660   02 Jun 2027 07:52:50.152            18.492          9246.000
        33   02 Jun 2027 07:53:20.737   02 Jun 2027 07:53:37.363            16.626          8313.000
        34   02 Jun 2027 07:54:54.183   02 Jun 2027 07:55:04.297            10.114          5057.000
        35   02 Jun 2027 07:55:48.613   02 Jun 2027 07:55:59.780            11.167          5583.500
        36   02 Jun 2027 07:56:52.023   02 Jun 2027 07:56:53.585             1.562           781.000
        37   02 Jun 2027 09:25:53.146   02 Jun 2027 09:27:21.255            88.109         43777.843
        38   02 Jun 2027 09:29:32.556   02 Jun 2027 09:29:39.971             7.415          2616.312
        39   02 Jun 2027 09:30:22.895   02 Jun 2027 09:30:27.245             4.350           539.125
        40   02 Jun 2027 09:31:17.070   02 Jun 2027 09:31:20.444             3.374           735.094
        41   02 Jun 2027 09:32:07.418   02 Jun 2027 09:32:10.051             2.633           792.188
        42   02 Jun 2027 09:32:36.319   02 Jun 2027 09:32:38.186             1.867           789.188
        43   02 Jun 2027 11:02:49.206   02 Jun 2027 11:03:10.524            21.318          5344.500
        44   02 Jun 2027 11:05:01.344   02 Jun 2027 11:05:03.284             1.940           759.781
        45   02 Jun 2027 11:06:05.718   02 Jun 2027 11:06:07.478             1.760            87.656
        46   02 Jun 2027 11:06:40.713   02 Jun 2027 11:06:43.718             3.005          1036.312
        47   02 Jun 2027 11:08:07.111   02 Jun 2027 11:08:15.006             7.895          2379.594
        48   02 Jun 2027 11:08:35.554   02 Jun 2027 11:08:36.494             0.940           444.156
        49   03 Jun 2027 03:26:46.034   03 Jun 2027 03:29:34.171           168.137         84068.500
        50   03 Jun 2027 03:30:06.933   03 Jun 2027 03:30:47.097            40.164         20082.000
        51   03 Jun 2027 03:31:10.244   03 Jun 2027 03:31:22.886            12.642          6321.000
        52   03 Jun 2027 04:50:24.030   03 Jun 2027 04:50:26.613             2.583          1291.500
        53   03 Jun 2027 04:50:29.412   03 Jun 2027 04:50:45.602            16.190          8095.000
        54   03 Jun 2027 04:51:30.409   03 Jun 2027 04:51:48.399            17.990          8995.000
        55   03 Jun 2027 06:26:53.073   03 Jun 2027 06:28:06.542            73.469         36734.500
        56   03 Jun 2027 06:28:54.608   03 Jun 2027 06:29:01.015             6.407          1833.750
        57   03 Jun 2027 06:29:21.217   03 Jun 2027 06:29:25.408             4.191           600.625
        58   03 Jun 2027 06:29:36.234   03 Jun 2027 06:29:39.424             3.190           291.969
        59   03 Jun 2027 06:30:07.760   03 Jun 2027 06:30:07.760             0.000             0.000
        60   03 Jun 2027 08:01:00.741   03 Jun 2027 08:01:05.576             4.835          2309.844
        61   03 Jun 2027 08:02:59.220   03 Jun 2027 08:03:00.710             1.490           353.219
        62   03 Jun 2027 08:03:43.961   03 Jun 2027 08:03:47.451             3.490          1242.625
        63   03 Jun 2027 08:05:12.568   03 Jun 2027 08:05:18.281             5.713          1675.969
        64   03 Jun 2027 08:05:43.539   03 Jun 2027 08:05:45.824             2.285           616.344
        65   03 Jun 2027 08:06:49.128   03 Jun 2027 08:06:52.879             3.751          1463.750
        66   03 Jun 2027 08:07:10.532   03 Jun 2027 08:07:14.392             3.860            93.500
        67   03 Jun 2027 08:07:27.288   03 Jun 2027 08:07:29.378             2.090            20.906
        68   03 Jun 2027 08:07:36.542   03 Jun 2027 08:07:37.430             0.888            35.781
        69   03 Jun 2027 08:08:28.331   03 Jun 2027 08:08:31.054             2.723          1253.687
        70   03 Jun 2027 08:08:47.384   03 Jun 2027 08:08:47.920             0.536           185.406
        71   03 Jun 2027 09:37:59.239   03 Jun 2027 09:38:11.951            12.712          5179.313
        72   03 Jun 2027 09:41:39.755   03 Jun 2027 09:41:44.569             4.814           339.781
        73   03 Jun 2027 09:42:49.724   03 Jun 2027 09:42:53.252             3.528          1677.656
        74   03 Jun 2027 09:43:57.434   03 Jun 2027 09:44:02.300             4.866          1682.344
        75   03 Jun 2027 09:44:38.674   03 Jun 2027 09:44:40.609             1.935           908.094
        76   03 Jun 2027 11:15:37.995   03 Jun 2027 11:15:56.797            18.802          7113.844
        77   03 Jun 2027 11:17:41.831   03 Jun 2027 11:17:46.034             4.203           615.000
        78   03 Jun 2027 11:18:17.719   03 Jun 2027 11:18:20.771             3.052           931.500
        79   03 Jun 2027 11:18:32.189   03 Jun 2027 11:18:34.176             1.987           234.031
        80   03 Jun 2027 11:19:14.496   03 Jun 2027 11:19:18.904             4.408          1134.125
        81   03 Jun 2027 11:19:45.505   03 Jun 2027 11:19:47.889             2.384           170.531
        82   03 Jun 2027 11:20:03.145   03 Jun 2027 11:20:06.382             3.237             9.500
        83   04 Jun 2027 03:39:13.984   04 Jun 2027 03:39:36.421            22.437         11218.500
        84   04 Jun 2027 03:39:59.175   04 Jun 2027 03:43:25.038           205.863        102931.500
        85   04 Jun 2027 05:02:32.851   04 Jun 2027 05:02:50.863            18.012          9006.000
        86   04 Jun 2027 05:03:10.624   04 Jun 2027 05:03:10.624             0.000             0.000
        87   04 Jun 2027 05:04:19.831   04 Jun 2027 05:04:31.963            12.132          6066.000
        88   04 Jun 2027 05:05:25.314   04 Jun 2027 05:05:25.314             0.000             0.000
        89   04 Jun 2027 06:39:03.307   04 Jun 2027 06:39:58.889            55.582         27347.594
        90   04 Jun 2027 06:40:11.064   04 Jun 2027 06:40:15.049             3.985            96.031
        91   04 Jun 2027 06:41:07.690   04 Jun 2027 06:41:11.512             3.822          1562.344
        92   04 Jun 2027 06:41:28.624   04 Jun 2027 06:41:28.624             0.000             0.000
        93   04 Jun 2027 06:41:39.535   04 Jun 2027 06:41:44.855             5.320           839.625
        94   04 Jun 2027 08:14:13.433   04 Jun 2027 08:14:23.964            10.531          2300.094
        95   04 Jun 2027 08:15:26.795   04 Jun 2027 08:15:31.332             4.537          1537.094
        96   04 Jun 2027 08:15:45.285   04 Jun 2027 08:15:47.571             2.286           122.906
        97   04 Jun 2027 08:17:39.208   04 Jun 2027 08:17:41.469             2.261           938.531
        98   04 Jun 2027 08:18:15.460   04 Jun 2027 08:18:25.140             9.680           917.375
        99   04 Jun 2027 08:18:43.990   04 Jun 2027 08:18:45.634             1.644           589.062
       100   04 Jun 2027 08:19:10.694   04 Jun 2027 08:19:16.247             5.553            34.688
       101   04 Jun 2027 08:20:21.580   04 Jun 2027 08:20:26.184             4.604          1689.500
       102   04 Jun 2027 08:20:41.116   04 Jun 2027 08:20:44.491             3.375           276.000
       103   04 Jun 2027 09:50:35.461   04 Jun 2027 09:50:51.663            16.202          5485.656
       104   04 Jun 2027 09:52:54.211   04 Jun 2027 09:52:55.557             1.346           329.969
       105   04 Jun 2027 09:53:20.057   04 Jun 2027 09:53:21.653             1.596           283.469
       106   04 Jun 2027 09:53:22.839   04 Jun 2027 09:53:26.116             3.277            32.125
       107   04 Jun 2027 09:54:31.008   04 Jun 2027 09:54:37.893             6.885          1326.438
       108   04 Jun 2027 09:55:09.046   04 Jun 2027 09:55:12.188             3.142           676.906
       109   04 Jun 2027 09:56:15.348   04 Jun 2027 09:56:17.831             2.483          1016.000
       110   04 Jun 2027 09:56:40.497   04 Jun 2027 09:56:43.233             2.736           448.125
       111   04 Jun 2027 11:27:53.225   04 Jun 2027 11:28:06.950            13.725          5346.000
       112   04 Jun 2027 11:28:48.718   04 Jun 2027 11:28:50.421             1.703           424.719
       113   04 Jun 2027 11:29:59.810   04 Jun 2027 11:30:04.559             4.749          1041.594
       114   04 Jun 2027 11:30:39.396   04 Jun 2027 11:30:42.195             2.799             4.312
       115   04 Jun 2027 11:31:47.245   04 Jun 2027 11:31:58.099            10.854          1265.281
       116   04 Jun 2027 11:32:11.322   04 Jun 2027 11:32:13.015             1.693           413.219
       117   05 Jun 2027 03:51:07.517   05 Jun 2027 03:51:44.431            36.914         18457.000
       118   05 Jun 2027 03:52:13.430   05 Jun 2027 03:53:53.232            99.802         49901.000
       119   05 Jun 2027 05:15:12.788   05 Jun 2027 05:16:13.352            60.564         30282.000
       120   05 Jun 2027 06:50:58.435   05 Jun 2027 06:52:50.660           112.225         54058.438
       121   05 Jun 2027 06:54:11.461   05 Jun 2027 06:54:17.758             6.297          2482.781
       122   05 Jun 2027 08:25:55.756   05 Jun 2027 08:25:59.745             3.989          1597.750
       123   05 Jun 2027 08:26:31.698   05 Jun 2027 08:26:32.986             1.288           252.281
       124   05 Jun 2027 08:27:53.252   05 Jun 2027 08:27:53.867             0.615           220.125
       125   05 Jun 2027 08:28:56.635   05 Jun 2027 08:28:56.635             0.000             0.000
       126   05 Jun 2027 08:28:58.311   05 Jun 2027 08:29:05.700             7.389           494.375
       127   05 Jun 2027 08:29:48.439   05 Jun 2027 08:29:53.804             5.365          1335.594
       128   05 Jun 2027 08:31:33.079   05 Jun 2027 08:31:38.767             5.688          2340.187
       129   05 Jun 2027 08:32:04.738   05 Jun 2027 08:32:06.727             1.989           770.125
       130   05 Jun 2027 08:32:32.722   05 Jun 2027 08:32:37.052             4.330           230.313
       131   05 Jun 2027 08:32:57.040   05 Jun 2027 08:32:57.516             0.476           161.656
       132   05 Jun 2027 10:02:08.243   05 Jun 2027 10:02:17.757             9.514          4403.844
       133   05 Jun 2027 10:04:48.210   05 Jun 2027 10:04:50.280             2.070           898.594
       134   05 Jun 2027 10:05:12.464   05 Jun 2027 10:05:14.689             2.225           527.844
       135   05 Jun 2027 10:05:23.418   05 Jun 2027 10:05:29.997             6.579           272.781
       136   05 Jun 2027 10:06:40.102   05 Jun 2027 10:06:44.718             4.616          1971.219
       137   05 Jun 2027 10:07:32.725   05 Jun 2027 10:07:35.797             3.072          1044.938
       138   05 Jun 2027 10:07:46.735   05 Jun 2027 10:07:48.345             1.610            75.187
       139   05 Jun 2027 10:08:25.163   05 Jun 2027 10:08:27.723             2.560          1150.562
       140   05 Jun 2027 11:40:09.447   05 Jun 2027 11:40:21.366            11.919          5795.406
       141   05 Jun 2027 11:40:47.516   05 Jun 2027 11:40:51.943             4.427           579.406
       142   05 Jun 2027 11:42:39.921   05 Jun 2027 11:42:45.654             5.733          2069.375
       143   05 Jun 2027 11:43:22.113   05 Jun 2027 11:43:25.412             3.299          1139.344
       144   05 Jun 2027 11:44:03.549   05 Jun 2027 11:44:05.691             2.142           802.656
       145   06 Jun 2027 03:51:59.425   06 Jun 2027 03:52:23.058            23.633         11816.500
       146   06 Jun 2027 04:03:03.347   06 Jun 2027 04:04:47.004           103.657         51828.500
       147   06 Jun 2027 04:04:56.263   06 Jun 2027 04:06:00.132            63.869         31934.500
       148   06 Jun 2027 05:26:02.181   06 Jun 2027 05:26:27.179            24.998         12499.000
       149   06 Jun 2027 07:01:34.503   06 Jun 2027 07:01:41.484             6.981          3490.500
       150   06 Jun 2027 07:02:44.278   06 Jun 2027 07:04:23.095            98.817         49408.500
       151   06 Jun 2027 07:04:45.649   06 Jun 2027 07:04:47.920             2.271          1135.500
       152   06 Jun 2027 07:06:13.246   06 Jun 2027 07:06:21.560             8.314          3069.562
       153   06 Jun 2027 07:06:34.143   06 Jun 2027 07:06:34.143             0.000             0.000
       154   06 Jun 2027 07:07:05.208   06 Jun 2027 07:07:08.263             3.055          1364.000
       155   06 Jun 2027 08:37:29.474   06 Jun 2027 08:37:36.248             6.774          1971.125
       156   06 Jun 2027 08:38:31.002   06 Jun 2027 08:38:35.853             4.851           843.469
       157   06 Jun 2027 08:40:24.013   06 Jun 2027 08:40:26.909             2.896          1167.344
       158   06 Jun 2027 08:40:58.805   06 Jun 2027 08:40:58.805             0.000             0.000
       159   06 Jun 2027 08:41:32.973   06 Jun 2027 08:41:38.358             5.385          1460.125
       160   06 Jun 2027 08:42:23.489   06 Jun 2027 08:42:28.458             4.969          1030.469
       161   06 Jun 2027 08:42:58.049   06 Jun 2027 08:43:00.845             2.796           612.531
       162   06 Jun 2027 08:43:34.953   06 Jun 2027 08:43:40.702             5.749           634.031
       163   06 Jun 2027 08:44:27.185   06 Jun 2027 08:44:29.903             2.718           593.031
       164   06 Jun 2027 10:14:29.874   06 Jun 2027 10:14:41.536            11.662          5265.656
       165   06 Jun 2027 10:17:57.868   06 Jun 2027 10:18:01.887             4.019           933.969
       166   06 Jun 2027 10:18:07.404   06 Jun 2027 10:18:12.147             4.743           156.344
       167   06 Jun 2027 10:18:35.002   06 Jun 2027 10:18:40.134             5.132           266.312
       168   06 Jun 2027 10:18:55.367   06 Jun 2027 10:18:57.868             2.501           476.031
       169   06 Jun 2027 10:19:24.113   06 Jun 2027 10:19:26.166             2.053           689.750
       170   06 Jun 2027 11:52:31.112   06 Jun 2027 11:52:44.654            13.542          6006.250
       171   06 Jun 2027 11:53:08.666   06 Jun 2027 11:53:10.722             2.056           747.781
       172   06 Jun 2027 11:54:39.933   06 Jun 2027 11:54:45.426             5.493           347.500
       173   06 Jun 2027 11:55:01.734   06 Jun 2027 11:55:09.839             8.105           482.781
       174   06 Jun 2027 11:55:54.822   06 Jun 2027 11:55:59.250             4.428            49.812
       175   06 Jun 2027 11:56:08.270   06 Jun 2027 11:56:09.123             0.853           281.875
       176   07 Jun 2027 04:03:22.625   07 Jun 2027 04:03:35.019            12.394          6197.000
       177   07 Jun 2027 04:15:04.646   07 Jun 2027 04:16:25.165            80.519         40259.500
       178   07 Jun 2027 05:37:18.355   07 Jun 2027 05:38:32.071            73.716         36858.000
       179   07 Jun 2027 05:39:19.188   07 Jun 2027 05:39:32.705            13.517          6758.500
       180   07 Jun 2027 07:12:26.117   07 Jun 2027 07:13:59.693            93.576         46788.000
       181   07 Jun 2027 07:14:27.670   07 Jun 2027 07:15:18.123            50.453         24841.219
       182   07 Jun 2027 07:15:40.166   07 Jun 2027 07:15:41.729             1.563           505.094
       183   07 Jun 2027 07:16:20.731   07 Jun 2027 07:16:23.454             2.723           877.250
       184   07 Jun 2027 07:17:31.730   07 Jun 2027 07:17:31.730             0.000             0.000
       185   07 Jun 2027 07:17:49.367   07 Jun 2027 07:17:54.843             5.476          2684.781
       186   07 Jun 2027 07:20:23.198   07 Jun 2027 07:20:27.217             4.019          2009.500
       187   07 Jun 2027 08:49:38.058   07 Jun 2027 08:49:46.229             8.171          2023.313
       188   07 Jun 2027 08:51:46.557   07 Jun 2027 08:51:53.944             7.387          2305.750
       189   07 Jun 2027 08:52:32.646   07 Jun 2027 08:52:33.700             1.054            72.625
       190   07 Jun 2027 08:53:31.787   07 Jun 2027 08:53:36.785             4.998          1661.406
       191   07 Jun 2027 08:54:31.468   07 Jun 2027 08:54:36.848             5.380          1224.344
       192   07 Jun 2027 08:55:15.392   07 Jun 2027 08:55:17.150             1.758           810.438
       193   07 Jun 2027 08:55:39.022   07 Jun 2027 08:55:41.910             2.888           461.688
       194   07 Jun 2027 08:56:20.774   07 Jun 2027 08:56:24.901             4.127           569.094
       195   07 Jun 2027 10:26:35.459   07 Jun 2027 10:26:48.819            13.360          5597.125
       196   07 Jun 2027 10:30:17.383   07 Jun 2027 10:30:24.146             6.763          1961.500
       197   07 Jun 2027 10:30:33.503   07 Jun 2027 10:30:35.509             2.006           292.406
       198   07 Jun 2027 10:31:20.676   07 Jun 2027 10:31:26.768             6.092           832.938
       199   07 Jun 2027 10:32:01.790   07 Jun 2027 10:32:02.655             0.865           409.906
       200   07 Jun 2027 10:32:37.731   07 Jun 2027 10:32:42.195             4.464           751.781
       201   08 Jun 2027 04:14:49.656   08 Jun 2027 04:15:37.862            48.206         24103.000
       202   08 Jun 2027 04:27:01.583   08 Jun 2027 04:27:41.114            39.531         19765.500
       203   08 Jun 2027 05:49:03.474   08 Jun 2027 05:50:23.781            80.307         40153.500
       204   08 Jun 2027 05:51:06.845   08 Jun 2027 05:51:23.171            16.326          8163.000
       205   08 Jun 2027 05:51:40.718   08 Jun 2027 05:51:48.899             8.181          4090.500
       206   08 Jun 2027 05:53:36.348   08 Jun 2027 05:53:44.470             8.122          4061.000
       207   08 Jun 2027 05:54:34.374   08 Jun 2027 05:54:39.660             5.286          2643.000
       208   08 Jun 2027 07:23:55.769   08 Jun 2027 07:25:48.206           112.437         55855.594
       209   08 Jun 2027 07:25:57.449   08 Jun 2027 07:25:57.449             0.000             0.000
       210   08 Jun 2027 07:26:31.709   08 Jun 2027 07:26:32.978             1.269           634.500
       211   08 Jun 2027 07:27:20.926   08 Jun 2027 07:27:26.180             5.254          2197.469
       212   08 Jun 2027 07:27:48.440   08 Jun 2027 07:27:50.293             1.853           695.625
       213   08 Jun 2027 07:28:20.762   08 Jun 2027 07:28:28.990             8.228           801.750
       214   08 Jun 2027 07:29:25.814   08 Jun 2027 07:29:30.645             4.831          1271.406
       215   08 Jun 2027 07:29:52.513   08 Jun 2027 07:29:57.516             5.003           644.969
       216   08 Jun 2027 07:30:25.793   08 Jun 2027 07:30:27.043             1.250           291.281
       217   08 Jun 2027 07:30:45.291   08 Jun 2027 07:30:46.280             0.989           300.563
       218   08 Jun 2027 07:30:52.846   08 Jun 2027 07:30:57.168             4.322            79.156
       219   08 Jun 2027 07:31:40.593   08 Jun 2027 07:31:44.715             4.122          1357.031
       220   08 Jun 2027 07:32:43.585   08 Jun 2027 07:32:44.294             0.709           354.500
       221   08 Jun 2027 09:01:39.827   08 Jun 2027 09:01:47.476             7.649          3702.750
       222   08 Jun 2027 09:02:37.078   08 Jun 2027 09:02:40.879             3.801          1078.719
       223   08 Jun 2027 09:04:32.161   08 Jun 2027 09:04:42.836            10.675          1448.594
       224   08 Jun 2027 09:05:57.726   08 Jun 2027 09:06:00.584             2.858          1205.125
       225   08 Jun 2027 09:06:58.926   08 Jun 2027 09:07:05.353             6.427          1819.281
       226   08 Jun 2027 09:07:17.199   08 Jun 2027 09:07:18.484             1.285            62.875
       227   08 Jun 2027 09:07:43.917   08 Jun 2027 09:07:45.448             1.531            68.531
       228   08 Jun 2027 09:08:20.119   08 Jun 2027 09:08:21.893             1.774           690.406
       229   08 Jun 2027 09:08:37.234   08 Jun 2027 09:08:38.251             1.017           461.281
       230   08 Jun 2027 09:08:57.279   08 Jun 2027 09:08:58.680             1.401           371.188
       231   08 Jun 2027 10:38:27.846   08 Jun 2027 10:38:38.259            10.413          5168.719
       232   08 Jun 2027 10:38:49.972   08 Jun 2027 10:38:50.514             0.542           209.188
       233   08 Jun 2027 10:39:35.529   08 Jun 2027 10:39:35.964             0.435            38.531
       234   08 Jun 2027 10:40:05.176   08 Jun 2027 10:40:10.414             5.238           107.062
       235   08 Jun 2027 10:41:59.952   08 Jun 2027 10:42:05.875             5.923          1175.531
       236   08 Jun 2027 10:42:42.701   08 Jun 2027 10:42:45.178             2.477           592.594
       237   08 Jun 2027 10:42:56.806   08 Jun 2027 10:42:58.300             1.494           296.594
       238   08 Jun 2027 10:44:18.555   08 Jun 2027 10:44:21.814             3.259          1629.500
       239   08 Jun 2027 10:44:30.515   08 Jun 2027 10:44:35.031             4.516           868.406
       240   08 Jun 2027 10:45:00.459   08 Jun 2027 10:45:08.054             7.595           750.281
       241   09 Jun 2027 03:02:46.807   09 Jun 2027 03:03:27.197            40.390         20195.000
       242   09 Jun 2027 03:04:05.862   09 Jun 2027 03:04:15.143             9.281          4640.500
       243   09 Jun 2027 03:04:35.851   09 Jun 2027 03:04:44.885             9.034          4517.000
       244   09 Jun 2027 03:04:50.473   09 Jun 2027 03:04:56.851             6.378          3189.000
       245   09 Jun 2027 03:05:17.557   09 Jun 2027 03:05:22.694             5.137          2568.500
       246   09 Jun 2027 03:06:17.654   09 Jun 2027 03:06:18.440             0.786           393.000
       247   09 Jun 2027 03:08:28.503   09 Jun 2027 03:08:40.900            12.397          6198.500
       248   09 Jun 2027 04:26:53.200   09 Jun 2027 04:27:36.312            43.112         21556.000
       249   09 Jun 2027 04:28:17.933   09 Jun 2027 04:28:24.784             6.851          3425.500
       250   09 Jun 2027 06:02:50.451   09 Jun 2027 06:05:38.762           168.311         84155.500
       251   09 Jun 2027 06:06:35.852   09 Jun 2027 06:06:43.977             8.125          4062.500
       252   09 Jun 2027 07:36:40.090   09 Jun 2027 07:37:04.451            24.361         10397.031
       253   09 Jun 2027 07:37:49.878   09 Jun 2027 07:37:52.798             2.920          1140.250
       254   09 Jun 2027 07:38:08.485   09 Jun 2027 07:38:10.633             2.148           241.344
       255   09 Jun 2027 07:39:18.834   09 Jun 2027 07:39:23.016             4.182          1430.437
       256   09 Jun 2027 07:39:57.322   09 Jun 2027 07:39:59.690             2.368           959.313
       257   09 Jun 2027 07:40:46.564   09 Jun 2027 07:40:49.028             2.464          1102.313
       258   09 Jun 2027 07:42:17.829   09 Jun 2027 07:42:24.212             6.383          1850.000
       259   09 Jun 2027 07:42:47.945   09 Jun 2027 07:42:49.782             1.837           290.250
       260   09 Jun 2027 07:43:36.867   09 Jun 2027 07:43:40.920             4.053          1383.187
       261   09 Jun 2027 07:44:19.756   09 Jun 2027 07:44:22.558             2.802          1177.312
       262   09 Jun 2027 09:13:43.127   09 Jun 2027 09:13:56.880            13.753          4625.594
       263   09 Jun 2027 09:14:44.028   09 Jun 2027 09:14:47.587             3.559           558.375
       264   09 Jun 2027 09:17:54.709   09 Jun 2027 09:18:03.749             9.040          2668.250
       265   09 Jun 2027 09:19:13.954   09 Jun 2027 09:19:14.645             0.691           212.875
       266   09 Jun 2027 09:19:35.865   09 Jun 2027 09:19:37.502             1.637           521.187
       267   09 Jun 2027 09:20:06.795   09 Jun 2027 09:20:08.317             1.522            32.594
       268   09 Jun 2027 09:20:35.987   09 Jun 2027 09:20:38.162             2.175           258.313
       269   09 Jun 2027 09:20:40.452   09 Jun 2027 09:20:40.706             0.254            71.562
       270   09 Jun 2027 10:50:37.729   09 Jun 2027 10:50:49.376            11.647          5823.500
       271   09 Jun 2027 10:51:11.050   09 Jun 2027 10:51:15.528             4.478           838.062
       272   09 Jun 2027 10:53:34.578   09 Jun 2027 10:53:35.781             1.203           393.469
       273   09 Jun 2027 10:54:25.499   09 Jun 2027 10:54:27.652             2.153           774.375
       274   09 Jun 2027 10:54:33.067   09 Jun 2027 10:54:33.730             0.663           169.219
       275   09 Jun 2027 10:54:51.859   09 Jun 2027 10:54:52.881             1.022            93.094
       276   09 Jun 2027 10:55:00.467   09 Jun 2027 10:55:01.784             1.317            94.313
       277   09 Jun 2027 10:55:24.474   09 Jun 2027 10:55:27.054             2.580           421.250
       278   09 Jun 2027 10:56:39.393   09 Jun 2027 10:56:47.433             8.040          2191.563
       279   10 Jun 2027 03:15:23.333   10 Jun 2027 03:18:15.715           172.382         86191.000
       280   10 Jun 2027 03:18:23.552   10 Jun 2027 03:18:26.998             3.446          1723.000
       281   10 Jun 2027 03:18:40.961   10 Jun 2027 03:18:44.674             3.713          1856.500
       282   10 Jun 2027 04:38:47.865   10 Jun 2027 04:39:26.118            38.253         19126.500
       283   10 Jun 2027 06:15:07.847   10 Jun 2027 06:16:50.926           103.079         50779.812
       284   10 Jun 2027 06:17:31.242   10 Jun 2027 06:17:31.242             0.000             0.000
       285   10 Jun 2027 06:17:56.159   10 Jun 2027 06:18:03.188             7.029          1722.813
       286   10 Jun 2027 07:48:38.155   10 Jun 2027 07:48:47.312             9.157          2641.656
       287   10 Jun 2027 07:51:04.592   10 Jun 2027 07:51:05.572             0.980            84.500
       288   10 Jun 2027 07:51:59.281   10 Jun 2027 07:52:04.704             5.423          1514.438
       289   10 Jun 2027 07:52:49.977   10 Jun 2027 07:52:52.854             2.877          1228.719
       290   10 Jun 2027 07:53:56.759   10 Jun 2027 07:53:58.463             1.704           825.563
       291   10 Jun 2027 07:54:34.314   10 Jun 2027 07:54:37.414             3.100          1120.344
       292   10 Jun 2027 07:54:45.537   10 Jun 2027 07:54:46.374             0.837           250.250
       293   10 Jun 2027 07:55:18.952   10 Jun 2027 07:55:20.347             1.395           307.500
       294   10 Jun 2027 07:55:41.509   10 Jun 2027 07:55:43.196             1.687           121.781
       295   10 Jun 2027 07:56:16.347   10 Jun 2027 07:56:24.004             7.657          1035.969
       296   10 Jun 2027 07:57:07.548   10 Jun 2027 07:57:09.242             1.694           847.000
       297   10 Jun 2027 09:26:08.955   10 Jun 2027 09:26:25.713            16.758          4952.375
       298   10 Jun 2027 09:29:14.176   10 Jun 2027 09:29:16.483             2.307           479.125
       299   10 Jun 2027 09:29:53.122   10 Jun 2027 09:29:55.239             2.117           979.906
       300   10 Jun 2027 09:31:19.199   10 Jun 2027 09:31:22.196             2.997          1347.969
       301   10 Jun 2027 09:32:23.088   10 Jun 2027 09:32:26.108             3.020           840.313
       302   10 Jun 2027 09:32:51.595   10 Jun 2027 09:32:54.051             2.456           796.469
       303   10 Jun 2027 11:03:05.286   10 Jun 2027 11:03:26.755            21.469          5750.906
       304   10 Jun 2027 11:06:18.644   10 Jun 2027 11:06:20.280             1.636           139.125
       305   10 Jun 2027 11:06:42.481   10 Jun 2027 11:06:45.606             3.125           693.781
       306   10 Jun 2027 11:06:52.482   10 Jun 2027 11:06:54.226             1.744            49.125
       307   10 Jun 2027 11:07:07.296   10 Jun 2027 11:07:08.746             1.450           330.031
       308   10 Jun 2027 11:07:42.292   10 Jun 2027 11:07:49.530             7.238           538.438
       309   10 Jun 2027 11:08:36.437   10 Jun 2027 11:08:45.487             9.050          1465.844
       310   11 Jun 2027 03:27:01.780   11 Jun 2027 03:30:56.409           234.629        117314.500
       311   11 Jun 2027 04:50:38.547   11 Jun 2027 04:50:44.287             5.740          2870.000
       312   11 Jun 2027 04:52:02.711   11 Jun 2027 04:52:14.081            11.370          5685.000
       313   11 Jun 2027 04:52:31.164   11 Jun 2027 04:52:50.460            19.296          9648.000
       314   11 Jun 2027 06:27:09.929   11 Jun 2027 06:28:16.216            66.287         32959.437
       315   11 Jun 2027 06:29:11.913   11 Jun 2027 06:29:17.456             5.543          1512.469
       316   11 Jun 2027 06:29:35.907   11 Jun 2027 06:29:41.637             5.730           576.594
       317   11 Jun 2027 06:29:53.972   11 Jun 2027 06:29:55.718             1.746           344.187
       318   11 Jun 2027 08:01:27.897   11 Jun 2027 08:01:32.005             4.108          1808.906
       319   11 Jun 2027 08:03:15.930   11 Jun 2027 08:03:17.467             1.537           402.938
       320   11 Jun 2027 08:04:00.936   11 Jun 2027 08:04:06.437             5.501          1243.688
       321   11 Jun 2027 08:05:28.421   11 Jun 2027 08:05:34.435             6.014          1636.281
       322   11 Jun 2027 08:06:01.202   11 Jun 2027 08:06:05.442             4.240           654.500
       323   11 Jun 2027 08:06:32.319   11 Jun 2027 08:06:40.585             8.266           433.750
       324   11 Jun 2027 08:07:43.886   11 Jun 2027 08:07:48.191             4.305          1978.156
       325   11 Jun 2027 08:08:06.665   11 Jun 2027 08:08:09.486             2.821           493.187
       326   11 Jun 2027 08:08:58.238   11 Jun 2027 08:08:59.722             1.484           399.687
       327   11 Jun 2027 09:38:15.712   11 Jun 2027 09:38:26.942            11.230          5322.187
       328   11 Jun 2027 09:41:55.612   11 Jun 2027 09:41:59.327             3.715           343.500
       329   11 Jun 2027 09:43:03.317   11 Jun 2027 09:43:07.783             4.466          1655.531
       330   11 Jun 2027 09:43:20.544   11 Jun 2027 09:43:21.393             0.849           398.781
       331   11 Jun 2027 09:44:26.758   11 Jun 2027 09:44:30.569             3.811           499.688
       332   11 Jun 2027 11:15:56.599   11 Jun 2027 11:16:12.412            15.813          5975.656
       333   11 Jun 2027 11:18:23.118   11 Jun 2027 11:18:25.767             2.649           615.594
       334   11 Jun 2027 11:18:54.252   11 Jun 2027 11:18:56.436             2.184           124.563
       335   11 Jun 2027 11:19:02.796   11 Jun 2027 11:19:03.450             0.654           198.750
       336   11 Jun 2027 11:19:24.677   11 Jun 2027 11:19:25.796             1.119           494.750
       337   11 Jun 2027 11:19:52.495   11 Jun 2027 11:19:58.674             6.179           686.594
       338   11 Jun 2027 11:20:04.758   11 Jun 2027 11:20:06.697             1.939           174.750
       339   12 Jun 2027 03:39:29.194   12 Jun 2027 03:39:52.832            23.638         11819.000
       340   12 Jun 2027 03:40:14.990   12 Jun 2027 03:42:01.008           106.018         53009.000
       341   12 Jun 2027 03:42:44.634   12 Jun 2027 03:43:39.577            54.943         27471.500
       342   12 Jun 2027 05:02:48.437   12 Jun 2027 05:03:05.869            17.432          8716.000
       343   12 Jun 2027 05:03:45.246   12 Jun 2027 05:03:53.769             8.523          4261.500
       344   12 Jun 2027 05:04:27.712   12 Jun 2027 05:04:28.739             1.027           513.500
       345   12 Jun 2027 05:04:56.420   12 Jun 2027 05:05:41.447            45.027         22513.500
       346   12 Jun 2027 06:39:19.410   12 Jun 2027 06:40:08.312            48.902         24222.500
       347   12 Jun 2027 06:40:34.458   12 Jun 2027 06:40:35.236             0.778           297.125
       348   12 Jun 2027 06:41:16.492   12 Jun 2027 06:41:18.165             1.673           829.562
       349   12 Jun 2027 06:41:54.797   12 Jun 2027 06:41:57.270             2.473           926.813
       350   12 Jun 2027 06:42:18.065   12 Jun 2027 06:42:23.846             5.781           649.844
       351   12 Jun 2027 08:14:29.256   12 Jun 2027 08:14:38.632             9.376          3148.156
       352   12 Jun 2027 08:14:52.622   12 Jun 2027 08:14:57.195             4.573            23.406
       353   12 Jun 2027 08:16:02.231   12 Jun 2027 08:16:03.920             1.689           123.281
       354   12 Jun 2027 08:17:25.528   12 Jun 2027 08:17:28.609             3.081          1217.969
       355   12 Jun 2027 08:18:27.237   12 Jun 2027 08:18:32.742             5.505          1126.406
       356   12 Jun 2027 08:19:44.078   12 Jun 2027 08:19:51.073             6.995          2229.250
       357   12 Jun 2027 08:20:25.385   12 Jun 2027 08:20:27.001             1.616           514.969
       358   12 Jun 2027 08:20:36.214   12 Jun 2027 08:20:38.655             2.441           235.313
       359   12 Jun 2027 08:20:49.266   12 Jun 2027 08:20:51.356             2.090           331.594
       360   12 Jun 2027 09:50:51.756   12 Jun 2027 09:51:06.522            14.766          5505.469
       361   12 Jun 2027 09:54:01.421   12 Jun 2027 09:54:04.723             3.302           834.375
       362   12 Jun 2027 09:55:16.759   12 Jun 2027 09:55:18.672             1.913           922.563
       363   12 Jun 2027 09:56:06.529   12 Jun 2027 09:56:09.286             2.757          1268.500
       364   12 Jun 2027 11:28:07.175   12 Jun 2027 11:28:26.734            19.559          6284.531
       365   12 Jun 2027 11:30:16.997   12 Jun 2027 11:30:21.280             4.283          1023.594
       366   12 Jun 2027 11:30:57.271   12 Jun 2027 11:30:57.426             0.155            58.125
       367   12 Jun 2027 11:31:23.198   12 Jun 2027 11:31:23.638             0.440           195.875
       368   12 Jun 2027 11:32:17.124   12 Jun 2027 11:32:24.936             7.812          1139.813
       369   13 Jun 2027 03:51:22.861   13 Jun 2027 03:52:00.264            37.403         18701.500
       370   13 Jun 2027 03:52:30.367   13 Jun 2027 03:54:09.558            99.191         49595.500
       371   13 Jun 2027 03:54:46.388   13 Jun 2027 03:54:57.149            10.761          5380.500
       372   13 Jun 2027 05:15:28.442   13 Jun 2027 05:16:07.440            38.998         19499.000
       373   13 Jun 2027 05:16:55.149   13 Jun 2027 05:17:42.602            47.453         23726.500
       374   13 Jun 2027 06:51:13.742   13 Jun 2027 06:52:23.853            70.111         34565.063
       375   13 Jun 2027 06:53:09.459   13 Jun 2027 06:53:13.343             3.884          1352.031
       376   13 Jun 2027 06:53:46.075   13 Jun 2027 06:53:46.075             0.000             0.000
       377   13 Jun 2027 06:54:00.575   13 Jun 2027 06:54:04.272             3.697          1398.938
       378   13 Jun 2027 06:54:39.592   13 Jun 2027 06:54:39.592             0.000             0.000
       379   13 Jun 2027 08:26:11.164   13 Jun 2027 08:26:16.550             5.386          1925.625
       380   13 Jun 2027 08:28:03.121   13 Jun 2027 08:28:08.520             5.399          2316.719
       381   13 Jun 2027 08:28:48.592   13 Jun 2027 08:28:53.695             5.103          1188.844
       382   13 Jun 2027 08:29:11.899   13 Jun 2027 08:29:12.821             0.922           372.906
       383   13 Jun 2027 08:29:21.438   13 Jun 2027 08:29:22.519             1.081           248.937
       384   13 Jun 2027 08:29:49.063   13 Jun 2027 08:29:50.828             1.765           157.094
       385   13 Jun 2027 08:30:48.811   13 Jun 2027 08:30:54.760             5.949          1742.844
       386   13 Jun 2027 08:31:10.887   13 Jun 2027 08:31:12.370             1.483           352.719
       387   13 Jun 2027 08:32:11.579   13 Jun 2027 08:32:14.445             2.866          1351.469
       388   13 Jun 2027 08:33:10.076   13 Jun 2027 08:33:13.498             3.422          1711.000
       389   13 Jun 2027 10:02:23.805   13 Jun 2027 10:02:34.253            10.448          4363.750
       390   13 Jun 2027 10:04:43.006   13 Jun 2027 10:04:45.630             2.624           315.312
       391   13 Jun 2027 10:05:28.487   13 Jun 2027 10:05:29.605             1.118           454.750
       392   13 Jun 2027 10:05:57.607   13 Jun 2027 10:06:01.703             4.096           875.062
       393   13 Jun 2027 10:06:55.060   13 Jun 2027 10:07:02.385             7.325          1385.844
       394   13 Jun 2027 10:07:22.637   13 Jun 2027 10:07:26.883             4.246           573.000
       395   13 Jun 2027 10:07:46.291   13 Jun 2027 10:07:48.081             1.790           492.500
       396   13 Jun 2027 10:08:03.363   13 Jun 2027 10:08:07.004             3.641           477.563
       397   13 Jun 2027 11:40:24.858   13 Jun 2027 11:40:37.124            12.266          5771.937
       398   13 Jun 2027 11:41:01.461   13 Jun 2027 11:41:06.541             5.080           537.438
       399   13 Jun 2027 11:41:50.031   13 Jun 2027 11:41:54.245             4.214           440.344
       400   13 Jun 2027 11:42:43.909   13 Jun 2027 11:42:45.477             1.568            94.313
       401   13 Jun 2027 11:43:30.525   13 Jun 2027 11:43:32.782             2.257          1049.156
       402   13 Jun 2027 11:44:28.178   13 Jun 2027 11:44:33.402             5.224          1574.875
