uniorb/output/strategy_4/Camera/Camera_KinoSat_110509.txt

KinoSat_110509
-------------------------
    Access    *     Start Time (UTCG)     *     Stop Time (UTCG)  *   Duration (s) *   Data (Mbytes)
         1   01 Jun 2027 03:10:15.087   01 Jun 2027 03:11:02.121            47.034         23517.000
         2   01 Jun 2027 03:11:34.269   01 Jun 2027 03:11:50.304            16.035          8017.500
         3   01 Jun 2027 03:12:20.037   01 Jun 2027 03:12:25.598             5.561          2780.500
         4   01 Jun 2027 03:12:47.740   01 Jun 2027 03:13:05.032            17.292          8646.000
         5   01 Jun 2027 03:13:14.215   01 Jun 2027 03:13:27.124            12.909          6454.500
         6   01 Jun 2027 04:45:25.089   01 Jun 2027 04:46:45.440            80.351         40175.500
         7   01 Jun 2027 04:46:52.521   01 Jun 2027 04:47:00.269             7.748          3874.000
         8   01 Jun 2027 04:47:05.873   01 Jun 2027 04:47:27.123            21.250         10625.000
         9   01 Jun 2027 04:48:29.389   01 Jun 2027 04:48:41.811            12.422          6211.000
        10   01 Jun 2027 04:49:51.921   01 Jun 2027 04:50:20.620            28.699         14349.500
        11   01 Jun 2027 04:51:32.817   01 Jun 2027 04:51:55.037            22.220         11110.000
        12   01 Jun 2027 06:21:50.600   01 Jun 2027 06:24:10.521           139.921         69960.500
        13   01 Jun 2027 06:24:23.580   01 Jun 2027 06:24:24.561             0.981           490.500
        14   01 Jun 2027 06:24:27.212   01 Jun 2027 06:24:35.817             8.605          4302.500
        15   01 Jun 2027 06:24:57.590   01 Jun 2027 06:25:02.997             5.407          2703.500
        16   01 Jun 2027 06:25:51.298   01 Jun 2027 06:25:58.655             7.357          3678.500
        17   01 Jun 2027 06:26:05.599   01 Jun 2027 06:26:08.875             3.276          1638.000
        18   01 Jun 2027 06:26:34.990   01 Jun 2027 06:26:58.133            23.143         11571.500
        19   01 Jun 2027 07:59:05.030   01 Jun 2027 08:01:50.563           165.533         82766.500
        20   01 Jun 2027 08:03:37.593   01 Jun 2027 08:03:41.832             4.239          2119.500
        21   01 Jun 2027 09:35:19.551   01 Jun 2027 09:37:32.130           132.579         66289.500
        22   01 Jun 2027 09:38:13.055   01 Jun 2027 09:39:14.596            61.541         30770.500
        23   01 Jun 2027 09:39:46.739   01 Jun 2027 09:40:01.535            14.796          7398.000
        24   02 Jun 2027 03:22:08.037   02 Jun 2027 03:26:10.323           242.286        121143.000
        25   02 Jun 2027 04:57:04.235   02 Jun 2027 05:02:19.455           315.220        157610.000
        26   02 Jun 2027 05:03:40.918   02 Jun 2027 05:03:48.700             7.782          3891.000
        27   02 Jun 2027 05:04:06.127   02 Jun 2027 05:04:10.177             4.050          2025.000
        28   02 Jun 2027 06:33:22.807   02 Jun 2027 06:39:13.392           350.585        175292.500
        29   02 Jun 2027 08:11:38.311   02 Jun 2027 08:15:31.023           232.712        116356.000
        30   02 Jun 2027 09:46:58.432   02 Jun 2027 09:51:09.759           251.327        125663.500
        31   02 Jun 2027 09:51:39.763   02 Jun 2027 09:52:29.443            49.680         24840.000
        32   03 Jun 2027 03:32:26.698   03 Jun 2027 03:33:00.271            33.573         16786.500
        33   03 Jun 2027 03:33:51.856   03 Jun 2027 03:38:25.451           273.595        136797.500
        34   03 Jun 2027 05:08:37.543   03 Jun 2027 05:16:12.091           454.548        227274.000
        35   03 Jun 2027 06:45:42.041   03 Jun 2027 06:52:04.706           382.665        191332.500
        36   03 Jun 2027 08:24:00.236   03 Jun 2027 08:27:36.313           216.077        108038.500
        37   03 Jun 2027 09:56:50.267   03 Jun 2027 10:03:04.600           374.333        187166.500
        38   03 Jun 2027 10:03:12.983   03 Jun 2027 10:04:46.222            93.239         46619.500
        39   04 Jun 2027 03:43:33.316   04 Jun 2027 03:45:16.522           103.206         51603.000
        40   04 Jun 2027 03:45:36.330   04 Jun 2027 03:50:37.701           301.371        150685.500
        41   04 Jun 2027 05:20:54.897   04 Jun 2027 05:28:15.048           440.151        220075.500
        42   04 Jun 2027 06:57:43.677   04 Jun 2027 07:04:11.699           388.022        194011.000
        43   04 Jun 2027 08:36:07.801   04 Jun 2027 08:39:39.772           211.971        105985.500
        44   04 Jun 2027 10:09:17.399   04 Jun 2027 10:16:24.202           426.803        213401.500
        45   05 Jun 2027 03:55:01.513   05 Jun 2027 04:02:58.498           476.985        238492.500
        46   05 Jun 2027 04:03:44.941   05 Jun 2027 04:04:03.249            18.308          9154.000
        47   05 Jun 2027 05:32:50.244   05 Jun 2027 05:40:15.834           445.590        222795.000
        48   05 Jun 2027 07:09:48.536   05 Jun 2027 07:15:30.188           341.652        170826.000
        49   05 Jun 2027 07:16:13.620   05 Jun 2027 07:16:20.423             6.803          3401.500
        50   05 Jun 2027 08:47:42.236   05 Jun 2027 08:51:49.465           247.229        123614.500
        51   05 Jun 2027 10:21:33.287   05 Jun 2027 10:27:24.618           351.331        175665.500
        52   06 Jun 2027 04:07:49.951   06 Jun 2027 04:15:08.452           438.501        219250.500
        53   06 Jun 2027 04:15:21.798   06 Jun 2027 04:16:19.960            58.162         29081.000
        54   06 Jun 2027 05:44:56.648   06 Jun 2027 05:52:15.988           439.340        219670.000
        55   06 Jun 2027 07:21:59.092   06 Jun 2027 07:28:06.529           367.437        183718.500
        56   06 Jun 2027 08:59:08.107   06 Jun 2027 09:03:48.438           280.331        140165.500
        57   06 Jun 2027 10:34:00.009   06 Jun 2027 10:34:27.988            27.979         13989.500
        58   06 Jun 2027 10:35:41.236   06 Jun 2027 10:38:52.978           191.742         95871.000
        59   07 Jun 2027 04:19:48.678   07 Jun 2027 04:27:16.759           448.081        224040.500
        60   07 Jun 2027 04:27:17.949   07 Jun 2027 04:28:18.917            60.968         30484.000
        61   07 Jun 2027 05:57:22.505   07 Jun 2027 06:04:04.609           402.104        201052.000
        62   07 Jun 2027 07:35:08.554   07 Jun 2027 07:38:40.725           212.171        106085.500
        63   07 Jun 2027 07:38:43.151   07 Jun 2027 07:39:51.168            68.017         34008.500
        64   07 Jun 2027 09:11:10.613   07 Jun 2027 09:15:38.293           267.680        133840.000
        65   07 Jun 2027 10:48:52.115   07 Jun 2027 10:50:26.843            94.728         47364.000
        66   08 Jun 2027 03:00:00.000   08 Jun 2027 03:01:53.934           113.934         56967.000
        67   08 Jun 2027 04:33:17.360   08 Jun 2027 04:39:12.936           355.576        177788.000
        68   08 Jun 2027 04:39:16.514   08 Jun 2027 04:40:15.311            58.797         29398.500
        69   08 Jun 2027 06:09:29.897   08 Jun 2027 06:16:10.186           400.289        200144.500
        70   08 Jun 2027 07:47:36.322   08 Jun 2027 07:51:38.029           241.707        120853.500
        71   08 Jun 2027 09:23:19.622   08 Jun 2027 09:27:41.217           261.595        130797.500
        72   09 Jun 2027 03:10:29.682   09 Jun 2027 03:14:01.350           211.668        105834.000
        73   09 Jun 2027 04:45:39.765   09 Jun 2027 04:52:16.309           396.544        198272.000
        74   09 Jun 2027 06:22:04.801   09 Jun 2027 06:28:12.499           367.698        183849.000
        75   09 Jun 2027 07:59:29.720   09 Jun 2027 08:03:56.565           266.845        133422.500
        76   09 Jun 2027 09:35:56.645   09 Jun 2027 09:40:16.058           259.413        129706.500
        77   10 Jun 2027 03:22:22.544   10 Jun 2027 03:26:25.178           242.634        121317.000
        78   10 Jun 2027 04:57:18.657   10 Jun 2027 05:04:24.885           426.228        213114.000
        79   10 Jun 2027 06:33:37.600   10 Jun 2027 06:40:02.291           384.691        192345.500
        80   10 Jun 2027 08:12:07.979   10 Jun 2027 08:15:45.859           217.880        108940.000
        81   10 Jun 2027 09:47:36.563   10 Jun 2027 09:51:24.507           227.944        113972.000
        82   10 Jun 2027 09:51:54.719   10 Jun 2027 09:52:44.128            49.409         24704.500
        83   11 Jun 2027 03:32:41.218   11 Jun 2027 03:33:19.660            38.442         19221.000
        84   11 Jun 2027 03:34:06.504   11 Jun 2027 03:38:40.156           273.652        136826.000
        85   11 Jun 2027 05:08:52.003   11 Jun 2027 05:15:11.481           379.478        189739.000
        86   11 Jun 2027 05:15:30.314   11 Jun 2027 05:16:26.444            56.130         28065.000
        87   11 Jun 2027 06:46:23.940   11 Jun 2027 06:52:19.444           355.504        177752.000
        88   11 Jun 2027 08:24:16.611   11 Jun 2027 08:27:50.862           214.251        107125.500
        89   11 Jun 2027 09:57:04.717   11 Jun 2027 10:03:19.078           374.361        187180.500
        90   11 Jun 2027 10:03:52.456   11 Jun 2027 10:05:00.676            68.220         34110.000
        91   12 Jun 2027 03:43:47.679   12 Jun 2027 03:45:31.011           103.332         51666.000
        92   12 Jun 2027 03:45:50.851   12 Jun 2027 03:50:52.466           301.615        150807.500
        93   12 Jun 2027 05:21:09.961   12 Jun 2027 05:28:29.717           439.756        219878.000
        94   12 Jun 2027 06:57:58.368   12 Jun 2027 07:04:26.642           388.274        194137.000
        95   12 Jun 2027 08:36:24.121   12 Jun 2027 08:39:54.446           210.325        105162.500
        96   12 Jun 2027 10:09:32.185   12 Jun 2027 10:16:15.065           402.880        201440.000
        97   12 Jun 2027 10:16:54.201   12 Jun 2027 10:16:59.749             5.548          2774.000
        98   13 Jun 2027 03:55:15.881   13 Jun 2027 04:03:13.231           477.350        238675.000
        99   13 Jun 2027 04:04:00.923   13 Jun 2027 04:04:17.986            17.063          8531.500
       100   13 Jun 2027 05:33:04.856   13 Jun 2027 05:40:30.409           445.553        222776.500
       101   13 Jun 2027 07:10:02.989   13 Jun 2027 07:15:44.557           341.568        170784.000
       102   13 Jun 2027 07:16:28.110   13 Jun 2027 07:16:34.894             6.784          3392.000
       103   13 Jun 2027 08:47:59.845   13 Jun 2027 08:52:03.930           244.085        122042.500
       104   13 Jun 2027 10:21:48.048   13 Jun 2027 10:28:05.473           377.425        188712.500
