uniorb/output/strategy_4/Camera/Camera_KinoSat_111809.txt

KinoSat_111809
-------------------------
    Access    *     Start Time (UTCG)     *     Stop Time (UTCG)  *   Duration (s) *   Data (Mbytes)
         1   01 Jun 2027 04:04:20.417   01 Jun 2027 04:05:14.251            53.834         26917.000
         2   01 Jun 2027 04:05:23.607   01 Jun 2027 04:06:05.323            41.716         20858.000
         3   01 Jun 2027 04:06:05.879   01 Jun 2027 04:06:50.988            45.109         22554.500
         4   01 Jun 2027 04:07:16.458   01 Jun 2027 04:07:19.259             2.801          1400.500
         5   01 Jun 2027 04:07:52.285   01 Jun 2027 04:07:54.607             2.322          1161.000
         6   01 Jun 2027 05:42:45.655   01 Jun 2027 05:44:28.535           102.880         51440.000
         7   01 Jun 2027 05:45:41.945   01 Jun 2027 05:46:02.863            20.918         10459.000
         8   01 Jun 2027 05:46:36.279   01 Jun 2027 05:46:36.279             0.000             0.000
         9   01 Jun 2027 07:06:12.172   01 Jun 2027 07:07:45.395            93.223         46611.500
        10   01 Jun 2027 07:07:52.272   01 Jun 2027 07:08:11.282            19.010          9505.000
        11   01 Jun 2027 08:42:25.380   01 Jun 2027 08:44:27.937           122.557         61278.500
        12   01 Jun 2027 08:45:31.442   01 Jun 2027 08:45:56.504            25.062         12531.000
        13   01 Jun 2027 10:15:58.575   01 Jun 2027 10:18:16.805           138.230         69115.000
        14   01 Jun 2027 10:23:34.345   01 Jun 2027 10:24:31.899            57.554         28777.000
        15   01 Jun 2027 11:53:31.096   01 Jun 2027 11:54:45.553            74.457         37228.500
        16   01 Jun 2027 11:56:39.263   01 Jun 2027 11:57:15.617            36.354         18177.000
        17   02 Jun 2027 04:16:21.356   02 Jun 2027 04:16:49.491            28.135         14067.500
        18   02 Jun 2027 04:16:51.841   02 Jun 2027 04:18:38.738           106.897         53448.500
        19   02 Jun 2027 04:20:10.026   02 Jun 2027 04:20:12.677             2.651          1325.500
        20   02 Jun 2027 04:20:34.056   02 Jun 2027 04:20:34.056             0.000             0.000
        21   02 Jun 2027 04:21:47.895   02 Jun 2027 04:22:02.194            14.299          7149.500
        22   02 Jun 2027 05:54:24.338   02 Jun 2027 05:55:13.507            49.169         24584.500
        23   02 Jun 2027 05:55:59.286   02 Jun 2027 05:58:58.193           178.907         89453.500
        24   02 Jun 2027 05:59:04.651   02 Jun 2027 05:59:12.021             7.370          3685.000
        25   02 Jun 2027 07:18:03.450   02 Jun 2027 07:19:25.558            82.108         41054.000
        26   02 Jun 2027 08:54:30.610   02 Jun 2027 08:57:15.532           164.922         82461.000
        27   02 Jun 2027 10:26:39.057   02 Jun 2027 10:26:48.952             9.895          4947.500
        28   02 Jun 2027 10:28:37.626   02 Jun 2027 10:28:59.467            21.841         10920.500
        29   02 Jun 2027 10:30:29.860   02 Jun 2027 10:31:44.753            74.893         35964.406
        30   02 Jun 2027 10:32:48.370   02 Jun 2027 10:32:48.370             0.000             0.000
        31   02 Jun 2027 10:33:40.365   02 Jun 2027 10:33:49.002             8.637          3185.000
        32   02 Jun 2027 10:34:33.931   02 Jun 2027 10:34:37.266             3.335           325.938
        33   02 Jun 2027 10:35:05.902   02 Jun 2027 10:35:12.692             6.790           703.219
        34   02 Jun 2027 10:35:47.625   02 Jun 2027 10:35:49.091             1.466           704.000
        35   02 Jun 2027 10:36:07.746   02 Jun 2027 10:36:08.780             1.034           456.281
        36   02 Jun 2027 10:36:27.386   02 Jun 2027 10:36:29.426             2.040           493.031
        37   03 Jun 2027 04:28:29.551   03 Jun 2027 04:29:28.160            58.609         29304.500
        38   03 Jun 2027 04:30:20.761   03 Jun 2027 04:32:01.058           100.297         50148.500
        39   03 Jun 2027 04:32:08.006   03 Jun 2027 04:32:25.825            17.819          8909.500
        40   03 Jun 2027 04:34:46.097   03 Jun 2027 04:34:48.442             2.345          1172.500
        41   03 Jun 2027 06:07:37.786   03 Jun 2027 06:10:07.187           149.401         74374.281
        42   03 Jun 2027 07:30:11.907   03 Jun 2027 07:30:22.479            10.572          5003.500
        43   03 Jun 2027 07:31:04.519   03 Jun 2027 07:31:07.423             2.904           758.219
        44   03 Jun 2027 07:31:08.570   03 Jun 2027 07:31:09.021             0.451            28.531
        45   03 Jun 2027 07:32:32.675   03 Jun 2027 07:32:37.029             4.354          2001.156
        46   03 Jun 2027 07:32:57.831   03 Jun 2027 07:32:58.842             1.011           239.375
        47   03 Jun 2027 09:07:00.067   03 Jun 2027 09:07:13.176            13.109          5874.938
        48   03 Jun 2027 09:07:48.148   03 Jun 2027 09:07:49.191             1.043           189.813
        49   03 Jun 2027 09:08:17.873   03 Jun 2027 09:08:17.873             0.000             0.000
        50   03 Jun 2027 09:08:22.397   03 Jun 2027 09:08:25.285             2.888          1010.594
        51   03 Jun 2027 09:09:03.270   03 Jun 2027 09:09:10.017             6.747           289.406
        52   03 Jun 2027 10:42:17.276   03 Jun 2027 10:42:28.716            11.440          5205.063
        53   03 Jun 2027 10:43:11.380   03 Jun 2027 10:43:13.250             1.870           417.437
        54   03 Jun 2027 10:44:18.888   03 Jun 2027 10:44:22.881             3.993          1499.344
        55   03 Jun 2027 10:45:19.500   03 Jun 2027 10:45:26.052             6.552          1046.094
        56   03 Jun 2027 10:47:25.489   03 Jun 2027 10:47:29.011             3.522           847.469
        57   03 Jun 2027 10:47:53.359   03 Jun 2027 10:47:57.685             4.326           760.875
        58   03 Jun 2027 10:48:21.614   03 Jun 2027 10:48:23.149             1.535           747.781
        59   03 Jun 2027 10:48:30.515   03 Jun 2027 10:48:31.339             0.824           221.281
        60   04 Jun 2027 03:02:17.770   04 Jun 2027 03:02:25.262             7.492          3746.000
        61   04 Jun 2027 03:02:27.979   04 Jun 2027 03:02:34.616             6.637          3318.500
        62   04 Jun 2027 03:03:00.490   04 Jun 2027 03:03:29.389            28.899         14449.500
        63   04 Jun 2027 03:03:58.277   04 Jun 2027 03:04:10.007            11.730          5865.000
        64   04 Jun 2027 03:05:12.984   04 Jun 2027 03:05:14.934             1.950           975.000
        65   04 Jun 2027 03:05:29.983   04 Jun 2027 03:05:36.391             6.408          3204.000
        66   04 Jun 2027 03:07:51.113   04 Jun 2027 03:07:59.713             8.600          4300.000
        67   04 Jun 2027 03:08:34.709   04 Jun 2027 03:08:56.979            22.270         11135.000
        68   04 Jun 2027 03:09:11.426   04 Jun 2027 03:09:18.739             7.313          3656.500
        69   04 Jun 2027 04:40:34.332   04 Jun 2027 04:40:49.796            15.464          7732.000
        70   04 Jun 2027 04:41:36.910   04 Jun 2027 04:44:09.487           152.577         76288.500
        71   04 Jun 2027 04:44:30.844   04 Jun 2027 04:44:51.251            20.407         10203.500
        72   04 Jun 2027 04:45:19.120   04 Jun 2027 04:45:41.009            21.889          9815.499
        73   04 Jun 2027 04:46:12.795   04 Jun 2027 04:46:14.830             2.035           481.969
        74   04 Jun 2027 04:48:50.234   04 Jun 2027 04:48:58.005             7.771          3357.281
        75   04 Jun 2027 06:18:45.686   04 Jun 2027 06:19:07.083            21.397         10658.031
        76   04 Jun 2027 06:19:53.356   04 Jun 2027 06:19:59.833             6.477           523.250
        77   04 Jun 2027 07:42:54.636   04 Jun 2027 07:43:09.174            14.538          7112.062
        78   04 Jun 2027 07:43:39.932   04 Jun 2027 07:43:53.414            13.482           896.906
        79   04 Jun 2027 07:45:06.982   04 Jun 2027 07:45:06.982             0.000             0.000
        80   04 Jun 2027 09:18:38.855   04 Jun 2027 09:18:50.819            11.964          2905.906
        81   04 Jun 2027 09:20:08.212   04 Jun 2027 09:20:13.392             5.180          2340.563
        82   04 Jun 2027 09:20:42.844   04 Jun 2027 09:20:47.914             5.070           494.719
        83   04 Jun 2027 09:21:48.727   04 Jun 2027 09:21:52.659             3.932          1364.312
        84   04 Jun 2027 10:53:42.566   04 Jun 2027 10:53:46.886             4.320          2143.188
        85   04 Jun 2027 10:55:24.201   04 Jun 2027 10:55:30.605             6.404          2497.188
        86   04 Jun 2027 11:00:13.759   04 Jun 2027 11:00:32.144            18.385          7916.719
        87   05 Jun 2027 03:14:47.752   05 Jun 2027 03:16:39.541           111.789         55894.500
        88   05 Jun 2027 03:17:08.765   05 Jun 2027 03:17:26.419            17.654          8827.000
        89   05 Jun 2027 03:19:59.727   05 Jun 2027 03:20:03.334             3.607          1803.500
        90   05 Jun 2027 03:20:57.890   05 Jun 2027 03:21:27.583            29.693         14846.500
        91   05 Jun 2027 04:53:39.846   05 Jun 2027 04:55:50.917           131.071         65535.500
        92   05 Jun 2027 04:56:58.329   05 Jun 2027 04:57:05.424             7.095          3374.656
        93   05 Jun 2027 04:58:21.051   05 Jun 2027 04:58:24.245             3.194          1597.000
        94   05 Jun 2027 04:58:49.490   05 Jun 2027 04:58:53.317             3.827           990.406
        95   05 Jun 2027 05:00:16.560   05 Jun 2027 05:00:22.734             6.174          2601.344
        96   05 Jun 2027 06:19:44.023   05 Jun 2027 06:19:54.078            10.055          5001.625
        97   05 Jun 2027 06:20:14.455   05 Jun 2027 06:20:15.431             0.976           243.406
        98   05 Jun 2027 06:30:42.029   05 Jun 2027 06:30:47.213             5.184          1798.844
        99   05 Jun 2027 06:32:37.430   05 Jun 2027 06:32:43.468             6.038          1342.812
       100   05 Jun 2027 07:54:01.101   05 Jun 2027 07:54:14.725            13.624          4664.937
       101   05 Jun 2027 07:55:29.699   05 Jun 2027 07:55:35.934             6.235          2117.906
       102   05 Jun 2027 07:56:50.855   05 Jun 2027 07:56:59.394             8.539          2196.344
       103   05 Jun 2027 09:29:16.254   05 Jun 2027 09:29:18.774             2.520          1260.000
       104   05 Jun 2027 09:30:23.629   05 Jun 2027 09:30:26.555             2.926           833.125
       105   05 Jun 2027 09:30:55.091   05 Jun 2027 09:30:57.393             2.302           352.031
       106   05 Jun 2027 09:31:59.504   05 Jun 2027 09:32:04.179             4.675          1739.625
       107   05 Jun 2027 09:33:06.929   05 Jun 2027 09:33:06.929             0.000             0.000
       108   05 Jun 2027 09:33:10.220   05 Jun 2027 09:33:11.809             1.589           116.125
       109   05 Jun 2027 09:33:40.464   05 Jun 2027 09:33:42.652             2.188           895.469
       110   05 Jun 2027 09:34:40.195   05 Jun 2027 09:34:42.725             2.530          1257.188
       111   05 Jun 2027 11:05:32.823   05 Jun 2027 11:05:39.963             7.140          3443.875
       112   05 Jun 2027 11:08:32.443   05 Jun 2027 11:08:37.611             5.168          2584.000
       113   05 Jun 2027 11:12:03.088   05 Jun 2027 11:12:21.599            18.511          9205.250
       114   06 Jun 2027 03:27:02.581   06 Jun 2027 03:30:19.136           196.555         98277.500
       115   06 Jun 2027 05:06:05.855   06 Jun 2027 05:08:02.053           116.198         57870.000
       116   06 Jun 2027 05:08:35.688   06 Jun 2027 05:08:36.591             0.903           451.500
       117   06 Jun 2027 05:11:46.261   06 Jun 2027 05:11:59.684            13.423          6526.781
       118   06 Jun 2027 06:31:03.359   06 Jun 2027 06:31:15.278            11.919          5554.938
       119   06 Jun 2027 06:32:13.688   06 Jun 2027 06:32:18.284             4.596          1089.469
       120   06 Jun 2027 06:42:44.302   06 Jun 2027 06:42:49.683             5.381          2185.375
       121   06 Jun 2027 08:04:59.224   06 Jun 2027 08:05:09.248            10.024          4736.281
       122   06 Jun 2027 08:05:25.750   06 Jun 2027 08:05:27.158             1.408           497.687
       123   06 Jun 2027 08:06:56.941   06 Jun 2027 08:07:01.745             4.804          1765.750
       124   06 Jun 2027 08:07:43.712   06 Jun 2027 08:07:51.198             7.486           868.562
       125   06 Jun 2027 08:09:30.708   06 Jun 2027 08:09:30.708             0.000             0.000
       126   06 Jun 2027 09:40:10.919   06 Jun 2027 09:40:18.369             7.450          3208.969
       127   06 Jun 2027 09:40:53.334   06 Jun 2027 09:40:56.271             2.937           619.687
       128   06 Jun 2027 09:43:02.189   06 Jun 2027 09:43:11.283             9.094          2025.906
       129   06 Jun 2027 09:45:07.528   06 Jun 2027 09:45:08.672             1.144           572.000
       130   06 Jun 2027 09:46:17.161   06 Jun 2027 09:46:28.230            11.069          4143.969
       131   06 Jun 2027 11:17:16.650   06 Jun 2027 11:17:18.741             2.091          1045.500
       132   06 Jun 2027 11:18:29.802   06 Jun 2027 11:18:39.670             9.868          4141.937
       133   06 Jun 2027 11:20:29.943   06 Jun 2027 11:20:29.943             0.000             0.000
       134   06 Jun 2027 11:23:48.389   06 Jun 2027 11:24:07.599            19.210          6670.469
       135   07 Jun 2027 03:39:20.384   07 Jun 2027 03:42:36.833           196.449         98224.500
       136   07 Jun 2027 03:44:07.924   07 Jun 2027 03:44:29.050            21.126         10563.000
       137   07 Jun 2027 03:45:00.858   07 Jun 2027 03:45:04.413             3.555          1777.500
       138   07 Jun 2027 05:18:21.122   07 Jun 2027 05:19:56.241            95.119         46762.250
       139   07 Jun 2027 05:21:26.824   07 Jun 2027 05:21:34.941             8.117          2166.500
       140   07 Jun 2027 05:22:43.909   07 Jun 2027 05:22:49.142             5.233          1809.000
       141   07 Jun 2027 05:23:29.411   07 Jun 2027 05:23:32.180             2.769          1010.594
       142   07 Jun 2027 05:24:26.785   07 Jun 2027 05:24:31.984             5.199          1221.188
       143   07 Jun 2027 05:25:06.762   07 Jun 2027 05:25:09.957             3.195           409.844
       144   07 Jun 2027 06:42:27.518   07 Jun 2027 06:42:38.367            10.849          4819.313
       145   07 Jun 2027 06:43:40.539   07 Jun 2027 06:43:44.722             4.183          1886.750
       146   07 Jun 2027 06:44:22.894   07 Jun 2027 06:44:22.894             0.000             0.000
       147   07 Jun 2027 06:54:41.368   07 Jun 2027 06:54:49.343             7.975          2830.000
       148   07 Jun 2027 08:16:43.125   07 Jun 2027 08:16:57.523            14.398          5655.750
       149   07 Jun 2027 08:17:57.475   07 Jun 2027 08:18:00.319             2.844          1422.000
       150   07 Jun 2027 08:19:28.868   07 Jun 2027 08:19:36.485             7.617          2824.344
       151   07 Jun 2027 08:20:49.130   07 Jun 2027 08:20:56.519             7.389          1865.563
       152   07 Jun 2027 08:21:46.236   07 Jun 2027 08:21:48.759             2.523          1090.156
       153   07 Jun 2027 09:51:37.104   07 Jun 2027 09:51:45.199             8.095          3232.156
       154   07 Jun 2027 09:53:16.166   07 Jun 2027 09:53:16.166             0.000             0.000
       155   07 Jun 2027 09:54:07.296   07 Jun 2027 09:54:12.241             4.945          1638.594
       156   07 Jun 2027 09:55:24.705   07 Jun 2027 09:55:24.705             0.000             0.000
       157   07 Jun 2027 09:57:08.070   07 Jun 2027 09:57:17.222             9.152          4015.500
       158   07 Jun 2027 09:58:29.911   07 Jun 2027 09:58:31.517             1.606           695.688
       159   07 Jun 2027 09:59:05.463   07 Jun 2027 09:59:16.274            10.811          1060.812
       160   07 Jun 2027 11:31:16.794   07 Jun 2027 11:31:34.652            17.858          8894.969
       161   07 Jun 2027 11:35:27.326   07 Jun 2027 11:35:40.626            13.300          6408.844
       162   07 Jun 2027 11:35:45.826   07 Jun 2027 11:35:47.087             1.261           162.500
       163   07 Jun 2027 11:36:12.792   07 Jun 2027 11:36:15.797             3.005           803.281
       164   07 Jun 2027 11:36:45.560   07 Jun 2027 11:36:45.969             0.409           204.500
       165   08 Jun 2027 03:52:06.425   08 Jun 2027 03:52:31.163            24.738         12369.000
       166   08 Jun 2027 03:52:33.807   08 Jun 2027 03:55:26.651           172.844         86422.000
       167   08 Jun 2027 03:55:57.966   08 Jun 2027 03:56:19.350            21.384         10692.000
       168   08 Jun 2027 03:56:51.696   08 Jun 2027 03:56:51.696             0.000             0.000
       169   08 Jun 2027 05:30:29.008   08 Jun 2027 05:32:01.034            92.026         46013.000
       170   08 Jun 2027 05:32:37.760   08 Jun 2027 05:32:52.639            14.879          3014.094
       171   08 Jun 2027 05:34:31.688   08 Jun 2027 05:34:36.301             4.613          1468.125
       172   08 Jun 2027 05:35:38.482   08 Jun 2027 05:35:41.181             2.699          1267.094
       173   08 Jun 2027 06:54:33.348   08 Jun 2027 06:54:49.768            16.420          7553.875
       174   08 Jun 2027 06:55:14.387   08 Jun 2027 06:55:16.236             1.849           579.531
       175   08 Jun 2027 06:56:09.266   08 Jun 2027 06:56:12.940             3.674          1629.906
       176   08 Jun 2027 06:56:22.793   08 Jun 2027 06:56:23.232             0.439           176.406
       177   08 Jun 2027 08:28:20.323   08 Jun 2027 08:28:35.281            14.958          6311.500
       178   08 Jun 2027 08:29:39.128   08 Jun 2027 08:29:44.328             5.200          1272.594
       179   08 Jun 2027 08:30:16.724   08 Jun 2027 08:30:17.911             1.187           228.469
       180   08 Jun 2027 08:30:33.887   08 Jun 2027 08:30:34.337             0.450           219.437
       181   08 Jun 2027 08:31:19.520   08 Jun 2027 08:31:26.267             6.747          1411.969
       182   08 Jun 2027 08:32:09.901   08 Jun 2027 08:32:14.054             4.153          1326.656
       183   08 Jun 2027 08:33:14.130   08 Jun 2027 08:33:16.854             2.724           845.500
       184   08 Jun 2027 08:33:29.146   08 Jun 2027 08:33:29.864             0.718           171.437
       185   08 Jun 2027 10:03:12.356   08 Jun 2027 10:03:18.739             6.383          2607.000
       186   08 Jun 2027 10:04:09.822   08 Jun 2027 10:04:14.716             4.894          1586.406
       187   08 Jun 2027 10:05:42.876   08 Jun 2027 10:05:45.584             2.708           834.781
       188   08 Jun 2027 10:06:20.136   08 Jun 2027 10:06:21.493             1.357           533.125
       189   08 Jun 2027 10:06:55.775   08 Jun 2027 10:06:58.222             2.447            80.031
       190   08 Jun 2027 10:10:21.867   08 Jun 2027 10:10:30.340             8.473          2306.906
       191   08 Jun 2027 10:10:52.234   08 Jun 2027 10:10:59.422             7.188           208.875
       192   08 Jun 2027 10:11:49.180   08 Jun 2027 10:11:51.682             2.502           508.625
       193   08 Jun 2027 10:12:13.807   08 Jun 2027 10:12:16.178             2.371           691.406
       194   08 Jun 2027 11:41:22.238   08 Jun 2027 11:41:40.304            18.066          6149.813
       195   08 Jun 2027 11:45:59.549   08 Jun 2027 11:46:14.091            14.542          7271.000
       196   08 Jun 2027 11:46:54.172   08 Jun 2027 11:47:08.085            13.913          1442.938
       197   08 Jun 2027 11:47:42.853   08 Jun 2027 11:47:44.725             1.872           487.219
       198   08 Jun 2027 11:47:58.741   08 Jun 2027 11:48:01.793             3.052           438.000
       199   08 Jun 2027 11:48:24.235   08 Jun 2027 11:48:25.712             1.477           620.625
       200   09 Jun 2027 04:04:40.821   09 Jun 2027 04:05:30.333            49.512         24756.000
       201   09 Jun 2027 04:05:40.448   09 Jun 2027 04:06:22.702            42.254         21127.000
       202   09 Jun 2027 04:06:23.329   09 Jun 2027 04:08:32.875           129.546         64773.000
       203   09 Jun 2027 04:09:26.302   09 Jun 2027 04:09:37.313            11.011          5505.500
       204   09 Jun 2027 05:43:03.161   09 Jun 2027 05:43:41.556            38.395         19197.500
       205   09 Jun 2027 05:44:47.043   09 Jun 2027 05:45:48.775            61.732         30652.062
       206   09 Jun 2027 05:47:35.829   09 Jun 2027 05:47:37.910             2.081           490.562
       207   09 Jun 2027 07:06:28.504   09 Jun 2027 07:06:42.131            13.627          6556.188
       208   09 Jun 2027 07:07:43.595   09 Jun 2027 07:07:43.595             0.000             0.000
       209   09 Jun 2027 07:07:52.777   09 Jun 2027 07:07:57.179             4.402          1955.125
       210   09 Jun 2027 07:08:08.639   09 Jun 2027 07:08:10.086             1.447           231.062
       211   09 Jun 2027 07:08:30.275   09 Jun 2027 07:08:32.515             2.240            91.000
       212   09 Jun 2027 08:42:44.204   09 Jun 2027 08:43:05.799            21.595         10029.094
       213   09 Jun 2027 08:43:17.451   09 Jun 2027 08:43:18.146             0.695           279.969
       214   09 Jun 2027 08:43:22.258   09 Jun 2027 08:43:23.267             1.009           128.500
       215   09 Jun 2027 08:43:45.643   09 Jun 2027 08:43:45.643             0.000             0.000
       216   09 Jun 2027 08:45:33.173   09 Jun 2027 08:45:43.578            10.405          4001.031
       217   09 Jun 2027 10:16:16.560   09 Jun 2027 10:16:22.939             6.379          2661.094
       218   09 Jun 2027 10:17:47.801   09 Jun 2027 10:17:50.455             2.654           961.719
       219   09 Jun 2027 10:18:50.490   09 Jun 2027 10:18:56.863             6.373          1143.031
       220   09 Jun 2027 10:21:07.360   09 Jun 2027 10:21:16.352             8.992          3911.906
       221   09 Jun 2027 10:22:13.584   09 Jun 2027 10:22:17.908             4.324           347.750
       222   09 Jun 2027 10:23:29.914   09 Jun 2027 10:23:32.896             2.982           415.656
       223   09 Jun 2027 10:23:40.875   09 Jun 2027 10:23:42.795             1.920           242.469
       224   09 Jun 2027 10:24:48.688   09 Jun 2027 10:24:49.751             1.063           531.500
       225   09 Jun 2027 11:53:48.951   09 Jun 2027 11:54:02.888            13.937          6538.187
       226   09 Jun 2027 11:56:07.847   09 Jun 2027 11:56:10.018             2.171           404.250
       227   09 Jun 2027 11:56:57.307   09 Jun 2027 11:57:06.684             9.377           848.188
       228   09 Jun 2027 11:57:49.644   09 Jun 2027 11:57:52.979             3.335           372.625
       229   09 Jun 2027 11:58:05.223   09 Jun 2027 11:58:07.239             2.016           269.531
       230   09 Jun 2027 11:58:14.700   09 Jun 2027 11:58:16.403             1.703           134.000
       231   09 Jun 2027 11:59:00.026   09 Jun 2027 11:59:05.140             5.114          1317.844
       232   09 Jun 2027 11:59:53.690   09 Jun 2027 11:59:57.877             4.187          1166.562
       233   10 Jun 2027 04:16:38.695   10 Jun 2027 04:16:45.828             7.133          3566.500
       234   10 Jun 2027 04:16:54.548   10 Jun 2027 04:18:33.314            98.766         49383.000
       235   10 Jun 2027 04:19:57.421   10 Jun 2027 04:20:10.238            12.817          6408.500
       236   10 Jun 2027 04:20:52.848   10 Jun 2027 04:21:59.477            66.629         33314.500
       237   10 Jun 2027 05:54:42.113   10 Jun 2027 05:57:05.186           143.073         71472.688
       238   10 Jun 2027 05:57:44.751   10 Jun 2027 05:57:47.890             3.139           928.781
       239   10 Jun 2027 05:58:56.928   10 Jun 2027 05:59:00.258             3.330          1524.688
       240   10 Jun 2027 05:59:19.122   10 Jun 2027 05:59:23.298             4.176           196.281
       241   10 Jun 2027 07:18:20.394   10 Jun 2027 07:18:41.289            20.895          7196.937
       242   10 Jun 2027 07:19:44.847   10 Jun 2027 07:19:44.847             0.000             0.000
       243   10 Jun 2027 07:20:20.007   10 Jun 2027 07:20:28.199             8.192          3049.281
       244   10 Jun 2027 08:54:48.338   10 Jun 2027 08:54:59.791            11.453          5163.938
       245   10 Jun 2027 08:55:36.101   10 Jun 2027 08:55:38.005             1.904           451.719
       246   10 Jun 2027 08:56:19.314   10 Jun 2027 08:56:21.967             2.653          1272.031
       247   10 Jun 2027 08:56:39.669   10 Jun 2027 08:56:41.401             1.732           538.500
       248   10 Jun 2027 08:57:52.392   10 Jun 2027 08:57:54.714             2.322          1041.875
       249   10 Jun 2027 10:28:56.538   10 Jun 2027 10:29:02.814             6.276          3137.625
       250   10 Jun 2027 10:30:43.297   10 Jun 2027 10:30:49.939             6.642          2685.062
       251   10 Jun 2027 10:30:55.190   10 Jun 2027 10:30:57.250             2.060           164.094
       252   10 Jun 2027 10:33:05.874   10 Jun 2027 10:33:05.874             0.000             0.000
       253   10 Jun 2027 10:33:56.007   10 Jun 2027 10:34:03.678             7.671          2974.031
       254   10 Jun 2027 10:34:59.115   10 Jun 2027 10:35:00.889             1.774           250.625
       255   10 Jun 2027 10:35:42.788   10 Jun 2027 10:35:43.095             0.307           153.500
       256   10 Jun 2027 10:36:06.938   10 Jun 2027 10:36:09.549             2.611          1217.219
       257   10 Jun 2027 10:36:24.693   10 Jun 2027 10:36:28.727             4.034            56.062
       258   10 Jun 2027 10:36:36.794   10 Jun 2027 10:36:37.943             1.149           252.094
       259   11 Jun 2027 04:28:47.172   11 Jun 2027 04:29:46.835            59.663         29831.500
       260   11 Jun 2027 04:29:56.409   11 Jun 2027 04:31:30.193            93.784         46892.000
       261   11 Jun 2027 04:31:56.505   11 Jun 2027 04:32:20.717            24.212         12106.000
       262   11 Jun 2027 04:35:02.978   11 Jun 2027 04:35:08.350             5.372          2686.000
       263   11 Jun 2027 06:08:20.250   11 Jun 2027 06:10:47.213           146.963         71871.406
       264   11 Jun 2027 07:30:29.151   11 Jun 2027 07:30:45.871            16.720          5620.375
       265   11 Jun 2027 07:31:21.539   11 Jun 2027 07:31:23.855             2.316           802.000
       266   11 Jun 2027 07:31:25.951   11 Jun 2027 07:31:32.357             6.406            65.500
       267   11 Jun 2027 07:32:50.686   11 Jun 2027 07:32:54.847             4.161          2026.031
       268   11 Jun 2027 07:33:14.154   11 Jun 2027 07:33:16.838             2.684           239.656
       269   11 Jun 2027 09:06:59.278   11 Jun 2027 09:07:08.602             9.324          3490.156
       270   11 Jun 2027 09:08:08.170   11 Jun 2027 09:08:12.193             4.023          1442.625
       271   11 Jun 2027 09:08:40.558   11 Jun 2027 09:08:41.981             1.423           212.344
       272   11 Jun 2027 09:09:21.130   11 Jun 2027 09:09:31.816            10.686           267.812
       273   11 Jun 2027 10:42:33.563   11 Jun 2027 10:42:43.267             9.704          4406.031
       274   11 Jun 2027 10:43:31.959   11 Jun 2027 10:43:31.959             0.000             0.000
       275   11 Jun 2027 10:45:03.434   11 Jun 2027 10:45:11.743             8.309          3299.031
       276   11 Jun 2027 10:45:43.702   11 Jun 2027 10:45:47.193             3.491           701.531
       277   11 Jun 2027 10:48:18.025   11 Jun 2027 10:48:23.607             5.582          2791.000
       278   11 Jun 2027 10:48:38.462   11 Jun 2027 10:48:43.885             5.423          2136.438
       279   12 Jun 2027 03:02:35.745   12 Jun 2027 03:02:49.914            14.169          7084.500
       280   12 Jun 2027 03:03:15.660   12 Jun 2027 03:03:44.215            28.555         14277.500
       281   12 Jun 2027 03:06:18.946   12 Jun 2027 03:06:30.422            11.476          5738.000
       282   12 Jun 2027 03:06:47.676   12 Jun 2027 03:06:48.165             0.489           244.500
       283   12 Jun 2027 03:07:43.834   12 Jun 2027 03:07:48.444             4.610          2305.000
       284   12 Jun 2027 03:08:17.284   12 Jun 2027 03:08:20.923             3.639          1819.500
       285   12 Jun 2027 03:08:29.406   12 Jun 2027 03:08:29.544             0.138            69.000
       286   12 Jun 2027 03:08:59.382   12 Jun 2027 03:09:11.976            12.594          6297.000
       287   12 Jun 2027 03:09:28.044   12 Jun 2027 03:09:35.148             7.104          3552.000
       288   12 Jun 2027 04:40:52.221   12 Jun 2027 04:41:03.976            11.755          5877.500
       289   12 Jun 2027 04:41:54.229   12 Jun 2027 04:45:07.835           193.606         96803.000
       290   12 Jun 2027 04:45:35.167   12 Jun 2027 04:46:05.346            30.179         14414.500
       291   12 Jun 2027 04:46:27.982   12 Jun 2027 04:46:31.412             3.430           419.750
       292   12 Jun 2027 04:49:01.165   12 Jun 2027 04:49:09.850             8.685          3568.813
       293   12 Jun 2027 06:19:02.934   12 Jun 2027 06:19:25.244            22.310         11155.000
       294   12 Jun 2027 06:19:40.475   12 Jun 2027 06:19:41.274             0.799           399.500
       295   12 Jun 2027 06:20:09.922   12 Jun 2027 06:20:14.853             4.931           364.281
       296   12 Jun 2027 07:43:09.579   12 Jun 2027 07:43:23.837            14.258          4312.125
       297   12 Jun 2027 07:43:44.617   12 Jun 2027 07:43:46.543             1.926           500.687
       298   12 Jun 2027 07:45:05.201   12 Jun 2027 07:45:12.988             7.787          2458.063
       299   12 Jun 2027 09:18:55.069   12 Jun 2027 09:19:06.174            11.105          3006.031
       300   12 Jun 2027 09:20:28.370   12 Jun 2027 09:20:38.435            10.065          2454.531
       301   12 Jun 2027 09:21:01.241   12 Jun 2027 09:21:03.080             1.839           494.125
       302   12 Jun 2027 09:22:06.979   12 Jun 2027 09:22:10.129             3.150          1377.594
       303   12 Jun 2027 10:53:52.225   12 Jun 2027 10:53:58.218             5.993          2977.375
       304   12 Jun 2027 10:56:21.678   12 Jun 2027 10:56:30.344             8.666          3794.594
       305   12 Jun 2027 10:57:42.864   12 Jun 2027 10:57:52.697             9.833          1725.719
       306   12 Jun 2027 10:59:26.339   12 Jun 2027 10:59:31.412             5.073           894.031
       307   12 Jun 2027 10:59:46.829   12 Jun 2027 10:59:50.803             3.974           412.188
       308   12 Jun 2027 11:00:31.853   12 Jun 2027 11:00:33.869             2.016           647.781
       309   13 Jun 2027 03:15:11.985   13 Jun 2027 03:17:17.686           125.701         62850.500
       310   13 Jun 2027 03:17:35.262   13 Jun 2027 03:17:43.532             8.270          4135.000
       311   13 Jun 2027 03:18:06.414   13 Jun 2027 03:18:18.175            11.761          5880.500
       312   13 Jun 2027 03:19:41.949   13 Jun 2027 03:20:07.204            25.255         12627.500
       313   13 Jun 2027 03:20:56.466   13 Jun 2027 03:21:12.894            16.428          8214.000
       314   13 Jun 2027 03:21:20.627   13 Jun 2027 03:21:41.828            21.201         10600.500
       315   13 Jun 2027 04:53:57.576   13 Jun 2027 04:55:35.192            97.616         48417.344
       316   13 Jun 2027 04:56:53.885   13 Jun 2027 04:56:57.849             3.964          1561.594
       317   13 Jun 2027 04:58:35.965   13 Jun 2027 04:58:42.971             7.006          1807.937
       318   13 Jun 2027 05:00:31.661   13 Jun 2027 05:00:37.617             5.956          1951.000
       319   13 Jun 2027 06:19:57.955   13 Jun 2027 06:20:05.170             7.215          3579.750
       320   13 Jun 2027 06:30:59.345   13 Jun 2027 06:31:05.816             6.471          2152.937
       321   13 Jun 2027 06:32:01.027   13 Jun 2027 06:32:05.090             4.063          1600.906
       322   13 Jun 2027 07:53:59.087   13 Jun 2027 07:54:08.278             9.191          4547.656
       323   13 Jun 2027 07:54:50.533   13 Jun 2027 07:54:53.922             3.389          1223.437
       324   13 Jun 2027 07:55:13.334   13 Jun 2027 07:55:15.928             2.594           588.187
       325   13 Jun 2027 07:55:57.578   13 Jun 2027 07:56:01.855             4.277           829.406
       326   13 Jun 2027 07:57:47.126   13 Jun 2027 07:57:47.126             0.000             0.000
       327   13 Jun 2027 09:29:31.129   13 Jun 2027 09:29:38.100             6.971          2539.875
       328   13 Jun 2027 09:31:20.890   13 Jun 2027 09:31:26.720             5.830          2337.969
       329   13 Jun 2027 09:33:24.293   13 Jun 2027 09:33:29.012             4.719          2162.781
       330   13 Jun 2027 09:34:18.453   13 Jun 2027 09:34:26.323             7.870          1545.031
       331   13 Jun 2027 11:05:49.165   13 Jun 2027 11:05:56.876             7.711          3708.688
       332   13 Jun 2027 11:06:12.335   13 Jun 2027 11:06:14.412             2.077           338.187
       333   13 Jun 2027 11:08:15.235   13 Jun 2027 11:08:17.562             2.327          1115.031
       334   13 Jun 2027 11:08:54.755   13 Jun 2027 11:08:54.755             0.000             0.000
       335   13 Jun 2027 11:12:19.452   13 Jun 2027 11:12:36.472            17.020          6640.281
       336   13 Jun 2027 11:12:55.634   13 Jun 2027 11:12:59.988             4.354           595.406
