uniorb/output/strategy_4/Camera/Camera_KinoSat_111505.txt

KinoSat_111505
-------------------------
    Access    *     Start Time (UTCG)     *     Stop Time (UTCG)  *   Duration (s) *   Data (Mbytes)
         1   01 Jun 2027 03:18:11.691   01 Jun 2027 03:19:13.865            62.174         31087.000
         2   01 Jun 2027 03:19:20.371   01 Jun 2027 03:20:05.574            45.203         22601.500
         3   01 Jun 2027 03:20:10.098   01 Jun 2027 03:20:15.707             5.609          2804.500
         4   01 Jun 2027 03:20:32.304   01 Jun 2027 03:20:50.389            18.085          9042.500
         5   01 Jun 2027 03:21:40.344   01 Jun 2027 03:21:43.014             2.670          1335.000
         6   01 Jun 2027 03:22:37.858   01 Jun 2027 03:22:55.391            17.533          8766.500
         7   01 Jun 2027 03:24:25.654   01 Jun 2027 03:24:26.065             0.411           205.500
         8   01 Jun 2027 04:56:30.129   01 Jun 2027 04:57:02.076            31.947         15973.500
         9   01 Jun 2027 04:57:19.582   01 Jun 2027 04:58:03.210            43.628         21814.000
        10   01 Jun 2027 04:59:10.582   01 Jun 2027 04:59:16.627             6.045          3022.500
        11   01 Jun 2027 06:19:52.640   01 Jun 2027 06:21:06.628            73.988         36994.000
        12   01 Jun 2027 07:56:24.500   01 Jun 2027 07:58:29.681           125.181         62590.500
        13   01 Jun 2027 09:31:34.894   01 Jun 2027 09:33:50.726           135.832         67916.000
        14   01 Jun 2027 09:34:31.888   01 Jun 2027 09:34:31.888             0.000             0.000
        15   01 Jun 2027 09:38:00.161   01 Jun 2027 09:38:11.175            11.014          5507.000
        16   01 Jun 2027 11:07:57.952   01 Jun 2027 11:10:34.361           156.409         78204.500
        17   01 Jun 2027 11:12:28.626   01 Jun 2027 11:13:00.597            31.971         15985.500
        18   01 Jun 2027 11:13:11.264   01 Jun 2027 11:13:24.964            13.700          6850.000
        19   01 Jun 2027 11:13:56.441   01 Jun 2027 11:14:04.524             8.083          4041.500
        20   02 Jun 2027 03:31:18.310   02 Jun 2027 03:33:29.978           131.668         65834.000
        21   02 Jun 2027 03:33:45.333   02 Jun 2027 03:33:59.382            14.049          7024.500
        22   02 Jun 2027 03:35:07.567   02 Jun 2027 03:35:31.479            23.912         11956.000
        23   02 Jun 2027 03:38:17.846   02 Jun 2027 03:38:31.994            14.148          7074.000
        24   02 Jun 2027 05:08:26.833   02 Jun 2027 05:09:06.114            39.281         19640.500
        25   02 Jun 2027 05:09:27.275   02 Jun 2027 05:11:59.826           152.551         76275.500
        26   02 Jun 2027 06:32:22.419   02 Jun 2027 06:33:03.509            41.090         20545.000
        27   02 Jun 2027 06:34:36.912   02 Jun 2027 06:34:51.662            14.750          7375.000
        28   02 Jun 2027 08:08:17.179   02 Jun 2027 08:11:33.343           196.164         98082.000
        29   02 Jun 2027 09:43:12.638   02 Jun 2027 09:44:25.909            73.271         36085.624
        30   02 Jun 2027 09:45:25.558   02 Jun 2027 09:45:29.081             3.523           840.844
        31   02 Jun 2027 09:46:04.807   02 Jun 2027 09:46:06.168             1.361           400.937
        32   02 Jun 2027 09:46:27.603   02 Jun 2027 09:46:29.567             1.964           501.469
        33   02 Jun 2027 09:46:44.107   02 Jun 2027 09:46:46.718             2.611           143.625
        34   02 Jun 2027 09:47:24.250   02 Jun 2027 09:47:25.081             0.831           301.094
        35   02 Jun 2027 09:47:44.515   02 Jun 2027 09:47:46.375             1.860           414.813
        36   02 Jun 2027 09:47:53.664   02 Jun 2027 09:47:58.960             5.296           221.875
        37   02 Jun 2027 09:48:05.350   02 Jun 2027 09:48:12.487             7.137            18.219
        38   02 Jun 2027 09:48:43.028   02 Jun 2027 09:48:46.050             3.022           752.437
        39   02 Jun 2027 09:49:51.318   02 Jun 2027 09:49:55.904             4.586          2039.625
        40   02 Jun 2027 09:50:15.578   02 Jun 2027 09:50:18.554             2.976           526.812
        41   02 Jun 2027 11:19:32.385   02 Jun 2027 11:19:42.440            10.055          5008.469
        42   02 Jun 2027 11:21:35.809   02 Jun 2027 11:21:36.631             0.822           217.531
        43   02 Jun 2027 11:22:01.449   02 Jun 2027 11:22:03.779             2.330           746.156
        44   02 Jun 2027 11:22:49.378   02 Jun 2027 11:22:51.900             2.522          1153.313
        45   02 Jun 2027 11:23:27.345   02 Jun 2027 11:23:30.084             2.739          1073.469
        46   02 Jun 2027 11:23:59.856   02 Jun 2027 11:24:05.794             5.938           547.594
        47   02 Jun 2027 11:24:58.281   02 Jun 2027 11:25:01.330             3.049          1465.656
        48   02 Jun 2027 11:25:44.913   02 Jun 2027 11:25:47.788             2.875          1361.969
        49   02 Jun 2027 11:25:48.673   02 Jun 2027 11:25:51.210             2.537            27.656
        50   03 Jun 2027 03:43:22.034   03 Jun 2027 03:46:27.689           185.655         92827.500
        51   03 Jun 2027 03:50:23.563   03 Jun 2027 03:50:59.281            35.718         17859.000
        52   03 Jun 2027 05:09:10.190   03 Jun 2027 05:09:34.917            24.727         12363.500
        53   03 Jun 2027 05:20:22.916   03 Jun 2027 05:21:40.312            77.396         38698.000
        54   03 Jun 2027 05:22:03.638   03 Jun 2027 05:22:03.681             0.043            21.500
        55   03 Jun 2027 05:23:02.563   03 Jun 2027 05:23:28.894            26.331         13165.500
        56   03 Jun 2027 06:42:59.716   03 Jun 2027 06:43:14.032            14.316          6357.469
        57   03 Jun 2027 06:43:36.338   03 Jun 2027 06:43:38.596             2.258           138.844
        58   03 Jun 2027 06:45:07.154   03 Jun 2027 06:45:14.390             7.236          1657.844
        59   03 Jun 2027 06:46:36.583   03 Jun 2027 06:46:43.137             6.554          2436.437
        60   03 Jun 2027 06:47:30.857   03 Jun 2027 06:47:30.857             0.000             0.000
        61   03 Jun 2027 08:18:34.838   03 Jun 2027 08:18:43.497             8.659          2400.625
        62   03 Jun 2027 08:20:17.621   03 Jun 2027 08:20:29.275            11.654          1790.188
        63   03 Jun 2027 08:21:38.768   03 Jun 2027 08:21:41.084             2.316          1137.250
        64   03 Jun 2027 08:22:50.736   03 Jun 2027 08:22:55.838             5.102          2172.750
        65   03 Jun 2027 08:23:04.785   03 Jun 2027 08:23:04.785             0.000             0.000
        66   03 Jun 2027 08:23:58.025   03 Jun 2027 08:24:05.296             7.271          1893.937
        67   03 Jun 2027 08:24:16.317   03 Jun 2027 08:24:18.394             2.077           195.969
        68   03 Jun 2027 09:54:46.510   03 Jun 2027 09:54:55.333             8.823          3247.250
        69   03 Jun 2027 09:56:59.217   03 Jun 2027 09:57:06.212             6.995          3186.625
        70   03 Jun 2027 09:58:21.723   03 Jun 2027 09:58:23.413             1.690           740.875
        71   03 Jun 2027 09:58:57.183   03 Jun 2027 09:59:08.965            11.782           956.656
        72   03 Jun 2027 10:00:44.991   03 Jun 2027 10:00:50.099             5.108          2479.219
        73   03 Jun 2027 10:02:09.540   03 Jun 2027 10:02:12.420             2.880           838.344
        74   03 Jun 2027 10:02:20.556   03 Jun 2027 10:02:22.934             2.378            77.312
        75   03 Jun 2027 11:31:52.733   03 Jun 2027 11:32:10.949            18.216          7300.000
        76   03 Jun 2027 11:34:33.628   03 Jun 2027 11:34:36.200             2.572           934.281
        77   03 Jun 2027 11:34:56.709   03 Jun 2027 11:35:02.933             6.224           640.906
        78   03 Jun 2027 11:35:48.567   03 Jun 2027 11:35:52.467             3.900           598.875
        79   03 Jun 2027 11:36:13.734   03 Jun 2027 11:36:14.385             0.651           297.687
        80   03 Jun 2027 11:36:37.156   03 Jun 2027 11:36:40.327             3.171           646.031
        81   03 Jun 2027 11:37:48.595   03 Jun 2027 11:37:52.741             4.146          2008.750
        82   03 Jun 2027 11:38:14.045   03 Jun 2027 11:38:14.454             0.409            95.750
        83   04 Jun 2027 03:55:51.349   04 Jun 2027 03:59:27.615           216.266        108133.000
        84   04 Jun 2027 04:02:00.519   04 Jun 2027 04:02:04.647             4.128          2064.000
        85   04 Jun 2027 04:02:09.919   04 Jun 2027 04:02:15.782             5.863          2931.500
        86   04 Jun 2027 04:02:38.418   04 Jun 2027 04:02:59.513            21.095         10547.500
        87   04 Jun 2027 05:20:42.881   04 Jun 2027 05:21:03.587            20.706         10353.000
        88   04 Jun 2027 05:22:14.866   04 Jun 2027 05:22:16.274             1.408           704.000
        89   04 Jun 2027 05:32:25.630   04 Jun 2027 05:33:27.010            61.380         30690.000
        90   04 Jun 2027 06:54:40.169   04 Jun 2027 06:54:57.425            17.256          8503.530
        91   04 Jun 2027 06:55:33.500   04 Jun 2027 06:55:39.320             5.820           423.313
        92   04 Jun 2027 06:57:06.725   04 Jun 2027 06:57:11.486             4.761          1318.437
        93   04 Jun 2027 06:58:35.611   04 Jun 2027 06:58:41.986             6.375          2293.219
        94   04 Jun 2027 06:59:11.997   04 Jun 2027 06:59:12.989             0.992           453.063
        95   04 Jun 2027 06:59:33.436   04 Jun 2027 06:59:35.531             2.095           542.437
        96   04 Jun 2027 08:29:41.452   04 Jun 2027 08:29:44.739             3.287          1386.406
        97   04 Jun 2027 08:30:25.710   04 Jun 2027 08:30:27.003             1.293           520.094
        98   04 Jun 2027 08:32:02.296   04 Jun 2027 08:32:06.045             3.749          1354.656
        99   04 Jun 2027 08:33:05.163   04 Jun 2027 08:33:07.508             2.345           817.250
       100   04 Jun 2027 08:33:21.775   04 Jun 2027 08:33:22.395             0.620           254.937
       101   04 Jun 2027 08:34:25.063   04 Jun 2027 08:34:33.465             8.402          1566.375
       102   04 Jun 2027 08:35:15.193   04 Jun 2027 08:35:17.738             2.545           678.375
       103   04 Jun 2027 08:35:19.670   04 Jun 2027 08:35:23.028             3.358            60.375
       104   04 Jun 2027 08:36:08.930   04 Jun 2027 08:36:11.456             2.526          1263.000
       105   04 Jun 2027 08:36:15.015   04 Jun 2027 08:36:15.566             0.551           177.219
       106   04 Jun 2027 08:37:38.749   04 Jun 2027 08:37:42.034             3.285          1403.375
       107   04 Jun 2027 10:07:06.586   04 Jun 2027 10:07:13.523             6.937          3003.000
       108   04 Jun 2027 10:09:13.216   04 Jun 2027 10:09:17.187             3.971           240.781
       109   04 Jun 2027 10:10:15.196   04 Jun 2027 10:10:15.679             0.483           137.344
       110   04 Jun 2027 10:11:23.135   04 Jun 2027 10:11:31.184             8.049          1575.844
       111   04 Jun 2027 10:12:25.241   04 Jun 2027 10:12:34.725             9.484          1621.063
       112   04 Jun 2027 10:13:22.736   04 Jun 2027 10:13:25.943             3.207          1239.344
       113   04 Jun 2027 10:13:43.236   04 Jun 2027 10:13:47.228             3.992           288.813
       114   04 Jun 2027 10:13:47.599   04 Jun 2027 10:13:51.678             4.079            11.594
       115   04 Jun 2027 11:43:54.137   04 Jun 2027 11:44:05.147            11.010          4786.031
       116   04 Jun 2027 11:45:26.301   04 Jun 2027 11:45:35.046             8.745           424.906
       117   04 Jun 2027 11:46:41.083   04 Jun 2027 11:46:41.535             0.452            71.844
       118   04 Jun 2027 11:47:35.222   04 Jun 2027 11:47:35.744             0.522           261.000
       119   04 Jun 2027 11:47:49.840   04 Jun 2027 11:47:54.105             4.265           637.625
       120   04 Jun 2027 11:48:40.251   04 Jun 2027 11:48:50.577            10.326          1279.156
       121   04 Jun 2027 11:49:31.920   04 Jun 2027 11:49:37.082             5.162           711.719
       122   04 Jun 2027 11:49:46.201   04 Jun 2027 11:49:48.053             1.852           258.062
       123   04 Jun 2027 11:49:57.497   04 Jun 2027 11:50:00.952             3.455           295.125
       124   05 Jun 2027 04:07:52.969   05 Jun 2027 04:10:11.543           138.574         69287.000
       125   05 Jun 2027 04:10:34.717   05 Jun 2027 04:10:37.506             2.789          1394.500
       126   05 Jun 2027 04:11:21.883   05 Jun 2027 04:11:23.658             1.775           887.500
       127   05 Jun 2027 04:12:24.568   05 Jun 2027 04:12:24.568             0.000             0.000
       128   05 Jun 2027 04:14:51.319   05 Jun 2027 04:14:56.155             4.836          2418.000
       129   05 Jun 2027 05:32:14.658   05 Jun 2027 05:33:01.722            47.064         23532.000
       130   05 Jun 2027 05:44:27.674   05 Jun 2027 05:44:55.945            28.271         14135.500
       131   05 Jun 2027 07:06:21.883   05 Jun 2027 07:07:35.793            73.910         36955.000
       132   05 Jun 2027 07:08:25.229   05 Jun 2027 07:08:53.703            28.474         13159.812
       133   05 Jun 2027 07:09:01.140   05 Jun 2027 07:09:02.972             1.832           162.969
       134   05 Jun 2027 07:11:19.373   05 Jun 2027 07:11:30.103            10.730          4177.594
       135   05 Jun 2027 08:41:10.272   05 Jun 2027 08:41:23.221            12.949          3353.813
       136   05 Jun 2027 08:41:58.456   05 Jun 2027 08:41:59.211             0.755            85.594
       137   05 Jun 2027 08:43:12.171   05 Jun 2027 08:43:12.378             0.207           103.500
       138   05 Jun 2027 08:43:16.678   05 Jun 2027 08:43:17.620             0.942           139.781
       139   05 Jun 2027 08:45:24.325   05 Jun 2027 08:45:32.698             8.373          3310.844
       140   05 Jun 2027 08:46:55.301   05 Jun 2027 08:47:04.725             9.424          2345.625
       141   05 Jun 2027 08:47:54.528   05 Jun 2027 08:47:56.385             1.857           350.938
       142   05 Jun 2027 08:48:18.596   05 Jun 2027 08:48:18.596             0.000             0.000
       143   05 Jun 2027 08:49:00.099   05 Jun 2027 08:49:08.775             8.676          1725.344
       144   05 Jun 2027 08:49:32.305   05 Jun 2027 08:49:35.448             3.143           689.781
       145   05 Jun 2027 10:19:00.722   05 Jun 2027 10:19:08.977             8.255          3856.875
       146   05 Jun 2027 10:22:02.987   05 Jun 2027 10:22:10.432             7.445          2013.063
       147   05 Jun 2027 10:23:13.870   05 Jun 2027 10:23:17.084             3.214          1120.719
       148   05 Jun 2027 10:24:19.591   05 Jun 2027 10:24:24.374             4.783          1953.344
       149   05 Jun 2027 10:24:58.517   05 Jun 2027 10:25:00.242             1.725           574.719
       150   05 Jun 2027 10:25:25.468   05 Jun 2027 10:25:25.682             0.214            98.094
       151   05 Jun 2027 10:25:32.056   05 Jun 2027 10:25:34.579             2.523           199.187
       152   05 Jun 2027 10:26:01.378   05 Jun 2027 10:26:06.385             5.007           316.250
       153   05 Jun 2027 11:55:45.451   05 Jun 2027 11:55:58.032            12.581          5073.281
       154   05 Jun 2027 11:56:16.616   05 Jun 2027 11:56:20.595             3.979           580.750
       155   05 Jun 2027 11:59:08.834   05 Jun 2027 11:59:23.232            14.398          1088.344
       156   05 Jun 2027 11:59:40.217   05 Jun 2027 11:59:45.316             5.099           337.031
       157   06 Jun 2027 04:20:15.410   06 Jun 2027 04:21:34.164            78.754         39377.000
       158   06 Jun 2027 04:21:53.671   06 Jun 2027 04:22:33.695            40.024         20012.000
       159   06 Jun 2027 04:23:52.999   06 Jun 2027 04:24:00.147             7.148          3574.000
       160   06 Jun 2027 05:44:12.740   06 Jun 2027 05:45:19.870            67.130         33565.000
       161   06 Jun 2027 07:20:09.901   06 Jun 2027 07:22:13.487           123.586         61793.000
       162   06 Jun 2027 07:23:19.900   06 Jun 2027 07:23:25.249             5.349          2129.781
       163   06 Jun 2027 08:53:58.607   06 Jun 2027 08:54:07.188             8.581          2830.875
       164   06 Jun 2027 08:56:14.266   06 Jun 2027 08:56:15.703             1.437           451.469
       165   06 Jun 2027 08:56:31.678   06 Jun 2027 08:56:32.866             1.188           499.219
       166   06 Jun 2027 08:57:43.485   06 Jun 2027 08:57:43.485             0.000             0.000
       167   06 Jun 2027 08:58:54.829   06 Jun 2027 08:59:02.447             7.618          3272.500
       168   06 Jun 2027 08:59:56.076   06 Jun 2027 08:59:59.608             3.532           415.656
       169   06 Jun 2027 09:00:39.251   06 Jun 2027 09:00:42.585             3.334           641.000
       170   06 Jun 2027 09:01:45.981   06 Jun 2027 09:01:50.075             4.094          1384.563
       171   06 Jun 2027 10:31:08.084   06 Jun 2027 10:31:20.008            11.924          5562.313
       172   06 Jun 2027 10:32:40.057   06 Jun 2027 10:32:40.302             0.245            11.906
       173   06 Jun 2027 10:33:48.190   06 Jun 2027 10:33:52.754             4.564          1595.844
       174   06 Jun 2027 10:34:15.367   06 Jun 2027 10:34:16.979             1.612           706.656
       175   06 Jun 2027 10:34:42.514   06 Jun 2027 10:34:45.692             3.178           330.313
       176   06 Jun 2027 10:35:14.149   06 Jun 2027 10:35:20.092             5.943           715.437
       177   06 Jun 2027 10:35:57.279   06 Jun 2027 10:35:59.928             2.649           694.188
       178   06 Jun 2027 10:36:15.326   06 Jun 2027 10:36:18.174             2.848           424.687
       179   06 Jun 2027 10:36:27.754   06 Jun 2027 10:36:29.984             2.230           218.062
       180   06 Jun 2027 10:37:27.621   06 Jun 2027 10:37:30.586             2.965          1156.281
       181   06 Jun 2027 10:37:54.237   06 Jun 2027 10:37:57.042             2.805           482.687
       182   07 Jun 2027 03:00:00.000   07 Jun 2027 03:00:21.223            21.223         10611.500
       183   07 Jun 2027 04:32:44.108   07 Jun 2027 04:33:59.798            75.690         37845.000
       184   07 Jun 2027 04:34:37.691   07 Jun 2027 04:36:09.140            91.449         45724.500
       185   07 Jun 2027 05:56:05.664   07 Jun 2027 05:56:58.608            52.944         26472.000
       186   07 Jun 2027 07:32:28.112   07 Jun 2027 07:34:03.452            95.340         47636.218
       187   07 Jun 2027 07:34:21.446   07 Jun 2027 07:34:22.803             1.357           293.813
       188   07 Jun 2027 07:35:20.014   07 Jun 2027 07:35:23.673             3.659          1787.844
       189   07 Jun 2027 09:06:19.743   07 Jun 2027 09:06:24.547             4.804          2183.969
       190   07 Jun 2027 09:07:59.113   07 Jun 2027 09:08:04.765             5.652          1427.750
       191   07 Jun 2027 09:08:31.477   07 Jun 2027 09:08:32.659             1.182           176.844
       192   07 Jun 2027 09:09:12.200   07 Jun 2027 09:09:20.900             8.700           278.656
       193   07 Jun 2027 09:12:49.990   07 Jun 2027 09:13:01.323            11.333          4399.375
       194   07 Jun 2027 09:13:05.650   07 Jun 2027 09:13:05.955             0.305            87.281
       195   07 Jun 2027 09:13:58.449   07 Jun 2027 09:14:05.769             7.320          1254.688
       196   07 Jun 2027 09:14:28.016   07 Jun 2027 09:14:30.150             2.134           438.688
       197   07 Jun 2027 10:43:34.896   07 Jun 2027 10:43:47.484            12.588          5078.500
       198   07 Jun 2027 10:45:48.377   07 Jun 2027 10:45:51.776             3.399          1508.000
       199   07 Jun 2027 10:47:14.389   07 Jun 2027 10:47:16.732             2.343           879.375
       200   07 Jun 2027 10:47:36.898   07 Jun 2027 10:47:37.703             0.805            92.844
       201   07 Jun 2027 10:48:30.093   07 Jun 2027 10:48:34.886             4.793           908.031
       202   07 Jun 2027 10:48:44.279   07 Jun 2027 10:48:46.159             1.880           293.531
       203   07 Jun 2027 10:49:42.431   07 Jun 2027 10:49:46.321             3.890          1464.000
       204   07 Jun 2027 10:49:57.862   07 Jun 2027 10:50:00.588             2.726           360.656
       205   07 Jun 2027 10:50:06.932   07 Jun 2027 10:50:07.897             0.965            18.500
       206   07 Jun 2027 10:50:11.411   07 Jun 2027 10:50:12.974             1.563            84.313
       207   08 Jun 2027 03:06:20.014   08 Jun 2027 03:06:24.062             4.048          2024.000
       208   08 Jun 2027 03:06:49.004   08 Jun 2027 03:07:26.902            37.898         18949.000
       209   08 Jun 2027 03:08:07.117   08 Jun 2027 03:08:12.135             5.018          2509.000
       210   08 Jun 2027 03:09:04.477   08 Jun 2027 03:09:05.978             1.501           750.500
       211   08 Jun 2027 03:09:11.996   08 Jun 2027 03:09:39.500            27.504         13752.000
       212   08 Jun 2027 03:10:53.950   08 Jun 2027 03:11:02.613             8.663          4331.500
       213   08 Jun 2027 04:45:00.595   08 Jun 2027 04:48:33.112           212.517        106258.500
       214   08 Jun 2027 06:07:54.381   08 Jun 2027 06:08:10.309            15.928          7964.000
       215   08 Jun 2027 06:10:18.002   08 Jun 2027 06:10:18.881             0.879           439.500
       216   08 Jun 2027 07:44:31.635   08 Jun 2027 07:44:51.966            20.331          9236.750
       217   08 Jun 2027 07:45:16.097   08 Jun 2027 07:45:17.894             1.797           590.281
       218   08 Jun 2027 07:46:03.776   08 Jun 2027 07:46:08.819             5.043           888.438
       219   08 Jun 2027 07:46:22.310   08 Jun 2027 07:46:22.310             0.000             0.000
       220   08 Jun 2027 07:47:07.130   08 Jun 2027 07:47:10.763             3.633          1570.219
       221   08 Jun 2027 07:47:34.616   08 Jun 2027 07:47:36.322             1.706           615.594
       222   08 Jun 2027 09:19:37.536   08 Jun 2027 09:19:43.284             5.748          2629.938
       223   08 Jun 2027 09:20:36.219   08 Jun 2027 09:20:37.958             1.739           571.688
       224   08 Jun 2027 09:21:13.984   08 Jun 2027 09:21:16.762             2.778           685.688
       225   08 Jun 2027 09:22:33.666   08 Jun 2027 09:22:40.517             6.851          1119.187
       226   08 Jun 2027 09:23:27.796   08 Jun 2027 09:23:30.927             3.131          1131.469
       227   08 Jun 2027 09:25:03.596   08 Jun 2027 09:25:11.234             7.638          2737.750
       228   08 Jun 2027 09:25:42.038   08 Jun 2027 09:25:47.906             5.868           212.938
       229   08 Jun 2027 09:26:13.945   08 Jun 2027 09:26:13.945             0.000             0.000
       230   08 Jun 2027 09:26:22.932   08 Jun 2027 09:26:26.413             3.481           291.344
       231   08 Jun 2027 10:55:58.346   08 Jun 2027 10:56:11.045            12.699          6117.844
       232   08 Jun 2027 10:57:52.786   08 Jun 2027 10:57:55.156             2.370           543.156
       233   08 Jun 2027 10:59:25.169   08 Jun 2027 10:59:28.180             3.011          1007.875
       234   08 Jun 2027 11:00:02.513   08 Jun 2027 11:00:04.374             1.861           736.438
       235   08 Jun 2027 11:00:25.344   08 Jun 2027 11:00:26.349             1.005           319.000
       236   08 Jun 2027 11:00:51.419   08 Jun 2027 11:00:53.202             1.783           690.156
       237   08 Jun 2027 11:01:40.114   08 Jun 2027 11:01:42.993             2.879           637.844
       238   08 Jun 2027 11:02:03.709   08 Jun 2027 11:02:05.068             1.359           647.375
       239   08 Jun 2027 11:02:13.110   08 Jun 2027 11:02:14.724             1.614           239.656
       240   09 Jun 2027 03:18:28.421   09 Jun 2027 03:19:30.228            61.807         30903.500
       241   09 Jun 2027 03:19:36.777   09 Jun 2027 03:20:48.408            71.631         35815.500
       242   09 Jun 2027 03:21:06.285   09 Jun 2027 03:21:13.281             6.996          3498.000
       243   09 Jun 2027 03:21:55.875   09 Jun 2027 03:21:57.941             2.066          1033.000
       244   09 Jun 2027 03:22:11.066   09 Jun 2027 03:22:46.679            35.613         17806.500
       245   09 Jun 2027 03:23:53.142   09 Jun 2027 03:24:02.569             9.427          4713.500
       246   09 Jun 2027 03:24:24.276   09 Jun 2027 03:24:40.658            16.382          8191.000
       247   09 Jun 2027 04:56:46.533   09 Jun 2027 04:57:19.558            33.025         16512.500
       248   09 Jun 2027 04:57:35.055   09 Jun 2027 04:58:45.120            70.065         33977.282
       249   09 Jun 2027 04:59:33.614   09 Jun 2027 04:59:38.274             4.660          1100.187
       250   09 Jun 2027 05:00:10.361   09 Jun 2027 05:00:13.951             3.590           941.063
       251   09 Jun 2027 06:20:08.436   09 Jun 2027 06:20:16.811             8.375          3717.562
       252   09 Jun 2027 06:21:22.923   09 Jun 2027 06:21:29.788             6.865          1912.375
       253   09 Jun 2027 06:21:45.484   09 Jun 2027 06:21:47.972             2.488           337.125
       254   09 Jun 2027 06:22:52.147   09 Jun 2027 06:22:52.380             0.233           116.500
       255   09 Jun 2027 06:23:04.894   09 Jun 2027 06:23:05.696             0.802           401.000
       256   09 Jun 2027 07:56:41.587   09 Jun 2027 07:56:48.613             7.026          3151.563
       257   09 Jun 2027 07:57:14.309   09 Jun 2027 07:57:16.579             2.270           478.938
       258   09 Jun 2027 07:57:54.926   09 Jun 2027 07:57:56.373             1.447           521.969
       259   09 Jun 2027 07:58:48.359   09 Jun 2027 07:58:54.829             6.470          1496.250
       260   09 Jun 2027 09:31:51.848   09 Jun 2027 09:32:01.400             9.552          2995.687
       261   09 Jun 2027 09:33:15.400   09 Jun 2027 09:33:20.525             5.125          2128.219
       262   09 Jun 2027 09:34:48.497   09 Jun 2027 09:34:51.814             3.317          1227.813
       263   09 Jun 2027 09:35:36.190   09 Jun 2027 09:35:39.314             3.124          1004.594
       264   09 Jun 2027 09:36:34.019   09 Jun 2027 09:36:35.132             1.113            48.844
       265   09 Jun 2027 09:37:35.033   09 Jun 2027 09:37:40.780             5.747           999.156
       266   09 Jun 2027 09:38:16.246   09 Jun 2027 09:38:18.453             2.207           209.156
       267   09 Jun 2027 09:38:26.761   09 Jun 2027 09:38:27.870             1.109           259.625
       268   09 Jun 2027 11:08:13.285   09 Jun 2027 11:08:23.262             9.977          4772.656
       269   09 Jun 2027 11:11:55.554   09 Jun 2027 11:11:59.538             3.984          1332.375
       270   09 Jun 2027 11:12:12.250   09 Jun 2027 11:12:18.757             6.507           397.250
       271   09 Jun 2027 11:12:28.163   09 Jun 2027 11:12:29.037             0.874           125.406
       272   09 Jun 2027 11:13:16.130   09 Jun 2027 11:13:19.244             3.114           926.281
       273   09 Jun 2027 11:13:40.123   09 Jun 2027 11:13:42.026             1.903           639.062
       274   09 Jun 2027 11:13:51.284   09 Jun 2027 11:13:53.310             2.026           289.313
       275   09 Jun 2027 11:14:02.404   09 Jun 2027 11:14:04.973             2.569           211.594
       276   09 Jun 2027 11:14:20.901   09 Jun 2027 11:14:22.986             2.085           497.750
       277   10 Jun 2027 03:31:34.943   10 Jun 2027 03:35:08.731           213.788        106894.000
       278   10 Jun 2027 03:35:59.508   10 Jun 2027 03:36:06.266             6.758          3379.000
       279   10 Jun 2027 03:38:24.321   10 Jun 2027 03:38:30.703             6.382          3191.000
       280   10 Jun 2027 05:08:43.120   10 Jun 2027 05:09:22.879            39.759         19879.500
       281   10 Jun 2027 05:09:42.532   10 Jun 2027 05:10:32.897            50.365         25155.594
       282   10 Jun 2027 05:11:05.749   10 Jun 2027 05:11:14.372             8.623          1026.625
       283   10 Jun 2027 05:11:42.731   10 Jun 2027 05:11:45.203             2.472           226.312
       284   10 Jun 2027 05:12:15.016   10 Jun 2027 05:12:17.973             2.957           861.562
       285   10 Jun 2027 06:32:10.122   10 Jun 2027 06:32:19.350             9.228          4110.469
       286   10 Jun 2027 06:33:23.365   10 Jun 2027 06:33:28.674             5.309          1905.062
       287   10 Jun 2027 06:34:52.340   10 Jun 2027 06:34:57.661             5.321          2464.156
       288   10 Jun 2027 08:08:32.889   10 Jun 2027 08:08:40.950             8.061          2020.000
       289   10 Jun 2027 08:09:17.389   10 Jun 2027 08:09:19.086             1.697           591.750
       290   10 Jun 2027 08:11:04.816   10 Jun 2027 08:11:10.371             5.555          2662.937
       291   10 Jun 2027 08:11:50.568   10 Jun 2027 08:11:51.421             0.853           426.500
       292   10 Jun 2027 08:12:08.001   10 Jun 2027 08:12:15.126             7.125          1347.781
       293   10 Jun 2027 09:43:26.317   10 Jun 2027 09:43:32.428             6.111          2642.500
       294   10 Jun 2027 09:45:16.403   10 Jun 2027 09:45:22.156             5.753          2613.562
       295   10 Jun 2027 09:46:11.284   10 Jun 2027 09:46:14.852             3.568           837.031
       296   10 Jun 2027 09:46:25.047   10 Jun 2027 09:46:27.172             2.125            47.156
       297   10 Jun 2027 09:47:38.895   10 Jun 2027 09:47:43.739             4.844          1712.062
       298   10 Jun 2027 09:48:05.177   10 Jun 2027 09:48:05.563             0.386           153.594
       299   10 Jun 2027 09:48:57.548   10 Jun 2027 09:48:59.088             1.540           703.562
       300   10 Jun 2027 09:50:07.233   10 Jun 2027 09:50:12.184             4.951          1994.313
       301   10 Jun 2027 09:50:32.492   10 Jun 2027 09:50:35.666             3.174           585.281
       302   10 Jun 2027 11:19:50.013   10 Jun 2027 11:20:02.520            12.507          5873.188
       303   10 Jun 2027 11:22:41.780   10 Jun 2027 11:22:45.364             3.584          1529.375
       304   10 Jun 2027 11:23:57.685   10 Jun 2027 11:24:03.019             5.334          2260.031
       305   10 Jun 2027 11:24:21.698   10 Jun 2027 11:24:23.922             2.224           537.969
       306   10 Jun 2027 11:25:13.880   10 Jun 2027 11:25:17.705             3.825          1424.187
       307   10 Jun 2027 11:25:44.046   10 Jun 2027 11:25:48.460             4.414           659.313
       308   10 Jun 2027 11:26:04.901   10 Jun 2027 11:26:06.693             1.792           395.781
       309   11 Jun 2027 03:43:38.929   11 Jun 2027 03:47:13.587           214.658        107329.000
       310   11 Jun 2027 03:50:41.080   11 Jun 2027 03:51:17.034            35.954         17977.000
       311   11 Jun 2027 05:09:23.934   11 Jun 2027 05:09:31.707             7.773          3886.500
       312   11 Jun 2027 05:20:39.283   11 Jun 2027 05:22:07.039            87.756         42687.344
       313   11 Jun 2027 05:23:19.169   11 Jun 2027 05:23:20.231             1.062           416.531
       314   11 Jun 2027 06:43:15.684   11 Jun 2027 06:43:29.884            14.200          4953.438
       315   11 Jun 2027 06:43:53.106   11 Jun 2027 06:43:53.557             0.451           122.656
       316   11 Jun 2027 06:44:35.878   11 Jun 2027 06:44:44.224             8.346          1049.813
       317   11 Jun 2027 06:44:53.915   11 Jun 2027 06:44:54.958             1.043            67.906
       318   11 Jun 2027 06:45:12.459   11 Jun 2027 06:45:12.789             0.330           120.531
       319   11 Jun 2027 06:46:15.954   11 Jun 2027 06:46:20.424             4.470          1642.187
       320   11 Jun 2027 06:47:52.238   11 Jun 2027 06:47:55.443             3.205          1602.500
       321   11 Jun 2027 08:18:50.440   11 Jun 2027 08:18:54.629             4.189          2058.312
       322   11 Jun 2027 08:19:20.143   11 Jun 2027 08:19:22.094             1.951           797.313
       323   11 Jun 2027 08:20:16.861   11 Jun 2027 08:20:23.462             6.601           519.938
       324   11 Jun 2027 08:21:40.737   11 Jun 2027 08:21:46.166             5.429          2111.750
       325   11 Jun 2027 08:21:58.416   11 Jun 2027 08:21:59.006             0.590           147.313
       326   11 Jun 2027 08:23:14.037   11 Jun 2027 08:23:16.300             2.263           455.656
       327   11 Jun 2027 08:23:30.056   11 Jun 2027 08:23:32.288             2.232           274.344
       328   11 Jun 2027 08:24:02.765   11 Jun 2027 08:24:05.183             2.418           839.000
       329   11 Jun 2027 09:55:03.367   11 Jun 2027 09:55:08.025             4.658          2247.937
       330   11 Jun 2027 09:57:16.920   11 Jun 2027 09:57:25.133             8.213          3273.906
       331   11 Jun 2027 09:58:29.843   11 Jun 2027 09:58:31.401             1.558           703.531
       332   11 Jun 2027 09:59:15.563   11 Jun 2027 09:59:23.580             8.017          1079.469
       333   11 Jun 2027 10:01:02.290   11 Jun 2027 10:01:08.801             6.511          2441.156
       334   11 Jun 2027 10:02:07.268   11 Jun 2027 10:02:11.764             4.496          1622.250
       335   11 Jun 2027 11:32:09.681   11 Jun 2027 11:32:20.553            10.872          4831.250
       336   11 Jun 2027 11:33:39.003   11 Jun 2027 11:33:39.645             0.642            47.375
       337   11 Jun 2027 11:34:53.067   11 Jun 2027 11:34:57.588             4.521          2094.406
       338   11 Jun 2027 11:35:49.400   11 Jun 2027 11:35:53.356             3.956          1096.188
       339   11 Jun 2027 11:36:32.643   11 Jun 2027 11:36:53.371            20.728          1221.437
       340   11 Jun 2027 11:37:00.577   11 Jun 2027 11:37:01.808             1.231           225.188
       341   11 Jun 2027 11:37:26.388   11 Jun 2027 11:37:27.521             1.133           366.969
       342   11 Jun 2027 11:37:42.284   11 Jun 2027 11:37:44.965             2.681            20.406
       343   11 Jun 2027 11:37:52.814   11 Jun 2027 11:37:55.637             2.823           208.375
       344   11 Jun 2027 11:38:09.555   11 Jun 2027 11:38:14.096             4.541           155.094
       345   11 Jun 2027 11:38:30.438   11 Jun 2027 11:38:31.665             1.227            27.281
       346   12 Jun 2027 03:56:08.111   12 Jun 2027 03:59:13.057           184.946         92473.000
       347   12 Jun 2027 04:01:33.181   12 Jun 2027 04:01:56.243            23.062         11531.000
       348   12 Jun 2027 04:02:55.816   12 Jun 2027 04:03:16.534            20.718         10359.000
       349   12 Jun 2027 05:20:59.072   12 Jun 2027 05:20:59.231             0.159            79.500
       350   12 Jun 2027 05:21:20.759   12 Jun 2027 05:21:33.301            12.542          6271.000
       351   12 Jun 2027 05:32:42.506   12 Jun 2027 05:33:42.035            59.529         29764.500
       352   12 Jun 2027 06:54:58.068   12 Jun 2027 06:55:37.435            39.367         19683.500
       353   12 Jun 2027 06:55:50.773   12 Jun 2027 06:55:54.006             3.233          1090.375
       354   12 Jun 2027 06:57:22.942   12 Jun 2027 06:57:26.170             3.228          1491.156
       355   12 Jun 2027 06:58:50.991   12 Jun 2027 06:58:58.543             7.552          2267.375
       356   12 Jun 2027 06:59:27.971   12 Jun 2027 06:59:27.971             0.000             0.000
       357   12 Jun 2027 06:59:32.567   12 Jun 2027 06:59:35.445             2.878           562.344
       358   12 Jun 2027 08:29:57.051   12 Jun 2027 08:30:00.574             3.523          1595.719
       359   12 Jun 2027 08:30:42.964   12 Jun 2027 08:30:45.575             2.611           580.844
       360   12 Jun 2027 08:32:17.498   12 Jun 2027 08:32:22.012             4.514          1298.500
       361   12 Jun 2027 08:33:23.094   12 Jun 2027 08:33:26.154             3.060           873.750
       362   12 Jun 2027 08:33:36.510   12 Jun 2027 08:33:37.368             0.858            84.781
       363   12 Jun 2027 08:35:12.053   12 Jun 2027 08:35:17.655             5.602          2348.156
       364   12 Jun 2027 08:35:37.090   12 Jun 2027 08:35:38.784             1.694           252.875
       365   12 Jun 2027 08:36:31.310   12 Jun 2027 08:36:34.639             3.329          1423.750
       366   12 Jun 2027 08:37:08.481   12 Jun 2027 08:37:13.351             4.870           383.156
       367   12 Jun 2027 10:07:23.541   12 Jun 2027 10:07:30.730             7.189          3000.437
       368   12 Jun 2027 10:09:27.576   12 Jun 2027 10:09:32.185             4.609           183.375
       369   12 Jun 2027 10:10:29.019   12 Jun 2027 10:10:29.968             0.949            91.875
       370   12 Jun 2027 10:10:55.384   12 Jun 2027 10:10:59.539             4.155           794.250
       371   12 Jun 2027 10:11:52.139   12 Jun 2027 10:11:56.769             4.630          1570.656
       372   12 Jun 2027 10:12:37.729   12 Jun 2027 10:12:39.347             1.618           288.406
       373   12 Jun 2027 10:13:00.295   12 Jun 2027 10:13:02.144             1.849           379.688
       374   12 Jun 2027 10:13:34.189   12 Jun 2027 10:13:36.324             2.135           993.125
       375   12 Jun 2027 10:13:58.265   12 Jun 2027 10:14:02.959             4.694           247.875
       376   12 Jun 2027 10:14:20.900   12 Jun 2027 10:14:27.312             6.412           546.281
       377   12 Jun 2027 11:44:10.050   12 Jun 2027 11:44:22.948            12.898          5485.906
       378   12 Jun 2027 11:46:52.456   12 Jun 2027 11:46:56.927             4.471          2189.906
       379   12 Jun 2027 11:47:47.168   12 Jun 2027 11:47:50.481             3.313          1511.094
       380   12 Jun 2027 11:48:25.202   12 Jun 2027 11:48:27.419             2.217          1085.031
       381   12 Jun 2027 11:48:56.880   12 Jun 2027 11:49:01.114             4.234           754.156
       382   12 Jun 2027 11:49:48.301   12 Jun 2027 11:49:51.118             2.817           719.812
       383   12 Jun 2027 11:50:02.349   12 Jun 2027 11:50:04.647             2.298           294.938
       384   12 Jun 2027 11:50:15.540   12 Jun 2027 11:50:21.067             5.527           340.406
       385   13 Jun 2027 04:08:10.218   13 Jun 2027 04:09:50.770           100.552         50276.000
       386   13 Jun 2027 04:11:22.774   13 Jun 2027 04:11:43.141            20.367         10183.500
       387   13 Jun 2027 04:12:28.364   13 Jun 2027 04:13:02.689            34.325         17162.500
       388   13 Jun 2027 04:15:08.602   13 Jun 2027 04:15:11.534             2.932          1466.000
       389   13 Jun 2027 05:32:31.624   13 Jun 2027 05:33:09.245            37.621         18810.500
       390   13 Jun 2027 05:33:14.084   13 Jun 2027 05:33:16.589             2.505          1252.500
       391   13 Jun 2027 05:44:48.209   13 Jun 2027 05:45:15.687            27.478         13739.000
       392   13 Jun 2027 07:06:36.247   13 Jun 2027 07:07:51.365            75.118         37559.000
       393   13 Jun 2027 07:08:40.697   13 Jun 2027 07:09:12.280            31.583         13980.405
       394   13 Jun 2027 07:09:19.149   13 Jun 2027 07:09:21.865             2.716           214.656
       395   13 Jun 2027 07:11:36.279   13 Jun 2027 07:11:45.022             8.743          4200.438
       396   13 Jun 2027 08:41:25.012   13 Jun 2027 08:41:37.979            12.967          2882.969
       397   13 Jun 2027 08:43:17.310   13 Jun 2027 08:43:23.673             6.363          1989.844
       398   13 Jun 2027 08:43:29.410   13 Jun 2027 08:43:30.656             1.246            99.781
       399   13 Jun 2027 08:43:33.597   13 Jun 2027 08:43:38.188             4.591            45.375
       400   13 Jun 2027 08:45:42.016   13 Jun 2027 08:45:50.894             8.878          3410.281
       401   13 Jun 2027 08:47:12.152   13 Jun 2027 08:47:19.417             7.265          2322.031
       402   13 Jun 2027 08:48:10.575   13 Jun 2027 08:48:11.846             1.271           339.812
       403   13 Jun 2027 08:48:41.464   13 Jun 2027 08:48:41.464             0.000             0.000
       404   13 Jun 2027 08:49:47.528   13 Jun 2027 08:49:53.553             6.025          2289.406
       405   13 Jun 2027 10:19:17.889   13 Jun 2027 10:19:31.505            13.616          4570.656
       406   13 Jun 2027 10:22:55.222   13 Jun 2027 10:22:57.618             2.396          1079.000
       407   13 Jun 2027 10:23:33.391   13 Jun 2027 10:23:40.002             6.611           127.188
       408   13 Jun 2027 10:24:57.245   13 Jun 2027 10:25:01.210             3.965          1698.375
       409   13 Jun 2027 10:25:41.992   13 Jun 2027 10:25:42.047             0.055             7.625
       410   13 Jun 2027 10:26:25.092   13 Jun 2027 10:26:28.023             2.931          1194.156
       411   13 Jun 2027 11:56:01.941   13 Jun 2027 11:56:12.616            10.675          5337.500
       412   13 Jun 2027 11:56:34.566   13 Jun 2027 11:56:38.099             3.533           700.844
       413   13 Jun 2027 11:58:26.041   13 Jun 2027 11:58:26.474             0.433            99.625
       414   13 Jun 2027 11:58:55.882   13 Jun 2027 11:58:58.858             2.976            34.156
       415   13 Jun 2027 11:59:44.629   13 Jun 2027 11:59:49.077             4.448          1135.281
