uniorb/output/strategy_4/Camera/Camera_KinoSat_111404.txt

KinoSat_111404
-------------------------
    Access    *     Start Time (UTCG)     *     Stop Time (UTCG)  *   Duration (s) *   Data (Mbytes)
         1   01 Jun 2027 03:33:07.342   01 Jun 2027 03:35:27.622           140.280         70140.000
         2   01 Jun 2027 03:36:40.428   01 Jun 2027 03:36:41.932             1.504           752.000
         3   01 Jun 2027 03:39:55.263   01 Jun 2027 03:40:15.499            20.236         10118.000
         4   01 Jun 2027 04:57:57.439   01 Jun 2027 04:58:06.697             9.258          4629.000
         5   01 Jun 2027 04:58:17.098   01 Jun 2027 04:58:41.223            24.125         12062.500
         6   01 Jun 2027 04:58:57.034   01 Jun 2027 04:59:13.177            16.143          8071.500
         7   01 Jun 2027 05:09:41.604   01 Jun 2027 05:10:34.074            52.470         26235.000
         8   01 Jun 2027 06:31:56.610   01 Jun 2027 06:33:02.547            65.937         32968.500
         9   01 Jun 2027 06:34:22.763   01 Jun 2027 06:34:41.608            18.845          9422.500
        10   01 Jun 2027 08:06:54.269   01 Jun 2027 08:08:49.154           114.885         57442.500
        11   01 Jun 2027 08:08:58.176   01 Jun 2027 08:09:05.572             7.396          3698.000
        12   01 Jun 2027 08:12:10.465   01 Jun 2027 08:12:35.055            24.590         12295.000
        13   01 Jun 2027 09:44:22.919   01 Jun 2027 09:46:20.433           117.514         58757.000
        14   01 Jun 2027 09:49:01.971   01 Jun 2027 09:49:01.971             0.000             0.000
        15   01 Jun 2027 09:50:35.220   01 Jun 2027 09:51:41.034            65.814         32907.000
        16   01 Jun 2027 11:21:07.655   01 Jun 2027 11:23:21.940           134.285         67142.500
        17   01 Jun 2027 11:24:01.284   01 Jun 2027 11:24:27.771            26.487         13243.500
        18   01 Jun 2027 11:26:41.253   01 Jun 2027 11:26:48.472             7.219          3609.500
        19   02 Jun 2027 03:45:09.450   02 Jun 2027 03:46:55.158           105.708         52854.000
        20   02 Jun 2027 03:47:12.236   02 Jun 2027 03:47:52.261            40.025         20012.500
        21   02 Jun 2027 03:52:07.904   02 Jun 2027 03:52:09.001             1.097           548.500
        22   02 Jun 2027 05:09:30.820   02 Jun 2027 05:10:33.843            63.023         31511.500
        23   02 Jun 2027 05:21:46.739   02 Jun 2027 05:22:14.409            27.670         13835.000
        24   02 Jun 2027 06:43:29.529   02 Jun 2027 06:44:49.362            79.833         39916.500
        25   02 Jun 2027 06:45:23.080   02 Jun 2027 06:46:39.817            76.737         38368.500
        26   02 Jun 2027 06:47:58.210   02 Jun 2027 06:48:34.632            36.422         18211.000
        27   02 Jun 2027 08:18:22.375   02 Jun 2027 08:20:49.190           146.815         73407.500
        28   02 Jun 2027 08:21:30.238   02 Jun 2027 08:22:09.506            39.268         19634.000
        29   02 Jun 2027 08:22:29.773   02 Jun 2027 08:22:59.043            29.270         14635.000
        30   02 Jun 2027 08:27:28.820   02 Jun 2027 08:27:28.820             0.000             0.000
        31   02 Jun 2027 09:56:16.200   02 Jun 2027 09:57:24.314            68.114         33960.749
        32   02 Jun 2027 09:59:16.463   02 Jun 2027 09:59:20.635             4.172          1779.031
        33   02 Jun 2027 09:59:37.096   02 Jun 2027 09:59:41.172             4.076           277.031
        34   02 Jun 2027 10:00:27.676   02 Jun 2027 10:00:30.262             2.586          1054.375
        35   02 Jun 2027 10:00:40.939   02 Jun 2027 10:00:41.936             0.997           333.656
        36   02 Jun 2027 10:02:15.390   02 Jun 2027 10:02:21.209             5.819          1590.562
        37   02 Jun 2027 10:02:36.393   02 Jun 2027 10:02:37.421             1.028           474.500
        38   02 Jun 2027 10:02:55.081   02 Jun 2027 10:03:00.926             5.845           150.750
        39   02 Jun 2027 10:03:32.525   02 Jun 2027 10:03:38.192             5.667           692.031
        40   02 Jun 2027 11:33:00.191   02 Jun 2027 11:33:14.575            14.384          6494.469
        41   02 Jun 2027 11:33:34.612   02 Jun 2027 11:33:37.334             2.722           577.313
        42   02 Jun 2027 11:35:48.929   02 Jun 2027 11:35:49.929             1.000           163.813
        43   02 Jun 2027 11:36:29.834   02 Jun 2027 11:36:37.943             8.109           998.969
        44   02 Jun 2027 11:36:51.981   02 Jun 2027 11:36:53.205             1.224           222.375
        45   02 Jun 2027 11:37:08.458   02 Jun 2027 11:37:14.000             5.542           419.719
        46   02 Jun 2027 11:37:35.932   02 Jun 2027 11:37:43.858             7.926           444.469
        47   02 Jun 2027 11:38:01.253   02 Jun 2027 11:38:03.491             2.238           267.844
        48   02 Jun 2027 11:38:15.295   02 Jun 2027 11:38:17.503             2.208           338.312
        49   02 Jun 2027 11:38:50.608   02 Jun 2027 11:38:54.643             4.035          1034.531
        50   02 Jun 2027 11:39:22.557   02 Jun 2027 11:39:26.173             3.616           518.031
        51   02 Jun 2027 11:39:43.281   02 Jun 2027 11:39:44.560             1.279           174.000
        52   03 Jun 2027 03:57:33.904   03 Jun 2027 03:58:45.685            71.781         35890.500
        53   03 Jun 2027 03:59:33.934   03 Jun 2027 04:00:09.859            35.925         17962.500
        54   03 Jun 2027 04:00:38.568   03 Jun 2027 04:01:21.005            42.437         21218.500
        55   03 Jun 2027 04:02:11.744   03 Jun 2027 04:02:14.878             3.134          1567.000
        56   03 Jun 2027 05:21:26.881   03 Jun 2027 05:22:12.521            45.640         22820.000
        57   03 Jun 2027 06:57:27.794   03 Jun 2027 06:59:40.545           132.751         66035.656
        58   03 Jun 2027 06:59:56.015   03 Jun 2027 06:59:56.015             0.000             0.000
        59   03 Jun 2027 07:00:08.482   03 Jun 2027 07:00:10.631             2.149           417.219
        60   03 Jun 2027 07:00:19.631   03 Jun 2027 07:00:20.590             0.959            41.187
        61   03 Jun 2027 08:31:15.260   03 Jun 2027 08:31:25.153             9.893          3072.531
        62   03 Jun 2027 08:32:47.793   03 Jun 2027 08:32:49.694             1.901           575.469
        63   03 Jun 2027 08:34:45.475   03 Jun 2027 08:34:52.995             7.520          2290.062
        64   03 Jun 2027 08:36:16.853   03 Jun 2027 08:36:20.096             3.243           218.094
        65   03 Jun 2027 08:37:42.778   03 Jun 2027 08:37:47.634             4.856          1982.469
        66   03 Jun 2027 08:37:59.170   03 Jun 2027 08:38:00.350             1.180            27.344
        67   03 Jun 2027 08:38:28.663   03 Jun 2027 08:38:32.095             3.432           683.594
        68   03 Jun 2027 08:39:20.382   03 Jun 2027 08:39:23.479             3.097          1508.969
        69   03 Jun 2027 10:08:24.221   03 Jun 2027 10:08:38.369            14.148          5568.688
        70   03 Jun 2027 10:10:30.131   03 Jun 2027 10:10:31.852             1.721           418.969
        71   03 Jun 2027 10:12:56.704   03 Jun 2027 10:12:59.269             2.565          1282.500
        72   03 Jun 2027 10:13:25.611   03 Jun 2027 10:13:30.359             4.748          1725.531
        73   03 Jun 2027 10:13:50.136   03 Jun 2027 10:13:51.984             1.848           618.031
        74   03 Jun 2027 10:14:37.178   03 Jun 2027 10:14:48.444            11.266          1281.094
        75   03 Jun 2027 10:15:09.202   03 Jun 2027 10:15:10.768             1.566            16.219
        76   03 Jun 2027 11:45:38.753   03 Jun 2027 11:45:51.833            13.080          6189.875
        77   03 Jun 2027 11:47:45.747   03 Jun 2027 11:47:50.499             4.752          1865.313
        78   03 Jun 2027 11:47:57.919   03 Jun 2027 11:48:04.897             6.978           231.875
        79   03 Jun 2027 11:48:43.292   03 Jun 2027 11:48:52.404             9.112           499.844
        80   03 Jun 2027 11:48:59.064   03 Jun 2027 11:48:59.945             0.881           128.312
        81   03 Jun 2027 11:49:41.974   03 Jun 2027 11:49:45.175             3.201           767.063
        82   03 Jun 2027 11:51:04.095   03 Jun 2027 11:51:10.153             6.058          2100.594
        83   03 Jun 2027 11:51:11.817   03 Jun 2027 11:51:11.988             0.171            52.000
        84   04 Jun 2027 04:09:57.415   04 Jun 2027 04:12:23.163           145.748         72874.000
        85   04 Jun 2027 04:13:17.649   04 Jun 2027 04:13:31.806            14.157          7078.500
        86   04 Jun 2027 05:33:19.959   04 Jun 2027 05:34:22.702            62.743         31371.500
        87   04 Jun 2027 07:09:40.861   04 Jun 2027 07:11:27.089           106.228         52510.406
        88   04 Jun 2027 07:12:35.060   04 Jun 2027 07:12:39.778             4.718          1622.594
        89   04 Jun 2027 08:43:40.787   04 Jun 2027 08:43:47.526             6.739          2669.281
        90   04 Jun 2027 08:45:25.575   04 Jun 2027 08:45:26.791             1.216           162.187
        91   04 Jun 2027 08:46:33.988   04 Jun 2027 08:46:40.913             6.925          1662.156
        92   04 Jun 2027 08:47:09.033   04 Jun 2027 08:47:15.763             6.730           738.969
        93   04 Jun 2027 08:50:14.682   04 Jun 2027 08:50:24.118             9.436          4718.000
        94   04 Jun 2027 08:50:46.653   04 Jun 2027 08:50:53.114             6.461           744.313
        95   04 Jun 2027 08:51:42.359   04 Jun 2027 08:51:44.443             2.084           801.875
        96   04 Jun 2027 10:20:49.674   04 Jun 2027 10:20:58.834             9.160          4398.250
        97   04 Jun 2027 10:22:56.709   04 Jun 2027 10:22:58.316             1.607           128.969
        98   04 Jun 2027 10:23:33.101   04 Jun 2027 10:23:34.751             1.650           192.437
        99   04 Jun 2027 10:24:50.407   04 Jun 2027 10:24:55.639             5.232          2066.844
       100   04 Jun 2027 10:25:18.351   04 Jun 2027 10:25:25.805             7.454           615.063
       101   04 Jun 2027 10:25:54.545   04 Jun 2027 10:25:56.311             1.766           572.719
       102   04 Jun 2027 10:26:57.284   04 Jun 2027 10:27:01.533             4.249          1406.563
       103   04 Jun 2027 10:27:19.454   04 Jun 2027 10:27:21.828             2.374            86.937
       104   04 Jun 2027 10:27:27.404   04 Jun 2027 10:27:30.422             3.018           174.250
       105   04 Jun 2027 11:57:48.437   04 Jun 2027 11:58:06.768            18.331          5575.125
       106   05 Jun 2027 04:22:16.571   05 Jun 2027 04:24:34.563           137.992         68996.000
       107   05 Jun 2027 05:45:14.078   05 Jun 2027 05:45:54.184            40.106         20053.000
       108   05 Jun 2027 05:46:17.979   05 Jun 2027 05:46:25.407             7.428          3714.000
       109   05 Jun 2027 07:21:46.677   05 Jun 2027 07:23:55.121           128.444         64222.000
       110   05 Jun 2027 07:24:34.544   05 Jun 2027 07:24:44.585            10.041          3489.875
       111   05 Jun 2027 08:56:55.524   05 Jun 2027 08:57:07.271            11.747          3705.594
       112   05 Jun 2027 08:57:32.501   05 Jun 2027 08:57:38.798             6.297           445.844
       113   05 Jun 2027 08:58:09.829   05 Jun 2027 08:58:10.906             1.077           361.344
       114   05 Jun 2027 08:59:18.042   05 Jun 2027 08:59:21.018             2.976          1325.250
       115   05 Jun 2027 09:00:22.676   05 Jun 2027 09:00:27.539             4.863           511.219
       116   05 Jun 2027 09:00:41.720   05 Jun 2027 09:00:44.129             2.409           212.125
       117   05 Jun 2027 09:02:21.900   05 Jun 2027 09:02:30.361             8.461          2532.125
       118   05 Jun 2027 09:02:54.159   05 Jun 2027 09:02:58.735             4.576           635.937
       119   05 Jun 2027 09:03:37.190   05 Jun 2027 09:03:37.754             0.564           143.812
       120   05 Jun 2027 10:33:15.868   05 Jun 2027 10:33:25.501             9.633          4332.063
       121   05 Jun 2027 10:35:38.131   05 Jun 2027 10:35:42.276             4.145           226.188
       122   05 Jun 2027 10:37:44.290   05 Jun 2027 10:37:47.456             3.166           793.438
       123   05 Jun 2027 10:38:48.982   05 Jun 2027 10:38:56.513             7.531          1513.875
       124   05 Jun 2027 10:39:26.239   05 Jun 2027 10:39:29.343             3.104           928.938
       125   06 Jun 2027 03:00:00.000   06 Jun 2027 03:00:03.912             3.912          1956.000
       126   06 Jun 2027 03:00:29.206   06 Jun 2027 03:00:51.422            22.216         11108.000
       127   06 Jun 2027 03:01:52.346   06 Jun 2027 03:01:53.762             1.416           708.000
       128   06 Jun 2027 04:34:00.811   06 Jun 2027 04:34:35.607            34.796         17398.000
       129   06 Jun 2027 04:34:49.428   06 Jun 2027 04:36:23.925            94.497         47248.500
       130   06 Jun 2027 04:37:19.788   06 Jun 2027 04:37:35.905            16.117          8058.500
       131   06 Jun 2027 05:57:21.604   06 Jun 2027 05:58:16.764            55.160         27580.000
       132   06 Jun 2027 06:00:13.362   06 Jun 2027 06:00:13.362             0.000             0.000
       133   06 Jun 2027 07:33:57.181   06 Jun 2027 07:35:25.373            88.192         42781.625
       134   06 Jun 2027 07:35:37.311   06 Jun 2027 07:35:41.567             4.256           373.062
       135   06 Jun 2027 07:35:48.512   06 Jun 2027 07:35:50.543             2.031           150.094
       136   06 Jun 2027 07:36:33.388   06 Jun 2027 07:36:35.654             2.266           746.500
       137   06 Jun 2027 07:37:24.385   06 Jun 2027 07:37:24.385             0.000             0.000
       138   06 Jun 2027 09:09:07.453   06 Jun 2027 09:09:14.611             7.158          3047.344
       139   06 Jun 2027 09:10:42.648   06 Jun 2027 09:10:43.312             0.664           179.594
       140   06 Jun 2027 09:12:03.033   06 Jun 2027 09:12:05.281             2.248          1035.437
       141   06 Jun 2027 09:12:25.306   06 Jun 2027 09:12:29.474             4.168           297.000
       142   06 Jun 2027 09:14:21.961   06 Jun 2027 09:14:27.088             5.127          2501.313
       143   06 Jun 2027 09:14:54.225   06 Jun 2027 09:15:00.540             6.315           262.656
       144   06 Jun 2027 09:15:42.687   06 Jun 2027 09:15:43.051             0.364           182.000
       145   06 Jun 2027 10:45:27.526   06 Jun 2027 10:45:36.325             8.799          4389.468
       146   06 Jun 2027 10:47:31.680   06 Jun 2027 10:47:35.273             3.593           278.500
       147   06 Jun 2027 10:48:02.052   06 Jun 2027 10:48:03.673             1.621           252.156
       148   06 Jun 2027 10:48:27.864   06 Jun 2027 10:48:31.265             3.401           662.031
       149   06 Jun 2027 10:49:43.236   06 Jun 2027 10:49:49.945             6.709           734.219
       150   06 Jun 2027 10:50:32.568   06 Jun 2027 10:50:37.343             4.775           839.219
       151   06 Jun 2027 10:50:39.133   06 Jun 2027 10:50:40.576             1.443            55.937
       152   07 Jun 2027 03:08:50.142   07 Jun 2027 03:09:33.840            43.698         21849.000
       153   07 Jun 2027 03:09:46.897   07 Jun 2027 03:09:58.507            11.610          5805.000
       154   07 Jun 2027 03:10:40.209   07 Jun 2027 03:10:53.218            13.009          6504.500
       155   07 Jun 2027 03:11:22.480   07 Jun 2027 03:11:26.246             3.766          1883.000
       156   07 Jun 2027 03:11:49.258   07 Jun 2027 03:11:57.147             7.889          3944.500
       157   07 Jun 2027 03:12:27.113   07 Jun 2027 03:12:34.671             7.558          3779.000
       158   07 Jun 2027 03:12:59.932   07 Jun 2027 03:13:14.205            14.273          7136.500
       159   07 Jun 2027 03:13:53.908   07 Jun 2027 03:13:55.544             1.636           818.000
       160   07 Jun 2027 03:15:16.267   07 Jun 2027 03:15:18.470             2.203          1101.500
       161   07 Jun 2027 04:35:14.646   07 Jun 2027 04:35:15.489             0.843           421.500
       162   07 Jun 2027 04:45:57.489   07 Jun 2027 04:46:38.338            40.849         20424.500
       163   07 Jun 2027 04:46:55.155   07 Jun 2027 04:48:50.822           115.667         57833.500
       164   07 Jun 2027 04:48:57.323   07 Jun 2027 04:49:15.205            17.882          8941.000
       165   07 Jun 2027 04:49:29.522   07 Jun 2027 04:49:33.117             3.595          1797.500
       166   07 Jun 2027 06:09:55.245   07 Jun 2027 06:10:29.017            33.772         16839.219
       167   07 Jun 2027 06:10:31.467   07 Jun 2027 06:10:31.856             0.389            76.563
       168   07 Jun 2027 06:12:17.381   07 Jun 2027 06:12:24.318             6.937          3248.969
       169   07 Jun 2027 07:45:44.141   07 Jun 2027 07:45:52.279             8.138          2894.438
       170   07 Jun 2027 07:46:39.428   07 Jun 2027 07:46:41.490             2.062           784.875
       171   07 Jun 2027 07:47:19.595   07 Jun 2027 07:47:23.336             3.741           900.469
       172   07 Jun 2027 07:48:05.641   07 Jun 2027 07:48:11.386             5.745          1208.469
       173   07 Jun 2027 07:48:25.584   07 Jun 2027 07:48:25.584             0.000             0.000
       174   07 Jun 2027 07:48:30.555   07 Jun 2027 07:48:31.426             0.871           267.375
       175   07 Jun 2027 07:49:04.421   07 Jun 2027 07:49:06.896             2.475          1031.094
       176   07 Jun 2027 07:49:53.053   07 Jun 2027 07:49:53.809             0.756           378.000
       177   07 Jun 2027 09:20:36.910   07 Jun 2027 09:20:43.820             6.910          3444.344
       178   07 Jun 2027 09:21:10.463   07 Jun 2027 09:21:14.236             3.773           138.625
       179   07 Jun 2027 09:23:53.016   07 Jun 2027 09:23:58.419             5.403          2391.563
       180   07 Jun 2027 09:24:27.699   07 Jun 2027 09:24:30.943             3.244           915.000
       181   07 Jun 2027 09:26:21.382   07 Jun 2027 09:26:30.446             9.064          2371.594
       182   07 Jun 2027 09:27:40.750   07 Jun 2027 09:27:47.938             7.188          2197.000
       183   07 Jun 2027 10:57:07.182   07 Jun 2027 10:57:17.540            10.358          4947.969
       184   07 Jun 2027 10:59:19.897   07 Jun 2027 10:59:23.284             3.387           246.500
       185   07 Jun 2027 10:59:34.325   07 Jun 2027 10:59:35.458             1.133           297.625
       186   07 Jun 2027 11:00:04.135   07 Jun 2027 11:00:05.735             1.600           363.281
       187   07 Jun 2027 11:00:51.703   07 Jun 2027 11:00:57.045             5.342          1436.500
       188   07 Jun 2027 11:01:20.841   07 Jun 2027 11:01:23.480             2.639           502.750
       189   07 Jun 2027 11:02:17.926   07 Jun 2027 11:02:21.212             3.286          1411.156
       190   07 Jun 2027 11:02:30.341   07 Jun 2027 11:02:41.025            10.684           285.281
       191   08 Jun 2027 03:20:54.288   08 Jun 2027 03:23:26.233           151.945         75972.500
       192   08 Jun 2027 03:23:54.246   08 Jun 2027 03:24:08.804            14.558          7279.000
       193   08 Jun 2027 03:25:33.949   08 Jun 2027 03:25:35.886             1.937           968.500
       194   08 Jun 2027 03:25:39.667   08 Jun 2027 03:25:57.903            18.236          9118.000
       195   08 Jun 2027 03:26:34.713   08 Jun 2027 03:26:55.354            20.641         10320.500
       196   08 Jun 2027 03:27:57.766   08 Jun 2027 03:28:04.245             6.479          3239.500
       197   08 Jun 2027 04:46:33.114   08 Jun 2027 04:46:57.366            24.252         12126.000
       198   08 Jun 2027 04:47:14.039   08 Jun 2027 04:47:40.289            26.250         13125.000
       199   08 Jun 2027 04:57:54.430   08 Jun 2027 04:59:07.124            72.694         35354.219
       200   08 Jun 2027 06:20:30.090   08 Jun 2027 06:20:38.600             8.510          4213.000
       201   08 Jun 2027 06:21:32.518   08 Jun 2027 06:21:33.463             0.945           472.500
       202   08 Jun 2027 06:21:46.925   08 Jun 2027 06:21:47.946             1.021           510.500
       203   08 Jun 2027 06:21:52.479   08 Jun 2027 06:22:01.448             8.969           819.875
       204   08 Jun 2027 06:22:23.593   08 Jun 2027 06:22:24.604             1.011           460.250
       205   08 Jun 2027 06:22:34.686   08 Jun 2027 06:22:36.606             1.920           303.344
       206   08 Jun 2027 06:23:34.569   08 Jun 2027 06:23:40.556             5.987          1727.781
       207   08 Jun 2027 06:24:49.460   08 Jun 2027 06:24:49.460             0.000             0.000
       208   08 Jun 2027 06:24:56.042   08 Jun 2027 06:25:01.196             5.154          1666.125
       209   08 Jun 2027 06:25:09.528   08 Jun 2027 06:25:11.217             1.689           260.375
       210   08 Jun 2027 07:56:00.918   08 Jun 2027 07:56:06.867             5.949          1813.469
       211   08 Jun 2027 07:57:29.530   08 Jun 2027 07:57:31.710             2.180          1052.656
       212   08 Jun 2027 07:57:46.931   08 Jun 2027 07:57:49.442             2.511           391.813
       213   08 Jun 2027 07:58:12.912   08 Jun 2027 07:58:15.999             3.087           517.687
       214   08 Jun 2027 07:58:42.279   08 Jun 2027 07:58:42.924             0.645           289.438
       215   08 Jun 2027 08:00:18.352   08 Jun 2027 08:00:24.303             5.951          2383.969
       216   08 Jun 2027 08:00:31.365   08 Jun 2027 08:00:33.778             2.413           187.031
       217   08 Jun 2027 08:00:52.582   08 Jun 2027 08:00:53.985             1.403           208.094
       218   08 Jun 2027 08:01:20.449   08 Jun 2027 08:01:20.449             0.000             0.000
       219   08 Jun 2027 08:01:45.733   08 Jun 2027 08:01:47.672             1.939           823.594
       220   08 Jun 2027 08:01:49.192   08 Jun 2027 08:01:51.784             2.592            47.500
       221   08 Jun 2027 09:32:21.080   08 Jun 2027 09:32:30.579             9.499          3878.219
       222   08 Jun 2027 09:33:10.153   08 Jun 2027 09:33:11.861             1.708           812.625
       223   08 Jun 2027 09:35:52.135   08 Jun 2027 09:35:53.693             1.558           491.719
       224   08 Jun 2027 09:35:59.815   08 Jun 2027 09:36:01.585             1.770           191.313
       225   08 Jun 2027 09:36:29.827   08 Jun 2027 09:36:35.615             5.788           844.656
       226   08 Jun 2027 09:37:11.669   08 Jun 2027 09:37:17.085             5.416           911.406
       227   08 Jun 2027 09:37:38.275   08 Jun 2027 09:37:38.522             0.247            46.219
       228   08 Jun 2027 09:38:18.373   08 Jun 2027 09:38:20.061             1.688           725.812
       229   08 Jun 2027 09:39:08.067   08 Jun 2027 09:39:12.181             4.114          1500.188
       230   08 Jun 2027 09:39:53.023   08 Jun 2027 09:39:53.184             0.161            80.500
       231   08 Jun 2027 11:09:27.157   08 Jun 2027 11:09:37.452            10.295          4953.219
       232   08 Jun 2027 11:11:28.262   08 Jun 2027 11:11:32.000             3.738           167.063
       233   08 Jun 2027 11:12:09.196   08 Jun 2027 11:12:11.980             2.784          1023.594
       234   08 Jun 2027 11:13:18.377   08 Jun 2027 11:13:22.184             3.807          1254.531
       235   08 Jun 2027 11:13:36.965   08 Jun 2027 11:13:38.615             1.650           149.250
       236   08 Jun 2027 11:14:13.704   08 Jun 2027 11:14:22.335             8.631           697.562
       237   08 Jun 2027 11:15:35.299   08 Jun 2027 11:15:40.099             4.800          1638.844
       238   09 Jun 2027 03:33:24.446   09 Jun 2027 03:35:51.871           147.425         73712.500
       239   09 Jun 2027 03:37:30.314   09 Jun 2027 03:38:39.405            69.091         34545.500
       240   09 Jun 2027 04:58:13.707   09 Jun 2027 04:58:31.173            17.466          8733.000
       241   09 Jun 2027 05:09:54.622   09 Jun 2027 05:10:55.797            61.175         30587.500
       242   09 Jun 2027 06:32:12.246   09 Jun 2027 06:32:47.878            35.632         17327.969
       243   09 Jun 2027 06:32:56.699   09 Jun 2027 06:32:57.716             1.017            82.969
       244   09 Jun 2027 06:34:06.220   09 Jun 2027 06:34:10.024             3.804          1646.562
       245   09 Jun 2027 06:34:26.861   09 Jun 2027 06:34:28.274             1.413           328.125
       246   09 Jun 2027 06:34:57.515   09 Jun 2027 06:35:07.098             9.583           610.875
       247   09 Jun 2027 06:35:08.825   09 Jun 2027 06:35:08.825             0.000             0.000
       248   09 Jun 2027 06:35:38.061   09 Jun 2027 06:35:41.479             3.418           967.594
       249   09 Jun 2027 06:36:50.488   09 Jun 2027 06:36:54.382             3.894          1820.031
       250   09 Jun 2027 08:07:08.473   09 Jun 2027 08:07:13.565             5.092          2482.625
       251   09 Jun 2027 08:08:12.700   09 Jun 2027 08:08:15.027             2.327           937.031
       252   09 Jun 2027 08:09:22.758   09 Jun 2027 08:09:28.538             5.780          1198.281
       253   09 Jun 2027 08:09:40.633   09 Jun 2027 08:09:43.257             2.624           325.281
       254   09 Jun 2027 08:10:17.273   09 Jun 2027 08:10:18.231             0.958           207.188
       255   09 Jun 2027 08:10:53.339   09 Jun 2027 08:10:55.425             2.086           262.281
       256   09 Jun 2027 08:12:24.203   09 Jun 2027 08:12:30.854             6.651          2545.188
       257   09 Jun 2027 08:12:54.333   09 Jun 2027 08:12:55.313             0.980            12.562
       258   09 Jun 2027 08:13:34.889   09 Jun 2027 08:13:37.324             2.435          1049.719
       259   09 Jun 2027 08:13:43.903   09 Jun 2027 08:13:44.746             0.843           205.594
       260   09 Jun 2027 08:15:08.636   09 Jun 2027 08:15:16.105             7.469          1529.156
       261   09 Jun 2027 09:44:38.601   09 Jun 2027 09:44:44.678             6.077          2518.281
       262   09 Jun 2027 09:46:37.811   09 Jun 2027 09:46:49.176            11.365          2671.375
       263   09 Jun 2027 09:47:49.328   09 Jun 2027 09:47:56.128             6.800          1267.000
       264   09 Jun 2027 09:48:24.262   09 Jun 2027 09:48:30.538             6.276           286.125
       265   09 Jun 2027 09:49:20.559   09 Jun 2027 09:49:26.714             6.155          1528.531
       266   09 Jun 2027 09:49:47.945   09 Jun 2027 09:49:53.330             5.385           385.406
       267   09 Jun 2027 09:50:03.403   09 Jun 2027 09:50:05.792             2.389           314.781
       268   09 Jun 2027 09:50:24.276   09 Jun 2027 09:50:26.582             2.306           201.406
       269   09 Jun 2027 09:50:54.587   09 Jun 2027 09:50:55.458             0.871            93.656
       270   09 Jun 2027 09:51:56.404   09 Jun 2027 09:51:57.497             1.093           546.500
       271   09 Jun 2027 11:21:23.373   09 Jun 2027 11:21:37.832            14.459          6046.656
       272   09 Jun 2027 11:23:37.982   09 Jun 2027 11:23:39.115             1.133            69.906
       273   09 Jun 2027 11:24:55.903   09 Jun 2027 11:25:06.449            10.546          1519.531
       274   09 Jun 2027 11:25:13.536   09 Jun 2027 11:25:15.023             1.487           221.469
       275   09 Jun 2027 11:25:24.958   09 Jun 2027 11:25:25.736             0.778           146.344
       276   09 Jun 2027 11:26:16.530   09 Jun 2027 11:26:21.114             4.584          1278.656
       277   09 Jun 2027 11:27:04.538   09 Jun 2027 11:27:06.562             2.024           684.406
       278   09 Jun 2027 11:27:22.581   09 Jun 2027 11:27:26.934             4.353           500.594
       279   09 Jun 2027 11:27:27.941   09 Jun 2027 11:27:28.470             0.529            23.000
       280   10 Jun 2027 03:45:26.427   10 Jun 2027 03:48:21.162           174.735         87367.500
       281   10 Jun 2027 03:49:39.306   10 Jun 2027 03:50:36.792            57.486         28743.000
       282   10 Jun 2027 03:52:13.099   10 Jun 2027 03:52:13.099             0.000             0.000
       283   10 Jun 2027 05:09:47.302   10 Jun 2027 05:10:25.777            38.475         19237.500
       284   10 Jun 2027 05:22:02.841   10 Jun 2027 05:22:30.245            27.404         13702.000
       285   10 Jun 2027 06:43:44.240   10 Jun 2027 06:44:18.713            34.473         17036.500
       286   10 Jun 2027 06:44:45.434   10 Jun 2027 06:44:48.132             2.698           589.719
       287   10 Jun 2027 06:45:52.390   10 Jun 2027 06:45:55.437             3.047           401.469
       288   10 Jun 2027 06:46:13.850   10 Jun 2027 06:46:17.007             3.157           575.406
       289   10 Jun 2027 06:46:41.278   10 Jun 2027 06:46:41.278             0.000             0.000
       290   10 Jun 2027 06:46:55.429   10 Jun 2027 06:47:00.641             5.212           842.656
       291   10 Jun 2027 06:48:13.330   10 Jun 2027 06:48:22.913             9.583          2156.844
       292   10 Jun 2027 06:48:32.608   10 Jun 2027 06:48:37.217             4.609           283.562
       293   10 Jun 2027 06:48:59.295   10 Jun 2027 06:48:59.295             0.000             0.000
       294   10 Jun 2027 08:18:37.784   10 Jun 2027 08:18:43.216             5.432          2595.250
       295   10 Jun 2027 08:19:31.011   10 Jun 2027 08:19:33.335             2.324          1158.000
       296   10 Jun 2027 08:20:53.956   10 Jun 2027 08:20:53.956             0.000             0.000
       297   10 Jun 2027 08:21:03.482   10 Jun 2027 08:21:05.351             1.869           319.000
       298   10 Jun 2027 08:23:03.051   10 Jun 2027 08:23:11.029             7.978          2313.125
       299   10 Jun 2027 08:24:27.027   10 Jun 2027 08:24:31.938             4.911          2207.156
       300   10 Jun 2027 08:25:29.182   10 Jun 2027 08:25:33.305             4.123          1788.875
       301   10 Jun 2027 08:26:11.707   10 Jun 2027 08:26:15.911             4.204          1190.313
       302   10 Jun 2027 08:27:11.389   10 Jun 2027 08:27:11.389             0.000             0.000
       303   10 Jun 2027 08:27:46.967   10 Jun 2027 08:27:58.510            11.543          2214.938
       304   10 Jun 2027 09:56:32.804   10 Jun 2027 09:56:42.467             9.663          3790.813
       305   10 Jun 2027 10:00:43.067   10 Jun 2027 10:00:47.191             4.124          1008.031
       306   10 Jun 2027 10:01:55.586   10 Jun 2027 10:02:01.792             6.206          2115.750
       307   10 Jun 2027 10:02:24.086   10 Jun 2027 10:02:25.632             1.546           299.250
       308   10 Jun 2027 10:03:07.775   10 Jun 2027 10:03:13.216             5.441          1220.312
       309   10 Jun 2027 10:03:32.032   10 Jun 2027 10:03:33.783             1.751           588.000
       310   10 Jun 2027 10:03:36.577   10 Jun 2027 10:03:38.975             2.398            87.312
       311   10 Jun 2027 11:33:17.422   10 Jun 2027 11:33:29.644            12.222          5349.250
       312   10 Jun 2027 11:33:52.057   10 Jun 2027 11:33:54.833             2.776           671.875
       313   10 Jun 2027 11:34:26.503   10 Jun 2027 11:34:28.410             1.907           491.063
       314   10 Jun 2027 11:35:00.252   10 Jun 2027 11:35:06.168             5.916           995.063
       315   10 Jun 2027 11:36:13.488   10 Jun 2027 11:36:18.644             5.156          1067.469
       316   10 Jun 2027 11:37:22.982   10 Jun 2027 11:37:29.947             6.965          1412.875
       317   10 Jun 2027 11:38:11.039   10 Jun 2027 11:38:17.870             6.831           848.375
       318   10 Jun 2027 11:38:52.611   10 Jun 2027 11:38:55.161             2.550          1064.688
       319   10 Jun 2027 11:39:35.771   10 Jun 2027 11:39:40.118             4.347          1269.062
       320   11 Jun 2027 03:57:52.047   11 Jun 2027 04:00:53.693           181.646         90823.000
       321   11 Jun 2027 04:01:24.542   11 Jun 2027 04:01:29.193             4.651          2325.500
       322   11 Jun 2027 04:02:26.311   11 Jun 2027 04:02:50.506            24.195         12097.500
       323   11 Jun 2027 05:21:43.051   11 Jun 2027 05:22:13.140            30.089         15044.500
       324   11 Jun 2027 06:57:43.021   11 Jun 2027 06:59:14.208            91.187         45593.500
       325   11 Jun 2027 06:59:51.255   11 Jun 2027 06:59:55.515             4.260          2059.906
       326   11 Jun 2027 07:01:00.709   11 Jun 2027 07:01:01.108             0.399           199.500
       327   11 Jun 2027 07:01:36.395   11 Jun 2027 07:01:36.565             0.170            85.000
       328   11 Jun 2027 08:31:31.107   11 Jun 2027 08:31:40.339             9.232          2396.063
       329   11 Jun 2027 08:33:05.170   11 Jun 2027 08:33:08.142             2.972           590.344
       330   11 Jun 2027 08:33:52.060   11 Jun 2027 08:33:54.445             2.385            98.000
       331   11 Jun 2027 08:34:02.691   11 Jun 2027 08:34:03.275             0.584           257.687
       332   11 Jun 2027 08:35:20.279   11 Jun 2027 08:35:27.038             6.759           957.781
       333   11 Jun 2027 08:38:02.225   11 Jun 2027 08:38:11.862             9.637          3510.688
       334   11 Jun 2027 08:38:16.581   11 Jun 2027 08:38:18.987             2.406            22.875
       335   11 Jun 2027 08:39:21.521   11 Jun 2027 08:39:24.428             2.907          1375.531
       336   11 Jun 2027 10:08:42.691   11 Jun 2027 10:08:56.707            14.016          5529.062
       337   11 Jun 2027 10:11:16.403   11 Jun 2027 10:11:19.609             3.206          1292.344
       338   11 Jun 2027 10:11:47.703   11 Jun 2027 10:11:49.300             1.597           478.781
       339   11 Jun 2027 10:12:45.453   11 Jun 2027 10:12:53.784             8.331           754.063
       340   11 Jun 2027 10:13:35.016   11 Jun 2027 10:13:36.033             1.017           491.375
       341   11 Jun 2027 10:14:05.391   11 Jun 2027 10:14:06.463             1.072           347.156
       342   11 Jun 2027 10:14:51.701   11 Jun 2027 10:15:04.828            13.127          1320.188
       343   11 Jun 2027 10:15:28.212   11 Jun 2027 10:15:29.601             1.389           630.469
       344   11 Jun 2027 10:15:44.696   11 Jun 2027 10:15:46.069             1.373           471.719
       345   11 Jun 2027 11:45:56.399   11 Jun 2027 11:46:10.747            14.348          5306.594
       346   11 Jun 2027 11:48:09.014   11 Jun 2027 11:48:09.482             0.468           217.000
       347   11 Jun 2027 11:49:13.466   11 Jun 2027 11:49:19.725             6.259          1908.156
       348   11 Jun 2027 11:50:13.349   11 Jun 2027 11:50:16.356             3.007           836.188
       349   11 Jun 2027 11:51:06.629   11 Jun 2027 11:51:12.448             5.819          1571.031
       350   11 Jun 2027 11:51:44.869   11 Jun 2027 11:51:47.360             2.491           786.813
       351   12 Jun 2027 04:10:13.519   12 Jun 2027 04:12:40.468           146.949         73474.500
       352   12 Jun 2027 04:13:50.469   12 Jun 2027 04:14:09.571            19.102          9551.000
       353   12 Jun 2027 05:33:35.405   12 Jun 2027 05:34:31.432            56.027         28013.500
       354   12 Jun 2027 07:09:56.523   12 Jun 2027 07:11:43.125           106.602         52517.687
       355   12 Jun 2027 07:12:51.601   12 Jun 2027 07:12:54.794             3.193          1577.375
       356   12 Jun 2027 08:43:59.529   12 Jun 2027 08:44:04.457             4.928          2238.844
       357   12 Jun 2027 08:45:56.420   12 Jun 2027 08:45:56.420             0.000             0.000
       358   12 Jun 2027 08:46:06.655   12 Jun 2027 08:46:10.026             3.371           895.844
       359   12 Jun 2027 08:47:26.780   12 Jun 2027 08:47:32.477             5.697          1100.219
       360   12 Jun 2027 08:48:58.532   12 Jun 2027 08:49:04.296             5.764          1888.625
       361   12 Jun 2027 08:49:19.738   12 Jun 2027 08:49:31.973            12.235           166.438
       362   12 Jun 2027 08:50:22.727   12 Jun 2027 08:50:31.724             8.997           358.937
       363   12 Jun 2027 08:51:04.394   12 Jun 2027 08:51:09.239             4.845           808.437
       364   12 Jun 2027 08:51:58.374   12 Jun 2027 08:52:00.315             1.941           744.281
       365   12 Jun 2027 10:21:06.274   12 Jun 2027 10:21:20.424            14.150          4424.969
       366   12 Jun 2027 10:23:08.186   12 Jun 2027 10:23:12.339             4.153          1749.563
       367   12 Jun 2027 10:23:49.180   12 Jun 2027 10:23:51.430             2.250           221.594
       368   12 Jun 2027 10:24:05.030   12 Jun 2027 10:24:06.794             1.764           416.219
       369   12 Jun 2027 10:24:46.203   12 Jun 2027 10:24:50.401             4.198           861.188
       370   12 Jun 2027 10:25:51.783   12 Jun 2027 10:25:54.315             2.532           864.187
       371   12 Jun 2027 10:26:26.595   12 Jun 2027 10:26:27.738             1.143           449.656
       372   12 Jun 2027 10:27:40.559   12 Jun 2027 10:27:42.349             1.790           845.750
       373   12 Jun 2027 11:58:03.913   12 Jun 2027 11:58:24.295            20.382          7410.906
       374   12 Jun 2027 11:59:10.303   12 Jun 2027 11:59:12.915             2.612          1134.844
       375   13 Jun 2027 04:22:37.769   13 Jun 2027 04:24:45.058           127.289         63644.500
       376   13 Jun 2027 04:25:52.760   13 Jun 2027 04:26:03.425            10.665          5332.500
       377   13 Jun 2027 05:45:37.103   13 Jun 2027 05:46:18.226            41.123         20561.500
       378   13 Jun 2027 07:22:02.997   13 Jun 2027 07:24:18.979           135.982         67876.657
       379   13 Jun 2027 07:24:39.219   13 Jun 2027 07:24:40.234             1.015           180.969
       380   13 Jun 2027 08:57:11.337   13 Jun 2027 08:57:21.685            10.348          4482.812
       381   13 Jun 2027 08:57:48.005   13 Jun 2027 08:57:50.557             2.552           388.688
       382   13 Jun 2027 08:58:53.186   13 Jun 2027 08:58:58.570             5.384          1157.750
       383   13 Jun 2027 08:59:53.439   13 Jun 2027 08:59:56.126             2.687          1125.469
       384   13 Jun 2027 09:01:12.300   13 Jun 2027 09:01:18.276             5.976          1820.063
       385   13 Jun 2027 09:02:39.078   13 Jun 2027 09:02:44.144             5.066          2516.375
       386   13 Jun 2027 09:03:12.166   13 Jun 2027 09:03:17.878             5.712           875.688
       387   13 Jun 2027 09:03:52.910   13 Jun 2027 09:03:54.014             1.104           368.063
       388   13 Jun 2027 10:33:32.047   13 Jun 2027 10:33:43.083            11.036          4803.719
       389   13 Jun 2027 10:36:44.464   13 Jun 2027 10:36:50.231             5.767           720.750
       390   13 Jun 2027 10:37:47.881   13 Jun 2027 10:37:52.392             4.511          1801.562
       391   13 Jun 2027 10:39:05.403   13 Jun 2027 10:39:12.444             7.041          1477.250
       392   13 Jun 2027 10:39:41.079   13 Jun 2027 10:39:44.028             2.949           890.844
       393   13 Jun 2027 10:39:48.701   13 Jun 2027 10:39:51.165             2.464           146.031
