uniorb/output/strategy_4/Camera/Camera_KinoSat_111109.txt

KinoSat_111109
-------------------------
    Access    *     Start Time (UTCG)     *     Stop Time (UTCG)  *   Duration (s) *   Data (Mbytes)
         1   01 Jun 2027 03:00:00.000   01 Jun 2027 03:00:02.111             2.111          1055.500
         2   01 Jun 2027 03:00:47.489   01 Jun 2027 03:01:08.841            21.352         10676.000
         3   01 Jun 2027 03:01:21.229   01 Jun 2027 03:01:36.061            14.832          7416.000
         4   01 Jun 2027 03:01:51.327   01 Jun 2027 03:01:51.331             0.004             2.000
         5   01 Jun 2027 04:20:39.042   01 Jun 2027 04:22:04.633            85.591         42795.500
         6   01 Jun 2027 04:22:37.746   01 Jun 2027 04:22:43.954             6.208          3104.000
         7   01 Jun 2027 05:57:03.374   01 Jun 2027 05:58:38.593            95.219         47609.500
         8   01 Jun 2027 05:59:21.899   01 Jun 2027 06:00:16.963            55.064         27532.000
         9   01 Jun 2027 07:31:09.125   01 Jun 2027 07:33:39.679           150.554         75277.000
        10   01 Jun 2027 07:34:34.633   01 Jun 2027 07:34:34.810             0.177            88.500
        11   01 Jun 2027 07:37:28.246   01 Jun 2027 07:37:28.334             0.088            44.000
        12   01 Jun 2027 07:38:18.255   01 Jun 2027 07:38:28.861            10.606          5303.000
        13   01 Jun 2027 07:38:51.985   01 Jun 2027 07:38:57.762             5.777          2888.500
        14   01 Jun 2027 07:39:01.379   01 Jun 2027 07:39:03.843             2.464          1232.000
        15   01 Jun 2027 09:08:09.282   01 Jun 2027 09:10:51.149           161.867         80933.500
        16   01 Jun 2027 09:11:17.153   01 Jun 2027 09:11:44.515            27.362         13681.000
        17   01 Jun 2027 10:45:10.738   01 Jun 2027 10:47:30.207           139.469         69734.500
        18   01 Jun 2027 10:49:05.013   01 Jun 2027 10:49:24.497            19.484          9742.000
        19   02 Jun 2027 03:09:02.127   02 Jun 2027 03:09:06.926             4.799          2399.500
        20   02 Jun 2027 03:10:10.605   02 Jun 2027 03:11:50.156            99.551         49775.500
        21   02 Jun 2027 03:12:57.765   02 Jun 2027 03:13:03.400             5.635          2817.500
        22   02 Jun 2027 04:32:44.298   02 Jun 2027 04:32:59.817            15.519          7759.500
        23   02 Jun 2027 04:33:25.097   02 Jun 2027 04:33:42.385            17.288          8644.000
        24   02 Jun 2027 04:34:09.894   02 Jun 2027 04:34:17.776             7.882          3941.000
        25   02 Jun 2027 06:09:13.324   02 Jun 2027 06:12:52.107           218.783        109391.500
        26   02 Jun 2027 07:44:20.718   02 Jun 2027 07:47:20.341           179.623         89811.500
        27   02 Jun 2027 07:50:23.151   02 Jun 2027 07:50:45.107            21.956         10978.000
        28   02 Jun 2027 07:50:55.622   02 Jun 2027 07:51:05.267             9.645          4822.500
        29   02 Jun 2027 09:20:42.086   02 Jun 2027 09:22:17.473            95.387         44991.906
        30   02 Jun 2027 09:23:55.303   02 Jun 2027 09:23:55.729             0.426           213.000
        31   02 Jun 2027 09:25:09.091   02 Jun 2027 09:25:13.262             4.171          2085.500
        32   02 Jun 2027 09:26:00.733   02 Jun 2027 09:26:10.524             9.791          1864.312
        33   02 Jun 2027 09:26:57.553   02 Jun 2027 09:27:00.009             2.456          1228.000
        34   02 Jun 2027 10:58:08.461   02 Jun 2027 10:58:21.059            12.598          5238.906
        35   02 Jun 2027 10:58:57.748   02 Jun 2027 10:58:58.837             1.089           264.406
        36   02 Jun 2027 10:59:41.038   02 Jun 2027 10:59:46.889             5.851           195.313
        37   02 Jun 2027 11:00:02.067   02 Jun 2027 11:00:07.375             5.308           317.156
        38   02 Jun 2027 11:01:13.398   02 Jun 2027 11:01:18.545             5.147          2050.000
        39   02 Jun 2027 11:02:12.488   02 Jun 2027 11:02:19.267             6.779          1220.625
        40   02 Jun 2027 11:02:26.806   02 Jun 2027 11:02:30.715             3.909           148.844
        41   03 Jun 2027 03:21:19.637   03 Jun 2027 03:21:57.226            37.589         18794.500
        42   03 Jun 2027 03:22:09.661   03 Jun 2027 03:24:24.250           134.589         67294.500
        43   03 Jun 2027 04:44:47.572   03 Jun 2027 04:45:23.515            35.943         17971.500
        44   03 Jun 2027 04:46:32.508   03 Jun 2027 04:46:38.486             5.978          2989.000
        45   03 Jun 2027 04:46:45.553   03 Jun 2027 04:47:09.277            23.724         11862.000
        46   03 Jun 2027 06:21:16.503   03 Jun 2027 06:22:21.784            65.281         32433.500
        47   03 Jun 2027 06:22:37.309   03 Jun 2027 06:22:44.926             7.617           175.469
        48   03 Jun 2027 06:23:22.173   03 Jun 2027 06:23:24.076             1.903           472.438
        49   03 Jun 2027 06:23:38.990   03 Jun 2027 06:23:40.691             1.701           235.687
        50   03 Jun 2027 06:24:19.919   03 Jun 2027 06:24:20.573             0.654           327.000
        51   03 Jun 2027 07:56:27.683   03 Jun 2027 07:56:32.346             4.663          1814.687
        52   03 Jun 2027 07:56:43.274   03 Jun 2027 07:56:44.947             1.673            25.250
        53   03 Jun 2027 07:57:28.921   03 Jun 2027 07:57:30.004             1.083           216.187
        54   03 Jun 2027 07:57:46.559   03 Jun 2027 07:57:48.461             1.902           517.344
        55   03 Jun 2027 07:57:52.410   03 Jun 2027 07:57:52.410             0.000             0.000
        56   03 Jun 2027 07:58:35.735   03 Jun 2027 07:58:41.086             5.351          1371.531
        57   03 Jun 2027 07:59:16.021   03 Jun 2027 07:59:18.934             2.913          1048.969
        58   03 Jun 2027 08:00:24.405   03 Jun 2027 08:00:28.714             4.309           843.625
        59   03 Jun 2027 08:00:45.096   03 Jun 2027 08:00:46.154             1.058           345.875
        60   03 Jun 2027 08:01:49.174   03 Jun 2027 08:01:52.903             3.729           478.719
        61   03 Jun 2027 08:02:25.991   03 Jun 2027 08:02:33.940             7.949           921.094
        62   03 Jun 2027 08:02:47.917   03 Jun 2027 08:02:53.112             5.195           241.438
        63   03 Jun 2027 09:32:24.323   03 Jun 2027 09:32:37.361            13.038          5624.250
        64   03 Jun 2027 09:35:40.781   03 Jun 2027 09:35:41.445             0.664            49.375
        65   03 Jun 2027 09:36:43.575   03 Jun 2027 09:36:53.545             9.970          1855.813
        66   03 Jun 2027 09:37:48.367   03 Jun 2027 09:37:53.483             5.116           942.156
        67   03 Jun 2027 11:10:15.391   03 Jun 2027 11:10:26.332            10.941          5035.156
        68   03 Jun 2027 11:12:08.157   03 Jun 2027 11:12:17.060             8.903           924.031
        69   03 Jun 2027 11:12:36.628   03 Jun 2027 11:12:37.287             0.659           258.000
        70   03 Jun 2027 11:12:53.206   03 Jun 2027 11:12:55.338             2.132           124.031
        71   03 Jun 2027 11:13:24.197   03 Jun 2027 11:13:27.538             3.341           847.812
        72   03 Jun 2027 11:13:45.654   03 Jun 2027 11:13:46.339             0.685           192.062
        73   03 Jun 2027 11:14:25.487   03 Jun 2027 11:14:28.548             3.061            63.875
        74   03 Jun 2027 11:14:32.406   03 Jun 2027 11:14:33.142             0.736           120.562
        75   04 Jun 2027 03:22:24.574   04 Jun 2027 03:22:29.840             5.266          2633.000
        76   04 Jun 2027 03:33:16.959   04 Jun 2027 03:36:52.404           215.445        107722.500
        77   04 Jun 2027 04:57:14.279   04 Jun 2027 04:57:31.725            17.446          8723.000
        78   04 Jun 2027 06:33:00.808   04 Jun 2027 06:34:12.738            71.930         35728.875
        79   04 Jun 2027 06:34:31.509   04 Jun 2027 06:34:36.315             4.806           582.500
        80   04 Jun 2027 06:35:14.952   04 Jun 2027 06:35:19.582             4.630           362.094
        81   04 Jun 2027 06:36:20.007   04 Jun 2027 06:36:28.114             8.107          1281.719
        82   04 Jun 2027 08:07:43.745   04 Jun 2027 08:07:50.457             6.712          2120.344
        83   04 Jun 2027 08:08:40.789   04 Jun 2027 08:08:57.103            16.314           489.844
        84   04 Jun 2027 08:09:33.767   04 Jun 2027 08:09:35.315             1.548           283.844
        85   04 Jun 2027 08:09:57.340   04 Jun 2027 08:10:00.445             3.105           406.281
        86   04 Jun 2027 08:10:57.249   04 Jun 2027 08:11:00.076             2.827          1139.188
        87   04 Jun 2027 08:11:59.544   04 Jun 2027 08:12:10.805            11.261          1700.656
        88   04 Jun 2027 08:13:33.091   04 Jun 2027 08:13:43.933            10.842          2018.250
        89   04 Jun 2027 08:14:34.781   04 Jun 2027 08:14:37.608             2.827          1330.313
        90   04 Jun 2027 09:44:29.433   04 Jun 2027 09:44:42.169            12.736          6005.312
        91   04 Jun 2027 09:47:16.886   04 Jun 2027 09:47:18.596             1.710           383.687
        92   04 Jun 2027 09:47:44.245   04 Jun 2027 09:47:45.945             1.700           801.531
        93   04 Jun 2027 09:48:48.022   04 Jun 2027 09:48:51.054             3.032          1451.250
        94   04 Jun 2027 09:49:22.393   04 Jun 2027 09:49:26.739             4.346           933.375
        95   04 Jun 2027 09:49:53.433   04 Jun 2027 09:49:55.540             2.107           827.531
        96   04 Jun 2027 09:50:19.430   04 Jun 2027 09:50:21.546             2.116           410.750
        97   04 Jun 2027 11:22:45.597   04 Jun 2027 11:23:01.248            15.651          7051.813
        98   04 Jun 2027 11:24:55.171   04 Jun 2027 11:24:56.733             1.562            82.219
        99   04 Jun 2027 11:25:21.788   04 Jun 2027 11:25:26.413             4.625           755.313
       100   04 Jun 2027 11:25:38.693   04 Jun 2027 11:25:44.582             5.889           301.875
       101   04 Jun 2027 11:26:15.439   04 Jun 2027 11:26:17.881             2.442           439.281
       102   04 Jun 2027 11:26:32.926   04 Jun 2027 11:26:34.252             1.326           356.250
       103   05 Jun 2027 03:33:39.938   05 Jun 2027 03:33:50.810            10.872          5436.000
       104   05 Jun 2027 03:34:48.449   05 Jun 2027 03:34:51.676             3.227          1613.500
       105   05 Jun 2027 03:45:15.220   05 Jun 2027 03:46:43.328            88.108         44054.000
       106   05 Jun 2027 05:07:52.013   05 Jun 2027 05:08:50.616            58.603         29301.500
       107   05 Jun 2027 05:09:29.793   05 Jun 2027 05:10:35.850            66.057         33028.500
       108   05 Jun 2027 06:43:01.389   05 Jun 2027 06:44:15.398            74.009         37004.500
       109   05 Jun 2027 06:44:43.978   05 Jun 2027 06:44:49.791             5.813          2361.938
       110   05 Jun 2027 06:46:17.146   05 Jun 2027 06:46:24.096             6.950          2163.781
       111   05 Jun 2027 06:47:02.649   05 Jun 2027 06:47:02.649             0.000             0.000
       112   05 Jun 2027 06:47:36.259   05 Jun 2027 06:47:40.894             4.635          2255.094
       113   05 Jun 2027 06:47:57.996   05 Jun 2027 06:47:58.444             0.448           224.000
       114   05 Jun 2027 06:48:24.006   05 Jun 2027 06:48:27.089             3.083          1109.250
       115   05 Jun 2027 06:48:43.170   05 Jun 2027 06:48:45.272             2.102           287.031
       116   05 Jun 2027 06:49:19.917   05 Jun 2027 06:49:22.684             2.767           420.344
       117   05 Jun 2027 08:19:48.833   05 Jun 2027 08:19:58.250             9.417          2408.594
       118   05 Jun 2027 08:20:41.536   05 Jun 2027 08:20:47.197             5.661           911.906
       119   05 Jun 2027 08:22:01.303   05 Jun 2027 08:22:03.524             2.221           766.938
       120   05 Jun 2027 08:23:05.164   05 Jun 2027 08:23:06.441             1.277           335.750
       121   05 Jun 2027 08:24:20.457   05 Jun 2027 08:24:27.827             7.370          2039.281
       122   05 Jun 2027 08:24:51.844   05 Jun 2027 08:24:57.175             5.331           518.875
       123   05 Jun 2027 08:25:55.102   05 Jun 2027 08:25:56.690             1.588           735.281
       124   05 Jun 2027 08:26:01.952   05 Jun 2027 08:26:07.281             5.329           164.437
       125   05 Jun 2027 08:27:14.519   05 Jun 2027 08:27:15.034             0.515           257.500
       126   05 Jun 2027 09:56:49.881   05 Jun 2027 09:56:59.875             9.994          4964.969
       127   05 Jun 2027 09:59:21.191   05 Jun 2027 09:59:26.067             4.876          2064.469
       128   05 Jun 2027 09:59:57.574   05 Jun 2027 10:00:00.393             2.819            60.281
       129   05 Jun 2027 10:00:51.986   05 Jun 2027 10:00:56.176             4.190          1093.281
       130   05 Jun 2027 10:01:37.671   05 Jun 2027 10:01:40.898             3.227          1231.062
       131   05 Jun 2027 10:02:27.543   05 Jun 2027 10:02:31.664             4.121          1031.844
       132   05 Jun 2027 11:34:43.358   05 Jun 2027 11:34:56.425            13.067          5244.469
       133   05 Jun 2027 11:35:09.227   05 Jun 2027 11:35:10.159             0.932           298.562
       134   05 Jun 2027 11:35:37.156   05 Jun 2027 11:35:43.826             6.670           225.031
       135   05 Jun 2027 11:36:48.492   05 Jun 2027 11:36:53.428             4.936          1383.406
       136   05 Jun 2027 11:37:20.645   05 Jun 2027 11:37:28.734             8.089           822.906
       137   05 Jun 2027 11:38:09.739   05 Jun 2027 11:38:10.882             1.143           239.625
       138   05 Jun 2027 11:38:33.626   05 Jun 2027 11:38:36.226             2.600           397.719
       139   06 Jun 2027 03:45:00.566   06 Jun 2027 03:45:01.899             1.333           666.500
       140   06 Jun 2027 03:46:19.130   06 Jun 2027 03:46:30.233            11.103          5551.500
       141   06 Jun 2027 03:57:14.308   06 Jun 2027 03:58:12.239            57.931         28965.500
       142   06 Jun 2027 05:19:27.912   06 Jun 2027 05:20:36.059            68.147         34073.500
       143   06 Jun 2027 05:21:24.279   06 Jun 2027 05:22:29.284            65.005         32502.500
       144   06 Jun 2027 05:23:44.787   06 Jun 2027 05:23:53.361             8.574          4287.000
       145   06 Jun 2027 06:54:21.441   06 Jun 2027 06:55:52.381            90.940         45470.000
       146   06 Jun 2027 06:56:02.393   06 Jun 2027 06:56:02.393             0.000             0.000
       147   06 Jun 2027 06:56:37.582   06 Jun 2027 06:56:41.044             3.462          1653.187
       148   06 Jun 2027 06:58:17.636   06 Jun 2027 06:58:24.033             6.397          2828.813
       149   06 Jun 2027 06:59:01.717   06 Jun 2027 06:59:01.717             0.000             0.000
       150   06 Jun 2027 06:59:37.174   06 Jun 2027 06:59:41.190             4.016          2008.000
       151   06 Jun 2027 07:00:01.125   06 Jun 2027 07:00:05.601             4.476           842.750
       152   06 Jun 2027 07:00:25.559   06 Jun 2027 07:00:29.458             3.899           420.344
       153   06 Jun 2027 07:00:57.226   06 Jun 2027 07:00:58.259             1.033            19.687
       154   06 Jun 2027 07:01:07.318   06 Jun 2027 07:01:08.177             0.859           250.500
       155   06 Jun 2027 07:01:46.203   06 Jun 2027 07:01:49.582             3.379           852.750
       156   06 Jun 2027 07:02:24.934   06 Jun 2027 07:02:26.943             2.009           778.781
       157   06 Jun 2027 08:31:56.122   06 Jun 2027 08:32:00.126             4.004          1718.750
       158   06 Jun 2027 08:32:44.795   06 Jun 2027 08:32:50.456             5.661           942.406
       159   06 Jun 2027 08:33:50.683   06 Jun 2027 08:33:52.658             1.975           365.562
       160   06 Jun 2027 08:33:59.521   06 Jun 2027 08:34:03.982             4.461           214.469
       161   06 Jun 2027 08:34:27.654   06 Jun 2027 08:34:27.794             0.140            41.969
       162   06 Jun 2027 08:35:33.547   06 Jun 2027 08:35:36.603             3.056          1362.063
       163   06 Jun 2027 08:36:02.899   06 Jun 2027 08:36:09.104             6.205           821.750
       164   06 Jun 2027 08:36:19.329   06 Jun 2027 08:36:20.507             1.178           229.344
       165   06 Jun 2027 08:37:36.248   06 Jun 2027 08:37:41.200             4.952          1093.437
       166   06 Jun 2027 08:37:53.882   06 Jun 2027 08:37:54.735             0.853            84.438
       167   06 Jun 2027 08:38:04.011   06 Jun 2027 08:38:05.684             1.673           193.906
       168   06 Jun 2027 08:39:06.064   06 Jun 2027 08:39:09.483             3.419          1453.687
       169   06 Jun 2027 10:08:39.260   06 Jun 2027 10:08:50.461            11.201          5514.063
       170   06 Jun 2027 10:12:06.092   06 Jun 2027 10:12:13.394             7.302          1833.344
       171   06 Jun 2027 10:12:55.470   06 Jun 2027 10:12:58.727             3.257           813.687
       172   06 Jun 2027 10:13:02.464   06 Jun 2027 10:13:02.911             0.447           116.781
       173   06 Jun 2027 10:13:31.388   06 Jun 2027 10:13:32.971             1.583           550.812
       174   06 Jun 2027 10:13:49.390   06 Jun 2027 10:13:50.570             1.180           382.094
       175   06 Jun 2027 10:14:40.166   06 Jun 2027 10:14:47.222             7.056          1289.625
       176   06 Jun 2027 10:15:02.379   06 Jun 2027 10:15:07.437             5.058           473.656
       177   06 Jun 2027 11:46:42.983   06 Jun 2027 11:46:55.258            12.275          5441.187
       178   06 Jun 2027 11:48:34.744   06 Jun 2027 11:48:45.978            11.234          2228.594
       179   06 Jun 2027 11:48:54.578   06 Jun 2027 11:48:56.435             1.857            63.469
       180   06 Jun 2027 11:49:25.166   06 Jun 2027 11:49:30.360             5.194           491.344
       181   06 Jun 2027 11:50:00.652   06 Jun 2027 11:50:02.453             1.801           522.781
       182   06 Jun 2027 11:50:44.557   06 Jun 2027 11:50:47.733             3.176          1170.437
       183   07 Jun 2027 03:57:06.185   07 Jun 2027 03:57:15.239             9.054          4527.000
       184   07 Jun 2027 04:09:30.038   07 Jun 2027 04:09:46.654            16.616          8308.000
       185   07 Jun 2027 05:30:56.926   07 Jun 2027 05:33:54.974           178.048         89024.000
       186   07 Jun 2027 05:34:51.609   07 Jun 2027 05:34:55.451             3.842          1921.000
       187   07 Jun 2027 05:36:00.767   07 Jun 2027 05:36:18.966            18.199          9099.500
       188   07 Jun 2027 07:05:51.354   07 Jun 2027 07:07:18.231            86.877         42673.812
       189   07 Jun 2027 07:08:12.558   07 Jun 2027 07:08:16.931             4.373           490.656
       190   07 Jun 2027 07:08:49.759   07 Jun 2027 07:08:52.104             2.345           984.000
       191   07 Jun 2027 07:10:17.719   07 Jun 2027 07:10:22.237             4.518          1672.531
       192   07 Jun 2027 07:11:02.685   07 Jun 2027 07:11:04.899             2.214          1091.219
       193   07 Jun 2027 07:12:26.949   07 Jun 2027 07:12:32.126             5.177          1755.000
       194   07 Jun 2027 07:12:48.930   07 Jun 2027 07:12:52.641             3.711           392.406
       195   07 Jun 2027 07:13:18.706   07 Jun 2027 07:13:21.213             2.507           273.781
       196   07 Jun 2027 07:14:48.069   07 Jun 2027 07:14:57.121             9.052          2219.750
       197   07 Jun 2027 08:43:51.497   07 Jun 2027 08:44:03.813            12.316          4521.344
       198   07 Jun 2027 08:44:50.641   07 Jun 2027 08:45:00.607             9.966          1062.000
       199   07 Jun 2027 08:46:02.538   07 Jun 2027 08:46:03.435             0.897           346.313
       200   07 Jun 2027 08:48:01.718   07 Jun 2027 08:48:06.848             5.130          2372.250
       201   07 Jun 2027 08:49:51.752   07 Jun 2027 08:50:00.304             8.552          2313.031
       202   07 Jun 2027 08:50:39.462   07 Jun 2027 08:50:42.890             3.428          1024.781
       203   07 Jun 2027 08:50:57.917   07 Jun 2027 08:50:59.267             1.350           244.375
       204   07 Jun 2027 08:51:09.422   07 Jun 2027 08:51:09.957             0.535           207.438
       205   07 Jun 2027 10:20:46.542   07 Jun 2027 10:21:00.416            13.874          6092.688
       206   07 Jun 2027 10:22:11.977   07 Jun 2027 10:22:18.109             6.132           876.375
       207   07 Jun 2027 10:24:58.461   07 Jun 2027 10:24:59.546             1.085           535.906
       208   07 Jun 2027 10:25:04.481   07 Jun 2027 10:25:06.577             2.096            26.000
       209   07 Jun 2027 10:25:15.647   07 Jun 2027 10:25:17.167             1.520            39.125
       210   07 Jun 2027 10:26:23.676   07 Jun 2027 10:26:32.558             8.882          1138.656
       211   07 Jun 2027 10:26:53.863   07 Jun 2027 10:26:55.421             1.558           519.281
       212   07 Jun 2027 11:58:20.499   07 Jun 2027 11:58:31.576            11.077          5286.406
       213   07 Jun 2027 11:59:34.055   07 Jun 2027 11:59:37.001             2.946           645.688
       214   08 Jun 2027 04:09:02.679   08 Jun 2027 04:09:25.331            22.652         11326.000
       215   08 Jun 2027 04:09:25.624   08 Jun 2027 04:09:34.776             9.152          4576.000
       216   08 Jun 2027 04:09:54.491   08 Jun 2027 04:09:54.491             0.000             0.000
       217   08 Jun 2027 04:10:39.812   08 Jun 2027 04:10:52.566            12.754          6377.000
       218   08 Jun 2027 05:45:14.870   08 Jun 2027 05:48:05.355           170.485         85242.500
       219   08 Jun 2027 07:18:47.610   08 Jun 2027 07:20:24.789            97.179         48054.031
       220   08 Jun 2027 07:21:04.460   08 Jun 2027 07:21:07.730             3.270           502.562
       221   08 Jun 2027 07:21:18.923   08 Jun 2027 07:21:20.686             1.763            33.375
       222   08 Jun 2027 07:21:57.797   08 Jun 2027 07:22:04.706             6.909           920.031
       223   08 Jun 2027 07:22:31.959   08 Jun 2027 07:22:31.959             0.000             0.000
       224   08 Jun 2027 07:23:05.201   08 Jun 2027 07:23:17.379            12.178          1886.438
       225   08 Jun 2027 07:24:28.118   08 Jun 2027 07:24:33.582             5.464          2067.781
       226   08 Jun 2027 07:24:57.912   08 Jun 2027 07:24:58.844             0.932           449.594
       227   08 Jun 2027 07:25:38.947   08 Jun 2027 07:25:39.483             0.536           268.000
       228   08 Jun 2027 07:25:52.923   08 Jun 2027 07:25:54.149             1.226           613.000
       229   08 Jun 2027 07:26:25.053   08 Jun 2027 07:26:27.616             2.563          1269.375
       230   08 Jun 2027 07:27:20.926   08 Jun 2027 07:27:21.924             0.998           499.000
       231   08 Jun 2027 08:56:13.592   08 Jun 2027 08:56:26.524            12.932          4972.250
       232   08 Jun 2027 08:58:05.396   08 Jun 2027 08:58:07.221             1.825           499.750
       233   08 Jun 2027 08:58:44.015   08 Jun 2027 08:58:47.372             3.357           509.406
       234   08 Jun 2027 08:59:32.579   08 Jun 2027 08:59:32.866             0.287            90.344
       235   08 Jun 2027 08:59:49.888   08 Jun 2027 08:59:50.903             1.015           363.438
       236   08 Jun 2027 09:01:17.525   08 Jun 2027 09:01:23.720             6.195          2257.094
       237   08 Jun 2027 09:02:21.619   08 Jun 2027 09:02:28.525             6.906          1525.531
       238   08 Jun 2027 09:02:53.397   08 Jun 2027 09:02:55.092             1.695           550.219
       239   08 Jun 2027 10:33:15.823   08 Jun 2027 10:33:34.502            18.679          6503.875
       240   08 Jun 2027 10:35:42.454   08 Jun 2027 10:35:43.864             1.410           531.125
       241   08 Jun 2027 10:37:14.002   08 Jun 2027 10:37:15.767             1.765           880.594
       242   08 Jun 2027 10:37:43.766   08 Jun 2027 10:37:45.240             1.474           392.094
       243   08 Jun 2027 10:38:02.450   08 Jun 2027 10:38:08.816             6.366           451.031
       244   08 Jun 2027 10:38:57.727   08 Jun 2027 10:39:03.094             5.367            28.187
       245   09 Jun 2027 03:00:00.000   09 Jun 2027 03:00:05.630             5.630          2815.000
       246   09 Jun 2027 03:00:17.823   09 Jun 2027 03:00:53.212            35.389         17694.500
       247   09 Jun 2027 03:02:03.535   09 Jun 2027 03:02:03.535             0.000             0.000
       248   09 Jun 2027 04:20:53.879   09 Jun 2027 04:21:56.663            62.784         31392.000
       249   09 Jun 2027 05:57:21.104   09 Jun 2027 06:00:05.109           164.005         82002.500
       250   09 Jun 2027 06:00:19.245   09 Jun 2027 06:00:23.244             3.999          1999.500
       251   09 Jun 2027 06:00:50.585   09 Jun 2027 06:00:53.538             2.953          1476.500
       252   09 Jun 2027 07:29:30.923   09 Jun 2027 07:29:38.569             7.646          3823.000
       253   09 Jun 2027 07:31:26.404   09 Jun 2027 07:32:08.348            41.944         18748.906
       254   09 Jun 2027 07:32:57.031   09 Jun 2027 07:33:01.023             3.992          1191.563
       255   09 Jun 2027 07:33:21.026   09 Jun 2027 07:33:22.326             1.300           361.906
       256   09 Jun 2027 07:33:23.355   09 Jun 2027 07:33:23.699             0.344            32.156
       257   09 Jun 2027 07:34:06.585   09 Jun 2027 07:34:11.846             5.261           168.156
       258   09 Jun 2027 07:35:38.442   09 Jun 2027 07:35:44.119             5.677          1877.281
       259   09 Jun 2027 07:36:40.437   09 Jun 2027 07:36:45.822             5.385          1249.750
       260   09 Jun 2027 07:37:49.878   09 Jun 2027 07:37:52.798             2.920          1140.250
       261   09 Jun 2027 07:38:08.485   09 Jun 2027 07:38:10.633             2.148           241.344
       262   09 Jun 2027 07:38:45.906   09 Jun 2027 07:38:49.110             3.204           840.031
       263   09 Jun 2027 07:39:16.636   09 Jun 2027 07:39:17.932             1.296            72.875
       264   09 Jun 2027 09:08:24.596   09 Jun 2027 09:08:37.956            13.360          6325.687
       265   09 Jun 2027 09:13:50.686   09 Jun 2027 09:13:56.880             6.194          1924.969
       266   09 Jun 2027 09:14:56.190   09 Jun 2027 09:14:59.942             3.752           988.344
       267   09 Jun 2027 10:45:30.855   09 Jun 2027 10:45:42.507            11.652          5663.062
       268   09 Jun 2027 10:48:14.496   09 Jun 2027 10:48:18.623             4.127          2020.406
       269   09 Jun 2027 10:48:43.443   09 Jun 2027 10:48:45.056             1.613           357.906
       270   09 Jun 2027 10:48:58.778   09 Jun 2027 10:49:02.879             4.101            52.219
       271   09 Jun 2027 10:49:40.175   09 Jun 2027 10:49:44.942             4.767          1165.500
       272   09 Jun 2027 10:49:54.642   09 Jun 2027 10:49:58.542             3.900           166.719
       273   10 Jun 2027 03:10:03.520   10 Jun 2027 03:11:28.100            84.580         42290.000
       274   10 Jun 2027 03:12:05.413   10 Jun 2027 03:12:18.341            12.928          6464.000
       275   10 Jun 2027 03:12:34.683   10 Jun 2027 03:13:29.551            54.868         27434.000
       276   10 Jun 2027 04:33:00.153   10 Jun 2027 04:33:39.962            39.809         19904.500
       277   10 Jun 2027 04:34:48.906   10 Jun 2027 04:34:54.227             5.321          2660.500
       278   10 Jun 2027 04:35:29.911   10 Jun 2027 04:35:49.652            19.741          9870.500
       279   10 Jun 2027 06:09:28.737   10 Jun 2027 06:11:23.786           115.049         57505.781
       280   10 Jun 2027 06:12:04.332   10 Jun 2027 06:12:07.148             2.816          1234.156
       281   10 Jun 2027 07:44:36.677   10 Jun 2027 07:44:42.546             5.869          2907.031
       282   10 Jun 2027 07:45:43.602   10 Jun 2027 07:45:53.385             9.783          1011.281
       283   10 Jun 2027 07:46:08.001   10 Jun 2027 07:46:11.411             3.410           120.437
       284   10 Jun 2027 07:46:36.136   10 Jun 2027 07:46:37.175             1.039           304.438
       285   10 Jun 2027 07:47:35.905   10 Jun 2027 07:47:39.074             3.169          1513.219
       286   10 Jun 2027 07:48:12.388   10 Jun 2027 07:48:14.873             2.485           840.063
       287   10 Jun 2027 07:48:39.727   10 Jun 2027 07:48:47.312             7.585           691.781
       288   10 Jun 2027 07:50:04.005   10 Jun 2027 07:50:05.055             1.050           429.594
       289   10 Jun 2027 07:50:24.546   10 Jun 2027 07:50:28.860             4.314           128.625
       290   10 Jun 2027 07:51:01.888   10 Jun 2027 07:51:04.592             2.704           693.938
       291   10 Jun 2027 07:51:10.819   10 Jun 2027 07:51:14.017             3.198           194.594
       292   10 Jun 2027 09:20:58.367   10 Jun 2027 09:21:13.531            15.164          5251.875
       293   10 Jun 2027 09:23:22.787   10 Jun 2027 09:23:27.180             4.393           500.875
       294   10 Jun 2027 09:23:57.924   10 Jun 2027 09:24:00.612             2.688           960.750
       295   10 Jun 2027 09:24:54.544   10 Jun 2027 09:24:57.397             2.853           881.469
       296   10 Jun 2027 09:25:25.684   10 Jun 2027 09:25:29.834             4.150            54.219
       297   10 Jun 2027 09:26:16.412   10 Jun 2027 09:26:25.713             9.301          1455.562
       298   10 Jun 2027 09:27:15.092   10 Jun 2027 09:27:15.549             0.457           228.500
       299   10 Jun 2027 10:58:23.505   10 Jun 2027 10:58:35.993            12.488          6087.156
       300   10 Jun 2027 10:59:14.616   10 Jun 2027 10:59:20.073             5.457           318.906
       301   10 Jun 2027 11:00:17.359   10 Jun 2027 11:00:22.676             5.317           350.094
       302   10 Jun 2027 11:01:30.248   10 Jun 2027 11:01:37.277             7.029          2051.594
       303   10 Jun 2027 11:02:31.273   10 Jun 2027 11:02:36.036             4.763          1314.625
       304   11 Jun 2027 03:21:34.893   11 Jun 2027 03:22:12.716            37.823         18911.500
       305   11 Jun 2027 03:22:25.132   11 Jun 2027 03:24:42.466           137.334         68667.000
       306   11 Jun 2027 03:24:58.042   11 Jun 2027 03:24:59.001             0.959           479.500
       307   11 Jun 2027 04:45:02.820   11 Jun 2027 04:45:38.378            35.558         17779.000
       308   11 Jun 2027 04:46:47.503   11 Jun 2027 04:46:47.503             0.000             0.000
       309   11 Jun 2027 04:47:23.806   11 Jun 2027 04:47:52.519            28.713         14356.500
       310   11 Jun 2027 06:21:31.520   11 Jun 2027 06:22:36.347            64.827         31878.812
       311   11 Jun 2027 06:22:52.906   11 Jun 2027 06:22:59.518             6.612           435.219
       312   11 Jun 2027 06:23:27.126   11 Jun 2027 06:23:29.319             2.193           114.188
       313   11 Jun 2027 06:24:02.888   11 Jun 2027 06:24:04.533             1.645           737.656
       314   11 Jun 2027 06:24:35.643   11 Jun 2027 06:24:37.871             2.228           832.813
       315   11 Jun 2027 07:56:43.661   11 Jun 2027 07:56:49.918             6.257          2375.500
       316   11 Jun 2027 07:56:59.417   11 Jun 2027 07:57:01.498             2.081            43.219
       317   11 Jun 2027 07:57:43.837   11 Jun 2027 07:57:45.323             1.486           179.312
       318   11 Jun 2027 07:58:09.033   11 Jun 2027 07:58:09.033             0.000             0.000
       319   11 Jun 2027 07:58:52.356   11 Jun 2027 07:58:56.848             4.492          1367.531
       320   11 Jun 2027 07:59:32.273   11 Jun 2027 07:59:34.637             2.364          1025.906
       321   11 Jun 2027 08:00:14.747   11 Jun 2027 08:00:17.072             2.325          1125.250
       322   11 Jun 2027 08:00:42.428   11 Jun 2027 08:00:47.409             4.981           668.594
       323   11 Jun 2027 08:01:00.025   11 Jun 2027 08:01:01.900             1.875           394.250
       324   11 Jun 2027 08:02:10.723   11 Jun 2027 08:02:15.163             4.440           678.719
       325   11 Jun 2027 08:02:36.089   11 Jun 2027 08:02:38.039             1.950           602.594
       326   11 Jun 2027 08:02:59.755   11 Jun 2027 08:03:01.278             1.523           587.469
       327   11 Jun 2027 09:32:38.889   11 Jun 2027 09:32:49.263            10.374          4736.656
       328   11 Jun 2027 09:35:17.628   11 Jun 2027 09:35:19.479             1.851           915.469
       329   11 Jun 2027 09:35:54.697   11 Jun 2027 09:35:58.431             3.734           546.750
       330   11 Jun 2027 09:35:59.908   11 Jun 2027 09:36:03.127             3.219            20.625
       331   11 Jun 2027 09:36:19.468   11 Jun 2027 09:36:20.603             1.135           371.313
       332   11 Jun 2027 09:37:34.745   11 Jun 2027 09:37:36.397             1.652           560.281
       333   11 Jun 2027 09:38:03.239   11 Jun 2027 09:38:07.409             4.170           541.062
       334   11 Jun 2027 09:38:50.208   11 Jun 2027 09:38:51.055             0.847           423.500
       335   11 Jun 2027 11:10:31.555   11 Jun 2027 11:10:45.901            14.346          5699.906
       336   11 Jun 2027 11:12:45.239   11 Jun 2027 11:12:46.958             1.719           627.000
       337   11 Jun 2027 11:13:10.865   11 Jun 2027 11:13:12.455             1.590           184.969
       338   11 Jun 2027 11:14:01.545   11 Jun 2027 11:14:03.728             2.183           197.188
       339   11 Jun 2027 11:14:42.064   11 Jun 2027 11:14:43.777             1.713            55.719
       340   12 Jun 2027 03:33:32.438   12 Jun 2027 03:37:04.550           212.112        106056.000
       341   12 Jun 2027 04:57:29.491   12 Jun 2027 04:57:47.990            18.499          9249.500
       342   12 Jun 2027 06:33:15.286   12 Jun 2027 06:34:32.241            76.955         38412.532
       343   12 Jun 2027 06:34:40.495   12 Jun 2027 06:34:40.495             0.000             0.000
       344   12 Jun 2027 06:35:21.306   12 Jun 2027 06:35:22.771             1.465           732.500
       345   12 Jun 2027 06:36:34.044   12 Jun 2027 06:36:39.622             5.578          2789.000
       346   12 Jun 2027 06:37:17.346   12 Jun 2027 06:37:22.732             5.386          1395.781
       347   12 Jun 2027 08:07:58.485   12 Jun 2027 08:08:02.851             4.366          1969.594
       348   12 Jun 2027 08:08:27.489   12 Jun 2027 08:08:29.750             2.261           769.938
       349   12 Jun 2027 08:08:57.921   12 Jun 2027 08:09:12.122            14.201           569.594
       350   12 Jun 2027 08:09:49.062   12 Jun 2027 08:09:50.438             1.376           295.937
       351   12 Jun 2027 08:09:55.972   12 Jun 2027 08:09:57.112             1.140            36.656
       352   12 Jun 2027 08:10:16.430   12 Jun 2027 08:10:17.822             1.392           501.000
       353   12 Jun 2027 08:11:14.399   12 Jun 2027 08:11:17.250             2.851          1146.375
       354   12 Jun 2027 08:11:51.176   12 Jun 2027 08:11:54.465             3.289           913.313
       355   12 Jun 2027 08:12:45.755   12 Jun 2027 08:12:49.404             3.649           903.156
       356   12 Jun 2027 08:13:34.569   12 Jun 2027 08:13:40.870             6.301          1193.063
       357   12 Jun 2027 08:14:06.488   12 Jun 2027 08:14:10.170             3.682           782.875
       358   12 Jun 2027 08:14:51.873   12 Jun 2027 08:14:57.195             5.322          1303.219
       359   12 Jun 2027 09:44:45.109   12 Jun 2027 09:45:01.345            16.236          6851.594
       360   12 Jun 2027 09:47:31.173   12 Jun 2027 09:47:33.038             1.865           353.438
       361   12 Jun 2027 09:48:00.435   12 Jun 2027 09:48:02.452             2.017           826.312
       362   12 Jun 2027 09:49:03.897   12 Jun 2027 09:49:07.270             3.373          1367.844
       363   12 Jun 2027 09:49:38.875   12 Jun 2027 09:49:41.739             2.864           987.656
       364   12 Jun 2027 09:50:06.248   12 Jun 2027 09:50:08.018             1.770           742.594
       365   12 Jun 2027 11:23:00.619   12 Jun 2027 11:23:15.279            14.660          6922.437
       366   12 Jun 2027 11:25:10.046   12 Jun 2027 11:25:13.414             3.368             2.313
       367   12 Jun 2027 11:26:17.394   12 Jun 2027 11:26:21.225             3.831          1894.344
       368   12 Jun 2027 11:26:31.760   12 Jun 2027 11:26:32.461             0.701            49.781
       369   12 Jun 2027 11:26:51.425   12 Jun 2027 11:26:53.204             1.779           434.781
       370   13 Jun 2027 03:33:53.656   13 Jun 2027 03:34:06.103            12.447          6223.500
       371   13 Jun 2027 03:35:03.056   13 Jun 2027 03:35:06.694             3.638          1819.000
       372   13 Jun 2027 03:45:30.807   13 Jun 2027 03:46:58.752            87.945         43972.500
       373   13 Jun 2027 05:08:06.346   13 Jun 2027 05:09:05.724            59.378         29689.000
       374   13 Jun 2027 05:09:45.460   13 Jun 2027 05:10:22.942            37.482         18741.000
       375   13 Jun 2027 05:11:02.976   13 Jun 2027 05:11:58.017            55.041         27520.500
       376   13 Jun 2027 06:43:10.916   13 Jun 2027 06:44:04.578            53.662         25150.000
       377   13 Jun 2027 06:44:29.112   13 Jun 2027 06:44:30.742             1.630           579.031
       378   13 Jun 2027 06:45:55.876   13 Jun 2027 06:46:05.166             9.290          2210.656
       379   13 Jun 2027 06:46:11.989   13 Jun 2027 06:46:14.793             2.804           180.719
       380   13 Jun 2027 06:46:44.160   13 Jun 2027 06:46:44.160             0.000             0.000
       381   13 Jun 2027 06:46:50.237   13 Jun 2027 06:46:54.687             4.450          1107.625
       382   13 Jun 2027 06:48:15.416   13 Jun 2027 06:48:15.834             0.418           209.000
       383   13 Jun 2027 06:48:41.286   13 Jun 2027 06:48:49.008             7.722          2772.344
       384   13 Jun 2027 06:48:59.080   13 Jun 2027 06:49:03.928             4.848           294.406
       385   13 Jun 2027 08:20:04.972   13 Jun 2027 08:20:12.499             7.527          2061.937
       386   13 Jun 2027 08:20:58.856   13 Jun 2027 08:21:01.702             2.846           902.000
       387   13 Jun 2027 08:21:52.034   13 Jun 2027 08:21:52.825             0.791           301.031
       388   13 Jun 2027 08:22:35.253   13 Jun 2027 08:22:37.232             1.979           590.094
       389   13 Jun 2027 08:23:31.128   13 Jun 2027 08:23:34.197             3.069          1513.437
       390   13 Jun 2027 08:25:02.512   13 Jun 2027 08:25:04.414             1.902           856.969
       391   13 Jun 2027 08:25:51.385   13 Jun 2027 08:25:56.221             4.836          1353.531
       392   13 Jun 2027 08:26:31.140   13 Jun 2027 08:26:32.655             1.515           643.188
       393   13 Jun 2027 08:27:30.091   13 Jun 2027 08:27:30.472             0.381           190.500
       394   13 Jun 2027 09:57:05.497   13 Jun 2027 09:57:17.091            11.594          5198.000
       395   13 Jun 2027 09:58:29.954   13 Jun 2027 09:58:34.597             4.643          1167.094
       396   13 Jun 2027 09:59:39.019   13 Jun 2027 09:59:40.098             1.079            32.375
       397   13 Jun 2027 10:00:12.702   13 Jun 2027 10:00:15.442             2.740            58.312
       398   13 Jun 2027 10:01:07.835   13 Jun 2027 10:01:11.999             4.164          1018.375
       399   13 Jun 2027 10:01:52.325   13 Jun 2027 10:01:56.590             4.265          1212.344
       400   13 Jun 2027 11:34:59.182   13 Jun 2027 11:35:07.921             8.739          4369.500
       401   13 Jun 2027 11:35:26.142   13 Jun 2027 11:35:30.876             4.734          1945.281
       402   13 Jun 2027 11:35:53.443   13 Jun 2027 11:36:01.100             7.657           224.437
       403   13 Jun 2027 11:37:04.132   13 Jun 2027 11:37:09.098             4.966          1417.781
       404   13 Jun 2027 11:37:10.955   13 Jun 2027 11:37:13.079             2.124            58.031
       405   13 Jun 2027 11:38:16.708   13 Jun 2027 11:38:25.907             9.199          1705.531
       406   13 Jun 2027 11:38:37.036   13 Jun 2027 11:38:37.750             0.714           347.781
       407   13 Jun 2027 11:38:52.918   13 Jun 2027 11:38:54.403             1.485           194.156
