uniorb/output/strategy_4/Camera/Camera_KinoSat_111502.txt

KinoSat_111502
-------------------------
    Access    *     Start Time (UTCG)     *     Stop Time (UTCG)  *   Duration (s) *   Data (Mbytes)
         1   01 Jun 2027 03:48:22.715   01 Jun 2027 03:50:30.260           127.545         63772.500
         2   01 Jun 2027 03:51:28.686   01 Jun 2027 03:51:51.442            22.756         11378.000
         3   01 Jun 2027 03:51:55.760   01 Jun 2027 03:51:59.529             3.769          1884.500
         4   01 Jun 2027 03:52:32.163   01 Jun 2027 03:52:37.137             4.974          2487.000
         5   01 Jun 2027 03:53:21.835   01 Jun 2027 03:53:25.628             3.793          1896.500
         6   01 Jun 2027 03:55:12.502   01 Jun 2027 03:55:47.197            34.695         17347.500
         7   01 Jun 2027 05:13:35.046   01 Jun 2027 05:13:59.083            24.037         12018.500
         8   01 Jun 2027 05:14:31.492   01 Jun 2027 05:14:52.956            21.464         10732.000
         9   01 Jun 2027 05:25:06.474   01 Jun 2027 05:26:05.204            58.730         29365.000
        10   01 Jun 2027 06:47:45.216   01 Jun 2027 06:48:43.713            58.497         29248.500
        11   01 Jun 2027 06:49:20.841   01 Jun 2027 06:49:36.121            15.280          7640.000
        12   01 Jun 2027 06:49:38.368   01 Jun 2027 06:49:38.368             0.000             0.000
        13   01 Jun 2027 06:51:38.676   01 Jun 2027 06:51:49.504            10.828          5414.000
        14   01 Jun 2027 08:22:53.278   01 Jun 2027 08:24:05.481            72.203         36101.500
        15   01 Jun 2027 08:24:36.152   01 Jun 2027 08:25:23.490            47.338         23669.000
        16   01 Jun 2027 09:59:37.540   01 Jun 2027 09:59:50.202            12.662          6331.000
        17   01 Jun 2027 10:01:41.989   01 Jun 2027 10:02:54.588            72.599         36299.500
        18   01 Jun 2027 10:05:27.155   01 Jun 2027 10:05:27.155             0.000             0.000
        19   01 Jun 2027 10:06:16.694   01 Jun 2027 10:06:32.615            15.921          7960.500
        20   01 Jun 2027 10:07:05.267   01 Jun 2027 10:07:05.423             0.156            78.000
        21   01 Jun 2027 11:36:40.315   01 Jun 2027 11:39:59.288           198.973         99486.500
        22   01 Jun 2027 11:40:05.844   01 Jun 2027 11:40:13.484             7.640          3820.000
        23   01 Jun 2027 11:42:21.442   01 Jun 2027 11:42:30.331             8.889          4444.500
        24   02 Jun 2027 04:00:38.470   02 Jun 2027 04:02:57.929           139.459         69729.500
        25   02 Jun 2027 04:05:48.878   02 Jun 2027 04:05:52.003             3.125          1562.500
        26   02 Jun 2027 04:07:26.600   02 Jun 2027 04:07:42.545            15.945          7972.500
        27   02 Jun 2027 05:24:52.419   02 Jun 2027 05:25:38.024            45.605         22802.500
        28   02 Jun 2027 05:25:47.291   02 Jun 2027 05:25:47.291             0.000             0.000
        29   02 Jun 2027 05:26:53.033   02 Jun 2027 05:27:03.104            10.071          5035.500
        30   02 Jun 2027 05:37:05.628   02 Jun 2027 05:38:02.645            57.017         28508.500
        31   02 Jun 2027 06:59:20.910   02 Jun 2027 07:00:27.282            66.372         33186.000
        32   02 Jun 2027 07:01:16.409   02 Jun 2027 07:02:45.751            89.342         44671.000
        33   02 Jun 2027 08:34:13.516   02 Jun 2027 08:36:19.938           126.422         63211.000
        34   02 Jun 2027 08:36:24.142   02 Jun 2027 08:36:37.621            13.479          6739.500
        35   02 Jun 2027 08:42:17.598   02 Jun 2027 08:42:44.676            27.078         13539.000
        36   02 Jun 2027 10:11:48.015   02 Jun 2027 10:13:41.757           113.742         56871.000
        37   02 Jun 2027 10:16:19.560   02 Jun 2027 10:16:37.931            18.371          9150.031
        38   02 Jun 2027 10:17:05.065   02 Jun 2027 10:17:08.611             3.546           262.938
        39   02 Jun 2027 10:17:48.455   02 Jun 2027 10:17:52.402             3.947           879.906
        40   02 Jun 2027 10:17:59.268   02 Jun 2027 10:18:03.844             4.576           214.562
        41   02 Jun 2027 10:18:18.918   02 Jun 2027 10:18:22.909             3.991            42.313
        42   02 Jun 2027 10:19:02.896   02 Jun 2027 10:19:08.981             6.085          1249.594
        43   02 Jun 2027 11:48:30.790   02 Jun 2027 11:48:43.032            12.242          5388.000
        44   02 Jun 2027 11:49:59.375   02 Jun 2027 11:50:01.722             2.347           215.531
        45   02 Jun 2027 11:51:18.114   02 Jun 2027 11:51:22.558             4.444          2215.000
        46   02 Jun 2027 11:52:36.221   02 Jun 2027 11:52:40.879             4.658          1039.594
        47   02 Jun 2027 11:52:52.550   02 Jun 2027 11:52:55.028             2.478             6.406
        48   02 Jun 2027 11:54:15.882   02 Jun 2027 11:54:21.333             5.451          2368.594
        49   02 Jun 2027 11:54:31.046   02 Jun 2027 11:54:31.723             0.677           303.531
        50   02 Jun 2027 11:54:42.493   02 Jun 2027 11:54:43.367             0.874           336.562
        51   02 Jun 2027 11:54:51.851   02 Jun 2027 11:54:52.362             0.511           163.156
        52   02 Jun 2027 11:55:02.737   02 Jun 2027 11:55:04.480             1.743           277.281
        53   03 Jun 2027 04:12:43.394   03 Jun 2027 04:14:49.647           126.253         63126.500
        54   03 Jun 2027 04:16:38.901   03 Jun 2027 04:17:04.095            25.194         12597.000
        55   03 Jun 2027 05:36:58.393   03 Jun 2027 05:37:54.421            56.028         28014.000
        56   03 Jun 2027 05:49:26.836   03 Jun 2027 05:49:32.894             6.058          3029.000
        57   03 Jun 2027 07:10:49.399   03 Jun 2027 07:12:12.540            83.141         41570.500
        58   03 Jun 2027 07:12:51.980   03 Jun 2027 07:13:27.216            35.236         17363.813
        59   03 Jun 2027 07:14:14.633   03 Jun 2027 07:14:18.236             3.603          1455.625
        60   03 Jun 2027 07:16:02.560   03 Jun 2027 07:16:11.049             8.489          2559.063
        61   03 Jun 2027 07:16:16.291   03 Jun 2027 07:16:16.291             0.000             0.000
        62   03 Jun 2027 08:45:43.637   03 Jun 2027 08:45:50.082             6.445          2898.125
        63   03 Jun 2027 08:46:36.691   03 Jun 2027 08:46:39.787             3.096          1351.625
        64   03 Jun 2027 08:48:10.705   03 Jun 2027 08:48:11.843             1.138           557.750
        65   03 Jun 2027 08:49:27.221   03 Jun 2027 08:49:27.859             0.638           300.375
        66   03 Jun 2027 08:50:23.928   03 Jun 2027 08:50:28.463             4.535          1018.000
        67   03 Jun 2027 08:52:29.452   03 Jun 2027 08:52:34.999             5.547          1603.531
        68   03 Jun 2027 08:52:53.734   03 Jun 2027 08:52:54.360             0.626           311.156
        69   03 Jun 2027 08:53:12.134   03 Jun 2027 08:53:15.380             3.246           549.531
        70   03 Jun 2027 08:53:29.996   03 Jun 2027 08:53:30.801             0.805           373.969
        71   03 Jun 2027 08:54:22.534   03 Jun 2027 08:54:22.534             0.000             0.000
        72   03 Jun 2027 08:54:48.739   03 Jun 2027 08:54:53.120             4.381          2038.594
        73   03 Jun 2027 10:23:42.812   03 Jun 2027 10:23:58.308            15.496          6315.188
        74   03 Jun 2027 10:26:40.886   03 Jun 2027 10:26:46.265             5.379          1876.938
        75   03 Jun 2027 10:27:22.739   03 Jun 2027 10:27:26.473             3.734          1139.813
        76   03 Jun 2027 10:27:58.619   03 Jun 2027 10:27:59.689             1.070           339.375
        77   03 Jun 2027 10:28:22.795   03 Jun 2027 10:28:25.870             3.075           180.531
        78   03 Jun 2027 10:29:05.544   03 Jun 2027 10:29:06.073             0.529            25.844
        79   03 Jun 2027 10:29:27.887   03 Jun 2027 10:29:28.961             1.074           471.906
        80   03 Jun 2027 10:30:35.891   03 Jun 2027 10:30:42.602             6.711          1034.563
        81   03 Jun 2027 10:30:54.934   03 Jun 2027 10:30:57.879             2.945           385.375
        82   04 Jun 2027 04:25:06.002   04 Jun 2027 04:26:36.865            90.863         45431.500
        83   04 Jun 2027 04:27:03.443   04 Jun 2027 04:27:10.888             7.445          3722.500
        84   04 Jun 2027 04:28:18.941   04 Jun 2027 04:28:43.943            25.002         12501.000
        85   04 Jun 2027 05:48:54.422   04 Jun 2027 05:50:03.488            69.066         34533.000
        86   04 Jun 2027 07:25:06.921   04 Jun 2027 07:27:16.344           129.423         63719.469
        87   04 Jun 2027 07:27:41.450   04 Jun 2027 07:27:43.979             2.529           732.969
        88   04 Jun 2027 07:28:12.436   04 Jun 2027 07:28:12.436             0.000             0.000
        89   04 Jun 2027 08:58:38.674   04 Jun 2027 08:58:45.762             7.088          3040.781
        90   04 Jun 2027 09:00:31.146   04 Jun 2027 09:00:35.059             3.913           286.094
        91   04 Jun 2027 09:01:53.619   04 Jun 2027 09:01:58.979             5.360          1570.656
        92   04 Jun 2027 09:03:19.413   04 Jun 2027 09:03:24.400             4.987          2264.969
        93   04 Jun 2027 09:04:23.431   04 Jun 2027 09:04:26.465             3.034          1438.094
        94   04 Jun 2027 09:05:32.394   04 Jun 2027 09:05:36.844             4.450          1789.656
        95   04 Jun 2027 09:05:46.555   04 Jun 2027 09:05:46.555             0.000             0.000
        96   04 Jun 2027 09:05:50.495   04 Jun 2027 09:05:51.712             1.217           300.750
        97   04 Jun 2027 09:06:58.989   04 Jun 2027 09:07:03.182             4.193          1670.312
        98   04 Jun 2027 09:07:08.910   04 Jun 2027 09:07:09.117             0.207            82.156
        99   04 Jun 2027 10:36:04.681   04 Jun 2027 10:36:16.422            11.741          5773.313
       100   04 Jun 2027 10:37:39.053   04 Jun 2027 10:37:39.053             0.000             0.000
       101   04 Jun 2027 10:38:24.051   04 Jun 2027 10:38:24.051             0.000             0.000
       102   04 Jun 2027 10:39:31.575   04 Jun 2027 10:39:43.196            11.621          3677.219
       103   04 Jun 2027 10:39:56.889   04 Jun 2027 10:40:02.616             5.727           119.375
       104   04 Jun 2027 10:40:35.028   04 Jun 2027 10:40:35.595             0.567           170.625
       105   04 Jun 2027 10:41:09.728   04 Jun 2027 10:41:13.310             3.582           784.375
       106   04 Jun 2027 10:41:52.630   04 Jun 2027 10:41:58.557             5.927          1228.750
       107   04 Jun 2027 10:42:35.362   04 Jun 2027 10:42:36.875             1.513           650.313
       108   05 Jun 2027 03:00:00.000   05 Jun 2027 03:00:41.915            41.915         20957.500
       109   05 Jun 2027 03:01:31.538   05 Jun 2027 03:01:47.552            16.014          8007.000
       110   05 Jun 2027 03:03:38.933   05 Jun 2027 03:03:58.024            19.091          9545.500
       111   05 Jun 2027 03:04:35.379   05 Jun 2027 03:04:37.588             2.209          1104.500
       112   05 Jun 2027 04:37:06.355   05 Jun 2027 04:39:00.602           114.247         57123.500
       113   05 Jun 2027 04:39:54.181   05 Jun 2027 04:39:54.181             0.000             0.000
       114   05 Jun 2027 04:40:34.230   05 Jun 2027 04:40:45.225            10.995          5497.500
       115   05 Jun 2027 06:00:46.167   05 Jun 2027 06:01:46.163            59.996         29998.000
       116   05 Jun 2027 06:03:14.538   05 Jun 2027 06:03:22.737             8.199          4099.500
       117   05 Jun 2027 07:37:10.094   05 Jun 2027 07:38:18.282            68.188         33827.063
       118   05 Jun 2027 07:39:09.649   05 Jun 2027 07:39:13.750             4.101          1605.219
       119   05 Jun 2027 07:39:48.815   05 Jun 2027 07:39:52.216             3.401           948.781
       120   05 Jun 2027 07:40:37.498   05 Jun 2027 07:40:39.906             2.408          1082.031
       121   05 Jun 2027 09:11:16.208   05 Jun 2027 09:11:23.513             7.305          3526.219
       122   05 Jun 2027 09:12:55.816   05 Jun 2027 09:12:59.632             3.816          1860.437
       123   05 Jun 2027 09:13:21.813   05 Jun 2027 09:13:24.218             2.405           488.375
       124   05 Jun 2027 09:14:16.661   05 Jun 2027 09:14:19.372             2.711           658.125
       125   05 Jun 2027 09:15:35.911   05 Jun 2027 09:15:40.361             4.450          1904.406
       126   05 Jun 2027 09:17:45.960   05 Jun 2027 09:17:55.411             9.451          2694.719
       127   05 Jun 2027 09:18:21.545   05 Jun 2027 09:18:23.349             1.804           690.469
       128   05 Jun 2027 09:19:02.039   05 Jun 2027 09:19:04.702             2.663           476.875
       129   05 Jun 2027 10:48:16.497   05 Jun 2027 10:48:28.071            11.574          5741.750
       130   05 Jun 2027 10:50:24.860   05 Jun 2027 10:50:27.154             2.294           434.875
       131   05 Jun 2027 10:53:00.660   05 Jun 2027 10:53:05.744             5.084          1946.781
       132   05 Jun 2027 10:53:13.637   05 Jun 2027 10:53:20.090             6.453           127.719
       133   05 Jun 2027 10:53:28.579   05 Jun 2027 10:53:29.830             1.251           265.281
       134   05 Jun 2027 10:54:22.116   05 Jun 2027 10:54:24.607             2.491          1232.656
       135   05 Jun 2027 10:54:25.754   05 Jun 2027 10:54:28.473             2.719            35.844
       136   05 Jun 2027 10:54:48.639   05 Jun 2027 10:54:50.921             2.282           499.125
       137   06 Jun 2027 03:11:13.593   06 Jun 2027 03:12:15.358            61.765         30882.500
       138   06 Jun 2027 03:12:21.833   06 Jun 2027 03:12:55.573            33.740         16870.000
       139   06 Jun 2027 03:13:48.313   06 Jun 2027 03:14:37.219            48.906         24453.000
       140   06 Jun 2027 03:15:54.700   06 Jun 2027 03:16:25.725            31.025         15512.500
       141   06 Jun 2027 03:17:03.365   06 Jun 2027 03:17:28.739            25.374         12687.000
       142   06 Jun 2027 04:50:19.533   06 Jun 2027 04:52:19.606           120.073         60036.500
       143   06 Jun 2027 04:53:09.214   06 Jun 2027 04:53:13.592             4.378          2189.000
       144   06 Jun 2027 06:12:51.442   06 Jun 2027 06:13:12.015            20.573          9417.219
       145   06 Jun 2027 06:14:23.300   06 Jun 2027 06:14:30.598             7.298          2121.656
       146   06 Jun 2027 06:15:08.213   06 Jun 2027 06:15:08.213             0.000             0.000
       147   06 Jun 2027 06:15:35.165   06 Jun 2027 06:15:35.891             0.726           363.000
       148   06 Jun 2027 06:15:38.003   06 Jun 2027 06:15:46.408             8.405          1251.656
       149   06 Jun 2027 07:49:20.671   06 Jun 2027 07:49:30.568             9.897          2560.625
       150   06 Jun 2027 07:50:13.560   06 Jun 2027 07:50:15.789             2.229          1097.938
       151   06 Jun 2027 07:50:27.821   06 Jun 2027 07:50:31.417             3.596           245.969
       152   06 Jun 2027 07:50:53.496   06 Jun 2027 07:50:55.347             1.851           689.969
       153   06 Jun 2027 07:51:03.222   06 Jun 2027 07:51:05.024             1.802           218.531
       154   06 Jun 2027 07:52:02.263   06 Jun 2027 07:52:06.457             4.194          1254.375
       155   06 Jun 2027 07:52:28.589   06 Jun 2027 07:52:34.224             5.635           272.969
       156   06 Jun 2027 09:24:28.030   06 Jun 2027 09:24:33.360             5.330          2608.469
       157   06 Jun 2027 09:25:35.178   06 Jun 2027 09:25:41.504             6.326          1182.187
       158   06 Jun 2027 09:25:57.254   06 Jun 2027 09:26:00.361             3.107           422.875
       159   06 Jun 2027 09:27:33.491   06 Jun 2027 09:27:36.643             3.152          1529.594
       160   06 Jun 2027 09:28:18.406   06 Jun 2027 09:28:21.423             3.017           482.594
       161   06 Jun 2027 09:29:35.847   06 Jun 2027 09:29:41.413             5.566          2307.000
       162   06 Jun 2027 09:30:43.724   06 Jun 2027 09:30:50.189             6.465          1827.063
       163   06 Jun 2027 09:31:03.646   06 Jun 2027 09:31:03.996             0.350             5.281
       164   06 Jun 2027 09:31:05.807   06 Jun 2027 09:31:06.129             0.322            56.594
       165   06 Jun 2027 11:00:49.380   06 Jun 2027 11:00:58.621             9.241          3835.375
       166   06 Jun 2027 11:03:33.054   06 Jun 2027 11:03:36.162             3.108          1220.563
       167   06 Jun 2027 11:04:23.045   06 Jun 2027 11:04:30.363             7.318           570.500
       168   06 Jun 2027 11:05:08.684   06 Jun 2027 11:05:11.678             2.994           719.688
       169   06 Jun 2027 11:06:14.090   06 Jun 2027 11:06:17.359             3.269          1503.250
       170   06 Jun 2027 11:06:23.951   06 Jun 2027 11:06:25.440             1.489           206.000
       171   06 Jun 2027 11:06:43.399   06 Jun 2027 11:06:44.444             1.045           312.406
       172   06 Jun 2027 11:06:59.913   06 Jun 2027 11:07:07.172             7.259           483.406
       173   07 Jun 2027 03:23:14.232   07 Jun 2027 03:23:56.709            42.477         21238.500
       174   07 Jun 2027 03:24:19.428   07 Jun 2027 03:26:44.142           144.714         72357.000
       175   07 Jun 2027 03:26:56.058   07 Jun 2027 03:27:21.547            25.489         12744.500
       176   07 Jun 2027 03:28:42.189   07 Jun 2027 03:29:11.602            29.413         14706.500
       177   07 Jun 2027 05:01:26.518   07 Jun 2027 05:02:04.677            38.159         19079.500
       178   07 Jun 2027 05:02:17.421   07 Jun 2027 05:02:47.105            29.684         14618.406
       179   07 Jun 2027 05:03:44.402   07 Jun 2027 05:03:48.213             3.811           745.500
       180   07 Jun 2027 05:04:26.345   07 Jun 2027 05:04:29.288             2.943           285.875
       181   07 Jun 2027 05:04:47.859   07 Jun 2027 05:04:49.897             2.038           143.500
       182   07 Jun 2027 06:24:55.106   07 Jun 2027 06:25:06.958            11.852          4256.000
       183   07 Jun 2027 06:25:40.532   07 Jun 2027 06:25:45.167             4.635           880.063
       184   07 Jun 2027 06:25:49.906   07 Jun 2027 06:25:52.491             2.585            58.687
       185   07 Jun 2027 06:26:25.002   07 Jun 2027 06:26:25.002             0.000             0.000
       186   07 Jun 2027 06:26:57.754   07 Jun 2027 06:27:01.515             3.761          1609.250
       187   07 Jun 2027 06:27:48.057   07 Jun 2027 06:27:48.057             0.000             0.000
       188   07 Jun 2027 06:27:56.321   07 Jun 2027 06:28:02.989             6.668           695.813
       189   07 Jun 2027 08:01:32.138   07 Jun 2027 08:01:41.483             9.345          3810.125
       190   07 Jun 2027 08:01:58.164   07 Jun 2027 08:02:00.580             2.416           505.844
       191   07 Jun 2027 08:02:54.289   07 Jun 2027 08:03:00.674             6.385          1025.906
       192   07 Jun 2027 08:03:12.668   07 Jun 2027 08:03:13.045             0.377           159.156
       193   07 Jun 2027 08:04:00.971   07 Jun 2027 08:04:04.326             3.355           748.781
       194   07 Jun 2027 09:36:35.158   07 Jun 2027 09:36:44.053             8.895          3703.562
       195   07 Jun 2027 09:37:58.522   07 Jun 2027 09:38:03.432             4.910          2285.094
       196   07 Jun 2027 09:38:21.436   07 Jun 2027 09:38:23.038             1.602           375.688
       197   07 Jun 2027 09:39:29.943   07 Jun 2027 09:39:32.333             2.390          1029.406
       198   07 Jun 2027 09:40:19.526   07 Jun 2027 09:40:23.584             4.058          1396.656
       199   07 Jun 2027 09:42:32.839   07 Jun 2027 09:42:36.701             3.862          1854.719
       200   07 Jun 2027 11:12:31.669   07 Jun 2027 11:12:53.672            22.003          8263.750
       201   07 Jun 2027 11:15:16.887   07 Jun 2027 11:15:17.808             0.921           261.094
       202   07 Jun 2027 11:15:42.763   07 Jun 2027 11:15:45.908             3.145           484.156
       203   07 Jun 2027 11:15:47.440   07 Jun 2027 11:15:47.745             0.305            47.875
       204   07 Jun 2027 11:16:25.133   07 Jun 2027 11:16:28.072             2.939           875.125
       205   07 Jun 2027 11:16:57.069   07 Jun 2027 11:17:06.337             9.268           461.406
       206   07 Jun 2027 11:17:49.661   07 Jun 2027 11:17:53.370             3.709           581.156
       207   07 Jun 2027 11:17:55.782   07 Jun 2027 11:17:55.900             0.118            11.344
       208   07 Jun 2027 11:18:25.914   07 Jun 2027 11:18:26.343             0.429           214.500
       209   07 Jun 2027 11:18:30.725   07 Jun 2027 11:18:32.622             1.897           723.438
       210   07 Jun 2027 11:18:48.846   07 Jun 2027 11:18:51.697             2.851           269.000
       211   08 Jun 2027 03:36:18.996   08 Jun 2027 03:40:04.185           225.189        112594.500
       212   08 Jun 2027 03:43:13.995   08 Jun 2027 03:44:07.253            53.258         26629.000
       213   08 Jun 2027 05:13:24.210   08 Jun 2027 05:14:49.895            85.685         42305.594
       214   08 Jun 2027 05:15:50.568   08 Jun 2027 05:15:54.037             3.469           813.500
       215   08 Jun 2027 05:16:33.868   08 Jun 2027 05:16:43.184             9.316           455.531
       216   08 Jun 2027 06:37:21.966   08 Jun 2027 06:37:30.106             8.140          3773.406
       217   08 Jun 2027 06:37:50.381   08 Jun 2027 06:37:51.217             0.836           382.781
       218   08 Jun 2027 06:38:07.164   08 Jun 2027 06:38:10.885             3.721           471.719
       219   08 Jun 2027 06:39:52.831   08 Jun 2027 06:39:59.560             6.729          2998.656
       220   08 Jun 2027 08:13:08.481   08 Jun 2027 08:13:17.171             8.690          2536.875
       221   08 Jun 2027 08:15:22.583   08 Jun 2027 08:15:31.640             9.057          3724.875
       222   08 Jun 2027 08:15:49.819   08 Jun 2027 08:15:53.760             3.941           452.156
       223   08 Jun 2027 08:16:37.906   08 Jun 2027 08:16:41.519             3.613          1379.562
       224   08 Jun 2027 09:47:51.206   08 Jun 2027 09:47:59.931             8.725          2432.375
       225   08 Jun 2027 09:49:59.354   08 Jun 2027 09:50:09.525            10.171          2827.219
       226   08 Jun 2027 09:50:43.305   08 Jun 2027 09:50:43.560             0.255           124.937
       227   08 Jun 2027 09:51:17.196   08 Jun 2027 09:51:17.731             0.535           147.219
       228   08 Jun 2027 09:52:23.181   08 Jun 2027 09:52:27.604             4.423          1818.531
       229   08 Jun 2027 09:52:52.920   08 Jun 2027 09:52:54.505             1.585           456.063
       230   08 Jun 2027 09:53:07.803   08 Jun 2027 09:53:09.799             1.996           177.000
       231   08 Jun 2027 09:53:27.387   08 Jun 2027 09:53:27.933             0.546           261.469
       232   08 Jun 2027 09:53:30.421   08 Jun 2027 09:53:34.111             3.690            31.438
       233   08 Jun 2027 09:54:46.046   08 Jun 2027 09:54:50.621             4.575          1880.781
       234   08 Jun 2027 09:55:17.493   08 Jun 2027 09:55:19.636             2.143           706.125
       235   08 Jun 2027 11:24:37.123   08 Jun 2027 11:24:48.911            11.788          5414.031
       236   08 Jun 2027 11:27:01.910   08 Jun 2027 11:27:10.323             8.413           616.563
       237   08 Jun 2027 11:27:29.957   08 Jun 2027 11:27:35.247             5.290           607.969
       238   08 Jun 2027 11:27:36.829   08 Jun 2027 11:27:37.840             1.011            29.781
       239   08 Jun 2027 11:28:27.208   08 Jun 2027 11:28:28.993             1.785           520.469
       240   08 Jun 2027 11:29:01.688   08 Jun 2027 11:29:03.939             2.251           676.125
       241   08 Jun 2027 11:29:11.661   08 Jun 2027 11:29:12.866             1.205           241.312
       242   08 Jun 2027 11:29:35.362   08 Jun 2027 11:29:38.542             3.180           245.469
       243   08 Jun 2027 11:29:50.402   08 Jun 2027 11:30:03.168            12.766            97.844
       244   08 Jun 2027 11:30:13.371   08 Jun 2027 11:30:16.799             3.428           159.563
       245   08 Jun 2027 11:30:36.024   08 Jun 2027 11:30:36.835             0.811           251.875
       246   08 Jun 2027 11:30:48.267   08 Jun 2027 11:30:48.805             0.538            26.937
       247   09 Jun 2027 03:48:39.741   09 Jun 2027 03:51:37.838           178.097         89048.500
       248   09 Jun 2027 03:54:35.878   09 Jun 2027 03:54:53.813            17.935          8967.500
       249   09 Jun 2027 05:14:06.183   09 Jun 2027 05:14:15.440             9.257          4628.500
       250   09 Jun 2027 05:25:23.737   09 Jun 2027 05:26:50.871            87.134         43567.000
       251   09 Jun 2027 06:47:59.709   09 Jun 2027 06:48:30.681            30.972         15430.625
       252   09 Jun 2027 06:49:37.513   09 Jun 2027 06:49:40.973             3.460          1440.156
       253   09 Jun 2027 06:50:19.056   09 Jun 2027 06:50:21.234             2.178           829.562
       254   09 Jun 2027 06:50:59.675   09 Jun 2027 06:50:59.675             0.000             0.000
       255   09 Jun 2027 06:52:17.725   09 Jun 2027 06:52:28.632            10.907          3407.500
       256   09 Jun 2027 08:23:09.046   09 Jun 2027 08:23:14.947             5.901          2787.406
       257   09 Jun 2027 08:24:10.033   09 Jun 2027 08:24:14.516             4.483          1442.313
       258   09 Jun 2027 08:25:11.002   09 Jun 2027 08:25:17.711             6.709          1600.062
       259   09 Jun 2027 08:26:04.074   09 Jun 2027 08:26:09.112             5.038           763.219
       260   09 Jun 2027 08:27:45.530   09 Jun 2027 08:27:54.666             9.136          2554.625
       261   09 Jun 2027 08:28:01.900   09 Jun 2027 08:28:03.412             1.512           226.063
       262   09 Jun 2027 08:29:03.360   09 Jun 2027 08:29:13.571            10.211          1526.000
       263   09 Jun 2027 09:59:56.795   09 Jun 2027 10:00:04.864             8.069          3578.781
       264   09 Jun 2027 10:01:59.673   09 Jun 2027 10:02:08.007             8.334          3587.781
       265   09 Jun 2027 10:03:29.251   09 Jun 2027 10:03:31.211             1.960           541.469
       266   09 Jun 2027 10:04:27.459   09 Jun 2027 10:04:34.239             6.780          1458.563
       267   09 Jun 2027 10:05:04.757   09 Jun 2027 10:05:05.788             1.031           282.969
       268   09 Jun 2027 10:05:29.202   09 Jun 2027 10:05:30.347             1.145           272.656
       269   09 Jun 2027 10:05:49.098   09 Jun 2027 10:05:50.653             1.555           563.688
       270   09 Jun 2027 10:06:32.790   09 Jun 2027 10:06:40.143             7.353          1207.188
       271   09 Jun 2027 10:06:56.307   09 Jun 2027 10:07:02.609             6.302           490.656
       272   09 Jun 2027 11:36:57.794   09 Jun 2027 11:37:11.423            13.629          5887.125
       273   09 Jun 2027 11:39:07.486   09 Jun 2027 11:39:11.321             3.835           110.469
       274   09 Jun 2027 11:40:11.844   09 Jun 2027 11:40:15.996             4.152          1123.250
       275   09 Jun 2027 11:40:49.266   09 Jun 2027 11:40:51.214             1.948           625.594
       276   09 Jun 2027 11:41:05.818   09 Jun 2027 11:41:07.182             1.364           353.906
       277   09 Jun 2027 11:41:38.875   09 Jun 2027 11:41:41.866             2.991           945.219
       278   09 Jun 2027 11:42:58.388   09 Jun 2027 11:43:07.239             8.851          1500.687
       279   10 Jun 2027 04:00:55.587   10 Jun 2027 04:03:14.265           138.678         69339.000
       280   10 Jun 2027 04:03:27.850   10 Jun 2027 04:03:27.850             0.000             0.000
       281   10 Jun 2027 04:04:48.285   10 Jun 2027 04:04:59.812            11.527          5763.500
       282   10 Jun 2027 04:06:03.459   10 Jun 2027 04:06:40.173            36.714         18357.000
       283   10 Jun 2027 04:07:01.214   10 Jun 2027 04:07:01.214             0.000             0.000
       284   10 Jun 2027 04:07:43.958   10 Jun 2027 04:07:45.864             1.906           953.000
       285   10 Jun 2027 05:25:08.472   10 Jun 2027 05:25:49.921            41.449         20724.500
       286   10 Jun 2027 05:25:57.200   10 Jun 2027 05:26:02.297             5.097          2548.500
       287   10 Jun 2027 05:37:22.358   10 Jun 2027 05:37:53.381            31.023         15511.500
       288   10 Jun 2027 05:38:14.550   10 Jun 2027 05:38:18.117             3.567          1783.500
       289   10 Jun 2027 06:59:35.427   10 Jun 2027 07:00:43.974            68.547         34273.500
       290   10 Jun 2027 07:01:32.215   10 Jun 2027 07:01:41.302             9.087          3844.156
       291   10 Jun 2027 07:01:59.728   10 Jun 2027 07:02:00.606             0.878           166.969
       292   10 Jun 2027 07:03:03.588   10 Jun 2027 07:03:10.525             6.937          1807.937
       293   10 Jun 2027 08:34:28.812   10 Jun 2027 08:34:36.563             7.751          3318.719
       294   10 Jun 2027 08:35:42.225   10 Jun 2027 08:35:44.287             2.062          1031.000
       295   10 Jun 2027 08:35:46.635   10 Jun 2027 08:35:47.714             1.079           240.437
       296   10 Jun 2027 08:37:37.197   10 Jun 2027 08:37:37.197             0.000             0.000
       297   10 Jun 2027 08:38:06.767   10 Jun 2027 08:38:13.252             6.485          2289.437
       298   10 Jun 2027 08:39:55.097   10 Jun 2027 08:39:59.707             4.610          2305.000
       299   10 Jun 2027 08:40:32.027   10 Jun 2027 08:40:34.225             2.198          1059.812
       300   10 Jun 2027 08:41:15.341   10 Jun 2027 08:41:18.287             2.946          1183.250
       301   10 Jun 2027 08:42:33.550   10 Jun 2027 08:42:42.763             9.213          1377.687
       302   10 Jun 2027 10:12:03.841   10 Jun 2027 10:12:11.418             7.577          2644.875
       303   10 Jun 2027 10:13:01.697   10 Jun 2027 10:13:03.385             1.688            69.187
       304   10 Jun 2027 10:13:56.649   10 Jun 2027 10:13:59.381             2.732           625.812
       305   10 Jun 2027 10:14:46.885   10 Jun 2027 10:14:50.948             4.063          1245.563
       306   10 Jun 2027 10:15:53.409   10 Jun 2027 10:15:58.041             4.632          1383.656
       307   10 Jun 2027 10:16:27.763   10 Jun 2027 10:16:28.725             0.962           252.563
       308   10 Jun 2027 10:16:59.403   10 Jun 2027 10:17:01.801             2.398           889.813
       309   10 Jun 2027 10:18:01.981   10 Jun 2027 10:18:04.543             2.562          1279.125
       310   10 Jun 2027 10:18:48.223   10 Jun 2027 10:18:50.880             2.657          1279.812
       311   10 Jun 2027 11:48:47.070   10 Jun 2027 11:48:59.930            12.860          5702.469
       312   10 Jun 2027 11:52:00.906   10 Jun 2027 11:52:07.057             6.151           847.531
       313   10 Jun 2027 11:52:52.942   10 Jun 2027 11:52:58.651             5.709          1086.906
       314   10 Jun 2027 11:53:09.461   10 Jun 2027 11:53:12.338             2.877            30.688
       315   10 Jun 2027 11:54:32.260   10 Jun 2027 11:54:39.801             7.541          2344.125
       316   10 Jun 2027 11:55:00.404   10 Jun 2027 11:55:01.206             0.802           397.969
       317   10 Jun 2027 11:55:20.074   10 Jun 2027 11:55:20.929             0.855           327.250
       318   11 Jun 2027 04:13:01.610   11 Jun 2027 04:15:04.530           122.920         61460.000
       319   11 Jun 2027 04:16:53.786   11 Jun 2027 04:17:26.043            32.257         16128.500
       320   11 Jun 2027 05:37:14.242   11 Jun 2027 05:37:58.058            43.816         21908.000
       321   11 Jun 2027 05:38:10.577   11 Jun 2027 05:38:18.484             7.907          3953.500
       322   11 Jun 2027 05:49:44.933   11 Jun 2027 05:49:49.560             4.627          2313.500
       323   11 Jun 2027 07:11:04.597   11 Jun 2027 07:13:05.911           121.314         59765.844
       324   11 Jun 2027 07:13:26.767   11 Jun 2027 07:13:29.110             2.343           295.250
       325   11 Jun 2027 07:14:32.487   11 Jun 2027 07:14:35.820             3.333          1452.219
       326   11 Jun 2027 07:16:19.456   11 Jun 2027 07:16:27.109             7.653          2184.250
       327   11 Jun 2027 08:45:59.288   11 Jun 2027 08:46:03.793             4.505          2210.719
       328   11 Jun 2027 08:46:54.519   11 Jun 2027 08:46:55.441             0.922            84.719
       329   11 Jun 2027 08:48:28.370   11 Jun 2027 08:48:30.214             1.844           491.781
       330   11 Jun 2027 08:50:24.770   11 Jun 2027 08:50:33.986             9.216          3404.594
       331   11 Jun 2027 08:51:54.973   11 Jun 2027 08:52:01.986             7.013          2292.500
       332   11 Jun 2027 08:53:00.559   11 Jun 2027 08:53:03.476             2.917           433.187
       333   11 Jun 2027 08:53:29.723   11 Jun 2027 08:53:29.723             0.000             0.000
       334   11 Jun 2027 08:54:09.770   11 Jun 2027 08:54:10.449             0.679           339.500
       335   11 Jun 2027 08:54:30.614   11 Jun 2027 08:54:34.575             3.961          1732.188
       336   11 Jun 2027 08:55:07.807   11 Jun 2027 08:55:11.026             3.219           856.375
       337   11 Jun 2027 10:23:59.763   11 Jun 2027 10:24:12.489            12.726          6169.031
       338   11 Jun 2027 10:26:56.747   11 Jun 2027 10:27:00.550             3.803          1824.094
       339   11 Jun 2027 10:27:39.935   11 Jun 2027 10:27:43.212             3.277          1202.437
       340   11 Jun 2027 10:28:15.000   11 Jun 2027 10:28:18.536             3.536           365.156
       341   11 Jun 2027 10:29:23.682   11 Jun 2027 10:29:24.091             0.409            94.719
       342   11 Jun 2027 10:29:43.334   11 Jun 2027 10:29:45.283             1.949           475.937
       343   11 Jun 2027 10:30:52.046   11 Jun 2027 10:30:57.317             5.271           959.969
       344   11 Jun 2027 10:31:10.280   11 Jun 2027 10:31:13.833             3.553           405.094
       345   12 Jun 2027 04:25:27.152   12 Jun 2027 04:27:18.291           111.139         55569.500
       346   12 Jun 2027 04:28:34.884   12 Jun 2027 04:28:58.372            23.488         11744.000
       347   12 Jun 2027 05:49:10.892   12 Jun 2027 05:49:59.510            48.618         24309.000
       348   12 Jun 2027 07:25:22.907   12 Jun 2027 07:27:28.574           125.667         62833.500
       349   12 Jun 2027 07:27:34.367   12 Jun 2027 07:27:38.099             3.732           856.938
       350   12 Jun 2027 07:28:29.088   12 Jun 2027 07:28:38.125             9.037          1052.125
       351   12 Jun 2027 08:58:56.238   12 Jun 2027 08:59:03.212             6.974          2848.125
       352   12 Jun 2027 09:00:39.946   12 Jun 2027 09:00:43.417             3.471           833.000
       353   12 Jun 2027 09:01:28.707   12 Jun 2027 09:01:31.024             2.317           146.406
       354   12 Jun 2027 09:02:24.558   12 Jun 2027 09:02:27.804             3.246          1457.844
       355   12 Jun 2027 09:03:54.197   12 Jun 2027 09:03:59.439             5.242          2130.281
       356   12 Jun 2027 09:04:50.541   12 Jun 2027 09:04:51.569             1.028           301.594
       357   12 Jun 2027 09:05:46.621   12 Jun 2027 09:05:50.458             3.837           432.281
       358   12 Jun 2027 09:06:02.466   12 Jun 2027 09:06:02.618             0.152            76.000
       359   12 Jun 2027 09:06:34.757   12 Jun 2027 09:06:39.831             5.074          1303.594
       360   12 Jun 2027 09:07:29.568   12 Jun 2027 09:07:30.545             0.977           488.500
       361   12 Jun 2027 10:36:22.069   12 Jun 2027 10:36:35.360            13.291          6392.437
       362   12 Jun 2027 10:38:39.495   12 Jun 2027 10:38:43.535             4.040          1281.813
       363   12 Jun 2027 10:39:42.211   12 Jun 2027 10:39:46.393             4.182          1531.969
       364   12 Jun 2027 10:40:34.730   12 Jun 2027 10:40:38.354             3.624           805.531
       365   12 Jun 2027 10:40:49.339   12 Jun 2027 10:40:51.432             2.093           313.531
       366   12 Jun 2027 10:40:59.075   12 Jun 2027 10:40:59.622             0.547            53.781
       367   12 Jun 2027 10:41:31.356   12 Jun 2027 10:41:32.883             1.527           380.437
       368   12 Jun 2027 10:41:57.863   12 Jun 2027 10:42:00.654             2.791           113.719
       369   12 Jun 2027 10:42:45.941   12 Jun 2027 10:42:48.520             2.579          1208.531
       370   12 Jun 2027 10:42:53.480   12 Jun 2027 10:42:55.378             1.898           155.000
       371   12 Jun 2027 10:43:07.411   12 Jun 2027 10:43:07.941             0.530           128.625
       372   13 Jun 2027 03:00:00.000   13 Jun 2027 03:00:06.183             6.183          3091.500
       373   13 Jun 2027 03:00:56.749   13 Jun 2027 03:01:02.275             5.526          2763.000
       374   13 Jun 2027 03:01:09.843   13 Jun 2027 03:01:09.843             0.000             0.000
       375   13 Jun 2027 03:01:12.461   13 Jun 2027 03:01:22.739            10.278          5139.000
       376   13 Jun 2027 03:01:49.982   13 Jun 2027 03:01:49.982             0.000             0.000
       377   13 Jun 2027 03:02:10.847   13 Jun 2027 03:02:12.857             2.010          1005.000
       378   13 Jun 2027 03:02:37.855   13 Jun 2027 03:02:42.130             4.275          2137.500
       379   13 Jun 2027 03:02:56.078   13 Jun 2027 03:03:10.232            14.154          7077.000
       380   13 Jun 2027 03:03:45.587   13 Jun 2027 03:03:50.585             4.998          2499.000
       381   13 Jun 2027 03:04:24.172   13 Jun 2027 03:04:33.084             8.912          4456.000
       382   13 Jun 2027 03:04:52.183   13 Jun 2027 03:04:52.270             0.087            43.500
       383   13 Jun 2027 03:05:14.036   13 Jun 2027 03:05:30.671            16.635          8317.500
       384   13 Jun 2027 04:37:22.200   13 Jun 2027 04:38:57.510            95.310         47655.000
       385   13 Jun 2027 04:39:06.215   13 Jun 2027 04:39:18.199            11.984          5992.000
       386   13 Jun 2027 04:40:49.421   13 Jun 2027 04:40:49.421             0.000             0.000
       387   13 Jun 2027 04:41:31.251   13 Jun 2027 04:41:47.185            15.934          7967.000
       388   13 Jun 2027 06:01:02.038   13 Jun 2027 06:02:39.559            97.521         48760.500
       389   13 Jun 2027 06:03:20.319   13 Jun 2027 06:03:29.591             9.272          4636.000
       390   13 Jun 2027 07:37:29.484   13 Jun 2027 07:38:10.917            41.433         20696.719
       391   13 Jun 2027 07:38:23.748   13 Jun 2027 07:38:25.873             2.125           221.062
       392   13 Jun 2027 07:39:28.021   13 Jun 2027 07:39:32.733             4.712          1435.594
       393   13 Jun 2027 07:40:05.830   13 Jun 2027 07:40:12.833             7.003           969.781
       394   13 Jun 2027 07:40:55.631   13 Jun 2027 07:40:58.630             2.999          1122.781
       395   13 Jun 2027 09:09:40.587   13 Jun 2027 09:09:46.147             5.560          2203.844
       396   13 Jun 2027 09:11:34.936   13 Jun 2027 09:11:39.067             4.131           515.781
       397   13 Jun 2027 09:13:22.022   13 Jun 2027 09:13:24.492             2.470           249.375
       398   13 Jun 2027 09:14:35.673   13 Jun 2027 09:14:37.150             1.477           694.594
       399   13 Jun 2027 09:15:52.638   13 Jun 2027 09:15:56.613             3.975          1860.969
       400   13 Jun 2027 09:18:03.454   13 Jun 2027 09:18:12.080             8.626          2703.969
       401   13 Jun 2027 09:18:40.026   13 Jun 2027 09:18:43.451             3.425           694.625
       402   13 Jun 2027 09:19:15.671   13 Jun 2027 09:19:19.374             3.703           956.344
       403   13 Jun 2027 10:48:32.843   13 Jun 2027 10:48:45.175            12.332          5936.187
       404   13 Jun 2027 10:50:02.231   13 Jun 2027 10:50:06.006             3.775           141.875
       405   13 Jun 2027 10:50:42.156   13 Jun 2027 10:50:43.809             1.653           453.375
       406   13 Jun 2027 10:52:30.166   13 Jun 2027 10:52:33.929             3.763           961.594
       407   13 Jun 2027 10:53:02.194   13 Jun 2027 10:53:07.173             4.979           795.187
       408   13 Jun 2027 10:53:38.057   13 Jun 2027 10:53:42.003             3.946           674.500
       409   13 Jun 2027 10:54:38.113   13 Jun 2027 10:54:42.849             4.736          1723.000
       410   13 Jun 2027 10:54:58.208   13 Jun 2027 10:54:58.386             0.178            89.000
       411   13 Jun 2027 10:54:59.365   13 Jun 2027 10:55:01.134             1.769           421.563
       412   13 Jun 2027 10:55:08.595   13 Jun 2027 10:55:10.142             1.547            73.063
