uniorb/output/strategy_4/Camera/Camera_KinoSat_111307.txt

KinoSat_111307
-------------------------
    Access    *     Start Time (UTCG)     *     Stop Time (UTCG)  *   Duration (s) *   Data (Mbytes)
         1   01 Jun 2027 03:08:05.659   01 Jun 2027 03:09:22.474            76.815         38407.500
         2   01 Jun 2027 03:09:35.336   01 Jun 2027 03:09:45.218             9.882          4941.000
         3   01 Jun 2027 03:10:50.603   01 Jun 2027 03:10:55.043             4.440          2220.000
         4   01 Jun 2027 03:11:04.398   01 Jun 2027 03:11:08.389             3.991          1995.500
         5   01 Jun 2027 03:12:07.537   01 Jun 2027 03:12:10.684             3.147          1573.500
         6   01 Jun 2027 03:13:55.010   01 Jun 2027 03:14:10.127            15.117          7558.500
         7   01 Jun 2027 03:14:53.540   01 Jun 2027 03:15:14.164            20.624         10312.000
         8   01 Jun 2027 04:32:56.349   01 Jun 2027 04:33:58.580            62.231         31115.500
         9   01 Jun 2027 04:44:40.048   01 Jun 2027 04:45:16.659            36.611         18305.500
        10   01 Jun 2027 04:45:38.035   01 Jun 2027 04:45:38.035             0.000             0.000
        11   01 Jun 2027 06:06:55.569   01 Jun 2027 06:08:01.593            66.024         33012.000
        12   01 Jun 2027 06:08:52.393   01 Jun 2027 06:09:11.582            19.189          9594.500
        13   01 Jun 2027 07:41:53.899   01 Jun 2027 07:43:47.720           113.821         56910.500
        14   01 Jun 2027 07:43:57.332   01 Jun 2027 07:44:25.118            27.786         13893.000
        15   01 Jun 2027 07:46:40.625   01 Jun 2027 07:47:05.440            24.815         12407.500
        16   01 Jun 2027 07:49:57.850   01 Jun 2027 07:50:05.024             7.174          3587.000
        17   01 Jun 2027 09:19:21.890   01 Jun 2027 09:21:21.723           119.833         59916.500
        18   01 Jun 2027 09:25:00.055   01 Jun 2027 09:25:00.055             0.000             0.000
        19   01 Jun 2027 09:25:34.290   01 Jun 2027 09:26:20.654            46.364         23182.000
        20   01 Jun 2027 09:26:39.292   01 Jun 2027 09:26:39.786             0.494           247.000
        21   01 Jun 2027 10:56:07.613   01 Jun 2027 10:58:45.968           158.355         79177.500
        22   01 Jun 2027 11:01:27.762   01 Jun 2027 11:01:48.688            20.926         10463.000
        23   02 Jun 2027 03:20:07.609   02 Jun 2027 03:22:08.633           121.024         60512.000
        24   02 Jun 2027 03:22:19.232   02 Jun 2027 03:22:29.865            10.633          5316.500
        25   02 Jun 2027 03:23:05.895   02 Jun 2027 03:23:44.882            38.987         19493.500
        26   02 Jun 2027 03:23:45.844   02 Jun 2027 03:23:46.294             0.450           225.000
        27   02 Jun 2027 03:23:58.265   02 Jun 2027 03:23:59.772             1.507           753.500
        28   02 Jun 2027 03:24:03.861   02 Jun 2027 03:24:09.861             6.000          3000.000
        29   02 Jun 2027 03:24:56.182   02 Jun 2027 03:24:56.860             0.678           339.000
        30   02 Jun 2027 04:44:29.507   02 Jun 2027 04:45:10.541            41.034         20517.000
        31   02 Jun 2027 04:56:45.847   02 Jun 2027 04:57:13.221            27.374         13687.000
        32   02 Jun 2027 06:18:32.378   02 Jun 2027 06:19:48.766            76.388         38194.000
        33   02 Jun 2027 06:20:37.359   02 Jun 2027 06:23:09.475           152.116         76058.000
        34   02 Jun 2027 07:53:21.760   02 Jun 2027 07:55:36.728           134.968         67484.000
        35   02 Jun 2027 07:56:40.415   02 Jun 2027 07:56:52.023            11.608          5804.000
        36   02 Jun 2027 07:57:58.181   02 Jun 2027 07:57:58.181             0.000             0.000
        37   02 Jun 2027 07:59:08.303   02 Jun 2027 07:59:22.752            14.449          7224.500
        38   02 Jun 2027 08:01:17.953   02 Jun 2027 08:01:24.003             6.050          3025.000
        39   02 Jun 2027 08:02:08.986   02 Jun 2027 08:02:42.398            33.412         16706.000
        40   02 Jun 2027 09:31:15.076   02 Jun 2027 09:32:00.281            45.205         21151.470
        41   02 Jun 2027 09:35:23.629   02 Jun 2027 09:35:36.210            12.581          6110.344
        42   02 Jun 2027 09:36:19.152   02 Jun 2027 09:36:25.416             6.264          1341.937
        43   02 Jun 2027 09:36:43.434   02 Jun 2027 09:36:45.649             2.215           141.656
        44   02 Jun 2027 09:38:00.353   02 Jun 2027 09:38:02.691             2.338           412.250
        45   02 Jun 2027 09:38:05.559   02 Jun 2027 09:38:07.303             1.744            89.625
        46   02 Jun 2027 11:07:58.934   02 Jun 2027 11:08:07.908             8.974          4487.000
        47   02 Jun 2027 11:08:32.765   02 Jun 2027 11:08:36.494             3.729          1504.344
        48   02 Jun 2027 11:09:35.035   02 Jun 2027 11:09:37.609             2.574           715.281
        49   02 Jun 2027 11:10:46.868   02 Jun 2027 11:10:53.503             6.635          2023.063
        50   02 Jun 2027 11:11:24.435   02 Jun 2027 11:11:29.144             4.709           966.625
        51   02 Jun 2027 11:12:28.448   02 Jun 2027 11:12:30.006             1.558           588.031
        52   02 Jun 2027 11:12:33.837   02 Jun 2027 11:12:33.962             0.125             9.563
        53   02 Jun 2027 11:13:24.375   02 Jun 2027 11:13:27.633             3.258          1575.406
        54   02 Jun 2027 11:13:35.156   02 Jun 2027 11:13:39.077             3.921            68.250
        55   02 Jun 2027 11:14:12.046   02 Jun 2027 11:14:17.996             5.950           649.750
        56   02 Jun 2027 11:14:29.107   02 Jun 2027 11:14:30.991             1.884           230.125
        57   02 Jun 2027 11:14:36.915   02 Jun 2027 11:14:38.523             1.608            73.750
        58   03 Jun 2027 03:32:30.942   03 Jun 2027 03:36:14.677           223.735        111867.500
        59   03 Jun 2027 03:36:57.040   03 Jun 2027 03:37:32.769            35.729         17864.500
        60   03 Jun 2027 04:56:25.718   03 Jun 2027 04:56:37.551            11.833          5916.500
        61   03 Jun 2027 06:32:25.857   03 Jun 2027 06:33:47.742            81.885         39047.687
        62   03 Jun 2027 06:34:02.115   03 Jun 2027 06:34:02.255             0.140            70.000
        63   03 Jun 2027 06:34:55.550   03 Jun 2027 06:35:00.024             4.474          1778.469
        64   03 Jun 2027 06:35:16.079   03 Jun 2027 06:35:16.079             0.000             0.000
        65   03 Jun 2027 06:35:17.640   03 Jun 2027 06:35:20.829             3.189           362.781
        66   03 Jun 2027 06:35:23.892   03 Jun 2027 06:35:23.892             0.000             0.000
        67   03 Jun 2027 06:35:43.134   03 Jun 2027 06:35:46.328             3.194           662.937
        68   03 Jun 2027 08:06:13.709   03 Jun 2027 08:06:19.893             6.184          2030.094
        69   03 Jun 2027 08:07:48.213   03 Jun 2027 08:07:50.253             2.040           653.906
        70   03 Jun 2027 08:08:41.451   03 Jun 2027 08:08:44.705             3.254           410.000
        71   03 Jun 2027 08:08:55.710   03 Jun 2027 08:08:57.536             1.826           260.188
        72   03 Jun 2027 08:11:07.673   03 Jun 2027 08:11:20.602            12.929          2945.938
        73   03 Jun 2027 08:12:41.143   03 Jun 2027 08:12:44.845             3.702          1665.750
        74   03 Jun 2027 08:13:06.682   03 Jun 2027 08:13:07.656             0.974           325.344
        75   03 Jun 2027 08:13:57.387   03 Jun 2027 08:14:00.619             3.232          1312.750
        76   03 Jun 2027 09:43:22.495   03 Jun 2027 09:43:38.040            15.545          6156.625
        77   03 Jun 2027 09:45:59.496   03 Jun 2027 09:46:03.418             3.922          1266.812
        78   03 Jun 2027 09:47:05.426   03 Jun 2027 09:47:10.061             4.635           295.531
        79   03 Jun 2027 09:48:42.028   03 Jun 2027 09:48:46.755             4.727          2313.219
        80   03 Jun 2027 09:48:55.029   03 Jun 2027 09:49:04.155             9.126           258.563
        81   03 Jun 2027 09:50:07.399   03 Jun 2027 09:50:09.327             1.928           698.750
        82   03 Jun 2027 09:50:16.504   03 Jun 2027 09:50:17.051             0.547            41.938
        83   03 Jun 2027 11:20:36.705   03 Jun 2027 11:20:50.414            13.709          6671.125
        84   03 Jun 2027 11:22:56.879   03 Jun 2027 11:22:58.554             1.675            12.812
        85   03 Jun 2027 11:23:00.093   03 Jun 2027 11:23:04.403             4.310            48.094
        86   03 Jun 2027 11:23:42.517   03 Jun 2027 11:23:43.971             1.454           317.906
        87   03 Jun 2027 11:23:58.609   03 Jun 2027 11:24:00.117             1.508           200.094
        88   03 Jun 2027 11:25:01.600   03 Jun 2027 11:25:09.154             7.554          1921.344
        89   03 Jun 2027 11:25:25.929   03 Jun 2027 11:25:28.727             2.798           267.062
        90   03 Jun 2027 11:26:06.963   03 Jun 2027 11:26:11.328             4.365           651.500
        91   04 Jun 2027 03:44:56.912   04 Jun 2027 03:48:08.789           191.877         95938.500
        92   04 Jun 2027 03:48:54.393   04 Jun 2027 03:48:59.753             5.360          2680.000
        93   04 Jun 2027 05:08:18.947   04 Jun 2027 05:09:16.092            57.145         28572.500
        94   04 Jun 2027 06:44:41.032   04 Jun 2027 06:45:40.954            59.922         29234.468
        95   04 Jun 2027 06:46:13.732   04 Jun 2027 06:46:14.727             0.995           493.031
        96   04 Jun 2027 06:46:43.091   04 Jun 2027 06:46:45.593             2.502           886.375
        97   04 Jun 2027 06:47:01.294   04 Jun 2027 06:47:01.749             0.455            68.375
        98   04 Jun 2027 06:47:20.910   04 Jun 2027 06:47:22.554             1.644            82.469
        99   04 Jun 2027 08:18:37.191   04 Jun 2027 08:18:43.133             5.942          2682.156
       100   04 Jun 2027 08:20:21.580   04 Jun 2027 08:20:26.184             4.604          1615.000
       101   04 Jun 2027 08:20:41.116   04 Jun 2027 08:20:41.116             0.000             0.000
       102   04 Jun 2027 08:21:35.313   04 Jun 2027 08:21:43.306             7.993          1969.656
       103   04 Jun 2027 08:22:40.560   04 Jun 2027 08:22:48.317             7.757          1789.188
       104   04 Jun 2027 08:23:28.743   04 Jun 2027 08:23:31.679             2.936           700.594
       105   04 Jun 2027 08:25:12.889   04 Jun 2027 08:25:20.366             7.477          2623.250
       106   04 Jun 2027 08:25:21.908   04 Jun 2027 08:25:22.402             0.494            48.188
       107   04 Jun 2027 08:25:24.018   04 Jun 2027 08:25:26.455             2.437            50.500
       108   04 Jun 2027 08:26:13.861   04 Jun 2027 08:26:15.560             1.699           593.469
       109   04 Jun 2027 08:26:41.038   04 Jun 2027 08:26:43.402             2.364           242.063
       110   04 Jun 2027 09:55:48.158   04 Jun 2027 09:55:59.784            11.626          5125.625
       111   04 Jun 2027 09:58:15.800   04 Jun 2027 09:58:17.272             1.472           344.812
       112   04 Jun 2027 09:58:46.573   04 Jun 2027 09:58:48.552             1.979           491.812
       113   04 Jun 2027 09:58:57.213   04 Jun 2027 09:58:57.653             0.440           196.500
       114   04 Jun 2027 09:59:09.592   04 Jun 2027 09:59:11.709             2.117           373.094
       115   04 Jun 2027 10:00:53.603   04 Jun 2027 10:00:55.398             1.795           443.187
       116   04 Jun 2027 10:01:55.808   04 Jun 2027 10:02:03.445             7.637          1250.687
       117   04 Jun 2027 11:32:48.943   04 Jun 2027 11:33:02.531            13.588          5593.625
       118   04 Jun 2027 11:35:53.715   04 Jun 2027 11:36:00.120             6.405          1497.031
       119   04 Jun 2027 11:36:10.148   04 Jun 2027 11:36:12.257             2.109           138.500
       120   04 Jun 2027 11:36:24.477   04 Jun 2027 11:36:25.745             1.268           331.937
       121   04 Jun 2027 11:37:00.499   04 Jun 2027 11:37:05.949             5.450           960.594
       122   04 Jun 2027 11:38:00.876   04 Jun 2027 11:38:04.231             3.355           974.437
       123   05 Jun 2027 03:57:14.603   05 Jun 2027 03:58:36.887            82.284         41142.000
       124   05 Jun 2027 03:59:07.389   05 Jun 2027 04:00:49.416           102.027         51013.500
       125   05 Jun 2027 05:20:11.517   05 Jun 2027 05:21:10.323            58.806         29403.000
       126   05 Jun 2027 06:56:45.198   05 Jun 2027 06:57:50.025            64.827         31882.718
       127   05 Jun 2027 06:57:59.533   05 Jun 2027 06:58:04.410             4.877           289.500
       128   05 Jun 2027 06:58:32.770   05 Jun 2027 06:58:34.670             1.900            79.625
       129   05 Jun 2027 06:58:36.047   05 Jun 2027 06:58:36.567             0.520            43.031
       130   05 Jun 2027 06:59:32.191   05 Jun 2027 06:59:32.191             0.000             0.000
       131   05 Jun 2027 06:59:55.493   05 Jun 2027 07:00:00.102             4.609          1926.969
       132   05 Jun 2027 08:31:54.092   05 Jun 2027 08:31:59.290             5.198          2290.219
       133   05 Jun 2027 08:32:32.722   05 Jun 2027 08:32:37.052             4.330           230.313
       134   05 Jun 2027 08:33:06.291   05 Jun 2027 08:33:06.985             0.694           212.375
       135   05 Jun 2027 08:34:16.822   05 Jun 2027 08:34:22.008             5.186          1247.594
       136   05 Jun 2027 08:35:31.487   05 Jun 2027 08:35:34.449             2.962           855.750
       137   05 Jun 2027 08:36:05.203   05 Jun 2027 08:36:10.400             5.197           691.719
       138   05 Jun 2027 08:36:53.946   05 Jun 2027 08:36:56.315             2.369            62.781
       139   05 Jun 2027 08:37:30.644   05 Jun 2027 08:37:35.752             5.108           932.812
       140   05 Jun 2027 08:38:22.452   05 Jun 2027 08:38:27.595             5.143           959.719
       141   05 Jun 2027 08:38:34.824   05 Jun 2027 08:38:35.863             1.039           225.906
       142   05 Jun 2027 10:08:14.089   05 Jun 2027 10:08:23.012             8.923          4274.375
       143   05 Jun 2027 10:10:21.400   05 Jun 2027 10:10:23.535             2.135           627.812
       144   05 Jun 2027 10:11:31.204   05 Jun 2027 10:11:33.273             2.069           902.437
       145   05 Jun 2027 10:12:20.489   05 Jun 2027 10:12:24.554             4.065           601.406
       146   05 Jun 2027 10:12:35.402   05 Jun 2027 10:12:35.922             0.520           208.125
       147   05 Jun 2027 10:13:40.819   05 Jun 2027 10:13:45.162             4.343          1990.406
       148   05 Jun 2027 10:13:59.928   05 Jun 2027 10:14:01.120             1.192           394.875
       149   05 Jun 2027 10:14:21.747   05 Jun 2027 10:14:22.773             1.026           469.937
       150   05 Jun 2027 10:14:24.313   05 Jun 2027 10:14:25.585             1.272            48.125
       151   05 Jun 2027 11:45:48.702   05 Jun 2027 11:46:01.226            12.524          5451.562
       152   05 Jun 2027 11:47:50.448   05 Jun 2027 11:48:04.511            14.063          1241.281
       153   05 Jun 2027 11:48:12.208   05 Jun 2027 11:48:13.847             1.639           121.937
       154   05 Jun 2027 11:48:21.514   05 Jun 2027 11:48:23.308             1.794           239.594
       155   05 Jun 2027 11:49:15.497   05 Jun 2027 11:49:19.407             3.910           215.625
       156   05 Jun 2027 11:49:59.729   05 Jun 2027 11:50:02.093             2.364           990.156
       157   06 Jun 2027 04:08:59.802   06 Jun 2027 04:09:33.917            34.115         17057.500
       158   06 Jun 2027 04:09:48.360   06 Jun 2027 04:10:38.695            50.335         25167.500
       159   06 Jun 2027 04:11:10.146   06 Jun 2027 04:12:36.817            86.671         43335.500
       160   06 Jun 2027 04:12:40.505   06 Jun 2027 04:12:48.414             7.909          3954.500
       161   06 Jun 2027 05:32:20.733   06 Jun 2027 05:33:15.404            54.671         27335.500
       162   06 Jun 2027 05:35:14.404   06 Jun 2027 05:35:19.035             4.631          2315.500
       163   06 Jun 2027 07:08:55.853   06 Jun 2027 07:10:13.933            78.080         38899.219
       164   06 Jun 2027 07:10:24.644   06 Jun 2027 07:10:26.216             1.572           307.469
       165   06 Jun 2027 07:10:48.945   06 Jun 2027 07:10:50.860             1.915            77.188
       166   06 Jun 2027 07:11:57.402   06 Jun 2027 07:12:01.114             3.712          1541.063
       167   06 Jun 2027 07:12:23.013   06 Jun 2027 07:12:24.322             1.309           288.656
       168   06 Jun 2027 08:44:05.942   06 Jun 2027 08:44:11.722             5.780          2826.969
       169   06 Jun 2027 08:45:30.611   06 Jun 2027 08:45:36.995             6.384          2184.344
       170   06 Jun 2027 08:45:43.934   06 Jun 2027 08:45:44.867             0.933           182.156
       171   06 Jun 2027 08:47:00.827   06 Jun 2027 08:47:06.401             5.574          1008.813
       172   06 Jun 2027 08:47:34.036   06 Jun 2027 08:47:39.624             5.588           562.563
       173   06 Jun 2027 08:49:20.939   06 Jun 2027 08:49:29.831             8.892          2327.781
       174   06 Jun 2027 08:50:41.220   06 Jun 2027 08:50:41.618             0.398           199.000
       175   06 Jun 2027 10:20:26.811   06 Jun 2027 10:20:42.320            15.509          6005.469
       176   06 Jun 2027 10:22:34.676   06 Jun 2027 10:22:36.282             1.606           511.437
       177   06 Jun 2027 10:22:56.589   06 Jun 2027 10:23:03.675             7.086           407.625
       178   06 Jun 2027 10:23:58.236   06 Jun 2027 10:24:06.630             8.394          1685.063
       179   06 Jun 2027 10:24:35.534   06 Jun 2027 10:24:40.169             4.635           308.781
       180   06 Jun 2027 10:25:34.630   06 Jun 2027 10:25:36.794             2.164           935.563
       181   06 Jun 2027 11:57:43.617   06 Jun 2027 11:57:56.940            13.323          6603.937
       182   06 Jun 2027 11:59:50.363   06 Jun 2027 11:59:52.628             2.265          1109.594
       183   07 Jun 2027 04:20:56.679   07 Jun 2027 04:21:36.755            40.076         20038.000
       184   07 Jun 2027 04:21:54.785   07 Jun 2027 04:23:49.171           114.386         57193.000
       185   07 Jun 2027 04:24:02.911   07 Jun 2027 04:24:29.365            26.454         13227.000
       186   07 Jun 2027 05:44:53.653   07 Jun 2027 05:45:23.446            29.793         14896.500
       187   07 Jun 2027 05:47:21.968   07 Jun 2027 05:47:29.246             7.278          3639.000
       188   07 Jun 2027 07:20:43.797   07 Jun 2027 07:22:25.706           101.909         50811.344
       189   07 Jun 2027 07:23:11.139   07 Jun 2027 07:23:13.576             2.437          1124.781
       190   07 Jun 2027 07:23:56.346   07 Jun 2027 07:23:59.268             2.922          1036.250
       191   07 Jun 2027 08:55:36.691   07 Jun 2027 08:55:49.556            12.865          3324.406
       192   07 Jun 2027 08:56:18.422   07 Jun 2027 08:56:19.734             1.312           388.375
       193   07 Jun 2027 08:57:05.492   07 Jun 2027 08:57:08.715             3.223            34.875
       194   07 Jun 2027 08:57:58.972   07 Jun 2027 08:58:00.506             1.534           627.781
       195   07 Jun 2027 08:58:37.116   07 Jun 2027 08:58:40.284             3.168           276.500
       196   07 Jun 2027 08:59:36.338   07 Jun 2027 08:59:46.685            10.347          1658.906
       197   07 Jun 2027 09:00:12.868   07 Jun 2027 09:00:20.296             7.428           248.656
       198   07 Jun 2027 09:00:57.213   07 Jun 2027 09:00:59.754             2.541          1005.500
       199   07 Jun 2027 09:01:09.276   07 Jun 2027 09:01:10.156             0.880           297.563
       200   07 Jun 2027 09:01:39.075   07 Jun 2027 09:01:42.590             3.515           616.469
       201   07 Jun 2027 09:02:19.525   07 Jun 2027 09:02:23.016             3.491           378.375
       202   07 Jun 2027 10:32:05.562   07 Jun 2027 10:32:17.365            11.803          5799.156
       203   07 Jun 2027 10:35:13.099   07 Jun 2027 10:35:15.039             1.940           162.313
       204   07 Jun 2027 10:36:30.303   07 Jun 2027 10:36:41.139            10.836          1798.906
       205   07 Jun 2027 10:37:12.705   07 Jun 2027 10:37:14.180             1.475           114.594
       206   07 Jun 2027 10:37:39.595   07 Jun 2027 10:37:47.578             7.983           744.937
       207   07 Jun 2027 10:38:07.117   07 Jun 2027 10:38:07.534             0.417           195.094
       208   07 Jun 2027 10:38:27.472   07 Jun 2027 10:38:29.366             1.894           475.375
       209   08 Jun 2027 03:00:00.000   08 Jun 2027 03:00:04.850             4.850          2425.000
       210   08 Jun 2027 03:00:07.806   08 Jun 2027 03:00:09.016             1.210           605.000
       211   08 Jun 2027 03:00:24.985   08 Jun 2027 03:00:38.685            13.700          6850.000
       212   08 Jun 2027 03:00:38.708   08 Jun 2027 03:00:51.765            13.057          6528.500
       213   08 Jun 2027 03:01:38.757   08 Jun 2027 03:01:38.757             0.000             0.000
       214   08 Jun 2027 03:02:23.799   08 Jun 2027 03:02:26.626             2.827          1413.500
       215   08 Jun 2027 03:02:44.606   08 Jun 2027 03:02:45.697             1.091           545.500
       216   08 Jun 2027 03:02:53.383   08 Jun 2027 03:03:29.947            36.564         18282.000
       217   08 Jun 2027 04:21:32.909   08 Jun 2027 04:21:48.488            15.579          7789.500
       218   08 Jun 2027 04:22:05.700   08 Jun 2027 04:22:15.352             9.652          4826.000
       219   08 Jun 2027 04:32:52.961   08 Jun 2027 04:34:33.654           100.693         50346.500
       220   08 Jun 2027 04:35:34.224   08 Jun 2027 04:35:35.887             1.663           831.500
       221   08 Jun 2027 05:55:28.216   08 Jun 2027 05:56:32.430            64.214         32107.000
       222   08 Jun 2027 05:58:08.178   08 Jun 2027 05:58:08.178             0.000             0.000
       223   08 Jun 2027 07:30:59.860   08 Jun 2027 07:31:50.669            50.809         25404.500
       224   08 Jun 2027 07:32:28.829   08 Jun 2027 07:33:03.939            35.110         15041.876
       225   08 Jun 2027 07:33:38.059   08 Jun 2027 07:33:40.566             2.507           774.594
       226   08 Jun 2027 07:34:05.984   08 Jun 2027 07:34:09.001             3.017           701.219
       227   08 Jun 2027 07:34:19.706   08 Jun 2027 07:34:23.078             3.372           140.937
       228   08 Jun 2027 07:35:28.209   08 Jun 2027 07:35:31.160             2.951           442.656
       229   08 Jun 2027 07:35:37.151   08 Jun 2027 07:35:39.317             2.166            88.938
       230   08 Jun 2027 07:35:55.654   08 Jun 2027 07:36:00.170             4.516           356.563
       231   08 Jun 2027 07:36:50.772   08 Jun 2027 07:36:54.145             3.373          1553.094
       232   08 Jun 2027 09:07:19.287   08 Jun 2027 09:07:26.642             7.355          3592.750
       233   08 Jun 2027 09:08:18.544   08 Jun 2027 09:08:21.893             3.349          1150.625
       234   08 Jun 2027 09:10:50.008   08 Jun 2027 09:10:51.738             1.730           565.500
       235   08 Jun 2027 09:11:38.369   08 Jun 2027 09:11:40.768             2.399          1163.656
       236   08 Jun 2027 09:12:16.616   08 Jun 2027 09:12:19.955             3.339          1015.094
       237   08 Jun 2027 09:12:37.129   08 Jun 2027 09:12:37.793             0.664            11.938
       238   08 Jun 2027 09:13:37.017   08 Jun 2027 09:13:40.568             3.551          1198.813
       239   08 Jun 2027 09:13:49.146   08 Jun 2027 09:13:52.684             3.538            22.688
       240   08 Jun 2027 09:14:06.857   08 Jun 2027 09:14:10.491             3.634           110.094
       241   08 Jun 2027 09:14:51.485   08 Jun 2027 09:14:51.660             0.175            87.500
       242   08 Jun 2027 10:44:25.973   08 Jun 2027 10:44:42.977            17.004          7779.344
       243   08 Jun 2027 10:47:49.650   08 Jun 2027 10:47:52.975             3.325           229.063
       244   08 Jun 2027 10:48:11.609   08 Jun 2027 10:48:12.471             0.862           231.125
       245   08 Jun 2027 10:48:34.465   08 Jun 2027 10:48:37.567             3.102           169.500
       246   08 Jun 2027 10:49:12.612   08 Jun 2027 10:49:13.778             1.166           580.563
       247   08 Jun 2027 10:50:26.133   08 Jun 2027 10:50:32.201             6.068          2261.094
       248   09 Jun 2027 03:08:22.049   09 Jun 2027 03:09:08.318            46.269         23134.500
       249   09 Jun 2027 03:10:01.146   09 Jun 2027 03:10:30.357            29.211         14605.500
       250   09 Jun 2027 03:10:51.270   09 Jun 2027 03:10:51.270             0.000             0.000
       251   09 Jun 2027 03:12:08.971   09 Jun 2027 03:12:23.100            14.129          7064.500
       252   09 Jun 2027 03:12:32.718   09 Jun 2027 03:12:52.483            19.765          9882.500
       253   09 Jun 2027 03:14:32.153   09 Jun 2027 03:14:36.419             4.266          2133.000
       254   09 Jun 2027 03:15:10.131   09 Jun 2027 03:15:30.343            20.212         10106.000
       255   09 Jun 2027 04:33:12.174   09 Jun 2027 04:33:36.366            24.192         12096.000
       256   09 Jun 2027 04:34:17.806   09 Jun 2027 04:34:40.403            22.597         11298.500
       257   09 Jun 2027 04:44:56.336   09 Jun 2027 04:45:55.236            58.900         29450.000
       258   09 Jun 2027 06:07:11.172   09 Jun 2027 06:08:17.127            65.955         32977.500
       259   09 Jun 2027 06:09:06.652   09 Jun 2027 06:09:27.349            20.697          9708.062
       260   09 Jun 2027 07:42:08.363   09 Jun 2027 07:42:20.566            12.203          5812.469
       261   09 Jun 2027 07:43:36.867   09 Jun 2027 07:43:40.920             4.053          1127.250
       262   09 Jun 2027 07:44:12.964   09 Jun 2027 07:44:16.180             3.216           566.844
       263   09 Jun 2027 07:45:10.937   09 Jun 2027 07:45:21.073            10.136          1599.406
       264   09 Jun 2027 07:45:46.154   09 Jun 2027 07:45:54.279             8.125           733.375
       265   09 Jun 2027 07:46:13.988   09 Jun 2027 07:46:23.886             9.898           507.969
       266   09 Jun 2027 07:47:37.565   09 Jun 2027 07:47:38.873             1.308           405.313
       267   09 Jun 2027 07:48:02.758   09 Jun 2027 07:48:06.443             3.685           420.094
       268   09 Jun 2027 07:49:02.845   09 Jun 2027 07:49:06.550             3.705          1762.562
       269   09 Jun 2027 07:50:07.283   09 Jun 2027 07:50:08.739             1.456           693.312
       270   09 Jun 2027 09:19:37.502   09 Jun 2027 09:19:43.965             6.463          2995.562
       271   09 Jun 2027 09:21:38.827   09 Jun 2027 09:21:46.413             7.586          3581.688
       272   09 Jun 2027 09:22:08.338   09 Jun 2027 09:22:09.938             1.600           666.906
       273   09 Jun 2027 09:23:22.427   09 Jun 2027 09:23:23.822             1.395           382.125
       274   09 Jun 2027 09:24:25.722   09 Jun 2027 09:24:28.814             3.092          1426.281
       275   09 Jun 2027 09:24:59.220   09 Jun 2027 09:25:03.404             4.184           367.750
       276   09 Jun 2027 09:25:27.157   09 Jun 2027 09:25:29.487             2.330           325.969
       277   09 Jun 2027 09:26:01.443   09 Jun 2027 09:26:01.619             0.176            11.625
       278   09 Jun 2027 09:26:35.285   09 Jun 2027 09:26:42.051             6.766           882.906
       279   09 Jun 2027 09:26:55.451   09 Jun 2027 09:26:55.926             0.475             3.781
       280   09 Jun 2027 10:56:22.101   09 Jun 2027 10:56:34.676            12.575          5554.750
       281   09 Jun 2027 10:58:53.448   09 Jun 2027 10:58:54.464             1.016           469.063
       282   09 Jun 2027 10:59:04.917   09 Jun 2027 10:59:09.280             4.363            16.594
       283   09 Jun 2027 11:00:03.015   09 Jun 2027 11:00:07.451             4.436          1295.250
       284   09 Jun 2027 11:00:38.539   09 Jun 2027 11:00:40.611             2.072           346.844
       285   09 Jun 2027 11:01:09.015   09 Jun 2027 11:01:12.108             3.093           689.906
       286   09 Jun 2027 11:01:44.689   09 Jun 2027 11:01:49.204             4.515           915.094
       287   09 Jun 2027 11:02:04.938   09 Jun 2027 11:02:07.453             2.515           491.687
       288   09 Jun 2027 11:02:25.873   09 Jun 2027 11:02:28.388             2.515           575.625
       289   09 Jun 2027 11:02:50.796   09 Jun 2027 11:02:54.232             3.436           700.250
       290   09 Jun 2027 11:02:54.673   09 Jun 2027 11:02:54.824             0.151            13.781
       291   10 Jun 2027 03:20:24.127   10 Jun 2027 03:22:49.684           145.557         72778.500
       292   10 Jun 2027 03:23:02.836   10 Jun 2027 03:23:08.549             5.713          2856.500
       293   10 Jun 2027 03:24:00.320   10 Jun 2027 03:24:24.787            24.467         12233.500
       294   10 Jun 2027 03:25:10.566   10 Jun 2027 03:25:11.835             1.269           634.500
       295   10 Jun 2027 03:26:30.054   10 Jun 2027 03:26:45.954            15.900          7950.000
       296   10 Jun 2027 04:44:45.631   10 Jun 2027 04:45:37.631            52.000         26000.000
       297   10 Jun 2027 04:45:46.621   10 Jun 2027 04:45:51.359             4.738          2369.000
       298   10 Jun 2027 04:57:01.590   10 Jun 2027 04:57:29.221            27.631         13815.500
       299   10 Jun 2027 06:18:43.335   10 Jun 2027 06:19:33.636            50.301         25150.500
       300   10 Jun 2027 06:19:43.098   10 Jun 2027 06:19:48.972             5.874          2611.063
       301   10 Jun 2027 06:21:02.487   10 Jun 2027 06:21:05.865             3.378          1571.500
       302   10 Jun 2027 06:22:11.785   10 Jun 2027 06:22:16.102             4.317          1915.500
       303   10 Jun 2027 06:22:43.223   10 Jun 2027 06:22:44.803             1.580            29.281
       304   10 Jun 2027 06:23:24.401   10 Jun 2027 06:23:27.940             3.539          1237.437
       305   10 Jun 2027 06:23:59.853   10 Jun 2027 06:24:01.914             2.061           929.781
       306   10 Jun 2027 06:24:18.710   10 Jun 2027 06:24:18.710             0.000             0.000
       307   10 Jun 2027 07:53:36.857   10 Jun 2027 07:53:41.735             4.878          2256.281
       308   10 Jun 2027 07:55:09.112   10 Jun 2027 07:55:15.823             6.711          2403.250
       309   10 Jun 2027 07:55:43.196   10 Jun 2027 07:55:46.695             3.499            52.719
       310   10 Jun 2027 07:56:02.845   10 Jun 2027 07:56:04.960             2.115           404.625
       311   10 Jun 2027 07:56:58.970   10 Jun 2027 07:57:07.548             8.578          1553.062
       312   10 Jun 2027 07:57:09.395   10 Jun 2027 07:57:11.652             2.257            57.719
       313   10 Jun 2027 07:58:15.221   10 Jun 2027 07:58:18.525             3.304           833.156
       314   10 Jun 2027 07:59:40.731   10 Jun 2027 07:59:43.003             2.272           505.625
       315   10 Jun 2027 08:00:29.140   10 Jun 2027 08:00:31.086             1.946           776.375
       316   10 Jun 2027 08:01:17.319   10 Jun 2027 08:01:20.819             3.500          1427.656
       317   10 Jun 2027 08:02:08.589   10 Jun 2027 08:02:11.339             2.750          1051.687
       318   10 Jun 2027 08:02:40.499   10 Jun 2027 08:02:48.011             7.512           793.281
       319   10 Jun 2027 09:31:31.041   10 Jun 2027 09:31:46.442            15.401          5380.687
       320   10 Jun 2027 09:33:23.417   10 Jun 2027 09:33:25.889             2.472           377.250
       321   10 Jun 2027 09:34:30.306   10 Jun 2027 09:34:33.953             3.647          1640.844
       322   10 Jun 2027 09:35:08.174   10 Jun 2027 09:35:11.332             3.158           476.188
       323   10 Jun 2027 09:35:47.443   10 Jun 2027 09:35:47.907             0.464           188.406
       324   10 Jun 2027 09:36:58.837   10 Jun 2027 09:37:00.521             1.684            77.063
       325   10 Jun 2027 09:38:18.400   10 Jun 2027 09:38:19.696             1.296           580.781
       326   10 Jun 2027 09:38:37.691   10 Jun 2027 09:38:46.961             9.270           550.625
       327   10 Jun 2027 11:08:15.113   10 Jun 2027 11:08:23.357             8.244          4122.000
       328   10 Jun 2027 11:08:49.755   10 Jun 2027 11:08:57.454             7.699          2143.250
       329   10 Jun 2027 11:09:59.102   10 Jun 2027 11:10:05.277             6.175           178.937
       330   10 Jun 2027 11:11:39.134   10 Jun 2027 11:11:51.728            12.594           853.313
       331   10 Jun 2027 11:12:29.405   10 Jun 2027 11:12:37.139             7.734           403.188
       332   10 Jun 2027 11:13:09.488   10 Jun 2027 11:13:14.313             4.825           880.000
       333   10 Jun 2027 11:13:18.625   10 Jun 2027 11:13:22.215             3.590            38.531
       334   10 Jun 2027 11:14:24.781   10 Jun 2027 11:14:28.524             3.743          1666.781
       335   10 Jun 2027 11:14:49.221   10 Jun 2027 11:14:53.407             4.186           622.656
       336   11 Jun 2027 03:32:48.322   11 Jun 2027 03:36:31.135           222.813        111406.500
       337   11 Jun 2027 03:36:32.797   11 Jun 2027 03:37:12.691            39.894         19947.000
       338   11 Jun 2027 04:56:41.515   11 Jun 2027 04:56:59.487            17.972          8986.000
       339   11 Jun 2027 06:32:42.099   11 Jun 2027 06:33:50.071            67.972         33986.000
       340   11 Jun 2027 06:34:18.051   11 Jun 2027 06:34:21.279             3.228           948.969
       341   11 Jun 2027 06:35:49.032   11 Jun 2027 06:35:53.139             4.107          1850.156
       342   11 Jun 2027 08:06:30.034   11 Jun 2027 08:06:40.585            10.551          2460.094
       343   11 Jun 2027 08:07:58.377   11 Jun 2027 08:07:59.381             1.004           452.844
       344   11 Jun 2027 08:08:58.238   11 Jun 2027 08:08:59.722             1.484           399.687
       345   11 Jun 2027 08:09:50.727   11 Jun 2027 08:09:59.231             8.504          1496.219
       346   11 Jun 2027 08:11:07.665   11 Jun 2027 08:11:15.515             7.850          1997.656
       347   11 Jun 2027 08:11:43.780   11 Jun 2027 08:11:43.780             0.000             0.000
       348   11 Jun 2027 08:12:27.031   11 Jun 2027 08:12:35.251             8.220          1973.344
       349   11 Jun 2027 08:13:34.312   11 Jun 2027 08:13:36.308             1.996           998.000
       350   11 Jun 2027 08:14:18.499   11 Jun 2027 08:14:21.329             2.830          1390.469
       351   11 Jun 2027 09:43:39.416   11 Jun 2027 09:43:51.453            12.037          5169.719
       352   11 Jun 2027 09:45:54.310   11 Jun 2027 09:46:00.468             6.158          1310.094
       353   11 Jun 2027 09:47:20.914   11 Jun 2027 09:47:25.913             4.999           264.125
       354   11 Jun 2027 09:47:59.884   11 Jun 2027 09:48:07.040             7.156           498.438
       355   11 Jun 2027 09:49:08.485   11 Jun 2027 09:49:10.368             1.883           135.594
       356   11 Jun 2027 09:50:23.185   11 Jun 2027 09:50:25.672             2.487           742.406
       357   11 Jun 2027 11:20:53.897   11 Jun 2027 11:21:08.594            14.697          6812.031
       358   11 Jun 2027 11:22:02.279   11 Jun 2027 11:22:12.090             9.811           924.156
       359   11 Jun 2027 11:22:49.878   11 Jun 2027 11:22:53.109             3.231           326.344
       360   11 Jun 2027 11:23:18.333   11 Jun 2027 11:23:19.386             1.053           168.594
       361   11 Jun 2027 11:24:43.998   11 Jun 2027 11:24:45.976             1.978           631.312
       362   11 Jun 2027 11:25:41.309   11 Jun 2027 11:25:44.490             3.181          1413.406
       363   11 Jun 2027 11:26:24.919   11 Jun 2027 11:26:26.895             1.976           670.125
       364   12 Jun 2027 03:45:12.235   12 Jun 2027 03:48:42.676           210.441        105220.500
       365   12 Jun 2027 05:08:34.407   12 Jun 2027 05:09:31.905            57.498         28749.000
       366   12 Jun 2027 06:44:55.192   12 Jun 2027 06:45:41.618            46.426         21066.500
       367   12 Jun 2027 06:46:15.234   12 Jun 2027 06:46:17.986             2.752           914.844
       368   12 Jun 2027 06:46:30.619   12 Jun 2027 06:46:36.423             5.804           394.781
       369   12 Jun 2027 06:47:14.673   12 Jun 2027 06:47:16.071             1.398           483.781
       370   12 Jun 2027 06:47:34.660   12 Jun 2027 06:47:38.185             3.525           578.219
       371   12 Jun 2027 06:48:00.866   12 Jun 2027 06:48:02.587             1.721           685.719
       372   12 Jun 2027 08:18:56.225   12 Jun 2027 08:19:01.797             5.572          2388.844
       373   12 Jun 2027 08:20:08.906   12 Jun 2027 08:20:11.530             2.624           710.156
       374   12 Jun 2027 08:20:56.503   12 Jun 2027 08:20:56.503             0.000             0.000
       375   12 Jun 2027 08:21:52.609   12 Jun 2027 08:22:01.784             9.175          2311.063
       376   12 Jun 2027 08:22:56.048   12 Jun 2027 08:23:03.835             7.787          1641.969
       377   12 Jun 2027 08:23:46.688   12 Jun 2027 08:23:53.674             6.986           756.250
       378   12 Jun 2027 08:25:32.075   12 Jun 2027 08:25:37.676             5.601          2667.906
       379   12 Jun 2027 08:26:12.040   12 Jun 2027 08:26:14.162             2.122          1027.344
       380   12 Jun 2027 08:26:50.088   12 Jun 2027 08:26:55.544             5.456           587.188
       381   12 Jun 2027 09:56:04.591   12 Jun 2027 09:56:14.375             9.784          4402.594
       382   12 Jun 2027 09:58:06.668   12 Jun 2027 09:58:10.503             3.835           720.781
       383   12 Jun 2027 09:58:42.619   12 Jun 2027 09:58:46.745             4.126           333.250
       384   12 Jun 2027 09:59:15.982   12 Jun 2027 09:59:21.656             5.674           428.219
       385   12 Jun 2027 10:00:24.370   12 Jun 2027 10:00:27.788             3.418          1245.469
       386   12 Jun 2027 10:00:52.818   12 Jun 2027 10:00:54.532             1.714           669.469
       387   12 Jun 2027 10:01:10.926   12 Jun 2027 10:01:12.451             1.525           505.844
       388   12 Jun 2027 10:02:10.452   12 Jun 2027 10:02:15.404             4.952          1719.125
       389   12 Jun 2027 10:02:20.924   12 Jun 2027 10:02:23.833             2.909           172.500
       390   12 Jun 2027 11:33:02.778   12 Jun 2027 11:33:18.676            15.898          5314.969
       391   12 Jun 2027 11:36:07.177   12 Jun 2027 11:36:10.766             3.589           149.437
       392   12 Jun 2027 11:37:18.713   12 Jun 2027 11:37:23.892             5.179          2123.344
       393   12 Jun 2027 11:38:16.853   12 Jun 2027 11:38:19.380             2.527           921.281
       394   13 Jun 2027 03:57:31.062   13 Jun 2027 04:01:04.416           213.354        106677.000
       395   13 Jun 2027 05:20:34.504   13 Jun 2027 05:20:39.992             5.488          2744.000
       396   13 Jun 2027 05:21:31.005   13 Jun 2027 05:21:34.504             3.499          1749.500
       397   13 Jun 2027 05:21:44.478   13 Jun 2027 05:21:54.604            10.126          5063.000
       398   13 Jun 2027 06:57:01.287   13 Jun 2027 06:58:39.671            98.384         47650.687
       399   13 Jun 2027 06:58:49.019   13 Jun 2027 06:58:49.019             0.000             0.000
       400   13 Jun 2027 06:58:50.431   13 Jun 2027 06:58:51.773             1.342           131.781
       401   13 Jun 2027 06:59:09.758   13 Jun 2027 06:59:10.981             1.223           562.031
       402   13 Jun 2027 06:59:38.877   13 Jun 2027 06:59:41.202             2.325           852.438
       403   13 Jun 2027 08:32:09.958   13 Jun 2027 08:32:16.134             6.176          2936.812
       404   13 Jun 2027 08:32:48.008   13 Jun 2027 08:32:48.824             0.816           171.063
       405   13 Jun 2027 08:33:54.163   13 Jun 2027 08:33:59.594             5.431           949.906
       406   13 Jun 2027 08:35:20.211   13 Jun 2027 08:35:24.382             4.171          1431.531
       407   13 Jun 2027 08:35:54.850   13 Jun 2027 08:35:56.066             1.216           396.750
       408   13 Jun 2027 08:36:22.647   13 Jun 2027 08:36:25.632             2.985           778.125
       409   13 Jun 2027 08:37:15.178   13 Jun 2027 08:37:18.142             2.964           240.344
       410   13 Jun 2027 08:38:09.205   13 Jun 2027 08:38:13.708             4.503           981.250
       411   13 Jun 2027 08:38:41.439   13 Jun 2027 08:38:42.867             1.428           522.000
       412   13 Jun 2027 08:38:51.538   13 Jun 2027 08:38:55.639             4.101           137.188
       413   13 Jun 2027 10:08:30.435   13 Jun 2027 10:08:41.383            10.948          5200.688
       414   13 Jun 2027 10:10:15.956   13 Jun 2027 10:10:19.408             3.452           952.281
       415   13 Jun 2027 10:10:52.253   13 Jun 2027 10:10:54.058             1.805           176.937
       416   13 Jun 2027 10:11:21.564   13 Jun 2027 10:11:23.302             1.738           530.469
       417   13 Jun 2027 10:11:48.360   13 Jun 2027 10:11:55.015             6.655            84.844
       418   13 Jun 2027 10:12:37.070   13 Jun 2027 10:12:40.328             3.258           671.656
       419   13 Jun 2027 10:13:16.817   13 Jun 2027 10:13:19.837             3.020           817.188
       420   13 Jun 2027 10:14:15.152   13 Jun 2027 10:14:19.195             4.043           365.562
       421   13 Jun 2027 10:14:36.108   13 Jun 2027 10:14:37.570             1.462           372.656
       422   13 Jun 2027 10:14:39.142   13 Jun 2027 10:14:40.808             1.666            27.094
       423   13 Jun 2027 11:46:04.489   13 Jun 2027 11:46:17.098            12.609          6148.937
       424   13 Jun 2027 11:47:28.816   13 Jun 2027 11:47:34.487             5.671          1266.344
       425   13 Jun 2027 11:48:30.095   13 Jun 2027 11:48:39.853             9.758           876.063
       426   13 Jun 2027 11:48:47.694   13 Jun 2027 11:48:49.657             1.963           244.594
       427   13 Jun 2027 11:49:31.742   13 Jun 2027 11:49:33.452             1.710           209.938
       428   13 Jun 2027 11:50:14.975   13 Jun 2027 11:50:21.313             6.338          1062.844
