uniorb/output/strategy_4/Camera/Camera_KinoSat_111307.txt

KinoSat_111307
-------------------------
    Access    *     Start Time (UTCG)     *     Stop Time (UTCG)  *   Duration (s) *   Data (Mbytes)
         1   01 Jun 2027 03:08:05.659   01 Jun 2027 03:09:22.474            76.815         38407.500
         2   01 Jun 2027 03:09:35.336   01 Jun 2027 03:09:45.218             9.882          4941.000
         3   01 Jun 2027 03:10:50.603   01 Jun 2027 03:10:55.043             4.440          2220.000
         4   01 Jun 2027 03:11:04.398   01 Jun 2027 03:11:08.389             3.991          1995.500
         5   01 Jun 2027 03:12:07.537   01 Jun 2027 03:12:10.684             3.147          1573.500
         6   01 Jun 2027 03:13:55.010   01 Jun 2027 03:14:10.127            15.117          7558.500
         7   01 Jun 2027 03:14:53.540   01 Jun 2027 03:15:14.164            20.624         10312.000
         8   01 Jun 2027 04:32:56.349   01 Jun 2027 04:33:58.580            62.231         31115.500
         9   01 Jun 2027 04:44:40.048   01 Jun 2027 04:45:16.659            36.611         18305.500
        10   01 Jun 2027 04:45:38.035   01 Jun 2027 04:45:38.035             0.000             0.000
        11   01 Jun 2027 06:06:55.569   01 Jun 2027 06:08:01.593            66.024         33012.000
        12   01 Jun 2027 06:08:52.393   01 Jun 2027 06:09:11.582            19.189          9594.500
        13   01 Jun 2027 07:41:53.899   01 Jun 2027 07:43:47.720           113.821         56910.500
        14   01 Jun 2027 07:43:57.332   01 Jun 2027 07:44:25.118            27.786         13893.000
        15   01 Jun 2027 07:46:40.625   01 Jun 2027 07:47:05.440            24.815         12407.500
        16   01 Jun 2027 07:49:57.850   01 Jun 2027 07:50:05.024             7.174          3587.000
        17   01 Jun 2027 09:19:21.890   01 Jun 2027 09:21:21.723           119.833         59916.500
        18   01 Jun 2027 09:25:00.055   01 Jun 2027 09:25:00.055             0.000             0.000
        19   01 Jun 2027 09:25:34.290   01 Jun 2027 09:26:39.786            65.496         32748.000
        20   01 Jun 2027 10:56:07.613   01 Jun 2027 10:58:22.689           135.076         67538.000
        21   01 Jun 2027 11:00:21.675   01 Jun 2027 11:00:22.254             0.579           289.500
        22   01 Jun 2027 11:00:58.358   01 Jun 2027 11:01:27.762            29.404         14702.000
        23   01 Jun 2027 11:02:24.070   01 Jun 2027 11:02:25.194             1.124           562.000
        24   02 Jun 2027 03:20:07.609   02 Jun 2027 03:21:15.632            68.023         34011.500
        25   02 Jun 2027 03:21:43.302   02 Jun 2027 03:22:08.633            25.331         12665.500
        26   02 Jun 2027 03:22:22.372   02 Jun 2027 03:22:39.644            17.272          8636.000
        27   02 Jun 2027 03:23:44.882   02 Jun 2027 03:23:52.563             7.681          3840.500
        28   02 Jun 2027 03:25:06.457   02 Jun 2027 03:25:29.856            23.399         11699.500
        29   02 Jun 2027 04:44:29.507   02 Jun 2027 04:45:20.278            50.771         25385.500
        30   02 Jun 2027 04:45:31.919   02 Jun 2027 04:45:35.612             3.693          1846.500
        31   02 Jun 2027 04:56:45.847   02 Jun 2027 04:57:13.221            27.374         13687.000
        32   02 Jun 2027 06:18:32.378   02 Jun 2027 06:19:48.766            76.388         38194.000
        33   02 Jun 2027 06:20:37.359   02 Jun 2027 06:23:09.475           152.116         76058.000
        34   02 Jun 2027 07:53:21.760   02 Jun 2027 07:55:48.613           146.853         73426.500
        35   02 Jun 2027 07:56:40.415   02 Jun 2027 07:56:52.023            11.608          5804.000
        36   02 Jun 2027 07:57:09.208   02 Jun 2027 07:57:31.216            22.008         11004.000
        37   02 Jun 2027 08:00:15.857   02 Jun 2027 08:00:24.130             8.273          4136.500
        38   02 Jun 2027 08:00:25.894   02 Jun 2027 08:00:34.416             8.522          4261.000
        39   02 Jun 2027 08:01:51.499   02 Jun 2027 08:02:09.861            18.362          9181.000
        40   02 Jun 2027 08:02:16.885   02 Jun 2027 08:02:42.398            25.513         12756.500
        41   02 Jun 2027 09:31:15.076   02 Jun 2027 09:31:46.754            31.678         13917.346
        42   02 Jun 2027 09:32:32.994   02 Jun 2027 09:32:35.547             2.553           799.250
        43   02 Jun 2027 09:34:14.762   02 Jun 2027 09:34:19.095             4.333          1687.781
        44   02 Jun 2027 09:34:51.637   02 Jun 2027 09:34:54.144             2.507           422.531
        45   02 Jun 2027 09:35:36.210   02 Jun 2027 09:35:37.385             1.175           233.656
        46   02 Jun 2027 09:36:43.434   02 Jun 2027 09:36:45.649             2.215           141.656
        47   02 Jun 2027 09:38:00.353   02 Jun 2027 09:38:02.691             2.338           412.250
        48   02 Jun 2027 09:38:05.559   02 Jun 2027 09:38:07.303             1.744            89.625
        49   02 Jun 2027 09:38:31.947   02 Jun 2027 09:38:36.030             4.083           548.594
        50   02 Jun 2027 11:07:58.934   02 Jun 2027 11:08:07.908             8.974          4487.000
        51   02 Jun 2027 11:08:32.765   02 Jun 2027 11:08:35.554             2.789          1323.125
        52   02 Jun 2027 11:09:35.035   02 Jun 2027 11:09:37.609             2.574           715.281
        53   02 Jun 2027 11:10:46.868   02 Jun 2027 11:10:53.503             6.635          2023.063
        54   02 Jun 2027 11:11:24.435   02 Jun 2027 11:11:29.144             4.709           966.625
        55   02 Jun 2027 11:12:01.697   02 Jun 2027 11:12:02.684             0.987           193.094
        56   02 Jun 2027 11:12:28.448   02 Jun 2027 11:12:30.006             1.558           588.031
        57   02 Jun 2027 11:13:16.822   02 Jun 2027 11:13:22.819             5.997           729.500
        58   02 Jun 2027 11:13:58.645   02 Jun 2027 11:14:01.260             2.615           839.969
        59   02 Jun 2027 11:14:21.743   02 Jun 2027 11:14:29.107             7.364           385.656
        60   03 Jun 2027 03:32:30.942   03 Jun 2027 03:36:14.677           223.735        111867.500
        61   03 Jun 2027 03:36:57.040   03 Jun 2027 03:37:32.769            35.729         17864.500
        62   03 Jun 2027 04:56:37.551   03 Jun 2027 04:56:44.409             6.858          3429.000
        63   03 Jun 2027 04:57:22.124   03 Jun 2027 04:57:36.888            14.764          7382.000
        64   03 Jun 2027 06:32:25.857   03 Jun 2027 06:33:47.742            81.885         39734.813
        65   03 Jun 2027 06:34:32.368   03 Jun 2027 06:34:36.824             4.456          1128.406
        66   03 Jun 2027 06:35:06.031   03 Jun 2027 06:35:07.726             1.695           327.531
        67   03 Jun 2027 06:35:17.640   03 Jun 2027 06:35:17.640             0.000             0.000
        68   03 Jun 2027 06:35:21.920   03 Jun 2027 06:35:23.892             1.972           182.531
        69   03 Jun 2027 06:35:43.134   03 Jun 2027 06:35:46.328             3.194           601.313
        70   03 Jun 2027 08:06:13.709   03 Jun 2027 08:06:19.893             6.184          2030.094
        71   03 Jun 2027 08:07:48.213   03 Jun 2027 08:07:50.253             2.040           653.906
        72   03 Jun 2027 08:08:41.451   03 Jun 2027 08:08:44.705             3.254           410.000
        73   03 Jun 2027 08:08:55.710   03 Jun 2027 08:08:57.536             1.826           260.188
        74   03 Jun 2027 08:10:01.762   03 Jun 2027 08:10:06.094             4.332           886.219
        75   03 Jun 2027 08:11:25.817   03 Jun 2027 08:11:28.359             2.542           567.000
        76   03 Jun 2027 08:12:41.143   03 Jun 2027 08:12:44.845             3.702          1665.750
        77   03 Jun 2027 08:13:15.379   03 Jun 2027 08:13:19.358             3.979           616.844
        78   03 Jun 2027 08:14:01.240   03 Jun 2027 08:14:05.649             4.409          1308.813
        79   03 Jun 2027 09:43:22.495   03 Jun 2027 09:43:38.040            15.545          5167.406
        80   03 Jun 2027 09:48:42.028   03 Jun 2027 09:48:46.755             4.727          2313.219
        81   03 Jun 2027 09:48:55.029   03 Jun 2027 09:49:04.155             9.126           258.563
        82   03 Jun 2027 09:50:07.399   03 Jun 2027 09:50:09.327             1.928           698.750
        83   03 Jun 2027 09:50:16.504   03 Jun 2027 09:50:17.051             0.547            41.938
        84   03 Jun 2027 11:20:36.705   03 Jun 2027 11:20:50.414            13.709          6323.344
        85   03 Jun 2027 11:21:45.082   03 Jun 2027 11:21:56.718            11.636           929.781
        86   03 Jun 2027 11:23:32.344   03 Jun 2027 11:23:37.595             5.251          1877.719
        87   03 Jun 2027 11:24:56.158   03 Jun 2027 11:25:01.600             5.442          1751.281
        88   03 Jun 2027 11:25:46.115   03 Jun 2027 11:25:53.226             7.111          1391.094
        89   03 Jun 2027 11:26:13.197   03 Jun 2027 11:26:21.281             8.084           620.719
        90   04 Jun 2027 03:44:56.912   04 Jun 2027 03:48:16.356           199.444         99722.000
        91   04 Jun 2027 03:49:22.179   04 Jun 2027 03:49:38.411            16.232          8116.000
        92   04 Jun 2027 05:08:18.947   04 Jun 2027 05:09:16.092            57.145         28572.500
        93   04 Jun 2027 06:44:41.032   04 Jun 2027 06:45:28.603            47.571         23785.500
        94   04 Jun 2027 06:45:57.955   04 Jun 2027 06:46:01.561             3.606          1250.312
        95   04 Jun 2027 06:46:14.727   04 Jun 2027 06:46:17.731             3.004           387.375
        96   04 Jun 2027 06:47:32.735   04 Jun 2027 06:47:38.536             5.801          1586.687
        97   04 Jun 2027 08:18:37.191   04 Jun 2027 08:18:43.133             5.942          2454.313
        98   04 Jun 2027 08:20:21.580   04 Jun 2027 08:20:26.184             4.604          1615.000
        99   04 Jun 2027 08:20:41.116   04 Jun 2027 08:20:44.491             3.375           276.000
       100   04 Jun 2027 08:21:35.313   04 Jun 2027 08:21:43.306             7.993          1552.594
       101   04 Jun 2027 08:22:40.560   04 Jun 2027 08:22:48.317             7.757          1789.188
       102   04 Jun 2027 08:23:28.743   04 Jun 2027 08:23:31.679             2.936           700.594
       103   04 Jun 2027 08:25:12.889   04 Jun 2027 08:25:20.366             7.477          2623.250
       104   04 Jun 2027 08:25:54.870   04 Jun 2027 08:25:59.529             4.659          1078.250
       105   04 Jun 2027 08:26:33.292   04 Jun 2027 08:26:40.113             6.821           607.219
       106   04 Jun 2027 09:55:48.158   04 Jun 2027 09:55:59.784            11.626          5793.781
       107   04 Jun 2027 09:57:48.370   04 Jun 2027 09:57:49.756             1.386           623.281
       108   04 Jun 2027 09:58:15.800   04 Jun 2027 09:58:17.272             1.472           344.812
       109   04 Jun 2027 09:58:30.835   04 Jun 2027 09:58:32.086             1.251           423.844
       110   04 Jun 2027 09:58:57.653   04 Jun 2027 09:58:58.999             1.346            13.750
       111   04 Jun 2027 09:59:28.438   04 Jun 2027 09:59:33.080             4.642           903.250
       112   04 Jun 2027 10:00:53.603   04 Jun 2027 10:00:55.398             1.795           443.187
       113   04 Jun 2027 10:01:55.808   04 Jun 2027 10:02:03.445             7.637          1250.687
       114   04 Jun 2027 11:32:48.943   04 Jun 2027 11:33:02.531            13.588          5986.062
       115   04 Jun 2027 11:35:46.264   04 Jun 2027 11:35:49.800             3.536           208.187
       116   04 Jun 2027 11:36:13.756   04 Jun 2027 11:36:15.724             1.968           709.062
       117   04 Jun 2027 11:37:00.499   04 Jun 2027 11:37:05.949             5.450           960.594
       118   04 Jun 2027 11:37:55.386   04 Jun 2027 11:38:00.876             5.490          1376.312
       119   04 Jun 2027 11:38:01.424   04 Jun 2027 11:38:01.974             0.550            17.125
       120   05 Jun 2027 03:57:14.603   05 Jun 2027 03:57:54.998            40.395         20197.500
       121   05 Jun 2027 03:59:03.515   05 Jun 2027 04:01:03.187           119.672         59836.000
       122   05 Jun 2027 04:01:10.102   05 Jun 2027 04:01:16.474             6.372          3186.000
       123   05 Jun 2027 05:20:11.517   05 Jun 2027 05:21:10.323            58.806         29403.000
       124   05 Jun 2027 06:56:45.198   05 Jun 2027 06:58:17.192            91.994         45808.250
       125   05 Jun 2027 06:58:32.770   05 Jun 2027 06:58:34.670             1.900            79.625
       126   05 Jun 2027 06:58:36.047   05 Jun 2027 06:58:36.567             0.520            43.031
       127   05 Jun 2027 06:59:32.191   05 Jun 2027 06:59:32.191             0.000             0.000
       128   05 Jun 2027 06:59:55.493   05 Jun 2027 07:00:00.102             4.609          1926.969
       129   05 Jun 2027 08:31:54.092   05 Jun 2027 08:31:59.290             5.198          2388.906
       130   05 Jun 2027 08:33:06.291   05 Jun 2027 08:33:08.945             2.654          1049.031
       131   05 Jun 2027 08:34:16.822   05 Jun 2027 08:34:22.008             5.186          1247.594
       132   05 Jun 2027 08:35:31.487   05 Jun 2027 08:35:34.449             2.962           855.750
       133   05 Jun 2027 08:36:05.203   05 Jun 2027 08:36:10.400             5.197           691.719
       134   05 Jun 2027 08:37:51.741   05 Jun 2027 08:37:57.017             5.276           963.125
       135   05 Jun 2027 08:38:27.595   05 Jun 2027 08:38:29.520             1.925           567.750
       136   05 Jun 2027 08:38:35.863   05 Jun 2027 08:38:37.298             1.435           198.219
       137   05 Jun 2027 10:08:14.089   05 Jun 2027 10:08:24.545            10.456          4572.219
       138   05 Jun 2027 10:10:21.400   05 Jun 2027 10:10:23.535             2.135           627.812
       139   05 Jun 2027 10:10:37.005   05 Jun 2027 10:10:39.118             2.113           243.000
       140   05 Jun 2027 10:11:06.194   05 Jun 2027 10:11:12.858             6.664           505.844
       141   05 Jun 2027 10:12:28.742   05 Jun 2027 10:12:34.010             5.268          1798.063
       142   05 Jun 2027 10:12:59.556   05 Jun 2027 10:13:02.961             3.405           754.813
       143   05 Jun 2027 10:13:46.937   05 Jun 2027 10:13:51.588             4.651           269.031
       144   05 Jun 2027 10:13:57.113   05 Jun 2027 10:13:59.928             2.815           172.656
       145   05 Jun 2027 11:45:48.702   05 Jun 2027 11:46:01.226            12.524          6262.000
       146   05 Jun 2027 11:46:32.447   05 Jun 2027 11:46:39.168             6.721          1605.000
       147   05 Jun 2027 11:47:46.641   05 Jun 2027 11:47:50.448             3.807           313.156
       148   05 Jun 2027 11:49:01.105   05 Jun 2027 11:49:06.350             5.245          2208.031
       149   05 Jun 2027 11:49:57.377   05 Jun 2027 11:50:02.093             4.716          1594.594
       150   06 Jun 2027 04:08:59.802   06 Jun 2027 04:09:33.917            34.115         17057.500
       151   06 Jun 2027 04:09:48.360   06 Jun 2027 04:12:25.163           156.803         78401.500
       152   06 Jun 2027 04:12:40.843   06 Jun 2027 04:12:48.414             7.571          3785.500
       153   06 Jun 2027 05:32:20.733   06 Jun 2027 05:32:49.767            29.034         14517.000
       154   06 Jun 2027 07:08:55.853   06 Jun 2027 07:10:44.866           109.013         54162.594
       155   06 Jun 2027 07:10:48.945   06 Jun 2027 07:10:48.945             0.000             0.000
       156   06 Jun 2027 07:11:12.273   06 Jun 2027 07:11:20.111             7.838           806.187
       157   06 Jun 2027 07:11:27.616   06 Jun 2027 07:11:30.746             3.130           179.656
       158   06 Jun 2027 08:44:05.942   06 Jun 2027 08:44:10.300             4.358          2033.125
       159   06 Jun 2027 08:45:30.611   06 Jun 2027 08:45:36.995             6.384          2184.344
       160   06 Jun 2027 08:45:43.934   06 Jun 2027 08:45:44.867             0.933           182.156
       161   06 Jun 2027 08:47:00.827   06 Jun 2027 08:47:06.401             5.574          1008.813
       162   06 Jun 2027 08:47:34.036   06 Jun 2027 08:47:39.624             5.588           562.563
       163   06 Jun 2027 08:49:20.939   06 Jun 2027 08:49:29.831             8.892          2327.781
       164   06 Jun 2027 08:50:41.220   06 Jun 2027 08:50:41.618             0.398           199.000
       165   06 Jun 2027 10:20:26.811   06 Jun 2027 10:20:36.793             9.982          4745.156
       166   06 Jun 2027 10:22:40.795   06 Jun 2027 10:22:43.545             2.750           933.750
       167   06 Jun 2027 10:22:56.589   06 Jun 2027 10:23:03.675             7.086           407.625
       168   06 Jun 2027 10:23:39.209   06 Jun 2027 10:23:48.958             9.749          1090.469
       169   06 Jun 2027 10:24:29.709   06 Jun 2027 10:24:35.534             5.825           983.531
       170   06 Jun 2027 10:25:29.105   06 Jun 2027 10:25:34.630             5.525          1674.094
       171   06 Jun 2027 10:25:41.880   06 Jun 2027 10:25:43.314             1.434           226.563
       172   06 Jun 2027 10:25:56.698   06 Jun 2027 10:25:58.943             2.245            28.125
       173   06 Jun 2027 10:26:24.513   06 Jun 2027 10:26:27.341             2.828           310.719
       174   06 Jun 2027 11:57:43.617   06 Jun 2027 11:57:56.940            13.323          6625.781
       175   07 Jun 2027 04:20:56.679   07 Jun 2027 04:21:36.755            40.076         20038.000
       176   07 Jun 2027 04:21:54.785   07 Jun 2027 04:23:05.900            71.115         35557.500
       177   07 Jun 2027 04:24:21.883   07 Jun 2027 04:24:30.017             8.134          4067.000
       178   07 Jun 2027 05:44:53.653   07 Jun 2027 05:45:39.776            46.123         23061.500
       179   07 Jun 2027 07:20:43.797   07 Jun 2027 07:23:11.139           147.342         73671.000
       180   07 Jun 2027 07:23:30.976   07 Jun 2027 07:23:33.754             2.778          1379.500
       181   07 Jun 2027 07:24:05.095   07 Jun 2027 07:24:05.167             0.072            36.000
       182   07 Jun 2027 07:24:40.987   07 Jun 2027 07:24:44.125             3.138          1356.781
       183   07 Jun 2027 08:55:36.691   07 Jun 2027 08:55:41.910             5.219          2603.594
       184   07 Jun 2027 08:56:18.422   07 Jun 2027 08:56:19.734             1.312           388.375
       185   07 Jun 2027 08:57:11.145   07 Jun 2027 08:57:12.642             1.497           176.656
       186   07 Jun 2027 08:57:58.972   07 Jun 2027 08:58:00.506             1.534           627.781
       187   07 Jun 2027 08:58:37.116   07 Jun 2027 08:58:40.284             3.168           276.500
       188   07 Jun 2027 08:58:56.241   07 Jun 2027 08:58:58.068             1.827           405.875
       189   07 Jun 2027 09:00:04.911   07 Jun 2027 09:00:09.658             4.747          1782.531
       190   07 Jun 2027 09:01:20.331   07 Jun 2027 09:01:26.697             6.366          2190.750
       191   07 Jun 2027 09:02:46.753   07 Jun 2027 09:02:50.769             4.016          2008.000
       192   07 Jun 2027 10:32:05.562   07 Jun 2027 10:32:19.569            14.007          6912.156
       193   07 Jun 2027 10:34:34.905   07 Jun 2027 10:34:37.025             2.120           222.813
       194   07 Jun 2027 10:35:13.099   07 Jun 2027 10:35:15.039             1.940           162.313
       195   07 Jun 2027 10:36:12.342   07 Jun 2027 10:36:16.133             3.791          1303.906
       196   07 Jun 2027 10:36:41.139   07 Jun 2027 10:36:42.932             1.793           702.906
       197   07 Jun 2027 10:37:37.693   07 Jun 2027 10:37:47.578             9.885          1561.375
       198   07 Jun 2027 10:38:07.117   07 Jun 2027 10:38:07.534             0.417           195.094
       199   07 Jun 2027 10:38:27.472   07 Jun 2027 10:38:29.366             1.894           475.375
       200   08 Jun 2027 03:00:00.000   08 Jun 2027 03:00:04.850             4.850          2425.000
       201   08 Jun 2027 03:01:03.644   08 Jun 2027 03:01:38.757            35.113         17556.500
       202   08 Jun 2027 03:02:45.697   08 Jun 2027 03:02:53.383             7.686          3843.000
       203   08 Jun 2027 03:02:55.605   08 Jun 2027 03:03:29.947            34.342         17171.000
       204   08 Jun 2027 04:21:32.909   08 Jun 2027 04:21:35.954             3.045          1522.500
       205   08 Jun 2027 04:22:17.579   08 Jun 2027 04:22:38.601            21.022         10511.000
       206   08 Jun 2027 04:32:52.961   08 Jun 2027 04:34:27.382            94.421         47210.500
       207   08 Jun 2027 04:35:34.224   08 Jun 2027 04:35:35.887             1.663           831.500
       208   08 Jun 2027 05:55:28.216   08 Jun 2027 05:56:10.614            42.398         21199.000
       209   08 Jun 2027 05:57:03.389   08 Jun 2027 05:57:23.204            19.815          9907.500
       210   08 Jun 2027 05:57:36.135   08 Jun 2027 05:57:39.631             3.496          1748.000
       211   08 Jun 2027 05:59:11.781   08 Jun 2027 05:59:24.813            13.032          6516.000
       212   08 Jun 2027 07:30:59.860   08 Jun 2027 07:31:50.669            50.809         25404.500
       213   08 Jun 2027 07:32:28.829   08 Jun 2027 07:33:06.205            37.376         18618.937
       214   08 Jun 2027 07:33:38.059   08 Jun 2027 07:33:40.566             2.507           774.594
       215   08 Jun 2027 07:34:05.984   08 Jun 2027 07:34:09.001             3.017           701.219
       216   08 Jun 2027 07:35:24.113   08 Jun 2027 07:35:28.209             4.096          2012.719
       217   08 Jun 2027 07:35:44.244   08 Jun 2027 07:35:49.764             5.520           501.094
       218   08 Jun 2027 07:36:01.073   08 Jun 2027 07:36:03.581             2.508           169.344
       219   08 Jun 2027 07:36:27.398   08 Jun 2027 07:36:28.919             1.521           311.781
       220   08 Jun 2027 07:36:50.857   08 Jun 2027 07:36:52.078             1.221            55.750
       221   08 Jun 2027 09:07:19.287   08 Jun 2027 09:07:25.275             5.988          2305.250
       222   08 Jun 2027 09:09:39.155   08 Jun 2027 09:09:44.665             5.510          2519.094
       223   08 Jun 2027 09:10:50.008   08 Jun 2027 09:10:51.738             1.730           565.500
       224   08 Jun 2027 09:11:38.369   08 Jun 2027 09:11:40.768             2.399          1163.656
       225   08 Jun 2027 09:12:16.616   08 Jun 2027 09:12:19.955             3.339          1015.094
       226   08 Jun 2027 09:12:58.655   08 Jun 2027 09:13:00.342             1.687           672.687
       227   08 Jun 2027 09:14:03.334   08 Jun 2027 09:14:06.857             3.523          1386.156
       228   08 Jun 2027 09:14:51.485   08 Jun 2027 09:14:51.660             0.175            87.500
       229   08 Jun 2027 10:44:25.973   08 Jun 2027 10:44:36.450            10.477          4859.156
       230   08 Jun 2027 10:46:54.171   08 Jun 2027 10:46:55.866             1.695           331.563
       231   08 Jun 2027 10:47:05.695   08 Jun 2027 10:47:07.265             1.570           307.156
       232   08 Jun 2027 10:47:42.320   08 Jun 2027 10:47:45.974             3.654           910.500
       233   08 Jun 2027 10:48:04.213   08 Jun 2027 10:48:07.659             3.446           569.969
       234   08 Jun 2027 10:48:54.034   08 Jun 2027 10:48:58.475             4.441          1325.781
       235   08 Jun 2027 10:49:07.168   08 Jun 2027 10:49:10.904             3.736           159.594
       236   08 Jun 2027 10:49:40.498   08 Jun 2027 10:49:53.382            12.884           871.437
       237   08 Jun 2027 10:50:02.881   08 Jun 2027 10:50:04.917             2.036           158.594
       238   08 Jun 2027 10:50:27.991   08 Jun 2027 10:50:32.201             4.210            58.063
       239   09 Jun 2027 03:08:22.049   09 Jun 2027 03:09:08.318            46.269         23134.500
       240   09 Jun 2027 03:10:01.146   09 Jun 2027 03:10:22.512            21.366         10683.000
       241   09 Jun 2027 03:10:30.357   09 Jun 2027 03:10:32.891             2.534          1267.000
       242   09 Jun 2027 03:12:17.712   09 Jun 2027 03:12:32.718            15.006          7503.000
       243   09 Jun 2027 03:13:32.497   09 Jun 2027 03:13:45.761            13.264          6632.000
       244   09 Jun 2027 03:14:09.530   09 Jun 2027 03:14:31.218            21.688         10844.000
       245   09 Jun 2027 04:33:12.174   09 Jun 2027 04:33:48.882            36.708         18354.000
       246   09 Jun 2027 04:34:33.385   09 Jun 2027 04:34:40.403             7.018          3509.000
       247   09 Jun 2027 04:44:56.336   09 Jun 2027 04:45:55.236            58.900         29450.000
       248   09 Jun 2027 06:07:11.172   09 Jun 2027 06:08:17.127            65.955         32977.500
       249   09 Jun 2027 06:09:06.652   09 Jun 2027 06:09:38.971            32.319         16159.500
       250   09 Jun 2027 06:10:36.864   09 Jun 2027 06:10:48.823            11.959          5691.937
       251   09 Jun 2027 06:11:47.963   09 Jun 2027 06:11:54.377             6.414          1494.844
       252   09 Jun 2027 07:42:08.363   09 Jun 2027 07:42:16.696             8.333          3492.469
       253   09 Jun 2027 07:43:36.867   09 Jun 2027 07:43:40.920             4.053          1127.250
       254   09 Jun 2027 07:44:12.964   09 Jun 2027 07:44:16.180             3.216           566.844
       255   09 Jun 2027 07:45:10.937   09 Jun 2027 07:45:21.073            10.136          1599.406
       256   09 Jun 2027 07:45:46.154   09 Jun 2027 07:45:54.279             8.125           733.375
       257   09 Jun 2027 07:46:13.988   09 Jun 2027 07:46:23.886             9.898           507.969
       258   09 Jun 2027 07:47:37.565   09 Jun 2027 07:47:38.873             1.308           405.313
       259   09 Jun 2027 07:48:02.758   09 Jun 2027 07:48:06.443             3.685           420.094
       260   09 Jun 2027 07:49:02.845   09 Jun 2027 07:49:06.550             3.705          1762.562
       261   09 Jun 2027 07:50:07.283   09 Jun 2027 07:50:08.739             1.456           693.312
       262   09 Jun 2027 09:19:37.502   09 Jun 2027 09:19:43.965             6.463          2796.063
       263   09 Jun 2027 09:20:21.164   09 Jun 2027 09:20:23.604             2.440          1154.719
       264   09 Jun 2027 09:22:41.623   09 Jun 2027 09:22:45.632             4.009          1962.375
       265   09 Jun 2027 09:23:52.228   09 Jun 2027 09:24:03.699            11.471          1535.156
       266   09 Jun 2027 09:24:47.452   09 Jun 2027 09:24:50.655             3.203          1232.750
       267   09 Jun 2027 09:26:01.071   09 Jun 2027 09:26:05.342             4.271          1932.844
       268   09 Jun 2027 09:26:35.248   09 Jun 2027 09:26:37.008             1.760           313.875
       269   09 Jun 2027 09:26:55.451   09 Jun 2027 09:26:55.926             0.475             3.781
       270   09 Jun 2027 10:56:22.101   09 Jun 2027 10:56:34.676            12.575          5267.000
       271   09 Jun 2027 10:58:53.448   09 Jun 2027 10:58:54.464             1.016           469.063
       272   09 Jun 2027 10:59:04.917   09 Jun 2027 10:59:09.280             4.363            16.594
       273   09 Jun 2027 11:00:22.664   09 Jun 2027 11:00:25.756             3.092           777.031
       274   09 Jun 2027 11:00:38.539   09 Jun 2027 11:00:40.611             2.072           346.844
       275   09 Jun 2027 11:01:09.015   09 Jun 2027 11:01:12.108             3.093           689.906
       276   09 Jun 2027 11:02:04.938   09 Jun 2027 11:02:08.283             3.345          1563.687
       277   09 Jun 2027 11:02:33.756   09 Jun 2027 11:02:34.925             1.169           246.344
       278   09 Jun 2027 11:02:54.232   09 Jun 2027 11:02:54.673             0.441           107.375
       279   10 Jun 2027 03:20:24.127   10 Jun 2027 03:23:31.101           186.974         93487.000
       280   10 Jun 2027 03:24:16.312   10 Jun 2027 03:24:24.787             8.475          4237.500
       281   10 Jun 2027 03:24:37.857   10 Jun 2027 03:24:57.481            19.624          9812.000
       282   10 Jun 2027 03:27:22.720   10 Jun 2027 03:27:24.035             1.315           657.500
       283   10 Jun 2027 04:44:45.631   10 Jun 2027 04:44:59.717            14.086          7043.000
       284   10 Jun 2027 04:57:01.590   10 Jun 2027 04:57:29.221            27.631         13815.500
       285   10 Jun 2027 06:18:43.335   10 Jun 2027 06:19:53.309            69.974         34932.500
       286   10 Jun 2027 06:20:52.097   10 Jun 2027 06:20:59.773             7.676          1061.250
       287   10 Jun 2027 06:21:10.489   10 Jun 2027 06:21:13.269             2.780           250.062
       288   10 Jun 2027 06:21:26.155   10 Jun 2027 06:21:28.694             2.539            92.094
       289   10 Jun 2027 06:21:42.601   10 Jun 2027 06:21:42.601             0.000             0.000
       290   10 Jun 2027 06:22:08.353   10 Jun 2027 06:22:11.785             3.432          1239.344
       291   10 Jun 2027 06:22:42.286   10 Jun 2027 06:22:44.803             2.517           953.156
       292   10 Jun 2027 06:23:24.401   10 Jun 2027 06:23:27.940             3.539          1237.437
       293   10 Jun 2027 06:23:32.483   10 Jun 2027 06:23:36.205             3.722            74.469
       294   10 Jun 2027 07:53:36.857   10 Jun 2027 07:53:41.735             4.878          1632.500
       295   10 Jun 2027 07:53:58.463   10 Jun 2027 07:54:00.782             2.319            53.250
       296   10 Jun 2027 07:55:37.612   10 Jun 2027 07:55:41.509             3.897          1939.844
       297   10 Jun 2027 07:55:55.385   10 Jun 2027 07:55:58.345             2.960           171.500
       298   10 Jun 2027 07:56:58.970   10 Jun 2027 07:57:07.548             8.578          1753.906
       299   10 Jun 2027 07:57:09.395   10 Jun 2027 07:57:11.652             2.257            57.719
       300   10 Jun 2027 07:58:15.221   10 Jun 2027 07:58:18.525             3.304           833.156
       301   10 Jun 2027 07:59:40.731   10 Jun 2027 07:59:43.003             2.272           505.625
       302   10 Jun 2027 08:00:29.140   10 Jun 2027 08:00:31.086             1.946           776.375
       303   10 Jun 2027 08:01:17.319   10 Jun 2027 08:01:20.819             3.500          1427.656
       304   10 Jun 2027 08:02:08.589   10 Jun 2027 08:02:11.339             2.750          1051.687
       305   10 Jun 2027 08:02:32.082   10 Jun 2027 08:02:33.374             1.292           117.219
       306   10 Jun 2027 09:31:31.041   10 Jun 2027 09:31:46.442            15.401          5035.781
       307   10 Jun 2027 09:34:30.306   10 Jun 2027 09:34:33.953             3.647          1640.844
       308   10 Jun 2027 09:35:08.174   10 Jun 2027 09:35:11.332             3.158           476.188
       309   10 Jun 2027 09:35:46.527   10 Jun 2027 09:35:47.443             0.916           116.969
       310   10 Jun 2027 09:36:56.371   10 Jun 2027 09:37:00.521             4.150          1627.375
       311   10 Jun 2027 09:37:23.349   10 Jun 2027 09:37:26.639             3.290           311.250
       312   10 Jun 2027 09:38:18.400   10 Jun 2027 09:38:19.696             1.296           580.781
       313   10 Jun 2027 09:38:37.691   10 Jun 2027 09:38:46.961             9.270           550.625
       314   10 Jun 2027 11:08:15.113   10 Jun 2027 11:08:23.357             8.244          4122.000
       315   10 Jun 2027 11:08:35.812   10 Jun 2027 11:08:45.487             9.675          3572.312
       316   10 Jun 2027 11:12:26.175   10 Jun 2027 11:12:29.405             3.230          1470.031
       317   10 Jun 2027 11:13:09.488   10 Jun 2027 11:13:14.313             4.825           880.000
       318   10 Jun 2027 11:13:18.625   10 Jun 2027 11:13:22.215             3.590            38.531
       319   10 Jun 2027 11:14:24.781   10 Jun 2027 11:14:28.524             3.743          1666.781
       320   10 Jun 2027 11:14:49.221   10 Jun 2027 11:14:53.407             4.186           622.656
       321   11 Jun 2027 03:32:48.322   11 Jun 2027 03:35:47.396           179.074         89537.000
       322   11 Jun 2027 03:35:55.864   11 Jun 2027 03:37:12.691            76.827         38413.500
       323   11 Jun 2027 04:56:41.515   11 Jun 2027 04:56:52.057            10.542          5271.000
       324   11 Jun 2027 06:32:42.099   11 Jun 2027 06:34:02.320            80.221         39483.344
       325   11 Jun 2027 06:34:49.827   11 Jun 2027 06:34:53.029             3.202          1133.750
       326   11 Jun 2027 06:35:20.928   11 Jun 2027 06:35:22.697             1.769           294.375
       327   11 Jun 2027 06:35:35.650   11 Jun 2027 06:35:35.910             0.260            98.969
       328   11 Jun 2027 06:35:39.309   11 Jun 2027 06:35:39.309             0.000             0.000
       329   11 Jun 2027 06:35:59.135   11 Jun 2027 06:36:01.644             2.509           676.063
       330   11 Jun 2027 08:06:30.034   11 Jun 2027 08:06:40.585            10.551          1947.375
       331   11 Jun 2027 08:07:44.857   11 Jun 2027 08:07:45.348             0.491            30.344
       332   11 Jun 2027 08:08:45.448   11 Jun 2027 08:08:48.144             2.696          1237.500
       333   11 Jun 2027 08:09:10.003   11 Jun 2027 08:09:11.961             1.958           683.094
       334   11 Jun 2027 08:09:50.727   11 Jun 2027 08:09:59.231             8.504          1191.438
       335   11 Jun 2027 08:11:07.665   11 Jun 2027 08:11:15.515             7.850          1997.656
       336   11 Jun 2027 08:11:43.780   11 Jun 2027 08:11:46.486             2.706           621.750
       337   11 Jun 2027 08:13:00.072   11 Jun 2027 08:13:13.346            13.274          1701.344
       338   11 Jun 2027 08:13:23.566   11 Jun 2027 08:13:25.834             2.268           319.375
       339   11 Jun 2027 08:13:42.006   11 Jun 2027 08:13:44.226             2.220           240.437
       340   11 Jun 2027 09:43:39.416   11 Jun 2027 09:43:51.453            12.037          4701.813
       341   11 Jun 2027 09:45:54.310   11 Jun 2027 09:46:00.468             6.158          1310.094
       342   11 Jun 2027 09:47:20.914   11 Jun 2027 09:47:25.913             4.999           264.125
       343   11 Jun 2027 09:47:59.884   11 Jun 2027 09:48:07.040             7.156           498.438
       344   11 Jun 2027 09:49:04.251   11 Jun 2027 09:49:07.272             3.021           411.156
       345   11 Jun 2027 09:49:59.428   11 Jun 2027 09:50:04.002             4.574          1591.969
       346   11 Jun 2027 09:50:33.733   11 Jun 2027 09:50:36.720             2.987           329.625
       347   11 Jun 2027 09:50:41.188   11 Jun 2027 09:50:43.498             2.310            47.406
       348   11 Jun 2027 11:20:53.897   11 Jun 2027 11:21:08.918            15.021          7440.656
       349   11 Jun 2027 11:22:59.764   11 Jun 2027 11:23:03.386             3.622          1796.406
       350   11 Jun 2027 11:24:06.950   11 Jun 2027 11:24:07.540             0.590           268.750
       351   11 Jun 2027 11:24:23.796   11 Jun 2027 11:24:24.891             1.095           288.594
       352   11 Jun 2027 11:24:40.600   11 Jun 2027 11:24:43.998             3.398           490.906
       353   11 Jun 2027 11:24:58.675   11 Jun 2027 11:25:00.362             1.687           458.656
       354   11 Jun 2027 11:26:22.726   11 Jun 2027 11:26:29.467             6.741          2221.437
       355   12 Jun 2027 03:45:12.235   12 Jun 2027 03:46:52.254           100.019         50009.500
       356   12 Jun 2027 03:47:34.541   12 Jun 2027 03:48:48.375            73.834         36917.000
       357   12 Jun 2027 03:48:56.226   12 Jun 2027 03:48:56.628             0.402           201.000
       358   12 Jun 2027 03:49:19.606   12 Jun 2027 03:49:52.786            33.180         16590.000
       359   12 Jun 2027 05:08:34.407   12 Jun 2027 05:09:31.905            57.498         28749.000
       360   12 Jun 2027 06:44:55.192   12 Jun 2027 06:45:49.041            53.849         26924.500
       361   12 Jun 2027 06:46:17.986   12 Jun 2027 06:46:23.269             5.283          1356.094
       362   12 Jun 2027 06:46:59.192   12 Jun 2027 06:46:59.573             0.381           190.500
       363   12 Jun 2027 06:47:48.975   12 Jun 2027 06:47:53.849             4.874          2246.219
       364   12 Jun 2027 08:18:56.225   12 Jun 2027 08:19:01.797             5.572          2391.094
       365   12 Jun 2027 08:20:38.655   12 Jun 2027 08:20:42.089             3.434          1579.156
       366   12 Jun 2027 08:20:56.503   12 Jun 2027 08:20:59.035             2.532           226.156
       367   12 Jun 2027 08:21:52.609   12 Jun 2027 08:22:01.784             9.175          1552.781
       368   12 Jun 2027 08:22:56.048   12 Jun 2027 08:23:03.835             7.787          1641.969
       369   12 Jun 2027 08:23:46.688   12 Jun 2027 08:23:53.674             6.986           756.250
       370   12 Jun 2027 08:25:32.075   12 Jun 2027 08:25:37.676             5.601          2667.906
       371   12 Jun 2027 08:26:12.040   12 Jun 2027 08:26:14.162             2.122          1027.344
       372   12 Jun 2027 08:26:50.088   12 Jun 2027 08:26:55.544             5.456           587.188
       373   12 Jun 2027 09:56:04.591   12 Jun 2027 09:56:14.375             9.784          4131.437
       374   12 Jun 2027 09:59:24.871   12 Jun 2027 09:59:26.343             1.472           378.562
       375   12 Jun 2027 10:00:24.370   12 Jun 2027 10:00:27.788             3.418          1245.469
       376   12 Jun 2027 10:01:10.926   12 Jun 2027 10:01:12.451             1.525           505.844
       377   12 Jun 2027 10:02:11.775   12 Jun 2027 10:02:15.404             3.629          1306.781
       378   12 Jun 2027 10:02:20.924   12 Jun 2027 10:02:23.833             2.909           172.500
       379   12 Jun 2027 11:33:02.778   12 Jun 2027 11:33:18.676            15.898          5401.094
       380   12 Jun 2027 11:34:32.702   12 Jun 2027 11:34:38.765             6.063           746.281
       381   12 Jun 2027 11:36:26.846   12 Jun 2027 11:36:27.359             0.513           184.937
       382   12 Jun 2027 11:36:32.280   12 Jun 2027 11:36:40.023             7.743           104.781
       383   12 Jun 2027 11:37:03.681   12 Jun 2027 11:37:07.526             3.845           739.313
       384   12 Jun 2027 11:38:19.529   12 Jun 2027 11:38:24.782             5.253          1961.031
       385   13 Jun 2027 03:57:31.062   13 Jun 2027 03:58:43.668            72.606         36303.000
       386   13 Jun 2027 03:59:19.857   13 Jun 2027 04:01:04.416           104.559         52279.500
       387   13 Jun 2027 05:20:34.504   13 Jun 2027 05:21:30.930            56.426         28213.000
       388   13 Jun 2027 06:57:01.287   13 Jun 2027 06:58:28.090            86.803         41407.281
       389   13 Jun 2027 06:58:49.019   13 Jun 2027 06:58:50.079             1.060            87.656
       390   13 Jun 2027 06:59:09.758   13 Jun 2027 06:59:10.981             1.223           562.031
       391   13 Jun 2027 06:59:48.395   13 Jun 2027 06:59:51.206             2.811          1149.875
       392   13 Jun 2027 08:32:09.958   13 Jun 2027 08:32:17.125             7.167          3444.375
       393   13 Jun 2027 08:32:48.008   13 Jun 2027 08:32:48.824             0.816           171.063
       394   13 Jun 2027 08:33:23.766   13 Jun 2027 08:33:24.334             0.568           217.688
       395   13 Jun 2027 08:34:34.402   13 Jun 2027 08:34:37.544             3.142          1257.469
       396   13 Jun 2027 08:35:49.412   13 Jun 2027 08:35:52.990             3.578           912.531
       397   13 Jun 2027 08:36:22.647   13 Jun 2027 08:36:25.632             2.985           778.125
       398   13 Jun 2027 08:38:09.205   13 Jun 2027 08:38:13.708             4.503           981.250
       399   13 Jun 2027 08:38:41.439   13 Jun 2027 08:38:42.867             1.428           522.000
       400   13 Jun 2027 08:38:51.538   13 Jun 2027 08:38:55.639             4.101           137.188
       401   13 Jun 2027 10:08:30.435   13 Jun 2027 10:08:39.558             9.123          4512.000
       402   13 Jun 2027 10:10:15.956   13 Jun 2027 10:10:19.408             3.452           952.281
       403   13 Jun 2027 10:10:46.803   13 Jun 2027 10:10:48.357             1.554           205.719
       404   13 Jun 2027 10:10:54.058   13 Jun 2027 10:10:55.571             1.513            51.125
       405   13 Jun 2027 10:11:21.564   13 Jun 2027 10:11:23.302             1.738           530.469
       406   13 Jun 2027 10:12:42.400   13 Jun 2027 10:12:48.049             5.649          1688.750
       407   13 Jun 2027 10:13:16.817   13 Jun 2027 10:13:19.837             3.020           817.188
       408   13 Jun 2027 10:14:01.508   13 Jun 2027 10:14:03.454             1.946           245.344
       409   13 Jun 2027 10:14:15.152   13 Jun 2027 10:14:19.195             4.043           365.562
       410   13 Jun 2027 10:14:36.108   13 Jun 2027 10:14:37.570             1.462           372.656
       411   13 Jun 2027 10:14:39.142   13 Jun 2027 10:14:40.808             1.666            27.094
       412   13 Jun 2027 11:46:04.489   13 Jun 2027 11:46:15.756            11.267          5075.906
       413   13 Jun 2027 11:48:07.756   13 Jun 2027 11:48:18.921            11.165          1216.875
       414   13 Jun 2027 11:48:39.853   13 Jun 2027 11:48:42.334             2.481           342.156
       415   13 Jun 2027 11:50:13.132   13 Jun 2027 11:50:21.313             8.181          1881.062
