uniorb/output/strategy_4/Camera/Camera_KinoSat_110810.txt

KinoSat_110810
-------------------------
    Access    *     Start Time (UTCG)     *     Stop Time (UTCG)  *   Duration (s) *   Data (Mbytes)
         1   01 Jun 2027 04:23:32.640   01 Jun 2027 04:25:09.504            96.864         48432.000
         2   01 Jun 2027 04:25:27.317   01 Jun 2027 04:25:34.934             7.617          3808.500
         3   01 Jun 2027 04:26:27.120   01 Jun 2027 04:26:28.654             1.534           767.000
         4   01 Jun 2027 05:57:01.952   01 Jun 2027 05:59:21.899           139.947         69973.500
         5   01 Jun 2027 06:00:02.960   01 Jun 2027 06:00:03.018             0.058            29.000
         6   01 Jun 2027 06:00:16.963   01 Jun 2027 06:00:30.055            13.092          6546.000
         7   01 Jun 2027 06:02:10.569   01 Jun 2027 06:02:12.813             2.244          1122.000
         8   01 Jun 2027 06:02:36.243   01 Jun 2027 06:02:38.798             2.555          1277.500
         9   01 Jun 2027 06:03:26.780   01 Jun 2027 06:03:33.097             6.317          3158.500
        10   01 Jun 2027 06:04:27.521   01 Jun 2027 06:04:30.977             3.456          1728.000
        11   01 Jun 2027 06:05:15.318   01 Jun 2027 06:05:18.531             3.213          1606.500
        12   01 Jun 2027 06:05:25.943   01 Jun 2027 06:05:29.791             3.848          1924.000
        13   01 Jun 2027 06:05:32.445   01 Jun 2027 06:05:34.245             1.800           900.000
        14   01 Jun 2027 07:34:33.964   01 Jun 2027 07:36:53.168           139.204         69602.000
        15   01 Jun 2027 07:38:08.875   01 Jun 2027 07:38:18.255             9.380          4690.000
        16   01 Jun 2027 07:38:28.861   01 Jun 2027 07:38:46.299            17.438          8719.000
        17   01 Jun 2027 09:11:30.273   01 Jun 2027 09:14:09.030           158.757         79378.500
        18   01 Jun 2027 09:14:47.442   01 Jun 2027 09:15:08.923            21.481         10740.500
        19   01 Jun 2027 09:15:48.770   01 Jun 2027 09:15:50.183             1.413           706.500
        20   01 Jun 2027 10:48:20.909   01 Jun 2027 10:51:13.015           172.106         86053.000
        21   02 Jun 2027 03:00:00.000   02 Jun 2027 03:00:18.807            18.807          9403.500
        22   02 Jun 2027 04:35:34.217   02 Jun 2027 04:36:18.478            44.261         22130.500
        23   02 Jun 2027 04:36:27.735   02 Jun 2027 04:36:40.673            12.938          6469.000
        24   02 Jun 2027 04:37:06.469   02 Jun 2027 04:38:24.308            77.839         38919.500
        25   02 Jun 2027 04:38:49.268   02 Jun 2027 04:39:08.769            19.501          9750.500
        26   02 Jun 2027 06:09:41.529   02 Jun 2027 06:12:55.437           193.908         96954.000
        27   02 Jun 2027 06:13:22.737   02 Jun 2027 06:13:31.282             8.545          4272.500
        28   02 Jun 2027 06:16:08.550   02 Jun 2027 06:16:21.294            12.744          6372.000
        29   02 Jun 2027 06:17:22.802   02 Jun 2027 06:17:27.118             4.316          2158.000
        30   02 Jun 2027 07:46:40.015   02 Jun 2027 07:50:17.779           217.764        108882.000
        31   02 Jun 2027 09:24:19.235   02 Jun 2027 09:25:46.547            87.312         39704.875
        32   02 Jun 2027 09:26:20.954   02 Jun 2027 09:26:22.410             1.456           682.813
        33   02 Jun 2027 09:28:43.277   02 Jun 2027 09:28:45.646             2.369           900.937
        34   02 Jun 2027 11:00:23.967   02 Jun 2027 11:00:36.976            13.009          6308.219
        35   02 Jun 2027 11:04:15.159   02 Jun 2027 11:04:16.813             1.654           589.188
        36   02 Jun 2027 11:05:01.344   02 Jun 2027 11:05:03.284             1.940           759.781
        37   03 Jun 2027 03:11:13.449   03 Jun 2027 03:11:24.130            10.681          5340.500
        38   03 Jun 2027 03:14:10.975   03 Jun 2027 03:14:14.276             3.301          1650.500
        39   03 Jun 2027 04:47:44.026   03 Jun 2027 04:51:19.038           215.012        107506.000
        40   03 Jun 2027 06:22:54.068   03 Jun 2027 06:23:59.770            65.702         32792.156
        41   03 Jun 2027 06:25:04.644   03 Jun 2027 06:25:07.470             2.826          1397.656
        42   03 Jun 2027 06:25:34.368   03 Jun 2027 06:25:37.877             3.509            54.938
        43   03 Jun 2027 06:25:40.902   03 Jun 2027 06:25:44.517             3.615            33.813
        44   03 Jun 2027 06:27:27.933   03 Jun 2027 06:27:33.764             5.831          2460.500
        45   03 Jun 2027 06:28:42.834   03 Jun 2027 06:28:47.548             4.714          1924.562
        46   03 Jun 2027 06:29:01.997   03 Jun 2027 06:29:05.248             3.251           185.313
        47   03 Jun 2027 07:59:16.100   03 Jun 2027 07:59:18.934             2.834          1054.844
        48   03 Jun 2027 08:00:25.284   03 Jun 2027 08:00:28.714             3.430           591.250
        49   03 Jun 2027 08:01:56.516   03 Jun 2027 08:01:59.458             2.942           704.906
        50   03 Jun 2027 08:02:44.732   03 Jun 2027 08:02:46.596             1.864           585.656
        51   03 Jun 2027 08:04:02.856   03 Jun 2027 08:04:07.448             4.592          1809.906
        52   03 Jun 2027 08:04:36.981   03 Jun 2027 08:04:39.141             2.160           554.188
        53   03 Jun 2027 08:05:07.867   03 Jun 2027 08:05:10.116             2.249           706.875
        54   03 Jun 2027 09:36:33.720   03 Jun 2027 09:36:53.545            19.825          6211.719
        55   03 Jun 2027 09:40:40.646   03 Jun 2027 09:40:44.469             3.823           399.687
        56   03 Jun 2027 09:40:53.295   03 Jun 2027 09:40:57.261             3.966           236.406
        57   03 Jun 2027 11:12:46.142   03 Jun 2027 11:13:01.455            15.313          6994.000
        58   03 Jun 2027 11:16:59.590   03 Jun 2027 11:17:02.445             2.855           675.250
        59   04 Jun 2027 03:23:53.254   04 Jun 2027 03:23:58.003             4.749          2374.500
        60   04 Jun 2027 03:26:11.407   04 Jun 2027 03:26:15.523             4.116          2058.000
        61   04 Jun 2027 04:59:38.910   04 Jun 2027 05:00:16.158            37.248         18624.000
        62   04 Jun 2027 05:00:50.525   04 Jun 2027 05:03:18.324           147.799         73899.500
        63   04 Jun 2027 06:34:36.315   04 Jun 2027 06:36:11.448            95.133         47453.688
        64   04 Jun 2027 06:37:18.488   04 Jun 2027 06:37:22.233             3.745          1512.187
        65   04 Jun 2027 06:37:42.180   04 Jun 2027 06:37:43.747             1.567           359.219
        66   04 Jun 2027 06:38:08.862   04 Jun 2027 06:38:08.862             0.000             0.000
        67   04 Jun 2027 06:39:27.937   04 Jun 2027 06:39:37.222             9.285          3245.250
        68   04 Jun 2027 06:40:34.229   04 Jun 2027 06:40:37.737             3.508          1560.812
        69   04 Jun 2027 06:40:53.039   04 Jun 2027 06:40:56.010             2.971           402.625
        70   04 Jun 2027 06:41:12.667   04 Jun 2027 06:41:14.527             1.860           371.937
        71   04 Jun 2027 08:10:48.793   04 Jun 2027 08:10:55.810             7.017          1872.000
        72   04 Jun 2027 08:12:30.997   04 Jun 2027 08:12:33.394             2.397           884.219
        73   04 Jun 2027 08:13:20.121   04 Jun 2027 08:13:23.694             3.573          1272.500
        74   04 Jun 2027 08:13:35.590   04 Jun 2027 08:13:43.933             8.343           291.625
        75   04 Jun 2027 08:15:10.125   04 Jun 2027 08:15:13.095             2.970          1098.938
        76   04 Jun 2027 08:15:51.972   04 Jun 2027 08:15:54.459             2.487          1080.656
        77   04 Jun 2027 08:16:19.603   04 Jun 2027 08:16:23.611             4.008           128.781
        78   04 Jun 2027 09:48:49.958   04 Jun 2027 09:49:03.517            13.559          5788.406
        79   04 Jun 2027 09:49:41.606   04 Jun 2027 09:49:44.235             2.629            56.156
        80   04 Jun 2027 09:52:34.129   04 Jun 2027 09:52:36.117             1.988           498.281
        81   04 Jun 2027 11:24:29.825   04 Jun 2027 11:24:41.816            11.991          4998.625
        82   04 Jun 2027 11:26:21.526   04 Jun 2027 11:26:24.270             2.744           176.000
        83   04 Jun 2027 11:26:53.709   04 Jun 2027 11:27:01.515             7.806           649.469
        84   05 Jun 2027 03:34:42.563   05 Jun 2027 03:34:51.676             9.113          4556.500
        85   05 Jun 2027 03:36:36.239   05 Jun 2027 03:36:39.166             2.927          1463.500
        86   05 Jun 2027 03:38:12.141   05 Jun 2027 03:38:16.644             4.503          2251.500
        87   05 Jun 2027 05:10:14.942   05 Jun 2027 05:10:21.817             6.875          3437.500
        88   05 Jun 2027 05:11:24.698   05 Jun 2027 05:12:47.151            82.453         41226.500
        89   05 Jun 2027 05:13:28.130   05 Jun 2027 05:15:35.166           127.036         63518.000
        90   05 Jun 2027 06:46:10.009   05 Jun 2027 06:47:21.392            71.383         34976.126
        91   05 Jun 2027 06:47:57.996   05 Jun 2027 06:48:00.363             2.367           534.438
        92   05 Jun 2027 06:50:10.987   05 Jun 2027 06:50:12.549             1.562           737.781
        93   05 Jun 2027 06:51:47.220   05 Jun 2027 06:51:49.651             2.431          1181.906
        94   05 Jun 2027 06:52:27.792   05 Jun 2027 06:52:33.668             5.876           423.031
        95   05 Jun 2027 08:23:10.237   05 Jun 2027 08:23:13.252             3.015          1434.000
        96   05 Jun 2027 08:24:19.962   05 Jun 2027 08:24:23.004             3.042           703.063
        97   05 Jun 2027 08:25:13.458   05 Jun 2027 08:25:16.293             2.835           842.563
        98   05 Jun 2027 08:25:59.745   05 Jun 2027 08:26:01.952             2.207           730.094
        99   05 Jun 2027 08:26:16.022   05 Jun 2027 08:26:17.384             1.362           439.688
       100   05 Jun 2027 08:27:28.109   05 Jun 2027 08:27:29.505             1.396           424.687
       101   05 Jun 2027 08:28:26.619   05 Jun 2027 08:28:28.053             1.434           649.312
       102   05 Jun 2027 10:01:11.466   05 Jun 2027 10:01:25.799            14.333          6709.531
       103   05 Jun 2027 10:02:20.899   05 Jun 2027 10:02:27.543             6.644           744.906
       104   05 Jun 2027 10:03:46.238   05 Jun 2027 10:03:52.414             6.176          1343.125
       105   05 Jun 2027 10:04:25.468   05 Jun 2027 10:04:30.944             5.476           244.844
       106   05 Jun 2027 10:04:46.539   05 Jun 2027 10:04:48.210             1.671           362.625
       107   05 Jun 2027 10:04:57.075   05 Jun 2027 10:04:57.359             0.284            85.688
       108   05 Jun 2027 11:34:25.637   05 Jun 2027 11:34:38.779            13.142          5898.625
       109   06 Jun 2027 03:45:58.808   06 Jun 2027 03:46:19.130            20.322         10161.000
       110   06 Jun 2027 05:21:06.689   06 Jun 2027 05:22:39.913            93.224         46612.000
       111   06 Jun 2027 05:23:08.018   06 Jun 2027 05:23:55.828            47.810         23905.000
       112   06 Jun 2027 05:24:46.903   06 Jun 2027 05:25:46.957            60.054         30027.000
       113   06 Jun 2027 05:26:28.236   06 Jun 2027 05:26:28.236             0.000             0.000
       114   06 Jun 2027 05:27:00.734   06 Jun 2027 05:27:15.706            14.972          7486.000
       115   06 Jun 2027 05:29:02.888   06 Jun 2027 05:29:10.825             7.937          3968.500
       116   06 Jun 2027 06:58:18.321   06 Jun 2027 06:59:36.159            77.838         38641.469
       117   06 Jun 2027 07:00:01.125   06 Jun 2027 07:00:05.601             4.476           622.969
       118   06 Jun 2027 07:00:59.302   06 Jun 2027 07:01:01.360             2.058            64.875
       119   06 Jun 2027 07:01:18.915   06 Jun 2027 07:01:20.382             1.467           362.406
       120   06 Jun 2027 07:03:26.091   06 Jun 2027 07:03:31.513             5.422          2201.500
       121   06 Jun 2027 07:03:56.210   06 Jun 2027 07:04:02.443             6.233           193.438
       122   06 Jun 2027 07:04:45.649   06 Jun 2027 07:04:47.754             2.105           704.812
       123   06 Jun 2027 07:05:32.807   06 Jun 2027 07:05:36.254             3.447          1271.344
       124   06 Jun 2027 08:35:15.684   06 Jun 2027 08:35:22.682             6.998          3383.750
       125   06 Jun 2027 08:38:22.266   06 Jun 2027 08:38:31.002             8.736          1438.062
       126   06 Jun 2027 08:39:05.464   06 Jun 2027 08:39:06.064             0.600            42.969
       127   06 Jun 2027 08:39:18.159   06 Jun 2027 08:39:20.426             2.267           332.594
       128   06 Jun 2027 08:39:56.419   06 Jun 2027 08:40:01.016             4.597          1067.125
       129   06 Jun 2027 08:40:30.385   06 Jun 2027 08:40:32.218             1.833            17.938
       130   06 Jun 2027 10:13:08.679   06 Jun 2027 10:13:23.613            14.934          6803.469
       131   06 Jun 2027 10:14:27.840   06 Jun 2027 10:14:31.374             3.534          1233.688
       132   06 Jun 2027 10:16:53.563   06 Jun 2027 10:16:55.561             1.998           953.625
       133   06 Jun 2027 11:46:36.792   06 Jun 2027 11:46:40.831             4.039          1013.125
       134   07 Jun 2027 03:57:43.851   07 Jun 2027 03:57:52.764             8.913          4456.500
       135   07 Jun 2027 03:59:01.865   07 Jun 2027 03:59:03.866             2.001          1000.500
       136   07 Jun 2027 03:59:47.050   07 Jun 2027 03:59:53.703             6.653          3326.500
       137   07 Jun 2027 04:02:44.308   07 Jun 2027 04:02:48.016             3.708          1854.000
       138   07 Jun 2027 05:32:36.342   07 Jun 2027 05:36:00.767           204.425        102212.500
       139   07 Jun 2027 05:36:30.767   07 Jun 2027 05:36:49.872            19.105          9552.500
       140   07 Jun 2027 05:37:33.423   07 Jun 2027 05:37:45.274            11.851          5925.500
       141   07 Jun 2027 07:10:19.770   07 Jun 2027 07:11:34.133            74.363         36471.313
       142   07 Jun 2027 07:12:04.157   07 Jun 2027 07:12:05.662             1.505           725.219
       143   07 Jun 2027 07:13:09.945   07 Jun 2027 07:13:11.413             1.468           656.719
       144   07 Jun 2027 07:13:46.114   07 Jun 2027 07:13:46.114             0.000             0.000
       145   07 Jun 2027 07:13:54.094   07 Jun 2027 07:13:56.306             2.212          1105.875
       146   07 Jun 2027 07:14:25.612   07 Jun 2027 07:14:27.481             1.869           269.719
       147   07 Jun 2027 07:15:08.287   07 Jun 2027 07:15:11.157             2.870           553.062
       148   07 Jun 2027 07:15:52.659   07 Jun 2027 07:15:55.059             2.400           390.406
       149   07 Jun 2027 07:16:23.454   07 Jun 2027 07:16:24.996             1.542            85.094
       150   07 Jun 2027 07:17:16.136   07 Jun 2027 07:17:19.639             3.503          1232.656
       151   07 Jun 2027 07:17:42.177   07 Jun 2027 07:17:45.316             3.139           663.156
       152   07 Jun 2027 08:47:07.921   07 Jun 2027 08:47:21.251            13.330          4828.031
       153   07 Jun 2027 08:50:06.669   07 Jun 2027 08:50:13.263             6.594           986.531
       154   07 Jun 2027 08:51:24.866   07 Jun 2027 08:51:26.249             1.383           119.906
       155   07 Jun 2027 08:52:03.716   07 Jun 2027 08:52:07.947             4.231           127.469
       156   07 Jun 2027 08:52:38.622   07 Jun 2027 08:52:42.736             4.114           186.750
       157   07 Jun 2027 08:53:25.941   07 Jun 2027 08:53:29.806             3.865           560.031
       158   07 Jun 2027 10:25:10.263   07 Jun 2027 10:25:26.784            16.521          6708.344
       159   07 Jun 2027 10:25:40.595   07 Jun 2027 10:25:43.308             2.713           288.000
       160   07 Jun 2027 10:26:52.278   07 Jun 2027 10:26:59.608             7.330          2125.906
       161   07 Jun 2027 10:28:15.796   07 Jun 2027 10:28:18.092             2.296           723.688
       162   07 Jun 2027 10:28:40.691   07 Jun 2027 10:28:41.782             1.091           493.344
       163   07 Jun 2027 10:28:50.339   07 Jun 2027 10:28:53.204             2.865           267.406
       164   07 Jun 2027 10:29:16.737   07 Jun 2027 10:29:17.646             0.909           133.437
       165   07 Jun 2027 11:59:02.238   07 Jun 2027 11:59:10.709             8.471           473.906
       166   08 Jun 2027 04:11:30.623   08 Jun 2027 04:12:06.284            35.661         17830.500
       167   08 Jun 2027 04:12:46.049   08 Jun 2027 04:12:46.921             0.872           436.000
       168   08 Jun 2027 04:13:41.056   08 Jun 2027 04:14:01.123            20.067         10033.500
       169   08 Jun 2027 05:45:20.232   08 Jun 2027 05:48:11.467           171.235         85617.500
       170   08 Jun 2027 05:48:47.340   08 Jun 2027 05:48:56.171             8.831          4415.500
       171   08 Jun 2027 05:49:11.202   08 Jun 2027 05:49:22.942            11.740          5870.000
       172   08 Jun 2027 05:53:36.348   08 Jun 2027 05:53:36.348             0.000             0.000
       173   08 Jun 2027 05:53:44.470   08 Jun 2027 05:53:49.835             5.365          2682.500
       174   08 Jun 2027 07:22:23.066   08 Jun 2027 07:23:46.848            83.782         41330.906
       175   08 Jun 2027 07:24:43.525   08 Jun 2027 07:24:47.354             3.829          1139.531
       176   08 Jun 2027 07:25:49.034   08 Jun 2027 07:25:52.923             3.889          1597.563
       177   08 Jun 2027 07:26:31.709   08 Jun 2027 07:26:32.978             1.269           634.500
       178   08 Jun 2027 07:27:20.926   08 Jun 2027 07:27:24.802             3.876          1934.500
       179   08 Jun 2027 07:27:48.440   08 Jun 2027 07:27:50.293             1.853           695.625
       180   08 Jun 2027 07:28:33.592   08 Jun 2027 07:28:35.772             2.180           623.031
       181   08 Jun 2027 08:59:17.960   08 Jun 2027 08:59:28.113            10.153          4714.656
       182   08 Jun 2027 09:01:17.777   08 Jun 2027 09:01:20.141             2.364             7.875
       183   08 Jun 2027 09:02:43.919   08 Jun 2027 09:02:45.690             1.771           767.344
       184   08 Jun 2027 09:03:23.116   08 Jun 2027 09:03:25.256             2.140           928.719
       185   08 Jun 2027 09:03:35.245   08 Jun 2027 09:03:39.087             3.842           229.250
       186   08 Jun 2027 09:04:06.201   08 Jun 2027 09:04:09.082             2.881           493.938
       187   08 Jun 2027 09:04:43.765   08 Jun 2027 09:04:49.110             5.345          1000.281
       188   08 Jun 2027 09:05:19.162   08 Jun 2027 09:05:21.400             2.238           180.562
       189   08 Jun 2027 10:36:23.892   08 Jun 2027 10:36:37.388            13.496          5641.469
       190   08 Jun 2027 10:40:48.682   08 Jun 2027 10:40:53.220             4.538          1808.156
       191   09 Jun 2027 04:23:47.733   09 Jun 2027 04:25:43.784           116.051         58025.500
       192   09 Jun 2027 05:57:17.421   09 Jun 2027 05:58:53.226            95.805         47902.500
       193   09 Jun 2027 05:59:35.785   09 Jun 2027 06:00:34.268            58.483         29241.500
       194   09 Jun 2027 06:00:59.700   09 Jun 2027 06:01:01.093             1.393           696.500
       195   09 Jun 2027 06:03:42.422   09 Jun 2027 06:04:04.293            21.871         10935.500
       196   09 Jun 2027 06:04:21.189   09 Jun 2027 06:04:31.766            10.577          5288.500
       197   09 Jun 2027 06:05:38.762   09 Jun 2027 06:05:49.075            10.313          5156.500
       198   09 Jun 2027 07:34:48.793   09 Jun 2027 07:35:00.398            11.605          5641.000
       199   09 Jun 2027 07:40:30.309   09 Jun 2027 07:40:32.695             2.386            24.938
       200   09 Jun 2027 07:40:49.028   09 Jun 2027 07:40:50.815             1.787           209.125
       201   09 Jun 2027 09:11:45.276   09 Jun 2027 09:11:57.208            11.932          5518.156
       202   09 Jun 2027 09:15:14.653   09 Jun 2027 09:15:21.180             6.527          1421.937
       203   09 Jun 2027 09:16:08.479   09 Jun 2027 09:16:10.481             2.002          1001.000
       204   09 Jun 2027 09:16:16.772   09 Jun 2027 09:16:20.258             3.486           376.875
       205   09 Jun 2027 10:48:36.024   09 Jun 2027 10:48:52.567            16.543          7884.094
       206   09 Jun 2027 10:51:00.888   09 Jun 2027 10:51:02.157             1.269           228.125
       207   10 Jun 2027 03:00:00.000   10 Jun 2027 03:00:01.851             1.851           925.500
       208   10 Jun 2027 03:00:09.725   10 Jun 2027 03:00:13.249             3.524          1762.000
       209   10 Jun 2027 03:00:42.067   10 Jun 2027 03:00:42.067             0.000             0.000
       210   10 Jun 2027 03:01:17.713   10 Jun 2027 03:01:30.440            12.727          6363.500
       211   10 Jun 2027 04:35:49.786   10 Jun 2027 04:36:40.394            50.608         25304.000
       212   10 Jun 2027 04:36:55.670   10 Jun 2027 04:37:20.967            25.297         12648.500
       213   10 Jun 2027 06:09:56.876   10 Jun 2027 06:13:22.725           205.849        101673.625
       214   10 Jun 2027 06:14:04.482   10 Jun 2027 06:14:04.482             0.000             0.000
       215   10 Jun 2027 06:14:27.714   10 Jun 2027 06:14:32.220             4.506          1118.688
       216   10 Jun 2027 06:15:22.595   10 Jun 2027 06:15:29.081             6.486          1574.219
       217   10 Jun 2027 06:16:45.868   10 Jun 2027 06:16:50.926             5.058          1898.062
       218   10 Jun 2027 06:17:32.915   10 Jun 2027 06:17:35.111             2.196          1098.000
       219   10 Jun 2027 06:17:40.978   10 Jun 2027 06:17:41.789             0.811           292.406
       220   10 Jun 2027 07:46:55.098   10 Jun 2027 07:46:56.963             1.865            71.844
       221   10 Jun 2027 07:49:57.819   10 Jun 2027 07:50:03.025             5.206           543.781
       222   10 Jun 2027 07:51:02.915   10 Jun 2027 07:51:04.592             1.677           101.500
       223   10 Jun 2027 07:52:51.047   10 Jun 2027 07:52:57.253             6.206          1014.656
       224   10 Jun 2027 09:24:35.623   10 Jun 2027 09:24:46.316            10.693          5267.781
       225   10 Jun 2027 09:26:37.696   10 Jun 2027 09:26:41.117             3.421           736.094
       226   10 Jun 2027 09:28:30.067   10 Jun 2027 09:28:35.691             5.624          2040.688
       227   10 Jun 2027 11:00:38.519   10 Jun 2027 11:00:53.572            15.053          7200.094
       228   11 Jun 2027 03:11:28.216   11 Jun 2027 03:11:39.133            10.917          5458.500
       229   11 Jun 2027 03:14:27.285   11 Jun 2027 03:14:34.051             6.766          3383.000
       230   11 Jun 2027 04:47:59.031   11 Jun 2027 04:51:33.665           214.634        107317.000
       231   11 Jun 2027 06:23:08.966   11 Jun 2027 06:24:14.249            65.283         32401.094
       232   11 Jun 2027 06:25:48.455   11 Jun 2027 06:25:52.457             4.002           886.219
       233   11 Jun 2027 06:25:58.906   11 Jun 2027 06:25:58.906             0.000             0.000
       234   11 Jun 2027 06:26:25.109   11 Jun 2027 06:26:26.995             1.886           902.344
       235   11 Jun 2027 06:27:43.372   11 Jun 2027 06:27:49.000             5.628          2190.531
       236   11 Jun 2027 06:28:58.473   11 Jun 2027 06:29:02.303             3.830          1878.812
       237   11 Jun 2027 06:29:17.456   11 Jun 2027 06:29:21.950             4.494           181.937
       238   11 Jun 2027 07:59:31.169   11 Jun 2027 07:59:33.593             2.424           831.687
       239   11 Jun 2027 08:02:40.956   11 Jun 2027 08:02:48.395             7.439           944.781
       240   11 Jun 2027 08:03:20.569   11 Jun 2027 08:03:22.721             2.152           650.438
       241   11 Jun 2027 08:04:20.831   11 Jun 2027 08:04:22.393             1.562           107.719
       242   11 Jun 2027 08:04:53.456   11 Jun 2027 08:04:54.871             1.415           611.375
       243   11 Jun 2027 08:05:22.444   11 Jun 2027 08:05:24.876             2.432           712.000
       244   11 Jun 2027 09:36:47.769   11 Jun 2027 09:36:59.471            11.702          5374.437
       245   11 Jun 2027 09:40:14.110   11 Jun 2027 09:40:20.045             5.935          1560.437
       246   11 Jun 2027 09:40:56.201   11 Jun 2027 09:40:58.539             2.338          1074.125
       247   11 Jun 2027 09:41:08.334   11 Jun 2027 09:41:14.299             5.965           235.156
       248   11 Jun 2027 11:13:01.207   11 Jun 2027 11:13:17.055            15.848          6968.844
       249   12 Jun 2027 03:24:08.084   12 Jun 2027 03:24:13.056             4.972          2486.000
       250   12 Jun 2027 03:26:27.731   12 Jun 2027 03:26:30.545             2.814          1407.000
       251   12 Jun 2027 04:59:53.565   12 Jun 2027 05:00:30.365            36.800         18400.000
       252   12 Jun 2027 05:01:05.102   12 Jun 2027 05:03:49.021           163.919         81959.500
       253   12 Jun 2027 06:34:50.937   12 Jun 2027 06:36:11.633            80.696         39914.344
       254   12 Jun 2027 06:36:20.877   12 Jun 2027 06:36:21.491             0.614           270.406
       255   12 Jun 2027 06:37:34.475   12 Jun 2027 06:37:37.982             3.507          1517.594
       256   12 Jun 2027 06:37:58.580   12 Jun 2027 06:37:59.794             1.214           406.406
       257   12 Jun 2027 06:38:24.885   12 Jun 2027 06:38:27.143             2.258           784.094
       258   12 Jun 2027 06:40:01.376   12 Jun 2027 06:40:02.559             1.183           563.156
       259   12 Jun 2027 06:41:16.492   12 Jun 2027 06:41:18.165             1.673           829.562
       260   12 Jun 2027 08:11:03.478   12 Jun 2027 08:11:11.061             7.583          1847.063
       261   12 Jun 2027 08:12:46.025   12 Jun 2027 08:12:49.404             3.379           896.156
       262   12 Jun 2027 08:13:50.615   12 Jun 2027 08:13:51.399             0.784           139.688
       263   12 Jun 2027 08:15:25.724   12 Jun 2027 08:15:28.212             2.488          1116.688
       264   12 Jun 2027 08:16:06.778   12 Jun 2027 08:16:09.593             2.815          1071.406
       265   12 Jun 2027 08:16:35.302   12 Jun 2027 08:16:38.246             2.944           166.031
       266   12 Jun 2027 09:49:14.912   12 Jun 2027 09:49:30.901            15.989          7360.188
       267   12 Jun 2027 09:49:56.593   12 Jun 2027 09:50:00.120             3.527            49.188
       268   12 Jun 2027 09:50:34.902   12 Jun 2027 09:50:38.065             3.163           531.219
       269   12 Jun 2027 09:52:33.285   12 Jun 2027 09:52:35.481             2.196             1.406
       270   12 Jun 2027 09:53:07.354   12 Jun 2027 09:53:10.065             2.711           996.031
       271   12 Jun 2027 11:24:44.333   12 Jun 2027 11:24:56.015            11.682          4750.531
       272   12 Jun 2027 11:29:20.141   12 Jun 2027 11:29:22.952             2.811           277.719
       273   13 Jun 2027 03:34:56.878   13 Jun 2027 03:35:06.694             9.816          4908.000
       274   13 Jun 2027 03:36:13.928   13 Jun 2027 03:36:24.088            10.160          5080.000
       275   13 Jun 2027 03:38:31.659   13 Jun 2027 03:38:50.871            19.212          9606.000
       276   13 Jun 2027 05:10:29.357   13 Jun 2027 05:10:37.236             7.879          3939.500
       277   13 Jun 2027 05:11:39.485   13 Jun 2027 05:13:01.767            82.282         41141.000
       278   13 Jun 2027 05:13:43.330   13 Jun 2027 05:14:53.302            69.972         34986.000
       279   13 Jun 2027 05:15:49.595   13 Jun 2027 05:16:07.059            17.464          8732.000
       280   13 Jun 2027 06:46:24.555   13 Jun 2027 06:48:04.517            99.962         48319.093
       281   13 Jun 2027 06:48:49.659   13 Jun 2027 06:48:53.605             3.946          1070.094
       282   13 Jun 2027 06:49:40.507   13 Jun 2027 06:49:40.960             0.453           156.094
       283   13 Jun 2027 06:50:05.389   13 Jun 2027 06:50:07.464             2.075           146.406
       284   13 Jun 2027 06:51:25.352   13 Jun 2027 06:51:31.208             5.856          1819.625
       285   13 Jun 2027 06:52:04.301   13 Jun 2027 06:52:06.922             2.621           673.469
       286   13 Jun 2027 06:52:44.015   13 Jun 2027 06:52:45.733             1.718           433.844
       287   13 Jun 2027 08:23:25.244   13 Jun 2027 08:23:29.570             4.326          1463.156
       288   13 Jun 2027 08:26:18.465   13 Jun 2027 08:26:22.550             4.085           846.250
       289   13 Jun 2027 08:27:43.069   13 Jun 2027 08:27:44.013             0.944           405.563
       290   13 Jun 2027 08:28:41.151   13 Jun 2027 08:28:42.076             0.925            37.281
       291   13 Jun 2027 08:28:56.319   13 Jun 2027 08:28:57.515             1.196           315.062
       292   13 Jun 2027 10:01:25.975   13 Jun 2027 10:01:38.759            12.784          6136.281
       293   13 Jun 2027 10:02:36.299   13 Jun 2027 10:02:41.647             5.348           717.344
       294   13 Jun 2027 10:03:18.237   13 Jun 2027 10:03:19.576             1.339           625.062
       295   13 Jun 2027 10:04:32.916   13 Jun 2027 10:04:35.464             2.548           958.781
       296   13 Jun 2027 10:05:11.438   13 Jun 2027 10:05:13.935             2.497          1073.781
       297   13 Jun 2027 11:34:39.880   13 Jun 2027 11:34:50.589            10.709          5339.031
